     3.04           OBSERVATION DATA    M                   RINEX VERSION / TYPE
ssrcrin-15.6.1x                         20250101 204500 UTC PGM / RUN BY / DATE 
(00000000023479385599111004) Septentrio proprietary         COMMENT             
rref                                                        MARKER NAME         
01                                                          MARKER NUMBER       
geodetic                                                    MARKER TYPE         
NFB                 CLIMERS@TUW                             OBSERVER / AGENCY   
3297213             SEPT ASTERX SB3 PROB4.14.4              REC # / TYPE / VERS 
Unknown             Unknown                                 ANT # / TYPE        
  4127831.4499  1207193.4341  4695247.6811                  APPROX POSITION XYZ 
        0.0000        0.0000        0.0000                  ANTENNA: DELTA H/E/N
G   23 X1  C1C L1C D1C S1C C1W S1W C2W L2W D2W S2W C2L L2L  SYS / # / OBS TYPES 
       D2L S2L C5Q L5Q D5Q S5Q C1L L1L D1L S1L              SYS / # / OBS TYPES 
E   21 X1  C1C L1C D1C S1C C6C L6C D6C S6C C5Q L5Q D5Q S5Q  SYS / # / OBS TYPES 
       C7Q L7Q D7Q S7Q C8Q L8Q D8Q S8Q                      SYS / # / OBS TYPES 
S    9 X1  C1C L1C D1C S1C C5I L5I D5I S5I                  SYS / # / OBS TYPES 
R   17 X1  C1C L1C D1C S1C C2P L2P D2P S2P C2C L2C D2C S2C  SYS / # / OBS TYPES 
       C3Q L3Q D3Q S3Q                                      SYS / # / OBS TYPES 
C   25 X1  C1P L1P D1P S1P C5P L5P D5P S5P C2I L2I D2I S2I  SYS / # / OBS TYPES 
       C7I L7I D7I S7I C6I L6I D6I S6I C7D L7D D7D S7D      SYS / # / OBS TYPES 
J   17 X1  C1C L1C D1C S1C C2L L2L D2L S2L C5Q L5Q D5Q S5Q  SYS / # / OBS TYPES 
       C1L L1L D1L S1L                                      SYS / # / OBS TYPES 
I    5 X1  C5A L5A D5A S5A                                  SYS / # / OBS TYPES 
SEPTENTRIO RECEIVERS OUTPUT ALIGNED CARRIER PHASES.         COMMENT             
NO FURTHER PHASE SHIFT APPLIED IN THE RINEX ENCODER.        COMMENT             
G L1C                                                       SYS / PHASE SHIFT   
G L2W                                                       SYS / PHASE SHIFT   
G L2L  0.00000                                              SYS / PHASE SHIFT   
G L5Q  0.00000                                              SYS / PHASE SHIFT   
G L1L  0.00000                                              SYS / PHASE SHIFT   
E L1C  0.00000                                              SYS / PHASE SHIFT   
E L6C  0.00000                                              SYS / PHASE SHIFT   
E L5Q  0.00000                                              SYS / PHASE SHIFT   
E L7Q  0.00000                                              SYS / PHASE SHIFT   
E L8Q  0.00000                                              SYS / PHASE SHIFT   
S L1C                                                       SYS / PHASE SHIFT   
S L5I                                                       SYS / PHASE SHIFT   
R L1C                                                       SYS / PHASE SHIFT   
R L2P  0.00000                                              SYS / PHASE SHIFT   
R L2C                                                       SYS / PHASE SHIFT   
R L3Q  0.00000                                              SYS / PHASE SHIFT   
C L1P  0.00000                                              SYS / PHASE SHIFT   
C L5P  0.00000                                              SYS / PHASE SHIFT   
C L2I                                                       SYS / PHASE SHIFT   
C L7I                                                       SYS / PHASE SHIFT   
C L6I                                                       SYS / PHASE SHIFT   
C L7D                                                       SYS / PHASE SHIFT   
J L1C                                                       SYS / PHASE SHIFT   
J L2L  0.00000                                              SYS / PHASE SHIFT   
J L5Q  0.00000                                              SYS / PHASE SHIFT   
J L1L  0.00000                                              SYS / PHASE SHIFT   
I L5A                                                       SYS / PHASE SHIFT   
  2025     1     1    20    45    0.0000000     GPS         TIME OF FIRST OBS   
 C1C    0.000 C2C    0.000 C2P    0.000                     GLONASS COD/PHS/BIS 
DBHZ                                                        SIGNAL STRENGTH UNIT
    18                                                      LEAP SECONDS        
 24 R01  1 R02 -4 R03  5 R04  6 R05  1 R06 -4 R07  5 R08  6 GLONASS SLOT / FRQ #
    R09 -2 R10 -7 R11  0 R12 -1 R13 -2 R14 -7 R15  0 R16 -1 GLONASS SLOT / FRQ #
    R17  4 R18 -3 R19  3 R20  2 R21  4 R22 -3 R23  3 R24  2 GLONASS SLOT / FRQ #
                                                            END OF HEADER       
> 2025 01 01 20 45  0.0000000  0 55
G10         1.000    20682778.431 8 108688836.09208       -99.552 8        51.405                                    20682776.326 8  84692661.79908       -77.573 8        52.567    20682775.913 7  84692638.80907       -77.653 7        45.896
G15         2.000    24449864.616 6 128484913.15806     -2868.385 6        36.026                                    24449862.324 4 100118102.07004     -2235.099 4        27.461    24449861.967 5 100118105.05305     -2235.076 5        34.514
C33         3.000                                                                                                                                    22942767.667 8 119469038.51108       970.113 8        48.960                                                                    22942779.151 8  97078438.77408       788.243 8        48.871
E31         4.000    26783273.869 6 140747089.05206      1482.290 6        40.274                                                                    26783274.631 7 105103355.17607      1106.933 7        43.407    26783274.057 7 107845178.69007      1135.746 7        44.090
S21         5.000    38390454.538 6 201742931.88306      -516.735 6        41.788
E13         6.000    24069775.208 7 126487871.16107     -1944.588 7        46.552                                                                    24069775.227 8  94455436.30408     -1452.102 8        49.242    24069774.833 8  96919460.66608     -1490.010 8        50.392
G23         7.000    21709192.064 7 114082701.31607     -2800.097 7        45.731                                    21709188.325 5  88895649.19105     -2181.894 5        34.938    21709188.507 7  88895648.18907     -2181.943 7        44.575
E15         8.000    28288355.128 6 148656627.77006     -3019.509 6        36.393                                                                    28288356.169 6 111009989.28906     -2254.864 6        40.050    28288355.843 6 113905878.23106     -2313.668 6        41.197
G02         9.000    24682097.847 6 129705330.15106      2335.695 6        38.453                                    24682092.501 3 101069078.23803      1820.026 3        20.548
G26        11.000    25372233.005 5 133332306.40405     -4096.219 5        34.971                                    25372235.600 3 103895473.50303     -3191.856 3        23.638    25372235.610 5 103895493.46705     -3191.221 5        32.473
S27        12.000    39111017.664 6 205529721.56006      -484.897 6        36.083
R20        13.000    20797490.302 6 111213571.52806      1773.889 6        39.829                                                                    20797490.971 7  86499511.53807      1379.520 7        46.336
S36        14.000    38159758.803 7 200531403.58307      -515.831 7        43.500
G27        15.000    20052909.827 8 105379034.60008     -1035.843 8        50.260                                    20052907.771 8  82113691.64308      -807.151 8        53.052    20052907.847 7  82113605.64707      -807.183 7        46.167
S45        17.000    63370627.896 6 333015024.96306      -562.666 6        37.206
E08        18.000    26535704.982 6 139446107.91506      1205.213 6        40.691                                                                    26535704.141 7 104131834.04507       900.015 7        43.765    26535703.844 7 106848312.58307       923.506 7        44.861
G16        19.000    22989934.905 7 120813171.97207     -4003.161 7        43.740                                    22989930.897 4  94140250.75804     -3119.347 4        29.327
E21        20.000    25926079.580 7 136242831.85107     -3388.869 7        43.426                                                                    25926080.039 7 101739990.82907     -2530.622 7        45.625    25926079.301 7 104394052.62207     -2596.715 7        46.374
E26        21.000    23728687.837 8 124695443.57808       446.567 8        48.121                                                                    23728685.489 8  93116924.23508       333.399 8        50.127    23728685.442 8  95546036.96908       342.159 8        51.451
I06        22.000    38538381.511 6 151233103.87306      -301.914 6        40.880
S28        23.000    40853516.225 5 214686694.91405      -509.342 5        33.569
G08        24.000    20820047.128 7 109410101.43107      1289.045 7        47.928                                    20820045.303 8  85254625.01808      1004.447 8        48.799    20820046.423 7  85254626.02107      1004.408 7        44.822
S23        25.000    38115215.938 7 200296801.80407      -515.690 7        43.947
C13        26.000                                                                                                                                    38775154.747 6 201912600.37206     -1534.360 6        41.731    38775156.013 7 156131740.71907     -1186.500 7        42.870    38775154.316 6 164070613.50706     -1246.967 6        40.579
G18        27.000    24508098.287 6 128791267.09106     -3638.432 6        38.024                                    24508094.529 3 100357002.26203     -2835.130 3        22.781    24508095.044 6 100356993.25606     -2835.168 6        39.874
I02        29.000    40384878.636 5 158479024.43905     -1029.089 5        33.916
C14        30.000                                                                                                                                    23059326.734 7 120076000.58507      -699.854 7        45.782    23059322.258 8  92850377.54108      -541.167 8        50.533    23059321.013 8  97571574.31608      -568.658 8        48.282
R05        31.000    23012895.227 7 123017118.07707      3995.148 7        44.369                                                                    23012895.067 6  95679982.51906      3107.235 6        41.645
E03        32.000    27413115.827 6 144056899.42206     -1160.664 6        37.724                                                                    27413116.603 6 107574969.15806      -866.673 6        40.451    27413116.095 6 110381266.12306      -889.468 6        41.492
G30        33.000    25782363.532 5 135487232.65905     -1313.725 5        34.938                                    25782363.046 4 105574470.72204     -1023.651 4        24.271    25782364.179 5 105574478.70805     -1023.629 5        31.464
R03        34.000    21254772.872 8 113778497.67708     -2207.651 8        48.321                                                                    21254771.663 7  88494410.04407     -1717.137 7        45.085
R10        35.000    21497432.028 7 114593467.03307     -2215.170 7        43.879
R18        36.000    22678336.502 7 121058886.03207     -3588.980 7        44.474                                                                    22678336.991 7  94157112.37807     -2791.461 7        42.876
G32        37.000    24674282.188 6 129664234.20306      2674.913 6        39.625                                    24674281.804 5 101037059.48205      2084.344 5        34.086    24674282.888 6 101037068.49806      2084.191 6        38.144
E07        38.000    27835614.806 6 146277124.54906      2442.292 6        37.811                                                                    27835617.592 6 109232945.03106      1823.755 6        40.219    27835616.618 6 112082493.72306      1871.400 6        40.832
R09        40.000    22683158.855 7 121126845.63107     -4457.469 7        46.121                                                                    22683158.658 7  94209786.53507     -3467.023 7        42.665
E33        41.000    27158988.413 6 142721517.03506      1856.229 6        40.350                                                                    27158987.853 6 106577783.44306      1386.279 6        41.042    27158987.604 7 109358070.04107      1422.314 7        42.303
S44        42.000    40420628.395 6 212412024.25306      -520.654 6        37.456
C38        43.000                                                                                                                                    40826948.009 6 212596771.03306     -1766.495 6        36.446                                                                    40826946.801 6 172752349.88206     -1435.331 6        37.894
C05        44.000                                                                                                                                    39162733.680 6 203930661.99006      -454.291 6        37.176    39162729.680 7 157692145.15707      -351.158 7        42.400    39162731.768 6 165710468.66506      -369.114 6        39.327
C08        45.000                                                                                                                                    39338754.906 6 204847401.51106     -1748.646 6        37.543    39338748.627 7 158401078.31507     -1352.147 7        42.061    39338747.993 6 166455343.22806     -1420.956 6        38.480
R11        46.000    22669537.925 7 121139141.18707      1537.558 7        44.426                                                                    22669537.331 7  94219331.86707      1195.968 7        42.557
R19        47.000    20061282.923 6 107314708.96406     -1950.569 6        40.350                                                                    20061282.768 7  83467162.90007     -1517.106 7        44.244
C43        48.000                                                                                                                                    24500760.709 7 127582202.99607     -3119.928 7        44.494                                                                    24500759.751 7 103671114.44607     -2535.305 7        43.380
C42        50.000                                                                                                                                    24299375.494 7 126533268.23207     -2249.644 7        44.412                                                                    24299383.441 7 102818692.81407     -1828.102 7        45.859
S48        51.000    77140140.490 6 405374560.02906      -550.160 6        37.312
G21        52.000    22522497.546 6 118356588.13706      1924.941 6        40.667                                    22522492.879 4  92225932.62604      1499.957 4        25.820
C37        53.000                                                                                                                                    26157189.658 6 136207339.69206     -3418.534 6        40.515                                                                    26157194.564 6 110679636.62506     -2777.934 6        41.292
C60        54.000                                                                                                                                    40420630.298 6 210481025.24306      -515.906 6        39.796                                                                    40420614.278 6 171033042.63406      -419.185 6        39.048
C27        55.000                                                                                                                                    23116116.996 7 120371705.64107      1713.835 7        47.181                                                                    23116115.667 7  97811874.52207      1392.500 7        46.679
R04        56.000    20454468.135 8 109532764.92408      1718.552 8        50.000                                                                    20454466.857 7  85192142.56907      1336.633 7        46.568
C02        57.000                                                                                                                                    40503153.332 5 210910589.34405      -468.861 5        34.138    40503147.047 6 163089438.78606      -362.393 6        40.098    40503150.212 6 171382132.31106      -381.009 6        36.011
I03        58.000   109250502.292 6 352937186.70906      1024.655 6        40.603
C11        59.000                                                                                                                                    26519859.761 6 138096144.57606     -3305.872 6        38.099    26519857.500 7 106784842.99807     -2556.396 7        43.348    26519855.523 6 112214533.55606     -2686.437 6        40.586
C28        60.000                                                                                                                                    21402219.790 8 111447290.16008      -432.949 8        50.809                                                                    21402218.411 8  90560188.36108      -351.858 8        48.399
> 2025 01 01 20 45  5.0000000  0 55
G10         1.000    20682874.567 8 108689341.28608      -102.508 8        51.239                                    20682872.470 8  84693055.45308       -79.879 8        52.585    20682872.214 7  84693032.45807       -79.943 7        45.746
G15         2.000    24452594.779 6 128499261.43606     -2870.961 6        36.091                                    24452592.617 4 100129282.53904     -2237.110 4        27.245    24452592.204 5 100129285.51505     -2236.958 5        34.729
C33         3.000                                                                                                                                    22941837.628 8 119464194.74108       967.480 8        49.206                                                                    22941848.969 8  97074502.81908       786.170 8        48.958
E31         4.000    26781864.117 6 140739681.77406      1480.631 6        40.336                                                                    26781865.050 7 105097823.78807      1105.619 7        43.477    26781864.567 7 107839503.00507      1134.449 7        44.093
S21         5.000    38390947.382 6 201745515.49106      -516.755 6        41.635
E13         6.000    24071625.593 7 126497595.90607     -1945.356 7        46.470                                                                    24071625.819 8  94462698.28308     -1452.650 8        49.236    24071625.393 8  96926912.09308     -1490.587 8        50.372
G23         7.000    21711857.768 7 114096707.44207     -2802.334 7        45.892                                    21711853.609 5  88906563.05105     -2183.637 5        34.895    21711853.453 7  88906562.04407     -2183.605 7        44.254
E15         8.000    28291228.134 6 148671724.61306     -3019.320 6        36.393                                                                    28291229.201 6 111021262.89206     -2254.643 6        40.143    28291228.296 6 113917445.92306     -2313.443 6        41.197
G02         9.000    24679875.005 6 129693652.43806      2335.412 6        38.468                                    24679870.315 3 101059978.74603      1819.799 3        20.571
G26        11.000    25376130.296 5 133352783.84305     -4095.025 5        34.676                                    25376132.078 3 103911429.91003     -3190.922 3        23.219    25376132.491 5 103911449.89605     -3190.983 5        32.060
S27        12.000    39111479.278 6 205532145.51306      -484.565 6        36.416
R20        13.000    20795831.558 6 111204705.76106      1772.511 6        40.055                                                                    20795833.154 7  86492615.92107      1378.696 7        46.039
S36        14.000    38160249.899 7 200533983.47507      -516.190 7        43.418
G27        15.000    20053896.884 8 105384220.93008     -1038.571 8        50.275                                    20053894.699 8  82117732.93608      -809.274 8        53.075    20053895.194 7  82117646.93307      -809.301 7        46.433
S45        17.000    63371118.728 6 333017837.84806      -562.543 6        37.043
E08        18.000    26534558.885 6 139440086.58506      1203.422 6        40.467                                                                    26534558.518 7 104127337.61107       898.546 7        43.816    26534557.991 7 106843698.84507       921.997 7        44.715
G16        19.000    22993744.362 7 120833190.41007     -4004.325 7        43.831                                    22993740.353 4  94155849.53104     -3120.253 4        29.280
E21        20.000    25929304.308 7 136259778.74107     -3389.834 7        43.181                                                                    25929304.872 7 101752645.97707     -2531.321 7        45.779    25929304.273 7 104407037.90107     -2597.378 7        46.375
E26        21.000    23728263.621 8 124693213.67708       445.471 8        48.029                                                                    23728261.231 8  93115259.04408       332.615 8        50.173    23728261.100 8  95544328.33808       341.279 8        51.396
I06        22.000    38538765.920 6 151234612.94406      -301.721 6        40.703
S28        23.000    40854003.730 5 214689241.23505      -509.292 5        33.353
G08        24.000    20818821.772 8 109403662.10408      1286.789 8        48.009                                    20818819.940 8  85249607.36108      1002.693 8        48.824    20818821.013 7  85249608.36307      1002.722 7        45.255
S23        25.000    38115704.968 7 200299380.11307      -515.598 7        43.814
C13        26.000                                                                                                                                    38776628.405 6 201920272.47206     -1534.522 6        41.926    38776629.380 7 156137673.25607     -1186.459 7        42.963    38776627.651 6 164076847.70506     -1246.774 6        40.617
G18        27.000    24511560.269 6 128809460.23606     -3638.768 6        37.921                                    24511556.880 3 100371178.71803     -2835.405 3        22.590    24511557.225 6 100371169.70106     -2835.351 6        39.958
I02        29.000    40386190.139 5 158484170.25505     -1029.218 5        33.533
C14        30.000                                                                                                                                    23059999.483 7 120079507.14807      -702.828 7        45.935    23059995.232 8  92853089.03508      -543.464 8        50.533    23059994.366 8  97574423.68908      -571.067 8        48.365
R05        31.000    23009158.389 7 122997143.82407      3994.594 7        44.677                                                                    23009158.834 6  95664446.98506      3106.905 6        41.831
E03        32.000    27414221.456 6 144062709.12306     -1163.070 6        37.686                                                                    27414222.025 6 107579307.56006      -868.681 6        40.322    27414221.686 6 110385717.68906      -891.226 6        41.178
G30        33.000    25783615.232 5 135493807.14205     -1315.953 5        34.795                                    25783614.385 4 105579593.67104     -1025.411 4        24.391    25783614.110 5 105579601.68005     -1025.706 5        31.585
R03        34.000    21256836.976 8 113789546.55808     -2211.818 8        48.597                                                                    21256835.474 7  88503003.61007     -1720.228 7        44.891
R10        35.000    21499511.943 7 114604552.91707     -2219.150 7        43.987
R18        36.000    22681698.085 7 121076832.33207     -3589.643 7        43.371                                                                    22681699.426 7  94171070.58507     -2791.889 7        43.050
G32        37.000    24671737.074 6 129650860.39006      2674.666 6        39.691                                    24671736.946 5 101026638.33705      2084.154 5        34.214    24671737.241 6 101026647.34506      2084.273 6        38.366
E07        38.000    27833291.094 6 146264913.11606      2442.225 6        37.641                                                                    27833293.772 6 109223826.10606      1823.893 6        40.303    27833292.691 6 112073136.91506      1871.489 6        40.846
R09        40.000    22687333.606 7 121149136.12807     -4458.742 7        46.532                                                                    22687333.237 7  94227123.57007     -3467.942 7        43.029
E33        41.000    27157222.552 6 142712236.97806      1855.833 6        39.706                                                                    27157221.941 6 106570853.54206      1385.989 6        41.111    27157221.714 7 109350959.36207      1422.089 7        42.347
S44        42.000    40421127.808 6 212414628.12106      -520.663 6        37.183
C38        43.000                                                                                                                                    40828643.859 6 212605602.43506     -1766.168 6        36.643                                                                    40828642.900 6 172759526.11306     -1435.049 6        37.890
C05        44.000                                                                                                                                    39163170.209 6 203932933.29306      -454.113 6        37.059    39163166.048 7 157693901.49207      -351.237 7        42.372    39163167.997 6 165712314.29006      -369.006 6        39.471
C08        45.000                                                                                                                                    39340433.537 6 204856145.05406     -1748.776 6        37.100    39340427.802 7 158407839.36907     -1352.267 7        42.011    39340427.276 6 166462448.05906     -1421.077 6        38.513
R11        46.000    22668101.384 7 121131462.39207      1533.896 7        45.502                                                                    22668099.890 7  94213359.47207      1193.064 7        43.071
R19        47.000    20063107.719 6 107324466.22206     -1952.399 6        40.601                                                                    20063107.130 7  83474751.88707     -1518.487 7        44.777
C43        48.000                                                                                                                                    24503757.045 7 127597804.85307     -3120.700 7        44.396                                                                    24503755.891 7 103683792.23107     -2535.873 7        43.401
C42        50.000                                                                                                                                    24301537.223 7 126544522.80507     -2252.135 7        44.573                                                                    24301544.859 7 102827838.08007     -1830.009 7        46.088
S48        51.000    77140636.549 6 405377310.81206      -550.038 6        37.380
G21        52.000    22520666.676 6 118346965.86806      1923.882 6        40.648                                    22520661.785 4  92218434.75404      1499.132 4        25.609
C37        53.000                                                                                                                                    26160472.218 6 136224433.76106     -3418.908 6        40.203                                                                    26160477.396 6 110693526.92806     -2778.172 6        41.225
C60        54.000                                                                                                                                    40421125.575 6 210483605.44106      -515.923 6        40.014                                                                    40421109.702 6 171035139.26406      -419.288 6        39.135
C27        55.000                                                                                                                                    23114471.942 7 120363138.99507      1712.963 7        47.213                                                                    23114470.545 7  97804913.41207      1391.939 7        46.685
R04        56.000    20452865.146 8 109524182.11708      1714.610 8        50.393                                                                    20452863.977 7  85185467.07207      1333.488 7        46.525
C02        57.000                                                                                                                                    40503603.043 5 210912933.35105      -468.474 5        33.982    40503597.513 6 163091251.35706      -362.652 6        40.072    40503600.598 6 171384037.04606      -380.796 6        36.144
I03        58.000   109249196.627 6 352932063.60306      1024.709 6        40.520
C11        59.000                                                                                                                                    26523033.009 6 138112675.12106     -3306.274 6        38.144    26523031.697 7 106797625.44407     -2556.626 7        43.482    26523030.204 6 112227965.95506     -2686.594 6        40.770
C28        60.000                                                                                                                                    21402636.371 8 111449458.98508      -434.536 8        50.816                                                                    21402634.941 8  90561950.71208      -353.066 8        48.485
> 2025 01 01 20 45 10.0000000  0 55
G10         1.000    20682973.533 8 108689861.30908      -105.498 8        51.498                                    20682971.427 8  84693460.67108       -82.205 8        52.467    20682971.226 7  84693437.67107       -82.156 7        45.711
G15         2.000    24455328.012 6 128513623.16706     -2873.867 6        36.329                                    24455325.511 4 100140473.48204     -2239.367 4        26.802    24455325.453 5 100140476.47905     -2239.305 5        34.381
C33         3.000                                                                                                                                    22940909.972 8 119459364.23108       964.733 8        49.429                                                                    22940921.287 8  97070577.62808       783.933 8        48.827
E31         4.000    26780456.264 6 140732283.18506      1478.872 6        40.417                                                                    26780457.131 7 105092298.86707      1104.384 7        43.361    26780456.626 7 107833833.96007      1133.090 7        44.054
S21         5.000    38391435.598 6 201748098.92406      -516.664 6        41.495
E13         6.000    24073477.079 7 126507324.61507     -1946.136 7        46.539                                                                    24073477.152 8  94469963.23808     -1453.305 8        49.146    24073476.694 8  96934366.56308     -1491.216 8        50.374
G23         7.000    21714525.151 7 114110724.71807     -2804.644 7        45.552                                    21714520.927 5  88917485.60305     -2185.435 5        34.848    21714520.968 7  88917484.59407     -2185.372 7        43.702
E15         8.000    28294100.840 6 148686820.86506     -3019.177 6        36.786                                                                    28294101.820 6 111032536.06106     -2254.676 6        40.329    28294100.955 6 113929013.17406     -2313.393 6        41.013
G02         9.000    24677653.773 6 129681977.11006      2334.791 6        40.355                                    24677648.428 3 101050881.10503      1819.304 3        20.238
G26        11.000    25380026.394 5 133373258.67205     -4094.610 5        34.586                                    25380028.310 3 103927384.28203     -3190.617 3        22.705    25380029.108 5 103927404.25405     -3190.603 5        31.600
S27        12.000    39111941.653 6 205534569.12806      -484.923 6        36.132
R20        13.000    20794174.379 6 111195846.32706      1771.178 6        39.817                                                                    20794176.343 7  86485725.25907      1377.634 7        45.946
S36        14.000    38160741.653 7 200536563.24407      -515.963 7        43.319
G27        15.000    20054886.590 8 105389421.33908     -1041.531 8        50.411                                    20054884.296 8  82121785.20308      -811.583 8        53.011    20054884.597 7  82121699.21307      -811.630 7        46.127
S45        17.000    63371604.284 6 333020650.66106      -562.640 6        37.104
E08        18.000    26533415.262 6 139434074.56606      1201.495 6        40.343                                                                    26533414.516 7 104122848.12307       897.137 7        43.975    26533413.888 7 106839092.23807       920.537 7        44.755
G16        19.000    22997555.043 7 120853214.74007     -4005.431 7        43.945                                    22997550.788 4  94171452.90204     -3121.109 4        29.194
E21        20.000    25932530.192 7 136276730.70607     -3390.910 7        42.908                                                                    25932530.784 7 101765304.90307     -2532.140 7        45.631    25932530.291 7 104420027.06307     -2598.280 7        46.436
E26        21.000    23727840.276 8 124690989.18608       444.310 8        48.140                                                                    23727837.942 8  93113597.90008       331.747 8        50.110    23727837.816 8  95542623.86408       340.431 8        51.393
I06        22.000    38539150.715 6 151236121.82406      -301.808 6        40.725
S28        23.000    40854485.847 5 214691787.23305      -509.069 5        33.533
G08        24.000    20817598.728 8 109397233.80008      1284.590 8        48.162                                    20817596.674 8  85244598.29308      1000.980 8        48.721    20817597.601 7  85244599.30007      1000.965 7        45.056
S23        25.000    38116196.802 7 200301958.32407      -515.625 7        43.754
C13        26.000                                                                                                                                    38778101.517 6 201927945.02406     -1534.583 6        41.924    38778102.844 7 156143606.15607     -1186.649 7        42.912    38778100.901 6 164083082.26006     -1247.042 6        40.405
G18        27.000    24515022.946 6 128827654.65006     -3638.886 6        38.138                                    24515019.311 3 100385356.16503     -2835.500 3        22.781    24515019.215 6 100385347.15906     -2835.642 6        39.832
I02        29.000    40387500.935 5 158489315.77705     -1028.906 5        34.057
C14        30.000                                                                                                                                    23060676.277 7 120083028.50907      -705.764 7        46.004    23060671.761 8  92855811.97908      -545.781 8        50.899    23060670.656 8  97577285.07108      -573.511 8        48.213
R05        31.000    23005422.144 7 122977172.61407      3993.821 7        44.828                                                                    23005422.990 7  95648913.82507      3106.276 7        42.066
E03        32.000    27415329.596 6 144068530.60406     -1165.338 6        38.417                                                                    27415329.838 6 107583654.75906      -870.294 6        40.598    27415329.630 6 110390178.31106      -893.150 6        41.487
G30        33.000    25784867.902 5 135500394.15905     -1318.573 5        34.057                                    25784868.044 3 105584726.38803     -1027.468 3        23.676    25784869.160 5 105584734.34805     -1027.371 5        31.494
R03        34.000    21258904.988 8 113800616.26908     -2216.173 8        48.143                                                                    21258902.764 7  88511613.38607     -1723.693 7        43.996
R10        35.000    21501595.067 7 114615658.79007     -2223.189 7        43.613
R18        36.000    22685059.668 7 121094782.10107     -3590.348 7        42.554                                                                    22685061.437 7  94185031.51707     -2792.507 7        42.430
G32        37.000    24669192.287 6 129637487.95306      2674.390 6        40.184                                    24669192.266 5 101016218.27205      2083.934 5        34.310    24669193.129 6 101016227.28806      2083.809 6        38.255
E07        38.000    27830967.351 6 146252701.59306      2442.226 6        37.705                                                                    27830969.968 6 109214707.11706      1823.744 6        40.415    27830968.972 6 112063780.03706      1871.355 6        41.025
R09        40.000    22691509.181 7 121171433.03307     -4460.137 7        46.389                                                                    22691509.176 7  94244465.56607     -3468.935 7        42.792
E33        41.000    27155456.649 6 142702959.03106      1855.320 6        39.222                                                                    27155456.410 6 106563925.22406      1385.476 6        41.030    27155456.117 7 109343850.29607      1421.724 7        42.248
S44        42.000    40421621.403 6 212417232.06306      -520.754 6        37.304
C38        43.000                                                                                                                                    40830339.845 6 212614433.28306     -1766.251 6        36.820                                                                    40830338.646 6 172766701.84606     -1435.053 6        38.222
C05        44.000                                                                                                                                    39163606.022 6 203935204.60806      -454.257 6        37.047    39163602.107 7 157695657.80707      -351.317 7        42.559    39163604.155 6 165714159.91406      -369.228 6        39.309
C08        45.000                                                                                                                                    39342113.060 6 204864888.73006     -1748.715 6        36.624    39342106.876 7 158414600.54707     -1352.245 7        42.049    39342106.410 6 166469553.01606     -1421.039 6        38.264
R11        46.000    22666668.045 7 121123802.87607      1529.954 7        44.814                                                                    22666667.139 7  94207402.12607      1189.977 7        42.561
R19        47.000    20064933.099 6 107334232.51506     -1954.259 6        40.653                                                                    20064933.597 7  83482347.87807     -1519.914 7        45.010
C43        48.000                                                                                                                                    24506754.087 7 127613410.46307     -3121.456 7        44.227                                                                    24506752.816 7 103696473.05607     -2536.533 7        43.426
C42        50.000                                                                                                                                    24303701.123 7 126555789.51407     -2254.621 7        44.635                                                                    24303708.602 7 102836993.18907     -1832.085 7        45.874
S48        51.000    77141136.718 6 405380061.55806      -550.143 6        37.312
G21        52.000    22518836.421 6 118337349.81806      1922.469 6        40.543                                    22518831.913 4  92210941.73804      1498.018 4        25.910
C37        53.000                                                                                                                                    26163755.670 6 136241529.58106     -3419.279 6        39.526                                                                    26163760.339 6 110707418.66306     -2778.658 6        40.856
C60        54.000                                                                                                                                    40421621.500 6 210486185.70806      -516.006 6        40.012                                                                    40421605.332 6 171037235.93606      -419.535 6        38.985
C27        55.000                                                                                                                                    23112828.039 7 120354576.45507      1712.039 7        47.249                                                                    23112826.210 7  97797955.63207      1391.201 7        46.495
R04        56.000    20451266.564 8 109515619.10808      1710.547 8        49.862                                                                    20451264.670 7  85178806.93107      1330.460 7        45.871
C02        57.000                                                                                                                                    40504052.821 5 210915277.46305      -468.809 5        33.856    40504047.654 6 163093063.95406      -362.642 6        40.300    40504050.614 5 171385941.78405      -381.196 5        35.852
I03        58.000   109247890.783 6 352926940.62906      1024.549 6        40.346
C11        59.000                                                                                                                                    26526208.419 6 138129206.94206     -3306.333 6        38.114    26526206.511 7 106810408.89807     -2556.862 7        43.564    26526204.792 6 112241399.38906     -2686.696 6        40.548
C28        60.000                                                                                                                                    21403054.390 8 111451635.78008      -436.171 8        50.837                                                                    21403052.926 8  90563719.52108      -354.456 8        48.407
> 2025 01 01 20 45 15.0000000  0 55
G10         1.000    20683075.357 8 108690396.33408      -108.573 8        51.420                                    20683073.237 8  84693877.57208       -84.604 8        52.487    20683073.069 7  84693854.57507       -84.605 7        45.747
G15         2.000    24458063.667 6 128527998.44006     -2876.506 6        37.244                                    24458060.937 4 100151674.99904     -2241.434 4        27.030    24458061.453 5 100151678.01305     -2241.501 5        35.386
C33         3.000                                                                                                                                    22939984.628 8 119454547.15208       961.941 8        49.383                                                                    22939996.279 8  97066663.37308       781.588 8        49.055
E31         4.000    26779049.958 6 140724893.45406      1477.052 6        40.102                                                                    26779050.874 7 105086780.56107      1103.046 7        43.295    26779050.473 7 107828171.70007      1131.715 7        44.030
S21         5.000    38391926.793 6 201750682.56206      -516.794 6        41.614
E13         6.000    24075329.173 7 126517057.42207     -1947.049 7        46.681                                                                    24075329.207 8  94477231.23908     -1453.965 8        49.069    24075328.785 8  96941824.16008     -1491.861 8        50.355
G23         7.000    21717194.514 7 114124753.25907     -2806.909 7        45.684                                    21717190.468 5  88928416.93105     -2187.197 5        34.843    21717190.821 7  88928415.92507     -2187.260 7        44.510
E15         8.000    28296973.272 6 148701916.69406     -3019.173 6        36.480                                                                    28296974.534 6 111043808.90206     -2254.587 6        39.925    28296973.785 6 113940580.08806     -2313.208 6        40.720
G02         9.000    24675432.608 6 129670304.28706      2334.337 6        40.527                                    24675427.123 3 101041785.40403      1818.955 3        20.881
G26        11.000    25383921.799 5 133393730.88505     -4094.299 5        34.438                                    25383924.118 3 103943336.62203     -3190.368 3        22.705    25383924.731 5 103943356.61805     -3190.292 5        31.449
S27        12.000    39112403.415 6 205536992.44206      -484.544 6        36.064
R20        13.000    20792519.503 6 111186993.33306      1769.900 6        40.477                                                                    20792520.566 7  86478839.60007      1376.622 7        45.889
S36        14.000    38161233.808 7 200539142.84207      -516.191 7        43.464
G27        15.000    20055878.954 8 105394635.97408     -1044.454 8        50.247                                    20055876.607 8  82125848.55708      -813.860 8        52.984    20055876.935 7  82125762.55207      -813.805 7        46.359
S45        17.000    63372093.587 6 333023463.52406      -562.861 6        37.308
E08        18.000    26532273.620 6 139428071.99406      1199.513 6        40.818                                                                    26532272.372 7 104118365.69407       895.766 7        43.953    26532271.719 7 106834492.87307       919.028 7        44.676
G16        19.000    23001366.595 7 120873245.01407     -4006.698 7        43.530                                    23001362.296 4  94187060.90404     -3122.106 4        29.289
E21        20.000    25935757.100 7 136293687.84107     -3391.946 7        43.130                                                                    25935757.597 7 101777967.69207     -2532.944 7        45.555    25935757.156 7 104433020.18807     -2599.124 7        46.391
E26        21.000    23727417.952 8 124688770.25108       443.204 8        48.115                                                                    23727415.654 8  93111940.90708       330.917 8        50.120    23727415.507 8  95540923.64208       339.576 8        51.323
I06        22.000    38539534.759 6 151237630.64706      -301.821 6        40.696
S28        23.000    40854971.872 5 214694333.17305      -509.223 5        33.509
G08        24.000    20816377.420 8 109390816.68108      1282.183 8        48.157                                    20816375.541 8  85239597.94108       999.104 8        48.771    20816376.423 7  85239598.94007       999.083 7        45.326
S23        25.000    38116687.187 7 200304536.56907      -515.687 7        43.680
C13        26.000                                                                                                                                    38779575.179 7 201935618.27507     -1534.741 7        42.004    38779576.139 7 156149539.59307     -1186.821 7        43.058    38779574.505 6 164089317.41906     -1247.320 6        40.710
G18        27.000    24518485.401 6 128845850.45906     -3639.269 6        38.685                                    24518482.037 3 100399534.70903     -2835.792 3        22.476    24518481.861 6 100399525.70506     -2835.826 6        39.838
I02        29.000    40388812.171 5 158494460.84005     -1029.051 5        33.988
C14        30.000                                                                                                                                    23061355.617 7 120086564.77307      -708.827 7        46.105    23061351.474 8  92858546.44808      -548.090 8        51.301    23061349.763 8  97580158.59208      -576.112 8        48.370
R05        31.000    23001686.827 7 122957204.71907      3993.131 7        44.647                                                                    23001687.341 7  95633383.24307      3105.750 7        42.303
E03        32.000    27416439.546 6 144074364.01806     -1168.075 6        38.492                                                                    27416440.066 6 107588010.85506      -872.185 6        40.451    27416439.792 6 110394648.02106      -894.819 6        41.468
G30        33.000    25786123.760 5 135506993.88805     -1321.199 5        33.892                                    25786123.909 3 105589869.02103     -1029.505 3        23.010    25786124.214 5 105589877.02505     -1029.712 5        31.064
R03        34.000    21260976.722 8 113811707.17008     -2220.378 8        48.908                                                                    21260975.137 7  88520239.64007     -1726.928 7        44.503
R10        35.000    21503681.594 7 114626784.67607     -2227.225 7        42.963
R18        36.000    22688423.543 7 121112735.44007     -3591.080 7        42.973                                                                    22688424.283 7  94198995.20107     -2793.094 7        42.184
G32        37.000    24666648.647 6 129624117.05906      2673.900 6        40.670                                    24666647.796 5 101005799.40405      2083.552 5        34.510    24666648.212 6 101005808.41806      2083.513 6        38.541
E07        38.000    27828643.340 6 146240490.11506      2442.220 6        37.652                                                                    27828646.302 6 109205588.17506      1823.725 6        40.327    27828645.206 6 112054423.19606      1871.356 6        41.063
R09        40.000    22695685.454 7 121193736.53407     -4461.503 7        45.564                                                                    22695685.046 7  94261812.73307     -3470.080 7        42.417
E33        41.000    27153692.070 6 142693683.36406      1854.847 6        40.048                                                                    27153691.377 6 106556998.57806      1385.106 6        40.944    27153691.074 7 109336742.96407      1421.198 7        42.176
S44        42.000    40422116.707 6 212419836.23206      -521.089 6        37.278
C38        43.000                                                                                                                                    40832035.159 6 212623263.67906     -1766.150 6        37.028                                                                    40832034.463 6 172773877.27506     -1435.387 6        38.039
C05        44.000                                                                                                                                    39164042.189 6 203937476.06406      -454.288 6        36.998    39164038.175 7 157697414.25407      -351.398 7        42.658    39164040.371 6 165716005.68206      -369.453 6        39.508
C08        45.000                                                                                                                                    39343792.348 6 204873632.68406     -1748.799 6        36.828    39343786.259 7 158421361.92107     -1352.240 7        42.068    39343785.671 6 166476658.20406     -1421.178 6        38.562
R11        46.000    22665237.624 7 121116162.75707      1525.898 7        44.457                                                                    22665237.548 7  94201459.85207      1186.883 7        42.762
R19        47.000    20066761.118 6 107344007.82006     -1956.047 6        40.779                                                                    20066760.557 7  83489950.89807     -1521.425 7        45.153
C43        48.000                                                                                                                                    24509751.797 7 127629019.99107     -3122.373 7        43.816                                                                    24509750.754 7 103709157.07507     -2537.349 7        43.712
C42        50.000                                                                                                                                    24305866.951 7 126567068.45907     -2257.051 7        44.665                                                                    24305874.685 7 102846158.27507     -1834.199 7        45.980
S48        51.000    77141635.394 6 405382812.48106      -550.239 6        37.561
G21        52.000    22517007.951 6 118327740.13306      1921.179 6        40.164                                    22517003.269 4  92203453.66904      1497.019 4        25.850
C37        53.000                                                                                                                                    26167039.118 6 136258627.26006     -3419.788 6        40.100                                                                    26167043.541 6 110721311.91706     -2779.087 6        40.880
C60        54.000                                                                                                                                    40422116.844 6 210488766.19306      -516.149 6        40.050                                                                    40422100.873 6 171039332.79406      -419.466 6        39.345
C27        55.000                                                                                                                                    23111184.549 7 120346018.19307      1711.195 7        47.412                                                                    23111182.750 7  97791001.35907      1390.356 7        46.805
R04        56.000    20449670.574 8 109507076.16708      1706.461 8        49.923                                                                    20449669.345 7  85172162.44407      1327.271 7        46.212
C02        57.000                                                                                                                                    40504503.095 5 210917621.80205      -468.829 5        34.195    40504497.830 6 163094876.74706      -362.511 6        40.164    40504500.745 6 171387846.76406      -381.169 6        36.023
I03        58.000   109246585.209 6 352921817.89606      1024.435 6        40.226
C11        59.000                                                                                                                                    26529384.389 6 138145740.24506     -3306.991 6        37.890    26529381.516 7 106823193.45607     -2557.049 7        43.393    26529379.737 6 112254834.04506     -2687.248 6        40.589
C28        60.000                                                                                                                                    21403473.947 8 111453820.69208      -437.895 8        50.833                                                                    21403472.572 8  90565494.94408      -355.922 8        48.556
> 2025 01 01 20 45 20.0000000  0 55
G10         1.000    20683179.960 8 108690946.31608      -111.522 8        51.413                                    20683177.891 8  84694306.12808       -86.900 8        52.490    20683177.615 7  84694283.13407       -86.899 7        45.487
G15         2.000    24460802.049 6 128542387.14506     -2878.932 6        37.081                                    24460798.996 4 100162886.98804     -2243.319 4        27.952    24460799.443 5 100162890.01205     -2243.430 5        34.910
C33         3.000                                                                                                                                    22939061.991 8 119449743.47108       959.428 8        49.148                                                                    22939073.838 8  97062759.97308       779.558 8        49.130
E31         4.000    26777645.602 6 140717512.57606      1475.409 6        39.808                                                                    26777646.393 7 105081268.88307      1101.588 7        43.153    26777645.958 7 107822516.22707      1130.435 7        43.909
S21         5.000    38392422.660 6 201753266.40706      -516.782 6        41.707
E13         6.000    24077182.105 7 126526794.28007     -1947.771 7        46.503                                                                    24077182.094 8  94484502.26508     -1454.506 8        48.982    24077181.754 8  96949284.86908     -1492.448 8        50.290
G23         7.000    21719866.267 7 114138793.02807     -2809.120 7        46.241                                    21719862.133 5  88939357.00305     -2188.927 5        34.814    21719862.637 7  88939356.00607     -2188.872 7        44.612
E15         8.000    28299845.740 6 148717012.09806     -3018.954 6        36.302                                                                    28299846.979 6 111055081.48206     -2254.563 6        40.014    28299846.251 6 113952146.73906     -2313.314 6        40.496
G02         9.000    24673211.133 6 129658633.95406      2333.946 6        39.694                                    24673206.367 3 101032691.66803      1818.649 3        21.048
G26        11.000    25387817.303 5 133414200.54305     -4093.230 5        34.176                                    25387819.397 3 103959286.95403     -3189.528 3        22.152    25387820.143 5 103959306.92405     -3189.722 5        31.577
S27        12.000    39112860.688 6 205539415.95206      -484.762 6        36.291
R20        13.000    20790865.928 6 111178146.63006      1768.726 6        40.343                                                                    20790866.019 7  86471958.83207      1375.668 7        45.976
S36        14.000    38161723.929 7 200541723.14507      -516.153 7        43.490
G27        15.000    20056873.754 8 105399864.79808     -1047.217 8        50.400                                    20056871.619 8  82129922.96408      -816.016 8        52.990    20056872.116 7  82129836.95107      -815.968 7        46.250
S45        17.000    63372582.697 6 333026276.40106      -562.577 6        37.081
E08        18.000    26531132.991 6 139422078.88906      1197.767 6        40.996                                                                    26531131.908 7 104113890.32107       894.385 7        43.896    26531131.296 7 106829900.75007       917.714 7        44.679
G16        19.000    23005179.227 7 120893281.28007     -4007.924 7        43.431                                    23005175.097 4  94202673.57004     -3123.065 4        29.024
E21        20.000    25938984.974 7 136310650.12107     -3392.954 7        43.285                                                                    25938985.561 7 101790634.32507     -2533.747 7        45.350    25938984.910 7 104446017.25207     -2599.823 7        46.335
E26        21.000    23726996.728 7 124686556.85807       442.105 7        47.837                                                                    23726994.483 8  93110288.04708       330.166 8        49.953    23726994.328 8  95539227.66208       338.794 8        51.206
I06        22.000    38539919.486 6 151239139.34106      -301.635 6        40.734
S28        23.000    40855458.631 5 214696879.39805      -508.909 5        33.545
G08        24.000    20815158.584 8 109384410.72908      1280.058 8        48.311                                    20815156.532 8  85234606.29108       997.447 8        48.822    20815157.494 7  85234607.29107       997.494 7        45.157
S23        25.000    38117177.858 7 200307114.93007      -515.610 7        43.697
C13        26.000                                                                                                                                    38781049.165 6 201943292.10906     -1534.747 6        41.733    38781049.857 7 156155473.48607     -1186.903 7        42.828    38781048.152 6 164095553.01506     -1247.290 6        40.694
G18        27.000    24521947.875 6 128864047.68206     -3639.432 6        38.541                                    24521944.799 3 100413714.35103     -2835.908 3        22.248    24521944.176 6 100413705.34706     -2835.998 6        39.222
I02        29.000    40390123.559 5 158499605.47205     -1029.073 5        33.731
C14        30.000                                                                                                                                    23062037.640 7 120090115.90607      -711.716 7        45.800    23062033.430 8  92861292.40308      -550.330 8        51.092    23062031.706 8  97583044.15608      -578.367 8        48.505
R05        31.000    22997952.319 7 122937240.15507      3992.536 7        44.364                                                                    22997952.763 7  95617855.25407      3105.321 7        42.191
E03        32.000    27417551.631 6 144080209.32606     -1170.219 6        38.171                                                                    27417552.153 6 107592375.85806      -873.838 6        40.558    27417552.200 6 110399126.91406      -896.697 6        41.607
G30        33.000    25787382.848 5 135513606.36105     -1323.731 5        33.868                                    25787382.134 3 105595021.58003     -1031.480 3        22.229    25787381.900 5 105595029.57505     -1031.506 5        30.460
R03        34.000    21263053.121 8 113822818.85308     -2224.392 8        48.665                                                                    21263051.081 7  88528882.05307     -1730.056 7        43.977
R10        35.000    21505773.160 7 114637930.62107     -2231.176 7        42.775
R18        36.000    22691789.233 7 121130692.33607     -3591.756 7        44.293                                                                    22691788.536 6  94212961.65606     -2793.619 6        41.774
G32        37.000    24664103.968 6 129610747.67706      2673.817 6        40.694                                    24664103.694 5 100995381.71005      2083.493 5        34.776    24664104.321 6 100995390.71906      2083.472 6        38.360
E07        38.000    27826319.693 6 146228278.69606      2442.330 6        37.350                                                                    27826322.539 6 109196469.24906      1823.870 6        40.288    27826321.448 6 112045066.39506      1871.472 6        41.118
R09        40.000    22699862.740 7 121216046.46907     -4462.752 7        46.127                                                                    22699863.638 7  94279164.87607     -3470.839 7        42.684
E33        41.000    27151927.634 6 142684409.86906      1854.585 6        39.513                                                                    27151926.848 6 106550073.59806      1384.869 6        40.865    27151926.196 7 109329637.31707      1420.912 7        42.167
S44        42.000    40422616.701 6 212422440.57006      -520.936 6        37.592
C38        43.000                                                                                                                                    40833731.301 6 212632093.69006     -1765.897 6        37.146                                                                    40833730.264 6 172781052.30606     -1434.869 6        38.189
C05        44.000                                                                                                                                    39164478.445 6 203939747.62606      -454.480 6        37.021    39164474.771 7 157699170.75407      -351.284 7        42.468    39164476.613 6 165717851.47906      -369.311 6        39.649
C08        45.000                                                                                                                                    39345470.875 6 204882376.90506     -1748.879 6        36.397    39345465.458 6 158428123.47406     -1352.364 6        41.850    39345464.840 6 166483763.55606     -1421.292 6        38.180
R11        46.000    22663811.580 7 121108542.03207      1522.238 7        44.566                                                                    22663810.970 7  94195532.64207      1183.839 7        42.967
R19        47.000    20068590.878 6 107353792.06606     -1957.778 6        40.672                                                                    20068589.292 7  83497560.87807     -1522.764 7        45.305
C43        48.000                                                                                                                                    24512749.927 7 127644633.39307     -3123.032 7        43.649                                                                    24512749.173 7 103721844.21507     -2537.749 7        43.892
C42        50.000                                                                                                                                    24308035.401 7 126578359.62007     -2259.429 7        44.728                                                                    24308042.980 7 102855333.25307     -1836.035 7        46.139
S48        51.000    77142134.860 6 405385563.47606      -550.082 6        37.077
G21        52.000    22515180.416 6 118318136.77406      1920.072 6        40.343                                    22515175.807 4  92195970.52904      1496.159 4        25.744
C37        53.000                                                                                                                                    26170323.026 6 136275726.73806     -3420.074 6        40.582                                                                    26170327.427 6 110735206.61806     -2779.189 6        41.178
C60        54.000                                                                                                                                    40422612.233 6 210491346.87006      -516.196 6        39.871                                                                    40422596.373 6 171041429.79006      -419.431 6        39.363
C27        55.000                                                                                                                                    23109541.574 7 120337464.15807      1710.350 7        47.534                                                                    23109540.001 7  97784050.48607      1389.765 7        46.790
R04        56.000    20448079.719 8 109498553.16408      1702.544 8        50.393                                                                    20448078.061 7  85165533.42707      1324.220 7        46.575
C02        57.000                                                                                                                                    40504952.891 5 210919966.34505      -468.797 5        33.958    40504947.715 6 163096689.71006      -362.655 6        40.179    40504950.952 6 171389751.90106      -381.109 6        36.193
I03        58.000   109245280.334 6 352916695.38206      1024.488 6        40.236
C11        59.000                                                                                                                                    26532558.905 6 138162274.96206     -3307.061 6        37.278    26532556.902 7 106835979.13607     -2557.284 7        42.961    26532555.110 6 112268269.82706     -2687.363 6        40.560
C28        60.000                                                                                                                                    21403895.101 8 111456013.68308      -439.361 8        50.717                                                                    21403893.657 8  90567276.91508      -357.100 8        48.623
> 2025 01 01 20 45 25.0000000  0 55
G10         1.000    20683287.516 8 108691511.63808      -114.667 8        51.649                                    20683285.474 8  84694746.64008       -89.351 8        52.408    20683285.392 7  84694723.64607       -89.367 7        45.756
G15         2.000    24463542.477 6 128556789.76406     -2881.922 6        36.605                                    24463539.784 4 100174109.80904     -2245.653 4        27.748    24463540.372 5 100174112.81405     -2245.653 5        34.771
C33         3.000                                                                                                                                    22938142.252 8 119444953.59008       956.528 8        49.116                                                                    22938153.944 8  97058867.80508       777.188 8        49.262
E31         4.000    26776242.726 6 140710140.93206      1473.229 6        39.844                                                                    26776243.617 7 105075764.09407      1100.195 7        43.194    26776243.154 7 107816867.83307      1128.901 7        43.875
S21         5.000    38392911.922 6 201755850.50606      -516.766 6        41.571
E13         6.000    24079035.709 7 126536535.62007     -1948.829 7        46.449                                                                    24079035.751 8  94491776.63008     -1455.281 8        48.963    24079035.458 8  96956748.99908     -1493.206 8        50.279
G23         7.000    21722540.146 7 114152844.41807     -2811.517 7        45.676                                    21722535.998 5  88950306.13605     -2190.788 5        34.690    21722536.231 7  88950305.12907     -2190.806 7        44.799
E15         8.000    28302718.613 6 148732107.37906     -3019.333 6        36.495                                                                    28302719.430 6 111066353.95506     -2254.490 6        40.181    28302718.644 6 113963713.27806     -2313.458 6        40.543
G02         9.000    24670990.694 6 129646966.52106      2333.148 6        40.079                                    24670986.086 3 101023600.16803      1818.038 3        21.071
G26        11.000    25391712.029 5 133434668.01505     -4092.964 5        34.148                                    25391714.494 3 103975235.59703     -3189.312 3        21.595    25391715.403 5 103975255.59905     -3189.634 5        31.268
S27        12.000    39113322.749 5 205541840.55805      -485.053 5        35.929
R20        13.000    20789212.507 6 111169306.57606      1767.229 6        40.424                                                                    20789213.214 7  86465083.23207      1374.515 7        45.907
S36        14.000    38162214.936 7 200544304.24607      -516.386 7        43.390
G27        15.000    20057871.814 8 105405108.19508     -1050.285 8        50.319                                    20057869.399 8  82134008.72708      -818.404 8        52.908    20057869.520 7  82133922.72607      -818.375 7        46.178
S45        17.000    63373071.455 6 333029089.70406      -562.785 6        37.138
E08        18.000    26529994.336 6 139416095.62406      1195.520 6        41.080                                                                    26529993.244 7 104109422.29407       892.775 7        43.833    26529992.791 7 106825316.16507       916.141 7        44.764
G16        19.000    23008993.353 7 120913323.86507     -4009.191 7        43.591                                    23008989.131 4  94218291.16304     -3124.044 4        28.872
E21        20.000    25942213.803 7 136327617.92907     -3394.194 7        43.435                                                                    25942214.473 7 101803305.08107     -2534.660 7        45.610    25942213.730 7 104459018.55107     -2600.751 7        46.440
E26        21.000    23726576.612 7 124684349.37707       440.822 7        47.827                                                                    23726574.401 8  93108639.60508       329.164 8        50.008    23726574.274 8  95537536.21708       337.776 8        51.239
I06        22.000    38540304.192 6 151240648.27606      -301.959 6        40.732
S28        23.000    40855943.185 5 214699425.88405      -509.549 5        33.509
G08        24.000    20813941.726 8 109378016.33308      1277.592 8        48.085                                    20813939.723 8  85229623.64708       995.529 8        48.718    20813940.667 7  85229624.64807       995.505 7        45.248
S23        25.000    38117668.006 7 200309693.72107      -515.914 7        43.647
C13        26.000                                                                                                                                    38782522.757 6 201950966.96606     -1535.183 6        41.800    38782523.937 7 156161408.16207     -1187.098 7        42.582    38782522.102 6 164101789.46306     -1247.603 6        40.710
G18        27.000    24525410.473 6 128882246.65906     -3640.212 6        38.727                                    24525408.012 3 100427895.35403     -2836.518 3        22.438    24525407.629 6 100427886.35306     -2836.547 6        38.661
I02        29.000    40391434.834 5 158504750.16405     -1029.394 5        33.545
C14        30.000                                                                                                                                    23062722.149 7 120093682.33207      -715.013 7        45.673    23062717.931 8  92864050.18708      -552.845 8        50.737    23062716.643 8  97585942.17308      -581.023 8        48.619
R05        31.000    22994218.487 7 122917279.36107      3991.686 7        43.996                                                                    22994218.621 7  95602330.20307      3104.648 7        42.176
E03        32.000    27418665.784 6 144086066.90506     -1172.766 6        38.000                                                                    27418666.963 6 107596750.03306      -875.905 6        40.486    27418666.775 6 110403615.19606      -898.668 6        41.442
G30        33.000    25788642.501 5 135520231.87905     -1326.653 5        34.448                                    25788642.979 3 105600184.33203     -1033.746 3        22.171    25788643.146 5 105600192.31105     -1033.520 5        31.162
R03        34.000    21265132.592 8 113833952.04108     -2228.941 8        48.556                                                                    21265130.945 7  88537541.20707     -1733.665 7        44.160
R10        35.000    21507867.794 7 114649097.04107     -2235.416 7        43.545
R18        36.000    22695154.136 7 121148653.13707     -3592.663 7        45.213                                                                    22695153.258 6  94226931.16706     -2794.263 6        41.249
G32        37.000    24661560.054 6 129597380.23106      2673.129 6        40.689                                    24661559.886 5 100984965.53105      2082.957 5        34.733    24661560.088 6 100984974.52006      2083.016 6        38.438
E07        38.000    27823995.987 6 146216067.70206      2442.044 6        37.089                                                                    27823998.802 6 109187350.65606      1823.709 6        40.403    27823997.819 6 112035709.92606      1871.092 6        41.206
R09        40.000    22704042.895 7 121238363.16007     -4464.041 7        45.932                                                                    22704042.789 7  94296522.30607     -3472.183 7        43.082
E33        41.000    27150163.380 6 142675139.03806      1853.710 6        39.526                                                                    27150162.719 6 106543150.56706      1384.360 6        40.939    27150162.003 7 109322533.68807      1420.307 7        42.036
S44        42.000    40423105.700 6 212425045.50406      -521.143 6        37.274
C38        43.000                                                                                                                                    40835426.828 6 212640923.60906     -1766.037 6        37.282                                                                    40835426.151 6 172788227.34706     -1435.135 6        38.186
C05        44.000                                                                                                                                    39164914.848 6 203942019.65606      -454.602 6        37.002    39164910.808 7 157700927.64007      -351.516 7        42.457    39164912.892 6 165719697.68806      -369.401 6        39.643
C08        45.000                                                                                                                                    39347150.061 6 204891121.77306     -1749.042 6        36.412    39347145.158 6 158434885.55706     -1352.506 6        41.812    39347144.353 6 166490869.47506     -1421.275 6        38.504
R11        46.000    22662389.901 7 121100941.11507      1518.036 7        44.530                                                                    22662388.748 7  94189620.84607      1180.747 7        43.333
R19        47.000    20070420.827 6 107363585.76406     -1959.883 6        40.687                                                                    20070420.458 7  83505178.18507     -1524.303 7        45.419
C43        48.000                                                                                                                                    24515748.913 7 127660251.02607     -3124.013 7        44.173                                                                    24515748.287 7 103734534.82307     -2538.583 7        43.881
C42        50.000                                                                                                                                    24310205.911 7 126589663.36207     -2262.026 7        44.712                                                                    24310213.777 7 102864518.47407     -1838.234 7        46.275
S48        51.000    77142631.881 6 405388315.10706      -550.744 6        37.183
G21        52.000    22513354.534 6 118308540.18406      1918.443 6        40.713                                    22513349.663 4  92188492.67104      1494.887 4        25.549
C37        53.000                                                                                                                                    26173607.286 6 136292828.45306     -3420.695 6        40.300                                                                    26173611.799 6 110749103.13806     -2779.660 6        41.046
C60        54.000                                                                                                                                    40423108.176 6 210493928.10706      -516.270 6        39.889                                                                    40423092.138 6 171043527.28306      -419.807 6        39.523
C27        55.000                                                                                                                                    23107899.579 7 120328914.76007      1709.285 7        47.256                                                                    23107898.157 7  97777103.40307      1388.880 7        46.897
R04        56.000    20446492.033 8 109490050.55708      1698.322 8        50.528                                                                    20446489.900 7  85158920.30807      1320.948 7        46.992
C02        57.000                                                                                                                                    40505403.443 5 210922311.48405      -469.081 5        33.772    40505398.325 6 163098503.10806      -362.751 6        39.877    40505401.379 6 171391657.50506      -381.198 6        36.344
I03        58.000   109243974.736 6 352911573.36706      1024.429 6        40.236
C11        59.000                                                                                                                                    26535733.658 6 138178811.44306     -3307.409 6        37.452    26535732.590 7 106848766.19107     -2557.643 7        42.779    26535730.807 6 112281707.06606     -2687.602 6        40.667
C28        60.000                                                                                                                                    21404317.786 8 111458215.16108      -441.230 8        50.685                                                                    21404316.431 8  90569065.80808      -358.637 8        48.697
> 2025 01 01 20 45 30.0000000  0 55
G10         1.000    20683398.155 8 108692092.00408      -117.656 8        51.639                                    20683395.910 8  84695198.87608       -91.678 8        52.476    20683395.796 7  84695175.86907       -91.628 7        45.657
G15         2.000    24466285.426 6 128571205.98706     -2884.717 6        36.911                                    24466283.124 4 100185343.22004     -2247.831 4        28.104    24466283.991 5 100185346.21105     -2247.812 5        35.543
C33         3.000                                                                                                                                    22937225.173 8 119440177.18908       953.907 8        49.073                                                                    22937236.674 8  97054986.61108       775.194 8        49.269
E31         4.000    26774841.569 6 140702778.22106      1471.645 6        40.267                                                                    26774842.578 7 105070265.96207      1098.990 7        43.158    26774842.141 7 107811226.28007      1127.608 7        43.932
S21         5.000    38393400.939 6 201758434.51106      -516.780 6        41.518
E13         6.000    24080890.099 7 126546281.09007     -1949.502 7        46.385                                                                    24080890.328 8  94499054.09308     -1455.835 8        49.028    24080889.978 8  96964216.31108     -1493.806 8        50.274
G23         7.000    21725216.110 7 114166907.10007     -2813.716 7        45.911                                    21725212.000 5  88961264.06605     -2192.507 5        34.829    21725212.212 7  88961263.06907     -2192.481 7        44.170
E15         8.000    28305591.278 6 148747202.19206     -3018.969 6        36.465                                                                    28305591.737 6 111077626.08506     -2254.438 6        39.931    28305591.294 6 113975279.47406     -2313.300 6        40.293
G02         9.000    24668771.694 6 129635301.67606      2332.751 6        38.970                                    24668766.171 3 101014510.69703      1817.738 3        20.833
G26        11.000    25395606.898 5 133455132.99705     -4093.133 5        33.808                                    25395608.615 3 103991182.30003     -3189.437 3        21.452    25395609.207 5 103991202.26605     -3189.211 5        30.521
S27        12.000    39113784.100 6 205544264.76406      -484.748 6        36.306
R20        13.000    20787560.210 6 111160472.89106      1766.136 6        40.312                                                                    20787561.640 7  86458212.60407      1373.589 7        46.342
S36        14.000    38162707.946 7 200546884.77807      -516.244 7        43.388
G27        15.000    20058872.168 8 105410365.88108     -1052.921 8        50.178                                    20058869.897 8  82138105.62308      -820.456 8        52.967    20058870.385 7  82138019.62507      -820.519 7        46.158
S45        17.000    63373562.135 6 333031903.20106      -562.705 6        37.395
E08        18.000    26528857.399 6 139410121.87606      1193.833 6        41.313                                                                    26528856.318 7 104104961.39607       891.435 7        43.845    26528856.025 7 106820738.89307       914.694 7        44.734
G16        19.000    23012808.445 7 120933372.50907     -4010.363 7        43.941                                    23012804.338 4  94233913.47204     -3124.959 4        29.024
E21        20.000    25945443.423 7 136344590.95207     -3395.148 7        43.202                                                                    25945444.335 7 101815979.73907     -2535.403 7        45.667    25945443.531 7 104472023.85007     -2601.469 7        46.300
E26        21.000    23726157.542 8 124682147.51908       439.799 8        48.031                                                                    23726155.421 8  93106995.36408       328.414 8        50.068    23726155.261 8  95535849.08208       337.006 8        51.234
I06        22.000    38540688.727 6 151242157.17406      -301.873 6        40.746
S28        23.000    40856425.132 5 214701972.11505      -509.333 5        33.323
G08        24.000    20812726.889 8 109371633.19508      1275.507 8        48.041                                    20812725.064 8  85224649.77208       993.902 8        48.814    20812726.004 7  85224650.77607       993.969 7        45.222
S23        25.000    38118159.567 7 200312272.60607      -515.769 7        43.604
C13        26.000                                                                                                                                    38783996.956 6 201958642.59806     -1535.275 6        41.654    38783998.129 7 156167343.43607     -1187.117 7        42.415    38783996.155 6 164108026.54206     -1247.320 6        40.572
G18        27.000    24528874.557 6 128900447.07706     -3640.159 6        39.465                                    24528871.226 3 100442077.48803     -2836.489 3        22.152    24528871.203 6 100442068.49406     -2836.472 6        38.300
I02        29.000    40392745.502 5 158509894.78405     -1028.957 5        33.461
C14        30.000                                                                                                                                    23063409.879 7 120097263.74707      -717.799 7        45.696    23063405.487 8  92866819.56908      -555.071 8        50.486    23063404.487 8  97588852.38808      -583.228 8        48.551
R05        31.000    22990484.646 7 122897321.82807      3991.175 7        44.069                                                                    22990485.080 7  95586807.67607      3104.163 7        42.142
E03        32.000    27419783.199 6 144091936.49006     -1175.030 6        37.705                                                                    27419783.892 6 107601133.16106      -877.595 6        40.939    27419783.741 6 110408112.67306      -900.476 6        41.931
G30        33.000    25789905.813 5 135526870.08205     -1328.869 5        34.329                                    25789906.275 3 105605356.95103     -1035.482 3        22.476    25789906.644 5 105605364.95905     -1035.649 5        30.921
R03        34.000    21267216.001 8 113845106.22108     -2232.937 8        49.002                                                                    21267214.467 7  88546216.67707     -1736.723 7        44.789
R10        35.000    21509967.139 7 114660283.50707     -2239.313 7        44.060
R18        36.000    22698518.564 7 121166617.63807     -3593.254 7        44.612                                                                    22698518.636 6  94240903.54206     -2794.793 6        41.611
G32        37.000    24659017.029 6 129584014.39806      2672.920 6        40.555                                    24659016.387 5 100974550.60905      2082.789 5        34.805    24659016.555 6 100974559.61706      2082.620 6        38.237
E07        38.000    27821672.411 6 146203856.86106      2441.864 6        37.384                                                                    27821675.268 6 109178232.18406      1823.676 6        40.467    27821674.183 6 112026353.57306      1871.242 6        41.230
R09        40.000    22708223.242 7 121260686.39307     -4465.197 7        45.693                                                                    22708222.996 7  94313884.79407     -3473.132 7        42.241
E33        41.000    27148399.364 6 142665870.51106      1853.490 6        39.739                                                                    27148398.917 6 106536229.26906      1384.077 6        41.099    27148398.247 7 109315431.82707      1420.270 7        42.028
S44        42.000    40423602.623 6 212427650.69906      -521.313 6        37.467
C38        43.000                                                                                                                                    40837122.003 6 212649753.27506     -1765.681 6        37.210                                                                    40837121.541 6 172795402.19906     -1434.991 6        37.554
C05        44.000                                                                                                                                    39165351.113 6 203944291.91106      -454.593 6        37.180    39165347.158 7 157702684.68407      -351.393 7        42.409    39165349.398 6 165721544.10706      -369.216 6        39.568
C08        45.000                                                                                                                                    39348829.798 6 204899867.03406     -1749.173 6        36.575    39348824.809 6 158441647.93906     -1352.461 6        41.914    39348823.710 6 166497975.74006     -1421.275 6        38.523
R11        46.000    22660970.694 7 121093359.67207      1514.323 7        44.143                                                                    22660970.321 7  94183724.19207      1177.824 7        43.145
R19        47.000    20072253.887 6 107373388.71206     -1961.656 6        40.374                                                                    20072252.337 7  83512802.70407     -1525.606 7        45.229
C43        48.000                                                                                                                                    24518748.724 7 127675872.61607     -3124.733 7        44.471                                                                    24518748.001 7 103747228.66907     -2538.974 7        43.594
C42        50.000                                                                                                                                    24312379.218 7 126600979.38007     -2264.427 7        44.993                                                                    24312386.879 7 102873713.68207     -1840.062 7        46.177
S48        51.000    77143133.199 6 405391067.26106      -550.581 6        37.376
G21        52.000    22511529.696 6 118298950.02706      1917.263 6        41.054                                    22511524.731 4  92181019.82504      1493.975 4        25.744
C37        53.000                                                                                                                                    26176891.450 6 136309932.05306     -3420.970 6        40.157                                                                    26176896.205 6 110763001.21306     -2779.562 6        40.872
C60        54.000                                                                                                                                    40423603.980 6 210496509.63106      -516.280 6        40.081                                                                    40423587.790 6 171045624.98906      -419.611 6        39.291
C27        55.000                                                                                                                                    23106258.324 7 120320369.69807      1708.584 7        47.260                                                                    23106257.203 7  97770159.86107      1388.342 7        47.010
R04        56.000    20444907.442 8 109481568.04808      1694.513 8        50.892                                                                    20444906.213 7  85152322.80307      1317.926 7        46.992
C02        57.000                                                                                                                                    40505854.853 5 210924656.83505      -469.054 5        33.904    40505848.671 6 163100316.69906      -362.779 6        39.943    40505851.501 6 171393563.33906      -381.179 6        36.246
I03        58.000   109242669.668 6 352906451.65006      1024.272 6        40.389
C11        59.000                                                                                                                                    26538910.165 6 138195349.44706     -3307.844 6        37.792    26538908.942 7 106861554.40607     -2557.749 7        42.876    26538906.614 6 112295145.54906     -2687.763 6        40.491
C28        60.000                                                                                                                                    21404742.152 8 111460424.81108      -442.749 8        50.772                                                                    21404740.795 8  90570861.34108      -359.726 8        48.682
> 2025 01 01 20 45 35.0000000  0 55
G10         1.000    20683511.099 8 108692687.10408      -120.499 8        51.556                                    20683509.140 8  84695662.58908       -93.896 8        52.424    20683509.217 7  84695639.59107       -93.829 7        45.639
G15         2.000    24469031.676 6 128585635.36106     -2887.010 6        37.353                                    24469029.054 4 100196586.87904     -2249.616 4        28.199    24469029.143 5 100196589.87305     -2249.706 5        35.667
C33         3.000                                                                                                                                    22936310.378 8 119435413.99708       951.328 8        49.456                                                                    22936321.981 8  97051116.12308       772.903 8        49.125
E31         4.000    26773442.355 6 140695424.16406      1470.023 6        40.341                                                                    26773443.132 7 105064774.30207      1097.750 7        43.431    26773442.769 7 107805591.35407      1126.333 7        44.048
S21         5.000    38393895.116 6 201761018.77606      -516.847 6        41.735
E13         6.000    24082745.534 7 126556030.41407     -1950.188 7        46.290                                                                    24082745.594 8  94506334.42808     -1456.292 8        49.035    24082745.215 8  96971686.57008     -1494.292 8        50.315
G23         7.000    21727894.394 7 114180980.78007     -2815.812 7        45.868                                    21727890.068 5  88972230.56705     -2194.138 5        34.819    21727890.180 7  88972229.56707     -2194.108 7        44.397
E15         8.000    28308463.490 6 148762296.35106     -3018.567 6        36.200                                                                    28308463.987 6 111088897.68806     -2254.146 6        39.565    28308463.698 6 113986845.10906     -2313.024 6        40.262
G02         9.000    24666551.789 6 129623639.11106      2332.388 6        38.180                                    24666546.784 3 101005422.99003      1817.442 3        20.833
G26        11.000    25399500.300 5 133475595.05105     -4091.934 5        33.725                                    25399502.535 3 104007126.72003     -3188.529 3        21.262    25399502.444 5 104007146.71205     -3188.706 5        30.853
S27        12.000    39114247.959 6 205546688.63906      -484.751 6        36.215
R20        13.000    20785908.825 6 111151645.31606      1764.916 6        40.043                                                                    20785910.508 7  86451346.70507      1372.718 7        46.344
S36        14.000    38163199.556 7 200549465.10707      -516.243 7        43.460
G27        15.000    20059875.450 8 105415637.53708     -1055.755 8        50.529                                    20059873.066 8  82142213.40608      -822.663 8        52.902    20059873.462 7  82142127.41307      -822.682 7        46.130
S45        17.000    63374047.686 6 333033016.62816      -562.650 6        37.267
E08        18.000    26527722.452 6 139404157.39406      1191.961 6        41.271                                                                    26527721.312 7 104100507.40307       890.038 7        43.839    26527721.075 7 106816168.70707       913.360 7        45.059
G16        19.000    23016624.680 7 120953426.90707     -4011.415 7        43.746                                    23016620.586 4  94249540.26804     -3125.775 4        29.052
E21        20.000    25948674.056 7 136361568.88907     -3395.967 7        42.677                                                                    25948675.054 7 101828658.06007     -2536.039 7        45.824    25948674.379 7 104485032.91607     -2602.120 7        46.411
E26        21.000    23725739.652 7 124679950.98107       438.814 7        47.859                                                                    23725737.470 8  93105355.08908       327.669 8        50.089    23725737.294 8  95534166.02208       336.221 8        51.399
I06        22.000    38541072.924 6 151243665.79706      -301.565 6        40.739
S28        23.000    40856914.157 5 214704518.71505      -509.112 5        33.467
G08        24.000    20811514.446 8 109365261.04308      1273.422 8        48.312                                    20811512.490 8  85219684.45308       992.276 8        48.766    20811513.103 7  85219685.46207       992.203 7        45.181
S23        25.000    38118651.749 7 200314851.52807      -515.675 7        43.907
C13        26.000                                                                                                                                    38785471.004 7 201966318.58207     -1535.233 7        42.002    38785472.112 7 156173278.99407     -1187.090 7        42.237    38785470.237 6 164114263.91106     -1247.594 6        40.358
G18        27.000    24532338.111 6 128918648.69106     -3640.491 6        39.973                                    24532334.931 3 100456260.55503     -2836.742 3        22.609    24532334.472 6 100456251.54406     -2836.586 6        38.706
I02        29.000    40394056.696 5 158515038.67805     -1028.822 5        33.617
C14        30.000                                                                                                                                    23064100.624 7 120100859.83707      -720.687 7        46.183    23064096.021 8  92869600.29108      -557.260 8        50.310    23064094.982 8  97591774.49208      -585.698 8        48.438
R05        31.000    22986751.958 7 122877367.50007      3990.638 7        44.156                                                                    22986752.414 7  95571287.64907      3103.792 7        42.178
E03        32.000    27420902.474 6 144097817.73006     -1177.435 6        37.161                                                                    27420903.171 6 107605524.97506      -879.155 6        40.622    27420902.892 6 110412619.05106      -902.206 6        41.487
G30        33.000    25791171.766 5 135533520.69305     -1331.158 5        34.290                                    25791171.807 3 105610539.23703     -1037.265 3        22.857    25791173.072 5 105610547.23005     -1037.592 5        32.359
R03        34.000    21269303.936 8 113856281.15408     -2237.079 8        49.239                                                                    21269302.213 7  88554908.27107     -1739.875 7        44.581
R10        35.000    21512069.467 7 114671489.87407     -2243.284 7        43.678
R18        36.000    22701883.293 7 121184585.43407     -3593.869 7        44.476                                                                    22701884.684 6  94254878.48106     -2795.269 6        41.390
G32        37.000    24656473.793 6 129570649.91506      2672.894 6        40.732                                    24656473.174 5 100964136.73005      2082.773 5        34.805    24656473.734 6 100964145.74606      2082.709 6        38.303
E07        38.000    27819348.775 6 146191645.86106      2442.186 6        37.217                                                                    27819351.451 6 109169113.58706      1823.775 6        40.679    27819350.499 6 112016997.11706      1871.183 6        41.404
R09        40.000    22712404.306 7 121283015.91407     -4466.674 7        46.173                                                                    22712404.710 7  94331252.16507     -3473.951 7        42.495
E33        41.000    27146636.048 6 142656603.99306      1853.050 6        40.050                                                                    27146635.408 6 106529309.46506      1383.732 6        41.054    27146634.998 7 109308331.51507      1419.882 7        42.245
S44        42.000    40424100.659 6 212430255.87106      -520.930 6        37.592
C38        43.000                                                                                                                                    40838817.868 6 212658582.23906     -1765.671 6        38.060                                                                    40838817.101 6 172802576.44506     -1434.881 6        37.788
C05        44.000                                                                                                                                    39165787.499 6 203946564.02306      -454.379 6        37.463    39165783.588 7 157704441.63807      -351.343 7        42.463    39165785.645 6 165723390.37806      -369.384 6        39.547
C08        45.000                                                                                                                                    39350509.563 6 204908612.35406     -1748.953 6        37.013    39350504.348 7 158448410.37607     -1352.479 7        42.038    39350503.209 6 166505082.00106     -1421.112 6        38.384
R11        46.000    22659555.283 7 121085797.42407      1510.511 7        44.170                                                                    22659554.794 7  94177842.44907      1174.866 7        42.919
R19        47.000    20074087.661 6 107383200.41006     -1963.210 6        40.892                                                                    20074086.426 7  83520434.01307     -1526.975 7        44.986
C43        48.000                                                                                                                                    24521749.460 7 127691497.86407     -3125.422 7        44.897                                                                    24521748.529 7 103759925.45507     -2539.708 7        43.418
C42        50.000                                                                                                                                    24314554.618 7 126612307.36507     -2266.767 7        45.475                                                                    24314562.336 7 102882918.58407     -1841.964 7        46.105
S48        51.000    77143634.204 6 405393819.05606      -550.229 6        37.270
G21        52.000    22509705.681 6 118289365.94706      1916.260 6        40.875                                    22509700.917 4  92173551.71804      1493.188 4        25.805
C37        53.000                                                                                                                                    26180175.853 6 136327037.22906     -3421.166 6        40.570                                                                    26180180.981 6 110776900.55406     -2780.214 6        40.617
C60        54.000                                                                                                                                    40424099.441 6 210499091.12606      -516.274 6        40.074                                                                    40424083.662 6 171047722.65506      -419.716 6        39.186
C27        55.000                                                                                                                                    23104618.520 7 120311828.67607      1707.846 7        47.448                                                                    23104616.929 7  97763219.57207      1387.596 7        46.812
R04        56.000    20443327.253 8 109473105.41508      1690.648 8        50.801                                                                    20443325.355 7  85145740.75807      1314.947 7        46.245
C02        57.000                                                                                                                                    40506304.623 5 210927002.20705      -468.853 5        33.850    40506299.080 6 163102130.27606      -362.646 6        39.973    40506302.183 6 171395469.11706      -381.029 6        36.215
I03        58.000   109241364.565 6 352901329.95506      1024.399 6        40.529
C11        59.000                                                                                                                                    26542086.749 6 138211888.60806     -3307.890 6        38.453    26542085.175 7 106874343.51607     -2557.887 7        42.889    26542082.999 6 112308584.94806     -2687.967 6        40.501
C28        60.000                                                                                                                                    21405168.043 8 111462642.34708      -444.251 8        51.025                                                                    21405166.642 8  90572663.25808      -361.115 8        48.558
> 2025 01 01 20 45 40.0000000  0 55
G10         1.000    20683627.118 8 108693296.62308      -123.461 8        51.629                                    20683625.125 8  84696137.53708       -96.204 8        52.434    20683624.772 7  84696114.55107       -96.218 7        45.842
G15         2.000    24471780.305 6 128600077.69706     -2890.029 6        37.176                                    24471777.393 4 100207840.61404     -2251.958 4        27.988    24471777.663 5 100207843.59505     -2251.922 5        35.214
C33         3.000                                                                                                                                    22935398.274 8 119430663.69108       948.699 8        49.278                                                                    22935409.760 8  97047256.11808       770.909 8        49.108
E31         4.000    26772044.339 6 140688078.41006      1468.363 6        39.925                                                                    26772045.300 7 105059288.82507      1096.333 7        43.316    26772044.961 7 107799962.78007      1124.915 7        43.856
S21         5.000    38394390.697 6 201763602.47406      -516.929 6        41.609
E13         6.000    24084601.376 7 126565783.24807     -1951.020 7        46.257                                                                    24084601.530 8  94513617.39208     -1456.944 8        49.189    24084601.117 8  96979159.52308     -1494.959 8        50.310
G23         7.000    21730574.613 7 114195065.09807     -2818.045 7        45.837                                    21730570.256 5  88983205.36205     -2195.876 5        34.810    21730570.712 7  88983204.35507     -2195.899 7        44.703
E15         8.000    28311335.364 5 148777389.42505     -3018.559 5        35.400                                                                    28311336.355 6 111100168.50506     -2254.262 6        39.351    28311335.927 6 113998409.92506     -2313.037 6        40.453
G02         9.000    24664332.419 6 129611978.50806      2331.714 6        38.147                                    24664327.746 3 100996336.82703      1816.907 3        20.667
G26        11.000    25403394.003 5 133496054.00205     -4091.434 5        34.195                                    25403395.744 3 104023068.72103     -3188.120 3        20.310    25403395.879 5 104023088.69005     -3188.266 5        30.898
S27        12.000    39114708.948 6 205549112.07006      -484.642 6        36.374
R20        13.000    20784259.083 6 111142823.57806      1763.660 6        40.274                                                                    20784260.804 7  86444485.35207      1371.640 7        46.337
S36        14.000    38163688.192 7 200552044.98407      -515.814 7        43.554
G27        15.000    20060881.256 8 105420922.85708     -1058.564 8        50.533                                    20060878.819 8  82146331.83708      -824.855 8        52.953    20060879.149 7  82146245.83807      -824.890 7        46.471
S45        17.000    63374536.157 6 333035829.33706      -562.603 6        37.301
E08        18.000    26526588.780 6 139398201.85106      1190.062 6        40.787                                                                    26526588.026 7 104096060.07007       888.746 7        43.850    26526587.678 7 106811605.36207       911.906 7        45.117
G16        19.000    23020441.545 7 120973486.68907     -4012.577 7        43.175                                    23020437.724 4  94265171.25604     -3126.684 4        28.853
E21        20.000    25951905.786 7 136378551.39607     -3397.106 7        42.260                                                                    25951906.683 7 101841339.79907     -2536.877 7        45.789    25951906.079 7 104498045.46907     -2602.943 7        46.345
E26        21.000    23725322.882 7 124677759.41607       437.719 7        47.761                                                                    23725320.403 8  93103718.53308       326.844 8        50.237    23725320.264 8  95532486.77408       335.369 8        51.353
I06        22.000    38541457.627 6 151245173.94006      -301.514 6        40.913
S28        23.000    40857395.867 5 214707064.62405      -509.237 5        33.653
G08        24.000    20810303.988 8 109358899.52808      1271.144 8        48.187                                    20810301.937 8  85214727.43408       990.503 8        48.807    20810302.808 7  85214728.43907       990.514 7        45.549
S23        25.000    38119140.900 7 200317430.01107      -515.764 7        43.750
C13        26.000                                                                                                                                    38786944.974 6 201973994.64906     -1535.297 6        41.871    38786946.189 7 156179214.61407     -1187.185 7        42.227    38786944.288 6 164120501.35606     -1247.569 6        40.515
G18        27.000    24535801.940 6 128936851.10506     -3640.697 6        40.246                                    24535798.462 3 100470444.25003     -2836.902 3        22.800    24535798.224 6 100470435.24906     -2836.852 6        38.306
I02        29.000    40395366.040 5 158520182.01005     -1028.751 5        33.401
C14        30.000                                                                                                                                    23064794.316 7 120104470.25707      -723.637 7        46.230    23064789.204 8  92872392.10008      -559.582 8        50.355    23064788.355 8  97594708.26508      -587.984 8        48.432
R05        31.000    22983019.907 7 122857416.11807      3989.787 7        43.755                                                                    22983020.150 7  95555769.89607      3103.167 7        42.245
E03        32.000    27422024.059 6 144103710.28606     -1179.644 6        37.361                                                                    27422024.576 6 107609925.27206      -880.896 6        40.949    27422023.972 6 110417134.13706      -903.989 6        41.764
G30        33.000    25792439.472 5 135540183.41005     -1333.813 5        35.238                                    25792439.530 3 105615730.92603     -1039.329 3        23.600    25792439.588 5 105615738.92105     -1039.019 5        31.547
R03        34.000    21271395.984 8 113867476.63708     -2241.246 8        49.155                                                                    21271393.507 7  88563615.86407     -1743.267 7        44.594
R10        35.000    21514174.693 7 114682715.55607     -2247.215 7        43.676
R18        36.000    22705250.433 7 121202556.18907     -3594.616 7        43.765                                                                    22705250.818 6  94268855.72506     -2795.883 6        40.701
G32        37.000    24653930.330 6 129557286.47206      2672.478 6        40.746                                    24653930.131 5 100953723.66905      2082.450 5        34.938    24653930.819 6 100953732.68206      2082.383 6        38.501
E07        38.000    27817024.912 6 146179434.41006      2442.274 6        37.448                                                                    27817027.651 6 109159994.65306      1823.678 6        40.799    27817026.604 6 112007640.28506      1871.322 6        41.542
R09        40.000    22716587.950 7 121305351.20007     -4467.936 7        46.381                                                                    22716587.487 7  94348624.02807     -3474.902 7        42.169
E33        41.000    27144873.254 6 142647339.14506      1852.693 6        39.447                                                                    27144872.259 6 106522390.91806      1383.488 6        41.364    27144871.938 7 109301232.47707      1419.632 7        42.159
S44        42.000    40424592.698 6 212432860.70106      -521.053 6        37.414
C38        43.000                                                                                                                                    40840513.297 6 212667410.24506     -1765.629 6        37.974                                                                    40840512.592 6 172809749.91006     -1434.503 6        37.747
C05        44.000                                                                                                                                    39166223.666 6 203948835.68406      -454.452 6        37.395    39166219.800 7 157706198.22907      -351.343 7        42.432    39166221.829 6 165725236.29606      -369.199 6        39.402
C08        45.000                                                                                                                                    39352188.719 6 204917357.34906     -1749.009 6        36.930    39352183.262 7 158455172.55107     -1352.546 7        42.277    39352182.276 6 166512188.02406     -1421.076 6        38.321
R11        46.000    22658143.777 7 121078254.04807      1506.640 7        44.650                                                                    22658143.205 7  94171975.39707      1171.672 7        43.532
R19        47.000    20075923.883 6 107393020.64106     -1965.121 6        41.137                                                                    20075922.452 7  83528071.96207     -1528.311 7        44.679
C43        48.000                                                                                                                                    24524751.304 7 127707126.45207     -3126.168 7        44.685                                                                    24524750.046 7 103772624.95607     -2540.163 7        43.450
C42        50.000                                                                                                                                    24316732.159 7 126623647.00907     -2269.259 7        45.195                                                                    24316739.962 7 102892132.98307     -1843.888 7        46.068
S48        51.000    77144125.779 6 405396570.44406      -550.479 6        37.202
G21        52.000    22507882.588 6 118279787.68906      1915.037 6        40.222                                    22507878.302 4  92166088.13804      1492.241 4        26.012
C37        53.000                                                                                                                                    26183460.926 6 136344143.65006     -3421.519 6        40.672                                                                    26183466.163 6 110790800.91706     -2780.415 6        40.717
C60        54.000                                                                                                                                    40424595.487 6 210501672.26806      -516.341 6        40.172                                                                    40424579.243 6 171049820.05606      -419.628 6        39.285
C27        55.000                                                                                                                                    23102979.135 7 120303291.35807      1706.991 7        47.474                                                                    23102977.475 7  97756282.29907      1387.099 7        46.881
R04        56.000    20441750.809 8 109464662.34308      1686.546 8        50.671                                                                    20441748.777 7  85139173.90707      1311.686 7        46.167
C02        57.000                                                                                                                                    40506754.857 5 210929347.23105      -469.123 5        34.186    40506749.484 6 163103943.61006      -362.733 6        39.913    40506752.448 6 171397374.63506      -380.994 6        36.257
I03        58.000   109240059.096 6 352896208.09806      1024.324 6        40.422
C11        59.000                                                                                                                                    26545263.721 6 138228428.68206     -3308.032 6        38.547    26545261.332 7 106887133.33407     -2558.119 7        42.785    26545259.423 6 112322025.10906     -2688.172 6        40.403
C28        60.000                                                                                                                                    21405595.444 8 111464867.45608      -445.856 8        50.802                                                                    21405593.902 8  90574471.35008      -362.318 8        48.605
> 2025 01 01 20 45 45.0000000  0 55
G10         1.000    20683746.140 8 108693921.18608      -126.488 8        51.750                                    20683743.967 8  84696624.21008       -98.563 8        52.304    20683744.036 7  84696601.22007       -98.633 7        45.636
G15         2.000    24474531.272 6 128614533.56406     -2892.691 6        36.174                                    24474528.192 4 100219104.90404     -2254.039 4        27.557    24474527.859 5 100219107.85905     -2253.761 5        34.733
C33         3.000                                                                                                                                    22934488.480 8 119425926.89908       946.005 8        49.115                                                                    22934500.071 8  97043407.08508       768.508 8        49.140
E31         4.000    26770648.141 6 140680741.61606      1466.577 6        39.946                                                                    26770649.222 7 105053810.06307      1095.091 7        43.446    26770648.876 7 107794341.09307      1123.730 7        44.214
S21         5.000    38394880.487 6 201766186.22606      -516.656 6        41.514
E13         6.000    24086458.034 7 126575540.22107     -1951.829 7        46.212                                                                    24086458.191 8  94520903.43808     -1457.506 8        49.155    24086457.831 8  96986635.64008     -1495.539 8        50.401
G23         7.000    21733256.840 7 114209160.68507     -2820.230 7        45.536                                    21733252.545 5  88994188.93105     -2197.584 5        34.705    21733252.695 7  88994187.92807     -2197.508 7        44.220
E15         8.000    28314207.116 5 148792482.12005     -3018.669 5        35.352                                                                    28314208.135 6 111111438.99306     -2254.141 6        39.270    28314208.090 6 114009974.43306     -2312.856 6        40.377
G02         9.000    24662114.899 6 129600320.49806      2331.475 6        39.613                                    24662109.106 3 100987252.68003      1816.730 3        20.643
G26        11.000    25407286.926 5 133516510.35305     -4090.747 5        33.269                                    25407288.565 3 104039008.69003     -3187.589 3        20.024    25407289.834 5 104039028.71405     -3187.601 5        30.309
S27        12.000    39115171.184 6 205551535.64706      -484.777 6        36.223
R20        13.000    20782611.313 6 111134008.42106      1762.242 6        40.029                                                                    20782612.567 7  86437629.11607      1370.753 7        46.024
S36        14.000    38164178.873 7 200554624.79907      -516.066 7        43.393
G27        15.000    20061889.589 8 105426222.44908     -1061.313 8        50.663                                    20061887.299 8  82150461.38808      -826.997 8        52.788    20061887.605 7  82150375.38607      -826.992 7        46.410
S45        17.000    63375025.075 6 333038641.99206      -562.648 6        37.006
E08        18.000    26525456.972 6 139392255.85206      1188.266 6        40.310                                                                    26525456.548 7 104091619.89007       887.343 7        43.871    26525456.260 7 106807049.35407       910.450 7        45.229
G16        19.000    23024260.180 7 120993552.47107     -4013.734 7        43.746                                    23024256.056 4  94280806.92804     -3127.579 4        28.777
E21        20.000    25955138.496 7 136395539.08707     -3398.001 7        42.700                                                                    25955139.340 7 101854025.40207     -2537.557 7        45.800    25955138.862 7 104511062.01307     -2603.706 7        46.389
E26        21.000    23724906.923 7 124675573.47507       436.658 7        47.666                                                                    23724904.425 8  93102086.17708       326.020 8        50.184    23724904.290 8  95530811.83108       334.572 8        51.405
I06        22.000    38541841.349 6 151246682.05006      -301.564 6        40.834
S28        23.000    40857879.912 5 214709610.79905      -508.839 5        33.790
G08        24.000    20809095.399 8 109352549.31508      1268.838 8        48.143                                    20809093.544 8  85209779.21508       988.703 8        48.697    20809094.238 7  85209780.20807       988.734 7        45.464
S23        25.000    38119631.026 7 200320008.59607      -515.806 7        43.630
C13        26.000                                                                                                                                    38788419.221 6 201981671.45706     -1535.435 6        41.866    38788420.619 7 156185150.78607     -1187.178 7        42.354    38788418.616 6 164126739.36406     -1247.800 6        40.331
G18        27.000    24539266.239 6 128955054.98706     -3641.021 6        40.427                                    24539262.356 3 100484629.08703     -2837.172 3        22.286    24539262.426 6 100484620.08206     -2837.229 6        38.168
I02        29.000    40396677.125 5 158525325.17205     -1028.814 5        33.048
C14        30.000                                                                                                                                    23065490.789 7 120108095.63207      -726.545 7        46.001    23065485.470 8  92875195.46808      -561.836 8        50.432    23065484.612 8  97597654.17608      -590.504 8        48.381
R05        31.000    22979287.476 7 122837467.98807      3989.311 7        43.139                                                                    22979288.155 7  95540254.71107      3102.698 7        42.133
E03        32.000    27423147.581 6 144109614.84806     -1182.069 6        37.520                                                                    27423148.149 6 107614334.50506      -882.835 6        40.815    27423147.562 6 110421658.39406      -905.619 6        41.364
G30        33.000    25793709.933 6 135546858.86706     -1336.471 6        36.076                                    25793709.484 4 105620932.57804     -1041.403 4        24.105    25793710.919 5 105620940.54305     -1041.103 5        30.958
R03        34.000    21273490.258 8 113878692.88708     -2245.334 8        48.498                                                                    21273488.283 7  88572339.62607     -1746.330 7        44.008
R10        35.000    21516284.306 7 114693961.24907     -2251.103 7        43.388
R18        36.000    22708616.307 7 121220530.57207     -3595.354 7        42.582                                                                    22708618.834 6  94282835.79306     -2796.206 6        40.903
G32        37.000    24651387.613 6 129543924.67806      2672.368 6        40.732                                    24651387.401 5 100943311.88805      2082.361 5        34.786    24651387.487 6 100943320.89106      2082.329 6        38.465
E07        38.000    27814701.344 6 146167223.12406      2442.369 6        37.490                                                                    27814703.804 6 109150875.84506      1823.802 6        40.560    27814702.813 6 111998283.59306      1871.280 6        41.664
R09        40.000    22720771.238 7 121327693.04207     -4469.019 7        45.375                                                                    22720771.016 7  94366001.00307     -3475.747 7        42.129
E33        41.000    27143110.283 6 142638076.63706      1852.114 6        39.529                                                                    27143109.629 6 106515474.08806      1383.197 6        41.182    27143109.413 7 109294135.21907      1419.294 7        42.413
S44        42.000    40425090.269 6 212435465.79606      -520.997 6        37.433
C38        43.000                                                                                                                                    40842208.255 6 212676237.96906     -1765.465 6        38.072                                                                    40842207.699 6 172816923.21506     -1434.748 6        37.762
C05        44.000                                                                                                                                    39166659.702 6 203951107.55806      -454.491 6        37.123    39166656.078 7 157707954.98707      -351.410 7        42.470    39166658.152 6 165727082.37106      -369.432 6        39.532
C08        45.000                                                                                                                                    39353868.481 6 204926102.68906     -1749.143 6        36.904    39353862.775 7 158461935.00607     -1352.357 7        42.279    39353861.830 6 166519294.35506     -1421.437 6        38.279
R11        46.000    22656736.177 7 121070730.24807      1502.816 7        44.701                                                                    22656734.987 7  94166123.55307      1168.967 7        43.621
R19        47.000    20077760.970 6 107402850.00606     -1966.823 6        40.820                                                                    20077760.010 7  83535717.01507     -1529.605 7        44.805
C43        48.000                                                                                                                                    24527753.239 7 127722758.98707     -3126.914 7        44.755                                                                    24527752.210 7 103785327.66507     -2540.947 7        43.541
C42        50.000                                                                                                                                    24318911.851 7 126634998.90007     -2271.605 7        44.895                                                                    24318919.858 7 102901357.32307     -1846.033 7        46.065
S48        51.000    77144626.914 6 405399321.67606      -550.440 6        37.361
G21        52.000    22506061.285 6 118270215.90006      1913.618 6        40.093                                    22506056.787 4  92158629.60104      1491.138 4        25.624
C37        53.000                                                                                                                                    26186746.661 6 136361251.91406     -3421.854 6        41.063                                                                    26186751.821 6 110804702.76306     -2780.567 6        40.670
C60        54.000                                                                                                                                    40425091.345 6 210504253.68206      -516.287 6        40.131                                                                    40425075.141 6 171051917.65406      -419.746 6        39.288
C27        55.000                                                                                                                                    23101340.546 7 120294758.39207      1706.169 7        47.396                                                                    23101338.824 7  97749348.56607      1386.257 7        46.777
R04        56.000    20440177.415 8 109456239.25908      1682.554 8        50.149                                                                    20440176.086 7  85132622.64007      1308.669 7        46.472
C02        57.000                                                                                                                                    40507204.970 5 210931692.52405      -468.872 5        34.043    40507199.709 6 163105757.15006      -362.779 6        40.050    40507202.839 6 171399280.42006      -381.464 6        36.110
I03        58.000   109238754.441 6 352891086.51606      1024.270 6        40.312
C11        59.000                                                                                                                                    26548439.698 6 138244970.25506     -3308.525 6        38.321    26548437.830 7 106899924.31007     -2558.291 7        42.891    26548436.064 6 112335466.48306     -2688.619 6        40.241
C28        60.000                                                                                                                                    21406024.149 8 111467100.73808      -447.444 8        50.643                                                                    21406022.799 8  90576286.06608      -363.796 8        48.515
> 2025 01 01 20 45 50.0000000  0 55
G10         1.000    20683867.775 8 108694560.58008      -129.153 8        51.376                                    20683865.636 8  84697122.43808      -100.639 8        52.236    20683865.712 7  84697099.44207      -100.681 7        45.789
G15         2.000    24477284.128 6 128629002.78906     -2895.056 6        36.011                                    24477281.527 4 100230379.59104     -2255.889 4        27.473    24477281.531 5 100230382.57505     -2255.825 5        34.738
C33         3.000                                                                                                                                    22933581.464 8 119421203.40408       943.583 8        49.080                                                                    22933592.959 8  97039568.86408       766.652 8        49.300
E31         4.000    26769253.777 6 140673413.58606      1464.925 6        40.010                                                                    26769254.744 7 105048337.83007      1093.978 7        43.517    26769254.211 7 107788726.10807      1122.485 7        44.141
S21         5.000    38395374.396 6 201768769.92806      -516.503 6        41.657
E13         6.000    24088315.596 7 126585301.10907     -1952.328 7        46.022                                                                    24088315.610 8  94528192.41008     -1457.920 8        49.227    24088315.269 8  96994114.76008     -1495.969 8        50.413
G23         7.000    21735941.079 7 114223267.31507     -2822.263 7        45.743                                    21735936.972 5  89005181.10505     -2199.166 5        34.548    21735937.203 7  89005180.09407     -2199.167 7        44.017
E15         8.000    28317079.044 5 148807574.15405     -3018.365 5        35.029                                                                    28317080.175 6 111122709.01106     -2253.831 6        39.360    28317079.887 6 114021538.45906     -2312.590 6        40.656
G02         9.000    24659897.792 6 129588664.85906      2331.173 6        39.378                                    24659891.100 3 100978170.38703      1816.505 3        20.667
G26        11.000    25411178.282 5 133536963.94105     -4090.163 5        32.665                                    25411180.947 3 104054946.50403     -3187.106 3        19.612    25411182.200 5 104054966.50205     -3187.077 5        30.068
S27        12.000    39115630.406 6 205553959.46206      -484.481 6        36.268
R20        13.000    20780964.647 6 111125199.59006      1761.402 6        40.072                                                                    20780965.442 7  86430777.79907      1369.879 7        45.979
S36        14.000    38164667.531 7 200557204.78907      -515.891 7        43.295
G27        15.000    20062900.728 8 105431536.11108     -1063.922 8        50.503                                    20062898.458 8  82154601.90208      -829.030 8        52.731    20062898.794 7  82154515.90107      -829.002 7        46.451
S45        17.000    63375513.721 6 333041454.55506      -562.424 6        36.904
E08        18.000    26524327.452 6 139386319.21206      1186.636 6        40.327                                                                    26524326.805 7 104087186.69207       886.065 7        43.930    26524326.572 7 106802500.50607       909.215 7        45.255
G16        19.000    23028080.052 7 121013624.01507     -4014.623 7        44.251                                    23028075.443 4  94296447.08804     -3128.285 4        28.635
E21        20.000    25958372.173 7 136412531.74307     -3398.795 7        42.667                                                                    25958372.921 7 101866714.72107     -2538.096 7        45.925    25958372.371 7 104524082.35907     -2604.302 7        46.410
E26        21.000    23724491.909 7 124673392.93407       435.727 7        47.604                                                                    23724489.446 8  93100457.84208       325.431 8        50.235    23724489.301 8  95529141.01908       333.931 8        51.445
I06        22.000    38542226.173 6 151248189.95606      -301.187 6        40.706
S28        23.000    40858365.682 5 214712156.68805      -509.094 5        33.281
G08        24.000    20807889.076 8 109346210.18108      1266.986 8        48.057                                    20807887.247 8  85204839.62408       987.262 8        48.618    20807887.843 7  85204840.62107       987.353 7        45.336
S23        25.000    38120122.480 7 200322587.24207      -515.542 7        43.718
C13        26.000                                                                                                                                    38789893.923 6 201989348.73906     -1535.313 6        41.883    38789894.928 7 156191087.35207     -1187.077 7        42.326    38789892.957 6 164132977.79106     -1247.807 6        40.584
G18        27.000    24542730.436 6 128973260.09106     -3640.794 6        40.293                                    24542726.678 3 100498814.87703     -2836.995 3        22.362    24542726.628 6 100498805.87606     -2837.023 6        38.351
I02        29.000    40397988.705 5 158530467.87005     -1028.358 5        33.066
C14        30.000                                                                                                                                    23066189.080 7 120111735.77307      -729.298 7        46.029    23066184.750 8  92878010.26308      -563.965 8        50.722    23066183.629 8  97600612.09608      -592.741 8        48.561
R05        31.000    22975556.203 7 122817523.28907      3988.798 7        43.310                                                                    22975556.903 7  95524742.16007      3102.444 7        42.042
E03        32.000    27424273.913 6 144115531.10906     -1184.200 6        37.550                                                                    27424274.050 6 107618752.49106      -884.347 6        40.751    27424273.309 6 110426191.63406      -907.341 6        41.518
G30        33.000    25794982.361 6 135553546.74006     -1338.452 6        36.389                                    25794981.862 4 105626143.87804     -1042.946 4        24.947    25794983.564 5 105626151.86805     -1042.906 5        32.066
R03        34.000    21275589.079 8 113889929.98908     -2249.261 8        48.295                                                                    21275587.891 7  88581079.58607     -1749.419 7        44.006
R10        35.000    21518398.117 7 114705226.81407     -2254.864 7        44.032
R18        36.000    22711985.350 7 121238508.34707     -3595.709 7        44.080                                                                    22711986.851 6  94296818.50106     -2796.646 6        41.697
G32        37.000    24648845.425 6 129530564.36306      2672.183 6        40.636                                    24648844.921 5 100932901.26605      2082.214 5        34.733    24648845.785 6 100932910.27906      2082.138 6        38.354
E07        38.000    27812377.235 6 146155011.79206      2442.461 6        37.244                                                                    27812380.060 6 109141757.00306      1823.989 6        40.789    27812379.282 6 111988926.86906      1871.528 6        41.790
R09        40.000    22724955.907 7 121350041.02307     -4469.896 7        46.255                                                                    22724957.309 7  94383382.76207     -3476.745 7        42.009
E33        41.000    27141348.076 6 142628816.20906      1852.098 6        39.360                                                                    27141347.403 6 106508558.84706      1383.103 6        41.316    27141347.236 7 109287039.57207      1419.157 7        42.411
S44        42.000    40425585.014 6 212438070.93906      -520.820 6        37.138
C38        43.000                                                                                                                                    40843903.753 6 212685065.10206     -1765.113 6        38.526                                                                    40843902.814 6 172824095.99506     -1434.466 6        38.486
C05        44.000                                                                                                                                    39167096.835 6 203953379.39906      -454.176 6        37.206    39167092.383 7 157709711.70807      -351.060 7        42.595    39167094.422 6 165728928.43706      -369.122 6        39.664
C08        45.000                                                                                                                                    39355547.349 6 204934848.21406     -1748.689 6        36.775    39355542.367 7 158468697.59507     -1352.284 7        42.436    39355541.476 6 166526400.80306     -1421.148 6        38.793
R11        46.000    22655331.838 7 121063225.73807      1499.167 7        44.530                                                                    22655330.431 7  94160286.69507      1166.021 7        42.885
R19        47.000    20079599.404 6 107412688.18306     -1968.329 6        39.847                                                                    20079599.470 7  83543368.93707     -1530.874 7        44.769
C43        48.000                                                                                                                                    24530755.995 7 127738395.23307     -3127.371 7        44.879                                                                    24530755.104 7 103798033.41507     -2541.393 7        43.824
C42        50.000                                                                                                                                    24321094.137 7 126646362.83407     -2273.784 7        45.187                                                                    24321102.151 7 102910591.45407     -1847.740 7        46.143
S48        51.000    77145123.626 6 405400472.96616      -549.860 6        37.013
G21        52.000    22504241.008 6 118260650.29106      1912.739 6        40.117                                    22504236.438 4  92151175.88804      1490.445 4        25.504
C37        53.000                                                                                                                                    26190032.785 6 136378361.83106     -3421.844 6        41.075                                                                    26190037.388 6 110818605.96506     -2780.738 6        40.772
C60        54.000                                                                                                                                    40425586.895 6 210506835.15406      -516.058 6        40.107                                                                    40425570.660 6 171054015.31606      -419.644 6        39.312
C27        55.000                                                                                                                                    23099702.750 7 120286229.56907      1705.580 7        47.515                                                                    23099700.941 7  97742418.21007      1385.804 7        46.977
R04        56.000    20438608.376 8 109447836.17808      1678.790 8        50.843                                                                    20438606.846 7  85126086.90607      1305.721 7        46.634
C02        57.000                                                                                                                                    40507655.929 5 210934037.87105      -468.851 5        34.200    40507650.136 6 163107570.70306      -362.568 6        40.086    40507653.212 6 171401186.17606      -381.045 6        36.064
I03        58.000   109237449.194 6 352885965.05606      1024.387 6        40.305
C11        59.000                                                                                                                                    26551616.250 6 138261513.10506     -3308.465 6        38.369    26551614.828 7 106912716.25907     -2558.315 7        42.832    26551612.869 6 112348908.87606     -2688.458 6        40.276
C28        60.000                                                                                                                                    21406454.663 8 111469341.99308      -448.850 8        50.729                                                                    21406453.223 8  90578107.26908      -364.789 8        48.676
> 2025 01 01 20 45 55.0000000  0 55
G10         1.000    20683992.163 8 108695214.97808      -132.674 8        51.343                                    20683990.157 8  84697632.35908      -103.382 8        52.211    20683990.294 7  84697609.36107      -103.349 7        45.690
G15         2.000    24480040.417 6 128643485.55006     -2898.297 6        36.370                                    24480037.544 4 100241664.85304     -2258.410 4        27.557    24480038.022 5 100241667.84905     -2258.354 5        34.976
C33         3.000                                                                                                                                    22932677.149 8 119416493.41108       940.360 8        49.235                                                                    22932688.515 8  97035741.60308       764.128 8        49.311
E31         4.000    26767861.100 6 140666094.50206      1462.567 6        39.907                                                                    26767861.906 7 105042872.28207      1092.183 7        43.429    26767861.412 7 107783117.97707      1120.674 7        44.135
S21         5.000    38395863.636 6 201771354.03606      -517.019 6        41.571
E13         6.000    24090174.011 7 126595066.09907     -1953.703 7        45.950                                                                    24090173.834 8  94535484.44208     -1458.956 8        49.109    24090173.446 8  97001597.01608     -1496.953 8        50.404
G23         7.000    21738627.872 7 114237385.15707     -2825.020 7        45.591                                    21738623.523 5  89016182.01905     -2201.311 5        34.567    21738623.989 7  89016181.02107     -2201.320 7        44.205
E15         8.000    28319950.856 5 148822665.75105     -3018.413 5        35.124                                                                    28319952.057 6 111133978.70206     -2254.094 6        39.195    28319951.748 6 114033102.14206     -2312.891 6        40.820
G02         9.000    24657679.423 6 129577011.82306      2330.115 6        39.228                                    24657673.972 3 100969090.09803      1815.674 3        20.714
G26        11.000    25415070.699 5 133557414.98005     -4090.493 5        32.287                                    25415072.636 3 104070882.33803     -3187.400 3        19.104    25415072.729 4 104070902.29004     -3187.306 4        29.972
S27        12.000    39116090.818 6 205556383.06806      -484.902 6        36.030
R20        13.000    20779318.277 6 111116397.28106      1759.481 6        41.089                                                                    20779319.073 7  86423931.54507      1368.554 7        45.961
S36        14.000    38165160.590 7 200559785.10407      -516.598 7        43.316
G27        15.000    20063914.522 8 105436864.02608     -1067.325 8        50.348                                    20063912.332 8  82158753.52408      -831.681 8        52.740    20063912.611 7  82158667.52307      -831.682 7        46.559
S45        17.000    63376003.855 6 333044267.23206      -562.783 6        37.206
E08        18.000    26523200.133 6 139380392.11606      1184.175 6        40.684                                                                    26523198.908 7 104082760.61907       884.279 7        43.710    26523198.707 7 106797958.96407       907.371 7        45.222
G16        19.000    23031900.453 7 121033701.49507     -4016.322 7        43.687                                    23031896.038 4  94312091.86604     -3129.602 4        28.900
E21        20.000    25961606.777 7 136429529.54707     -3400.326 7        42.760                                                                    25961607.479 7 101879407.87007     -2539.229 7        45.591    25961606.763 7 104537106.63807     -2605.448 7        46.392
E26        21.000    23724077.764 7 124671217.96807       434.169 7        47.637                                                                    23724075.637 8  93098833.67908       324.241 8        50.183    23724075.461 8  95527474.48808       332.694 8        51.372
I06        22.000    38542610.069 6 151249697.80706      -301.674 6        40.691
S28        23.000    40858844.704 5 214714702.62805      -509.305 5        33.341
G08        24.000    20806684.934 8 109339882.32408      1264.171 8        48.062                                    20806683.102 8  85199908.83008       985.070 8        48.604    20806683.809 7  85199909.82307       985.097 7        45.362
S23        25.000    38120613.128 7 200325166.09307      -516.075 7        43.645
C13        26.000                                                                                                                                    38791368.154 6 201997026.69906     -1535.926 6        41.764    38791369.508 7 156197024.42207     -1187.497 7        42.286    38791367.421 6 164139216.75206     -1248.115 6        40.570
G18        27.000    24546195.341 6 128991466.61306     -3641.796 6        40.045                                    24546191.104 3 100513001.77303     -2837.747 3        22.305    24546191.846 6 100512992.75506     -2837.788 6        38.628
I02        29.000    40399297.797 5 158535610.39505     -1028.543 5        32.689
C14        30.000                                                                                                                                    23066891.346 7 120115390.88907      -732.754 7        45.831    23066886.795 8  92880836.61708      -566.595 8        50.600    23066885.487 8  97603582.15808      -595.404 8        48.621
R05        31.000    22971826.014 7 122797582.06707      3987.654 7        43.086                                                                    22971826.589 7  95509232.32707      3101.481 7        42.353
E03        32.000    27425401.519 6 144121459.35406     -1187.044 6        37.989                                                                    27425401.944 6 107623179.43606      -886.503 6        40.427    27425401.363 6 110430734.07206      -909.670 6        41.261
G30        33.000    25796256.900 5 135560247.29905     -1341.592 5        35.281                                    25796256.887 4 105631365.09704     -1045.386 4        25.714    25796258.183 5 105631373.08205     -1045.502 5        31.992
R03        34.000    21277692.898 8 113901188.00308     -2253.976 8        49.141                                                                    21277690.986 7  88589835.82507     -1753.092 7        43.695
R10        35.000    21520515.724 7 114716512.46807     -2259.442 7        44.253
R18        36.000    22715354.821 7 121256489.72607     -3596.883 7        44.132                                                                    22715355.949 7  94310803.99507     -2797.516 7        42.326
G32        37.000    24646303.309 6 129517205.72306      2671.333 6        40.646                                    24646302.728 5 100922491.94705      2081.557 5        34.676    24646302.971 6 100922500.96106      2081.487 6        38.219
E07        38.000    27810053.580 6 146142800.63506      2441.845 6        36.926                                                                    27810056.399 6 109132638.29506      1823.453 6        40.768    27810055.428 6 111979570.27006      1871.112 6        41.831
R09        40.000    22729142.794 7 121372395.42007     -4472.039 7        45.335                                                                    22729143.215 7  94400769.47107     -3478.105 7        42.698
E33        41.000    27139586.718 6 142619558.03706      1851.249 6        38.856                                                                    27139585.642 6 106501645.28306      1382.430 6        41.268    27139585.375 7 109279945.66707      1418.391 7        42.343
S44        42.000    40426081.417 6 212440676.36006      -521.425 6        37.115
C38        43.000                                                                                                                                    40845598.996 6 212693891.79606     -1765.561 6        37.928                                                                    40845597.834 6 172831268.40806     -1434.761 6        37.849
C05        44.000                                                                                                                                    39167532.925 6 203955651.38206      -454.489 6        37.161    39167528.697 7 157711468.57207      -351.656 7        42.406    39167530.705 6 165730774.60706      -369.434 6        39.640
C08        45.000                                                                                                                                    39357226.637 6 204943594.02606     -1749.537 6        36.571    39357221.349 7 158475460.39907     -1352.836 7        42.155    39357220.933 6 166533507.47506     -1421.567 6        38.330
R11        46.000    22653930.848 7 121055740.78407      1494.740 7        44.873                                                                    22653929.771 7  94154465.06107      1162.530 7        43.033
R19        47.000    20081440.375 6 107422535.38206     -1970.620 6        40.377                                                                    20081439.943 7  83551027.88207     -1532.764 7        44.837
C43        48.000                                                                                                                                    24533759.619 7 127754035.41107     -3128.596 7        44.417                                                                    24533758.632 7 103810742.32807     -2542.377 7        43.784
C42        50.000                                                                                                                                    24323279.353 7 126657738.98207     -2276.708 7        45.070                                                                    24323286.905 7 102919835.49807     -1850.109 7        46.263
S48        51.000    77145621.394 6 405403223.90906      -550.502 6        37.172
G21        52.000    22502422.444 6 118251091.06106      1910.884 6        40.276                                    22502417.378 4  92143727.13904      1488.999 4        25.564
C37        53.000                                                                                                                                    26193318.591 6 136395473.54306     -3422.708 6        40.632                                                                    26193323.639 6 110832510.61206     -2781.454 6        40.749
C60        54.000                                                                                                                                    40426082.462 6 210509416.88106      -516.712 6        39.898                                                                    40426066.505 6 171056113.16906      -419.925 6        39.426
C27        55.000                                                                                                                                    23098065.404 7 120277705.07207      1704.201 7        47.454                                                                    23098063.842 7  97735491.35007      1384.700 7        46.998
R04        56.000    20437043.096 8 109439453.21508      1674.272 8        50.315                                                                    20437041.398 7  85119566.82707      1302.253 7        46.965
C02        57.000                                                                                                                                    40508106.611 5 210936383.45205      -469.479 5        33.892    40508100.688 6 163109384.43206      -363.017 6        39.973    40508103.594 6 171403092.14406      -381.571 6        36.386
I03        58.000   109236144.406 6 352880843.83706      1023.971 6        40.243
C11        59.000                                                                                                                                    26554793.645 6 138278057.39606     -3309.437 6        38.144    26554791.939 7 106925509.34907     -2558.934 7        42.514    26554790.146 6 112362352.47006     -2689.190 6        40.267
C28        60.000                                                                                                                                    21406886.760 8 111471591.41308      -450.980 8        50.645                                                                    21406885.184 8  90579935.10208      -366.493 8        48.691
> 2025 01 01 20 46  0.0000000  0 55
G10         1.000    20684119.656 8 108695884.58508      -135.472 8        51.356                                    20684117.571 8  84698154.13108      -105.563 8        52.187    20684117.409 7  84698131.13407      -105.540 7        45.687
G15         2.000    24482799.284 6 128657982.01206     -2900.836 6        36.423                                    24482796.017 4 100252960.80104     -2260.381 4        27.521    24482796.643 5 100252963.80505     -2260.249 5        33.982
C33         3.000                                                                                                                                    22931774.998 8 119411797.13308       937.831 8        49.232                                                                    22931786.620 8  97031925.50808       762.035 8        49.468
E31         4.000    26766469.976 6 140658784.56206      1461.024 6        39.168                                                                    26766470.808 7 105037413.58607      1091.065 7        43.503    26766470.416 7 107777516.88607      1119.503 7        44.185
S21         5.000    38396355.921 6 201773938.48306      -516.967 6        41.163
E13         6.000    24092032.988 7 126604835.42807     -1954.445 7        46.033                                                                    24092032.808 8  94542779.71008     -1459.449 8        49.189    24092032.528 8  97009082.60108     -1497.534 8        50.410
G23         7.000    21741316.465 7 114251514.40807     -2827.058 7        45.752                                    21741312.252 5  89027191.82105     -2202.898 5        34.629    21741312.693 7  89027190.81507     -2202.878 7        44.695
E15         8.000    28322822.729 5 148837757.12405     -3018.205 5        35.390                                                                    28322823.740 6 111145248.21606     -2253.893 6        39.471    28322823.457 6 114044665.64106     -2312.799 6        40.720
G02         9.000    24655462.298 6 129565361.58806      2329.598 6        39.510                                    24655457.107 3 100960012.01603      1815.277 3        20.738
G26        11.000    25418961.220 5 133577863.54705     -4089.631 5        32.210                                    25418964.011 3 104086816.24903     -3186.719 3        18.448    25418964.384 5 104086836.22605     -3186.835 5        30.558
S27        12.000    39116552.186 5 205558807.18805      -484.806 5        35.829
R20        13.000    20777673.147 6 111107601.59406      1758.286 6        40.670                                                                    20777674.545 7  86417090.45607      1367.636 7        46.092
S36        14.000    38165650.707 7 200562365.76707      -516.306 7        43.181
G27        15.000    20064931.177 8 105442206.41508     -1070.043 8        50.260                                    20064928.946 8  82162916.42208      -833.798 8        52.697    20064929.124 7  82162830.41707      -833.770 7        46.337
S45        17.000    63376489.398 6 333047080.19706      -562.834 6        37.017
E08        18.000    26522073.916 6 139374474.81906      1182.335 6        41.123                                                                    26522072.787 7 104078341.86007       882.863 7        43.761    26522072.732 7 106793424.93507       906.008 7        45.175
G16        19.000    23035721.975 7 121053785.10407     -4017.451 7        43.585                                    23035717.929 4  94327741.43404     -3130.479 4        28.910
E21        20.000    25964842.400 7 136446532.70107     -3401.308 7        42.726                                                                    25964842.955 7 101892105.03007     -2539.961 7        45.589    25964842.368 7 104550135.02507     -2606.135 7        46.410
E26        21.000    23723665.018 7 124669048.79907       433.133 7        47.456                                                                    23723662.832 8  93097213.85208       323.433 8        50.225    23723662.645 8  95525812.40408       331.883 8        51.362
I06        22.000    38542994.489 6 151251205.78406      -301.682 6        40.896
S28        23.000    40859332.921 5 214717249.01305      -509.350 5        33.084
G08        24.000    20805483.270 8 109333565.96308      1262.002 8        48.206                                    20805481.148 8  85194986.98908       983.381 8        48.602    20805482.120 7  85194987.99007       983.402 7        45.549
S23        25.000    38121103.486 7 200327745.17907      -516.028 7        43.452
C13        26.000                                                                                                                                    38792842.766 6 202004705.53206     -1535.932 6        41.957    38792844.023 7 156202962.18807     -1187.732 7        42.430    38792842.005 6 164145456.42706     -1248.133 6        40.763
G18        27.000    24549660.155 6 129009674.75106     -3641.870 6        39.769                                    24549655.985 3 100527189.93003     -2837.829 3        22.571    24549656.310 6 100527180.91506     -2837.903 6        38.646
I02        29.000    40400609.449 5 158540752.69705     -1028.585 5        32.557
C14        30.000                                                                                                                                    23067596.020 7 120119061.10507      -735.735 7        46.007    23067591.204 8  92883674.66108      -568.869 8        50.386    23067590.337 8  97606564.52508      -597.848 8        48.620
R05        31.000    22968095.732 7 122777644.44107      3987.089 7        43.062                                                                    22968097.563 7  95493725.28407      3101.090 7        42.863
E03        32.000    27426531.891 6 144127399.72606     -1189.310 6        37.558                                                                    27426532.383 6 107627615.43206      -888.132 6        40.217    27426531.816 6 110435285.78906      -911.381 6        41.380
G30        33.000    25797535.132 5 135566960.78205     -1343.957 5        35.071                                    25797534.524 4 105636596.37304     -1047.238 4        25.068    25797536.421 5 105636604.37405     -1047.390 5        31.894
R03        34.000    21279800.130 8 113912467.21908     -2258.081 8        49.243                                                                    21279798.149 7  88598608.53607     -1756.189 7        43.831
R10        35.000    21522635.610 7 114727818.28607     -2263.305 7        43.600
R18        36.000    22718723.243 7 121274474.87007     -3597.512 7        43.642                                                                    22718724.594 7  94324792.43707     -2798.115 7        42.633
G32        37.000    24643761.823 6 129503848.98006      2671.219 6        40.815                                    24643760.968 5 100912084.10405      2081.465 5        34.681    24643761.146 6 100912093.11606      2081.326 6        38.213
E07        38.000    27807730.000 6 146130589.86606      2441.857 6        36.945                                                                    27807732.757 6 109123519.85906      1823.680 6        40.679    27807731.796 7 111970213.97507      1871.168 7        42.072
R09        40.000    22733330.148 7 121394756.37607     -4472.883 7        45.360                                                                    22733331.005 7  94418161.34007     -3479.065 7        42.868
E33        41.000    27137825.523 6 142610302.41606      1850.763 6        39.183                                                                    27137824.216 6 106494733.63206      1381.973 6        41.244    27137824.052 7 109272853.69707      1418.130 7        42.516
S44        42.000    40426577.826 6 212443282.22406      -521.082 6        36.888
C38        43.000                                                                                                                                    40847293.880 6 212702718.34906     -1765.438 6        38.048                                                                    40847292.949 6 172838440.72406     -1434.531 6        37.951
C05        44.000                                                                                                                                    39167969.307 6 203957923.76306      -454.556 6        37.384    39167965.369 7 157713225.71907      -351.550 7        42.493    39167967.148 6 165732621.11406      -369.448 6        39.871
C08        45.000                                                                                                                                    39358905.815 6 204952340.31606     -1749.537 6        36.514    39358901.156 7 158482223.59407     -1352.706 7        42.140    39358900.526 6 166540614.55406     -1421.382 6        38.480
R11        46.000    22652533.921 7 121048275.59307      1490.975 7        44.904                                                                    22652532.763 7  94148658.81107      1159.697 7        42.679
R19        47.000    20083284.486 6 107432391.95006     -1972.393 6        40.775                                                                    20083282.428 7  83558694.06807     -1533.938 7        44.485
C43        48.000                                                                                                                                    24536763.850 7 127769679.73507     -3129.318 7        43.536                                                                    24536762.950 7 103823454.60007     -2542.810 7        44.075
C42        50.000                                                                                                                                    24325466.220 7 126669127.55107     -2279.085 7        44.947                                                                    24325473.997 7 102929089.64807     -1851.974 7        46.220
S48        51.000    77146121.589 6 405405975.18706      -550.508 6        36.987
G21        52.000    22500604.603 6 118241538.42806      1909.830 6        40.112                                    22500599.533 4  92136283.52904      1488.191 4        25.744
C37        53.000                                                                                                                                    26196604.959 6 136412587.28206     -3423.179 6        40.429                                                                    26196610.347 6 110846416.90206     -2781.582 6        40.987
C60        54.000                                                                                                                                    40426578.615 6 210511999.05906      -516.586 6        40.114                                                                    40426562.497 6 171058211.40406      -419.785 6        39.571
C27        55.000                                                                                                                                    23096429.123 7 120269185.11607      1703.472 7        47.507                                                                    23096427.800 7  97728568.20007      1384.140 7        47.075
R04        56.000    20435481.369 8 109431090.73608      1670.355 8        50.527                                                                    20435479.564 7  85113062.68007      1299.156 7        46.764
C02        57.000                                                                                                                                    40508556.715 5 210938729.46705      -469.391 5        34.100    40508550.962 6 163111198.52506      -362.921 6        40.083    40508554.226 6 171404998.48006      -381.303 6        36.265
I03        58.000   109234839.380 6 352875723.04306      1024.002 6        40.343
C11        59.000                                                                                                                                    26557970.867 6 138294603.37506     -3309.481 6        37.932    26557969.241 7 106938303.74407     -2559.138 7        42.391    26557967.473 6 112375797.42706     -2689.245 6        40.267
C28        60.000                                                                                                                                    21407320.288 8 111473849.20408      -452.470 8        50.707                                                                    21407318.792 8  90581769.74608      -367.666 8        48.777
> 2025 01 01 20 46  5.0000000  0 55
G10         1.000    20684249.899 8 108696568.89108      -138.306 8        51.466                                    20684247.785 8  84698687.35708      -107.771 8        52.265    20684247.815 7  84698664.36507      -107.830 7        45.339
G15         2.000    24485560.607 6 128672491.60506     -2903.078 6        37.361                                    24485557.011 4 100264266.97804     -2262.139 4        27.485    24485556.546 5 100264269.98005     -2262.430 5        33.976
C33         3.000                                                                                                                                    22930875.560 8 119407114.03508       935.360 8        49.131                                                                    22930887.206 8  97028120.09808       760.032 8        49.372
E31         4.000    26765080.698 6 140651483.28106      1459.435 6        39.453                                                                    26765081.286 7 105031961.34507      1089.880 7        43.507    26765080.920 7 107771922.40807      1118.206 7        44.173
S21         5.000    38396847.058 6 201776522.70506      -516.719 6        41.325
E13         6.000    24093892.484 7 126614608.49407     -1954.920 7        46.120                                                                    24093892.650 8  94550077.77908     -1459.919 8        49.234    24093892.270 8  97016571.05608     -1497.994 8        50.420
G23         7.000    21744007.497 7 114265654.54407     -2829.041 7        46.043                                    21744003.122 5  89038210.10405     -2204.446 5        34.648    21744003.347 7  89038209.10207     -2204.438 7        45.238
E15         8.000    28325694.619 5 148852847.69405     -3017.861 5        35.129                                                                    28325695.522 6 111156517.14106     -2253.712 6        39.402    28325694.963 6 114056228.52706     -2312.320 6        40.632
G02         9.000    24653245.999 6 129553713.57706      2329.395 6        39.270                                    24653240.121 3 100950935.65603      1815.114 3        20.714
G26        11.000    25422852.536 5 133598309.17205     -4088.948 5        32.725                                    25422854.828 3 104102747.85803     -3186.200 3        18.418    25422854.229 4 104102767.80804     -3185.847 4        29.791
S27        12.000    39117015.299 5 205561230.52005      -484.628 5        35.881
R20        13.000    20776029.302 6 111098811.95906      1757.395 6        40.484                                                                    20776030.576 7  86410254.08907      1366.768 7        46.148
S36        14.000    38166142.469 7 200564945.49607      -515.847 7        43.179
G27        15.000    20065950.437 8 105447562.72608     -1072.629 8        50.461                                    20065948.221 8  82167090.16808      -835.812 8        52.750    20065948.380 7  82167004.16707      -835.789 7        46.371
S45        17.000    63376978.723 6 333048292.79116      -562.448 6        36.983
E08        18.000    26520949.475 6 139368566.74906      1180.745 6        41.013                                                                    26520948.656 7 104073929.98407       881.712 7        43.920    26520948.439 7 106788897.97407       904.614 7        45.248
G16        19.000    23039545.049 7 121073874.30407     -4018.374 7        43.238                                    23039540.876 4  94343395.34704     -3131.202 4        28.929
E21        20.000    25968078.854 7 136463540.64607     -3401.965 7        42.747                                                                    25968079.404 7 101904805.76907     -2540.486 7        45.463    25968079.080 7 104563167.08707     -2606.757 7        46.463
E26        21.000    23723253.385 7 124666884.87607       432.358 7        47.546                                                                    23723251.036 8  93095597.93208       322.857 8        50.285    23723250.855 8  95524154.33208       331.253 8        51.424
I06        22.000    38543378.851 6 151252713.45706      -301.373 6        40.744
S28        23.000    40859816.652 5 214719795.57505      -509.213 5        33.240
G08        24.000    20804283.235 8 109327260.57608      1259.958 8        48.156                                    20804281.268 8  85190073.69108       981.784 8        48.709    20804282.104 7  85190074.69207       981.800 7        45.541
S23        25.000    38121595.235 7 200330323.92007      -515.682 7        43.520
C13        26.000                                                                                                                                    38794317.579 6 202012384.70806     -1535.786 6        41.764    38794318.936 7 156208900.21007     -1187.654 7        42.512    38794316.880 6 164151696.38606     -1248.034 6        40.622
G18        27.000    24553125.113 6 129027883.96906     -3641.951 6        39.589                                    24553121.117 3 100541378.91903     -2837.894 3        22.648    24553121.785 6 100541369.91006     -2837.951 6        39.042
I02        29.000    40401918.802 5 158545894.52205     -1028.351 5        32.353
C14        30.000                                                                                                                                    23068303.635 7 120122745.90907      -738.318 7        45.980    23068299.059 8  92886523.99608      -570.968 8        50.452    23068297.958 8  97609558.72808      -599.967 8        48.649
R05        31.000    22964366.731 7 122757710.20207      3986.644 7        43.350                                                                    22964368.833 7  95478220.88807      3100.538 7        43.446
E03        32.000    27427664.428 6 144133351.68006     -1191.664 6        37.856                                                                    27427664.944 6 107632060.03706      -889.746 6        40.546    27427664.568 6 110439846.34006      -912.939 6        41.726
G30        33.000    25798815.423 5 135573686.60405     -1346.266 5        35.019                                    25798814.579 4 105641837.26104     -1049.041 4        24.797    25798815.963 5 105641845.23205     -1049.173 5        31.004
R03        34.000    21281910.793 8 113923767.20008     -2261.995 8        49.453                                                                    21281909.628 7  88607397.41307     -1759.434 7        44.659
R10        35.000    21524760.260 7 114739143.73407     -2266.977 7        43.431
R18        36.000    22722092.826 7 121292463.31907     -3597.920 7        43.818                                                                    22722094.914 7  94338783.42807     -2798.454 7        42.870
G32        37.000    24641220.183 6 129490493.61806      2670.929 6        40.801                                    24641219.468 5 100901677.33505      2081.243 5        34.752    24641220.517 6 100901686.34506      2081.191 6        38.294
E07        38.000    27805406.179 6 146118378.92006      2442.234 6        36.904                                                                    27805409.166 6 109114401.32006      1823.757 6        40.701    27805408.229 7 111960857.55307      1871.370 7        42.243
R09        40.000    22737518.623 7 121417123.42807     -4474.021 7        45.464                                                                    22737519.194 7  94435557.89107     -3479.822 7        42.772
E33        41.000    27136064.816 6 142601048.73306      1850.594 6        39.474                                                                    27136063.424 6 106487823.41206      1381.868 6        41.123    27136063.146 7 109265763.21807      1417.932 7        42.461
S44        42.000    40427074.444 6 212445887.99006      -521.005 6        36.900
C38        43.000                                                                                                                                    40848988.820 6 212711544.17506     -1764.966 6        37.951                                                                    40848987.775 6 172845612.43806     -1434.205 6        38.090
C05        44.000                                                                                                                                    39168405.782 6 203960195.95206      -454.207 6        37.085    39168401.460 7 157714982.72107      -351.415 7        42.360    39168403.516 6 165734467.44406      -369.143 6        39.610
C08        45.000                                                                                                                                    39360585.124 6 204961086.57806     -1749.100 6        36.745    39360581.053 6 158488986.76806     -1352.614 6        41.990    39360580.144 6 166547721.61106     -1421.453 6        38.880
R11        46.000    22651140.646 7 121040829.69407      1487.260 7        44.500                                                                    22651139.746 7  94142867.54207      1156.824 7        42.631
R19        47.000    20085127.786 6 107442257.19206     -1973.832 6        40.417                                                                    20085126.779 7  83566367.05007     -1535.193 7        44.992
C43        48.000                                                                                                                                    24539768.318 7 127785327.62607     -3129.971 7        43.098                                                                    24539767.973 7 103836169.78407     -2543.250 7        44.196
C42        50.000                                                                                                                                    24327655.268 7 126680527.96807     -2281.185 7        45.049                                                                    24327663.307 7 102938353.41507     -1853.708 7        46.234
S48        51.000    77146622.438 6 405408726.25606      -550.107 6        36.983
G21        52.000    22498787.695 6 118231991.84406      1908.802 6        40.129                                    22498782.807 4  92128844.62904      1487.380 4        25.579
C37        53.000                                                                                                                                    26199891.812 6 136429702.43806     -3423.105 6        40.539                                                                    26199897.468 6 110860324.34606     -2781.537 6        41.192
C60        54.000                                                                                                                                    40427074.393 6 210514581.15406      -516.485 6        40.055                                                                    40427058.243 6 171060309.56306      -419.704 6        39.526
C27        55.000                                                                                                                                    23094793.690 7 120260669.16807      1702.856 7        47.396                                                                    23094792.328 7  97721648.28307      1383.691 7        47.096
R04        56.000    20433923.210 8 109422748.01008      1666.557 8        50.158                                                                    20433921.689 7  85106573.90007      1296.221 7        46.722
C02        57.000                                                                                                                                    40509007.696 5 210941075.36105      -469.144 5        34.271    40509001.617 6 163113012.55306      -362.919 6        39.949    40509004.554 6 171406904.73506      -381.110 6        36.352
I03        58.000   109233534.433 6 352870602.26306      1024.189 6        40.250
C11        59.000                                                                                                                                    26561148.726 6 138311150.48106     -3309.596 6        37.622    26561146.959 7 106951099.00407     -2559.046 7        42.396    26561145.229 6 112389243.29706     -2689.269 6        40.014
C28        60.000                                                                                                                                    21407755.394 8 111476114.82508      -453.862 8        50.659                                                                    21407753.895 8  90583610.74308      -368.801 8        48.789
> 2025 01 01 20 46 10.0000000  0 55
G10         1.000    20684382.987 8 108697267.59908      -140.968 8        51.441                                    20684380.726 8  84699231.80308      -109.847 8        52.294    20684380.676 7  84699208.80407      -109.793 7        45.169
G15         2.000    24488323.876 6 128687014.07606     -2905.610 6        37.618                                    24488320.376 4 100275583.19204     -2264.111 4        27.365    24488321.261 5 100275586.17205     -2264.064 5        34.100
C33         3.000                                                                                                                                    22929978.757 8 119402443.86108       932.966 8        49.112                                                                    22929990.354 8  97024325.20008       758.043 8        49.257
E31         4.000    26763692.992 6 140644190.36506      1457.923 6        39.760                                                                    26763693.560 7 105026515.35507      1088.688 7        43.522    26763693.136 7 107766334.34207      1117.061 7        44.250
S21         5.000    38397343.953 6 201779106.71806      -516.638 6        41.423
E13         6.000    24095752.856 7 126624385.07907     -1955.538 7        46.252                                                                    24095753.047 8  94557378.46708     -1460.323 8        49.243    24095752.702 8  97024062.19108     -1498.394 8        50.365
G23         7.000    21746700.047 7 114279805.26207     -2830.963 7        46.253                                    21746695.947 5  89049236.63905     -2205.947 5        34.652    21746696.207 7  89049235.64007     -2206.007 7        45.068
E15         8.000    28328565.931 5 148867937.29805     -3017.759 5        35.162                                                                    28328566.882 6 111167785.29706     -2253.381 6        39.495    28328566.216 6 114067790.64706     -2312.208 6        40.574
G02         9.000    24651029.467 6 129542067.51806      2329.139 6        39.595                                    24651023.837 3 100941860.81303      1814.920 3        20.667
G26        11.000    25426742.308 5 133618751.56205     -4087.832 5        32.329                                    25426745.095 3 104118676.95703     -3185.338 3        18.030    25426745.170 4 104118696.94404     -3185.381 4        29.659
S27        12.000    39117478.725 6 205563653.93106      -484.335 6        36.008
R20        13.000    20774385.925 6 111090028.13506      1756.409 6        39.961                                                                    20774387.628 7  86403422.22907      1366.050 7        46.098
S36        14.000    38166632.206 7 200567524.32707      -515.503 7        43.289
G27        15.000    20066972.412 8 105452932.67208     -1075.087 8        50.585                                    20066970.094 8  82171274.54308      -837.729 8        52.772    20066970.545 7  82171188.54707      -837.734 7        46.208
S45        17.000    63377469.242 6 333051104.89906      -562.154 6        37.009
E08        18.000    26519826.769 6 139362667.64406      1179.083 6        40.887                                                                    26519826.222 7 104069524.80807       880.503 7        43.907    26519825.895 7 106784377.88207       903.456 7        45.238
G16        19.000    23043369.083 7 121093968.81607     -4019.151 7        43.105                                    23043364.886 4  94359053.39604     -3131.806 4        28.853
E21        20.000    25971316.296 7 136480553.13307     -3402.802 7        43.022                                                                    25971317.027 7 101917509.87707     -2541.050 7        45.422    25971316.550 7 104576202.61307     -2607.376 7        46.449
E26        21.000    23722842.505 7 124664725.95807       431.454 7        47.677                                                                    23722840.225 8  93093985.74708       322.247 8        50.249    23722840.054 8  95522500.08808       330.609 8        51.433
I06        22.000    38543762.603 6 151254220.63906      -301.183 6        40.617
S28        23.000    40860304.077 5 214722341.48905      -508.994 5        33.353
G08        24.000    20803085.299 7 109320965.88807      1258.082 7        47.983                                    20803083.428 8  85185168.74008       980.323 8        48.723    20803084.240 7  85185169.73907       980.286 7        45.153
S23        25.000    38122085.200 7 200332902.03007      -515.348 7        43.600
C13        26.000                                                                                                                                    38795792.166 6 202020064.02406     -1535.661 6        41.840    38795793.761 7 156214838.34307     -1187.501 7        42.548    38795791.603 6 164157936.46306     -1247.923 6        40.534
G18        27.000    24556590.394 6 129046094.00306     -3641.834 6        39.189                                    24556586.584 3 100555568.54203     -2837.783 3        22.762    24556587.445 6 100555559.52506     -2837.737 6        39.177
I02        29.000    40403229.069 5 158551035.53505     -1027.995 5        32.449
C14        30.000                                                                                                                                    23069014.413 7 120126445.08307      -741.080 7        46.017    23069009.661 8  92889384.42908      -573.067 8        50.599    23069008.307 8  97612564.60408      -602.245 8        48.482
R05        31.000    22960639.039 7 122737778.77307      3986.170 7        43.498                                                                    22960639.830 7  95462718.65307      3100.317 7        43.297
E03        32.000    27428798.865 6 144139314.96606     -1193.740 6        37.924                                                                    27428799.829 6 107636513.13006      -891.275 6        40.646    27428799.443 6 110444415.59906      -914.581 6        41.611
G30        33.000    25800097.469 5 135580424.47605     -1348.628 5        34.995                                    25800096.835 4 105647087.56904     -1050.892 4        24.361    25800096.691 5 105647095.56605     -1050.670 5        30.347
R03        34.000    21284025.291 8 113935087.29808     -2265.807 8        48.999                                                                    21284024.039 7  88616201.93107     -1762.395 7        44.749
R10        35.000    21526888.960 7 114750488.57907     -2270.787 7        43.509
R18        36.000    22725463.802 7 121310454.69907     -3598.420 7        44.470                                                                    22725464.600 7  94352776.71807     -2798.705 7        42.279
G32        37.000    24638678.538 6 129477139.34606      2671.026 6        40.443                                    24638678.173 5 100891271.42305      2081.319 5        34.662    24638678.842 6 100891280.43206      2081.240 6        38.096
E07        38.000    27803082.788 6 146106167.58506      2442.500 6        37.070                                                                    27803085.408 6 109105282.47506      1823.921 6        40.691    27803084.431 7 111951500.82207      1871.589 7        42.392
R09        40.000    22741708.733 7 121439496.26107     -4475.016 7        45.428                                                                    22741708.357 7  94452958.95507     -3480.495 7        42.307
E33        41.000    27134304.535 6 142591796.73906      1850.511 6        39.667                                                                    27134302.756 6 106480914.45506      1381.665 6        41.111    27134302.606 7 109258674.03007      1417.771 7        42.451
S44        42.000    40427567.928 6 212448493.42406      -520.734 6        37.233
C38        43.000                                                                                                                                    40850683.395 6 212720369.02806     -1764.656 6        38.066                                                                    40850682.441 6 172852783.39206     -1434.042 6        38.261
C05        44.000                                                                                                                                    39168842.131 6 203962467.71706      -454.095 6        37.414    39168837.827 7 157716739.38507      -351.200 7        42.370    39168839.669 6 165736313.44506      -369.016 6        39.712
C08        45.000                                                                                                                                    39362265.747 6 204969832.54506     -1748.915 6        37.036    39362260.359 6 158495749.70906     -1352.451 6        41.969    39362259.818 6 166554828.43606     -1421.367 6        38.577
R11        46.000    22649750.145 7 121033402.74707      1483.608 7        43.896                                                                    22649749.976 7  94137091.06207      1153.921 7        43.043
R19        47.000    20086973.007 6 107452130.97706     -1975.501 6        40.262                                                                    20086972.880 7  83574046.65407     -1536.432 7        44.941
C43        48.000                                                                                                                                    24542774.080 7 127800978.80907     -3130.293 7        43.699                                                                    24542773.810 7 103848887.65607     -2543.614 7        44.254
C42        50.000                                                                                                                                    24329846.880 7 126691939.98107     -2283.352 7        45.556                                                                    24329854.931 7 102947626.61807     -1855.485 7        46.221
S48        51.000    77147120.026 6 405411476.79306      -549.791 6        37.157
G21        52.000    22496972.560 6 118222451.07106      1907.995 6        40.195                                    22496967.351 4  92121410.26504      1486.740 4        26.012
C37        53.000                                                                                                                                    26203179.278 6 136446818.78206     -3423.175 6        41.220                                                                    26203184.519 6 110874232.77106     -2781.746 6        41.240
C60        54.000                                                                                                                                    40427570.032 6 210517162.89106      -516.088 6        40.172                                                                    40427554.012 6 171062407.42706      -419.379 6        39.333
C27        55.000                                                                                                                                    23093158.963 7 120252156.95007      1702.279 7        47.338                                                                    23093157.634 7  97714731.41107      1383.235 7        46.977
R04        56.000    20432368.615 8 109414424.87008      1662.815 8        50.305                                                                    20432367.398 7  85100100.34707      1293.302 7        46.811
C02        57.000                                                                                                                                    40509458.100 5 210943420.95905      -468.960 5        34.005    40509451.940 6 163114826.30406      -362.537 6        39.922    40509455.093 6 171408810.71106      -381.090 6        36.125
I03        58.000   109232229.237 6 352865481.29406      1024.271 6        40.133
C11        59.000                                                                                                                                    26564326.880 6 138327698.47106     -3309.379 6        38.198    26564325.236 7 106963894.94307     -2559.188 7        42.654    26564323.183 6 112402689.88206     -2689.394 6        39.811
C28        60.000                                                                                                                                    21408192.068 8 111478388.01608      -455.233 8        50.742                                                                    21408190.405 8  90585457.89408      -369.948 8        48.580
> 2025 01 01 20 46 15.0000000  0 55
G10         1.000    20684518.789 8 108697980.75008      -144.153 8        51.519                                    20684516.422 8  84699787.50808      -112.328 8        52.225    20684516.690 7  84699764.52107      -112.361 7        45.357
G15         2.000    24491089.790 6 128701549.42806     -2908.498 6        37.558                                    24491086.298 4 100286909.42904     -2266.358 4        27.114    24491086.649 5 100286912.43205     -2266.321 5        34.767
C33         3.000                                                                                                                                    22929084.525 8 119397786.64708       930.053 8        49.148                                                                    22929095.993 8  97020540.83508       755.730 8        49.349
E31         4.000    26762306.666 6 140636905.84006      1456.117 6        39.805                                                                    26762307.251 7 105021075.64107      1087.290 7        43.378    26762306.920 7 107760752.71407      1115.624 7        44.152
S21         5.000    38397833.269 6 201781690.42506      -516.779 6        41.554
E13         6.000    24097614.094 7 126634165.18307     -1956.408 7        46.181                                                                    24097614.105 8  94564681.79308     -1460.933 8        49.172    24097613.796 8  97031556.04308     -1499.045 8        50.257
G23         7.000    21749394.781 7 114293966.58407     -2833.347 7        46.179                                    21749390.797 5  89060271.43305     -2207.802 5        34.609    21749390.761 7  89060270.43307     -2207.807 7        44.721
E15         8.000    28331437.194 5 148883025.86205     -3017.756 5        35.605                                                                    28331438.109 6 111179052.71606     -2253.552 6        39.372    28331437.503 6 114079352.01106     -2312.239 6        40.119
G02         9.000    24648813.358 6 129530423.47606      2328.498 6        39.459                                    24648807.987 3 100932787.56403      1814.416 3        20.667
G26        11.000    25430632.594 5 133639190.77405     -4087.962 5        32.066                                    25430634.629 2 104134603.57902     -3185.418 2        17.358    25430634.752 4 104134623.52604     -3185.250 4        29.962
S27        12.000    39117937.513 6 205566076.73706      -484.809 6        36.015
R20        13.000    20772744.919 6 111081250.09706      1754.967 6        40.150                                                                    20772746.157 7  86396594.86307      1364.962 7        45.630
S36        14.000    38167123.910 7 200570102.23807      -515.697 7        43.211
G27        15.000    20067996.817 8 105458316.33208     -1078.180 8        50.385                                    20067994.565 8  82175469.60008      -840.142 8        52.737    20067995.059 7  82175383.60407      -840.154 7        46.453
S45        17.000    63377955.880 6 333053916.56506      -562.261 6        36.919
E08        18.000    26518705.966 6 139356777.54706      1177.175 6        40.579                                                                    26518705.455 7 104065126.37907       878.944 7        43.953    26518704.989 7 106779864.70307       901.935 7        44.986
G16        19.000    23047193.928 7 121114068.63607     -4020.498 7        43.653                                    23047189.970 4  94374715.58504     -3132.860 4        28.739
E21        20.000    25974554.558 7 136497570.15207     -3403.955 7        42.650                                                                    25974555.376 7 101930217.39307     -2541.843 7        45.434    25974554.675 7 104589241.62707     -2608.219 7        46.466
E26        21.000    23722432.514 7 124662572.03407       430.220 7        47.568                                                                    23722430.294 8  93092377.30708       321.261 8        50.228    23722430.155 8  95520849.68608       329.683 8        51.341
I06        22.000    38544146.504 6 151255727.34906      -301.304 6        40.560
S28        23.000    40860787.428 5 214724886.42705      -508.740 5        33.263
G08        24.000    20801889.704 8 109314681.95108      1255.675 8        48.351                                    20801887.649 8  85180272.16908       978.450 8        48.694    20801888.104 7  85180273.16607       978.419 7        45.365
S23        25.000    38122575.173 7 200335479.59607      -515.521 7        43.664
C13        26.000                                                                                                                                    38797266.807 6 202027743.40606     -1535.869 6        41.600    38797268.460 7 156220776.53007     -1187.690 7        42.603    38797266.353 6 164164176.57806     -1248.019 6        40.589
G18        27.000    24560055.388 6 129064304.86306     -3642.305 6        38.817                                    24560052.114 3 100569758.80603     -2838.161 3        22.495    24560052.758 6 100569749.78906     -2838.059 6        39.282
I02        29.000    40404539.328 5 158556175.67505     -1028.045 5        32.401
C14        30.000                                                                                                                                    23069727.447 7 120130158.61007      -744.208 7        45.967    23069722.673 8  92892255.96508      -575.412 8        50.875    23069721.435 8  97615582.15408      -604.733 8        48.543
R05        31.000    22956910.968 7 122717850.32107      3985.378 7        43.621                                                                    22956911.843 7  95447218.74207      3099.810 7        43.194
E03        32.000    27429935.601 6 144145289.61406     -1196.068 6        37.686                                                                    27429936.879 6 107640974.72506      -893.130 6        40.882    27429936.518 6 110448993.58806      -916.554 6        41.647
G30        33.000    25801380.665 5 135587174.52105     -1351.305 5        33.647                                    25801381.313 3 105652347.36303     -1052.977 3        23.105    25801381.545 5 105652355.39905     -1053.132 5        30.815
R03        34.000    21286144.390 8 113946427.75008     -2270.279 8        49.487                                                                    21286142.086 7  88625022.27807     -1765.812 7        45.011
R10        35.000    21529021.053 7 114761852.89307     -2274.853 7        43.850
R18        36.000    22728835.372 7 121328449.10307     -3599.253 7        44.433                                                                    22728835.235 7  94366772.35907     -2799.407 7        42.199
G32        37.000    24636137.838 6 129463786.25406      2670.344 6        39.820                                    24636137.124 5 100880866.42705      2080.783 5        34.319    24636138.244 6 100880875.42706      2080.846 6        38.426
E07        38.000    27800758.986 6 146093955.86506      2442.330 6        37.365                                                                    27800761.542 6 109096163.36006      1823.667 6        40.820    27800760.793 7 111942143.81307      1871.407 7        42.394
R09        40.000    22745900.122 7 121461874.74707     -4476.260 7        46.355                                                                    22745899.839 7  94470364.44007     -3481.570 7        42.796
E33        41.000    27132543.342 6 142582546.46006      1849.788 6        39.658                                                                    27132542.646 6 106474006.79206      1381.429 6        41.046    27132542.285 7 109251586.15707      1417.449 7        42.379
S44        42.000    40428065.320 6 212451098.53806      -521.155 6        37.059
C38        43.000                                                                                                                                    40852378.258 6 212729192.83506     -1764.754 6        38.000                                                                    40852377.010 6 172859953.44406     -1434.026 6        38.096
C05        44.000                                                                                                                                    39169277.922 6 203964739.09506      -454.285 6        36.911    39169273.998 7 157718495.76507      -351.370 7        42.519    39169275.943 6 165738159.11706      -369.178 6        39.604
C08        45.000                                                                                                                                    39363944.803 6 204978578.29106     -1749.153 6        37.096    39363939.927 6 158502512.48906     -1352.588 6        41.840    39363939.356 6 166561935.08106     -1421.344 6        38.532
R11        46.000    22648363.648 7 121025994.77507      1479.618 7        45.129                                                                    22648363.291 7  94131329.29807      1150.809 7        43.308
R19        47.000    20088821.147 6 107462013.29706     -1977.393 6        40.858                                                                    20088819.980 7  83581732.90407     -1537.968 7        44.772
C43        48.000                                                                                                                                    24545780.380 7 127816633.33907     -3131.253 7        44.421                                                                    24545780.022 7 103861608.24907     -2544.352 7        44.221
C42        50.000                                                                                                                                    24332040.976 7 126703363.64007     -2286.042 7        45.020                                                                    24332048.704 7 102956909.25607     -1857.518 7        46.261
S48        51.000    77147616.913 6 405414226.61606      -549.823 6        37.195
G21        52.000    22495157.763 6 118212916.15306      1906.555 6        40.203                                    22495152.959 4  92113980.45904      1485.618 4        25.699
C37        53.000                                                                                                                                    26206467.070 6 136463936.32806     -3423.650 6        41.638                                                                    26206471.543 6 110888142.16606     -2782.017 6        41.266
C60        54.000                                                                                                                                    40428065.922 6 210519744.31306      -516.232 6        39.826                                                                    40428049.875 6 171064505.05206      -419.491 6        39.471
C27        55.000                                                                                                                                    23091524.971 7 120243648.52007      1701.210 7        47.266                                                                    23091523.684 7  97707817.61507      1382.344 7        47.056
R04        56.000    20430818.150 8 109406121.44708      1658.709 8        50.240                                                                    20430817.098 7  85093642.14107      1290.098 7        46.875
C02        57.000                                                                                                                                    40509907.816 5 210945766.22205      -468.840 5        34.205    40509902.175 6 163116639.80306      -362.693 6        39.982    40509905.622 6 171410716.42206      -381.229 6        36.420
I03        58.000   109230924.158 6 352860360.19106      1024.010 6        40.279
C11        59.000                                                                                                                                    26567505.158 6 138344247.32706     -3309.928 6        38.045    26567503.370 7 106976691.56307     -2559.370 7        42.760    26567501.227 6 112416137.18306     -2689.662 6        40.093
C28        60.000                                                                                                                                    21408629.988 8 111480668.81808      -456.997 8        50.577                                                                    21408628.445 8  90587311.22808      -371.284 8        48.710
> 2025 01 01 20 46 20.0000000  0 55
G10         1.000    20684657.132 8 108698708.78408      -147.034 8        52.011                                    20684654.944 8  84700354.80808      -114.570 8        52.348    20684654.874 7  84700331.81107      -114.545 7        45.186
G15         2.000    24493857.829 6 128716098.08106     -2911.062 6        37.312                                    24493854.782 4 100298246.03304     -2268.352 4        27.677    24493855.157 5 100298249.03105     -2268.443 5        34.767
C33         3.000                                                                                                                                    22928192.753 8 119393142.83208       927.545 8        48.934                                                                    22928204.189 8  97016767.36608       753.634 8        49.308
E31         4.000    26760921.813 6 140629630.17306      1454.309 6        39.937                                                                    26760922.753 7 105015642.50207      1086.003 7        43.443    26760922.406 7 107755177.85207      1114.314 7        44.098
S21         5.000    38398324.513 6 201784274.23706      -516.621 6        41.478
E13         6.000    24099475.954 7 126643949.26307     -1957.170 7        46.214                                                                    24099475.980 8  94571988.07808     -1461.514 8        49.168    24099475.651 8  97039052.92808     -1499.663 8        50.355
G23         7.000    21752091.625 7 114308138.94307     -2835.530 7        46.055                                    21752087.708 5  89071314.82505     -2209.504 5        34.876    21752087.650 7  89071313.82607     -2209.481 7        44.758
E15         8.000    28334308.647 6 148898113.84406     -3017.236 6        36.053                                                                    28334309.332 6 111190319.72506     -2253.385 6        39.706    28334308.656 6 114090912.93706     -2312.170 6        39.997
G02         9.000    24646598.312 6 129518781.86406      2328.052 6        39.904                                    24646592.558 3 100923716.17203      1814.061 3        20.595
G26        11.000    25434520.365 5 133659627.16005     -4087.193 5        31.223                                    25434523.465 2 104150527.98302     -3184.811 2        17.094    25434524.354 4 104150547.97304     -3184.698 4        29.649
S27        12.000    39118396.297 5 205568499.43805      -484.518 5        35.876
R20        13.000    20771104.638 6 111072478.51406      1753.696 6        39.862                                                                    20771106.001 7  86389772.51007      1364.020 7        45.699
S36        14.000    38167614.371 7 200572681.07007      -515.776 7        43.012
G27        15.000    20069023.875 8 105463714.11008     -1080.907 8        50.340                                    20069021.737 8  82179675.65808      -842.264 8        52.845    20069022.120 7  82179589.65607      -842.229 7        46.270
S45        17.000    63378444.731 6 333056728.12006      -562.070 6        36.836
E08        18.000    26517586.765 6 139350896.91806      1175.332 6        40.498                                                                    26517586.304 7 104060734.99807       877.565 7        43.869    26517586.047 7 106775358.75907       900.602 7        44.900
G16        19.000    23051019.969 7 121134174.19007     -4021.640 7        43.255                                    23051015.935 4  94390382.24704     -3133.741 4        28.701
E21        20.000    25977793.817 7 136514592.15907     -3404.807 7        42.669                                                                    25977794.573 7 101942928.61007     -2542.492 7        45.609    25977793.758 7 104602284.45507     -2608.938 7        46.424
E26        21.000    23722023.631 7 124660423.57007       429.212 7        47.553                                                                    23722021.472 8  93090772.93008       320.533 8        50.250    23722021.308 8  95519203.45408       328.936 8        51.339
I06        22.000    38544530.642 6 151257233.91806      -301.240 6        40.715
S28        23.000    40861269.124 5 214727431.58305      -509.113 5        33.407
G08        24.000    20800696.172 8 109308409.22008      1253.445 8        48.317                                    20800693.985 8  85175384.32608       976.709 8        48.841    20800694.659 7  85175385.32407       976.793 7        45.639
S23        25.000    38123066.529 7 200338057.06407      -515.471 7        43.541
C13        26.000                                                                                                                                    38798741.978 6 202035423.36106     -1535.875 6        41.499    38798743.153 7 156226715.14307     -1187.661 7        42.686    38798741.239 6 164170417.17206     -1248.098 6        40.555
G18        27.000    24563520.908 6 129082517.02006     -3642.616 6        38.147                                    24563517.872 3 100583950.08303     -2838.395 3        22.343    24563518.311 6 100583941.05406     -2838.156 6        39.354
I02        29.000    40405848.495 5 158561315.30805     -1028.023 5        32.449
C14        30.000                                                                                                                                    23070443.378 7 120133886.95407      -747.139 7        45.878    23070438.864 8  92895138.94308      -577.664 8        50.898    23070437.434 8  97618611.73408      -607.044 8        48.426
R05        31.000    22953183.266 7 122697925.34807      3984.743 7        43.079                                                                    22953184.691 7  95431721.55707      3099.235 7        42.809
E03        32.000    27431075.128 6 144151276.05206     -1198.297 6        37.527                                                                    27431076.193 6 107645445.10906      -894.840 6        40.920    27431075.905 6 110453580.59506      -918.360 6        41.607
G30        33.000    25802667.849 5 135593937.01205     -1353.644 5        33.000                                    25802668.358 3 105657616.88703     -1054.807 3        21.762    25802668.631 5 105657624.89705     -1054.747 5        30.181
R03        34.000    21288266.527 8 113957789.04608     -2274.188 8        49.009                                                                    21288264.194 7  88633858.82607     -1768.811 7        44.423
R10        35.000    21531156.805 7 114773236.98407     -2278.731 7        44.126
R18        36.000    22732206.076 7 121346446.92707     -3599.773 7        44.318                                                                    22732207.391 6  94380770.65706     -2799.854 6        41.905
G32        37.000    24633597.499 6 129450434.73806      2670.336 6        40.036                                    24633596.393 5 100870462.66105      2080.773 5        34.243    24633597.516 6 100870471.66406      2080.656 6        38.180
E07        38.000    27798435.456 6 146081744.25906      2442.214 6        37.516                                                                    27798437.828 6 109087044.28706      1823.770 6        40.956    27798436.904 7 111932786.86107      1871.517 7        42.400
R09        40.000    22750092.124 7 121484259.42907     -4477.497 7        46.164                                                                    22750091.425 7  94487774.71407     -3482.465 7        43.081
E33        41.000    27130783.495 6 142573298.35406      1849.429 6        39.922                                                                    27130782.775 6 106467100.73906      1381.043 6        41.199    27130782.438 7 109244499.94807      1417.122 7        42.195
S44        42.000    40428562.591 6 212453703.77506      -520.987 6        37.081
C38        43.000                                                                                                                                    40854072.629 6 212738016.10206     -1764.538 6        38.108                                                                    40854071.586 6 172867123.07506     -1433.848 6        38.216
C05        44.000                                                                                                                                    39169714.411 6 203967010.50706      -454.192 6        36.960    39169710.210 7 157720252.14807      -351.276 7        42.552    39169712.083 6 165740004.81606      -368.971 6        39.613
C08        45.000                                                                                                                                    39365625.345 6 204987324.25706     -1749.116 6        37.327    39365619.451 6 158509275.40506     -1352.580 6        41.630    39365619.116 6 166569041.89206     -1421.450 6        38.640
R11        46.000    22646981.988 7 121018606.31307      1475.829 7        45.341                                                                    22646980.951 7  94125582.73507      1147.782 7        43.206
R19        47.000    20090670.130 6 107471904.50806     -1979.107 6        40.937                                                                    20090668.947 7  83589426.05707     -1539.267 7        44.667
C43        48.000                                                                                                                                    24548787.851 7 127832291.67307     -3132.041 7        44.351                                                                    24548786.937 7 103874331.92407     -2545.050 7        43.879
C42        50.000                                                                                                                                    24334237.030 7 126714799.33307     -2288.285 7        44.916                                                                    24334244.796 7 102966201.70307     -1859.419 7        46.145
S48        51.000    77148116.832 6 405416975.88306      -549.842 6        37.081
G21        52.000    22493344.941 6 118203387.51506      1905.156 6        40.431                                    22493339.698 4  92106555.54904      1484.526 4        25.669
C37        53.000                                                                                                                                    26209754.543 6 136481055.49606     -3423.903 6        41.273                                                                    26209758.955 6 110902052.88706     -2782.414 6        41.113
C60        54.000                                                                                                                                    40428561.552 6 210522325.86306      -516.225 6        39.757                                                                    40428545.635 6 171066602.77706      -419.455 6        39.366
C27        55.000                                                                                                                                    23089892.250 7 120235144.31107      1700.513 7        47.223                                                                    23089890.493 7  97700907.25207      1381.788 7        46.934
R04        56.000    20429271.400 8 109397838.02808      1654.763 8        50.470                                                                    20429269.942 7  85087199.47707      1287.006 7        46.556
C02        57.000                                                                                                                                    40510358.448 5 210948111.59805      -469.122 5        33.719    40510352.753 6 163118453.41406      -362.671 6        39.895    40510355.879 6 171412622.24906      -381.197 6        36.049
I03        58.000   109229619.321 6 352855239.22306      1024.268 6        40.276
C11        59.000                                                                                                                                    26570682.860 6 138360797.50906     -3310.167 6        37.399    26570681.687 7 106989489.18607     -2559.565 7        42.715    26570679.817 6 112429585.53806     -2689.740 6        39.970
C28        60.000                                                                                                                                    21409069.302 8 111482957.67408      -458.500 8        50.370                                                                    21409068.001 8  90589171.11308      -372.559 8        48.597
> 2025 01 01 20 46 25.0000000  0 55
G10         1.000    20684798.668 8 108699451.82208      -149.994 8        51.865                                    20684796.341 8  84700933.79708      -116.877 8        52.421    20684796.634 7  84700910.80207      -116.916 7        45.356
G15         2.000    24496628.792 6 128730660.18106     -2913.636 6        36.715                                    24496625.838 4 100309593.10204     -2270.369 4        27.629    24496626.516 5 100309596.10205     -2270.246 5        34.595
C33         3.000                                                                                                                                    22927303.641 8 119388512.56708       924.720 8        49.187                                                                    22927315.026 8  97013004.87708       751.528 8        49.235
E31         4.000    26759539.258 6 140622363.47506      1452.602 6        40.086                                                                    26759539.937 7 105010216.07907      1084.635 7        43.215    26759539.645 7 107749609.86607      1112.935 7        44.134
S21         5.000    38398813.239 6 201786858.35006      -516.968 6        41.285
E13         6.000    24101338.489 7 126653737.43607     -1957.988 7        46.293                                                                    24101338.622 8  94579297.42808     -1462.127 8        49.090    24101338.295 8  97046552.95908     -1500.318 8        50.354
G23         7.000    21754790.844 7 114322322.45507     -2837.773 7        46.203                                    21754786.775 5  89082366.91605     -2211.251 5        34.952    21754786.787 7  89082365.91007     -2211.247 7        44.814
E15         8.000    28337179.849 5 148913201.42205     -3017.660 5        35.790                                                                    28337180.464 6 111201586.40306     -2253.239 6        39.595    28337179.748 6 114102473.53606     -2312.030 6        39.967
G02         9.000    24644383.903 6 129507142.84806      2327.553 6        38.709                                    24644377.539 3 100914646.81803      1813.666 3        20.667
G26        11.000    25438408.967 5 133680060.90005     -4086.394 5        31.540                                    25438411.898 2 104166450.35202     -3184.192 2        16.868    25438413.159 4 104166470.30304     -3183.951 4        29.194
S27        12.000    39118857.138 6 205570922.46406      -484.622 6        36.144
R20        13.000    20769466.390 6 111063713.55606      1752.307 6        39.895                                                                    20769467.185 7  86382955.31207      1362.990 7        46.383
S36        14.000    38168105.829 7 200575260.45307      -516.030 7        43.213
G27        15.000    20070054.079 8 105469126.16608     -1083.816 8        50.524                                    20070051.633 8  82183892.84308      -844.529 8        52.936    20070051.917 7  82183806.84107      -844.509 7        46.181
S45        17.000    63378932.133 6 333059539.79506      -562.367 6        36.957
E08        18.000    26516469.700 6 139345025.90506      1173.386 6        40.584                                                                    26516468.841 7 104056350.80807       876.089 7        43.615    26516468.713 7 106770860.20207       899.008 7        44.745
G16        19.000    23054846.976 7 121154285.60607     -4022.796 7        43.126                                    23054842.947 4  94406053.47104     -3134.643 4        28.796
E21        20.000    25981033.802 7 136531619.25607     -3405.848 7        42.997                                                                    25981034.649 7 101955643.65807     -2543.357 7        45.631    25981033.834 7 104615331.19407     -2609.714 7        46.357
E26        21.000    23721615.981 7 124658280.71607       428.094 7        47.678                                                                    23721613.733 8  93089172.74608       319.686 8        50.144    23721613.534 8  95517561.53008       328.004 8        51.351
I06        22.000    38544914.374 6 151258740.44906      -301.327 6        40.596
S28        23.000    40861753.294 5 214729976.99105      -509.313 5        33.533
G08        24.000    20799504.510 8 109302147.80608      1251.195 8        48.273                                    20799502.481 8  85170505.30308       974.957 8        48.933    20799503.542 7  85170506.30507       974.980 7        45.514
S23        25.000    38123555.617 7 200340634.68507      -515.379 7        43.505
C13        26.000                                                                                                                                    38800216.776 6 202043103.94906     -1536.110 6        41.592    38800218.134 7 156232654.25407     -1187.812 7        42.779    38800216.277 6 164176658.24906     -1248.095 6        40.503
G18        27.000    24566986.804 6 129100730.56506     -3642.771 6        37.660                                    24566983.965 3 100598142.43103     -2838.513 3        22.248    24566984.038 6 100598133.42506     -2838.598 6        39.267
I02        29.000    40407157.940 5 158566454.79705     -1027.922 5        32.395
C14        30.000                                                                                                                                    23071161.860 7 120137630.20307      -750.145 7        45.791    23071157.380 8  92898033.47208      -580.007 8        50.742    23071156.249 8  97621653.41408      -609.415 8        48.365
R05        31.000    22949456.256 7 122678003.95507      3984.072 7        42.974                                                                    22949457.557 7  95416227.16007      3098.579 7        43.056
E03        32.000    27432216.421 6 144157274.41306     -1200.766 6        37.323                                                                    27432217.589 6 107649924.40106      -896.763 6        41.018    27432217.255 6 110458176.73006      -920.041 6        41.652
G30        33.000    25803957.828 5 135600712.15105     -1356.335 5        32.898                                    25803957.571 3 105662896.23603     -1056.889 3        20.976    25803958.007 4 105662904.27004     -1056.918 4        29.374
R03        34.000    21290392.432 8 113969171.29608     -2278.570 8        49.178                                                                    21290390.558 7  88642711.67207     -1772.210 7        44.414
R10        35.000    21533295.763 7 114784640.97207     -2282.742 7        43.136
R18        36.000    22735578.303 7 121364448.38207     -3600.546 7        43.236                                                                    22735579.191 6  94394771.75406     -2800.438 6        41.669
G32        37.000    24631057.089 6 129437085.00406      2669.853 6        40.484                                    24631055.935 5 100860060.28205      2080.403 5        34.229    24631056.796 6 100860069.29606      2080.304 6        37.970
E07        38.000    27796111.715 6 146069532.84206      2442.394 6        37.652                                                                    27796113.993 6 109077925.39906      1823.700 6        40.770    27796113.272 7 111923430.09107      1871.367 7        42.419
R09        40.000    22754284.396 7 121506650.41107     -4478.605 7        46.222                                                                    22754283.944 7  94505189.92807     -3483.632 7        42.760
E33        41.000    27129024.340 6 142564052.56806      1849.063 6        39.910                                                                    27129023.229 6 106460196.41206      1380.702 6        41.042    27129023.103 7 109237415.51507      1416.786 7        42.383
S44        42.000    40429054.698 6 212456309.27406      -521.111 6        37.134
C38        43.000                                                                                                                                    40855767.263 6 212746839.00106     -1764.295 6        38.372                                                                    40855765.909 6 172874292.36006     -1433.775 6        38.441
C05        44.000                                                                                                                                    39170150.662 6 203969282.07406      -454.339 6        36.919    39170146.559 7 157722008.66807      -351.289 7        42.476    39170148.437 6 165741850.64406      -368.995 6        39.535
C08        45.000                                                                                                                                    39367305.617 6 204996070.44806     -1749.141 6        37.580    39367299.362 6 158516038.52606     -1352.709 6        41.199    39367298.525 6 166576148.87306     -1421.390 6        38.225
R11        46.000    22645602.210 7 121011237.43207      1471.901 7        43.680                                                                    22645601.381 7  94119851.37707      1144.708 7        42.444
R19        47.000    20092520.740 6 107481804.83306     -1980.944 6        40.939                                                                    20092519.649 7  83597126.30407     -1540.695 7        44.990
C43        48.000                                                                                                                                    24551795.595 7 127847953.91807     -3132.781 7        44.163                                                                    24551794.523 7 103887058.75707     -2545.514 7        43.831
C42        50.000                                                                                                                                    24336435.480 7 126726247.19807     -2290.753 7        45.156                                                                    24336443.177 7 102975504.01607     -1861.352 7        46.074
S48        51.000    77148615.972 6 405419725.16806      -549.931 6        37.346
G21        52.000    22491532.718 6 118193865.28106      1904.078 6        40.195                                    22491527.702 4  92099135.62604      1483.702 4        25.880
C37        53.000                                                                                                                                    26213042.176 6 136498176.43706     -3424.325 6        40.734                                                                    26213047.052 6 110915965.00006     -2782.467 6        40.973
C60        54.000                                                                                                                                    40429057.397 6 210524907.67006      -516.417 6        39.793                                                                    40429041.524 6 171068700.68406      -419.392 6        39.345
C27        55.000                                                                                                                                    23088259.751 7 120226644.45807      1699.583 7        47.189                                                                    23088258.207 7  97694000.41507      1381.134 7        46.863
R04        56.000    20427728.651 8 109389574.90508      1650.627 8        50.751                                                                    20427726.758 7  85080772.59707      1283.824 7        46.603
C02        57.000                                                                                                                                    40510809.250 5 210950457.27005      -469.292 5        34.067    40510803.189 6 163120267.21806      -362.614 6        39.994    40510806.359 6 171414528.27206      -381.141 6        36.068
I03        58.000   109228314.456 6 352850118.55206      1024.066 6        40.210
C11        59.000                                                                                                                                    26573860.509 6 138377349.17006     -3310.416 6        37.943    26573860.114 7 107002287.97107     -2559.818 7        42.557    26573858.007 6 112443035.07806     -2690.058 6        39.640
C28        60.000                                                                                                                                    21409510.451 8 111485254.70608      -460.206 8        50.441                                                                    21409509.042 8  90591037.62108      -373.882 8        48.597
> 2025 01 01 20 46 30.0000000  0 55
G10         1.000    20684942.530 8 108700209.38708      -152.879 8        51.838                                    20684940.498 8  84701524.10508      -119.128 8        52.397    20684940.751 7  84701501.11107      -119.135 7        45.348
G15         2.000    24499402.269 6 128745235.26106     -2916.290 6        37.127                                    24499399.375 4 100320950.31504     -2272.439 4        28.076    24499399.744 5 100320953.34105     -2272.529 5        35.062
C33         3.000                                                                                                                                    22926416.909 8 119383895.36608       922.165 8        49.351                                                                    22926428.351 8  97009253.02608       749.371 8        49.181
E31         4.000    26758158.137 6 140615105.30706      1450.894 6        40.236                                                                    26758158.819 7 105004796.01407      1083.487 7        43.321    26758158.408 7 107744048.41407      1111.674 7        43.994
S21         5.000    38399306.919 6 201789442.42106      -516.828 6        41.464
E13         6.000    24103201.985 7 126663529.21207     -1958.654 7        46.277                                                                    24103201.956 8  94586609.45708     -1462.632 8        49.186    24103201.575 8  97054055.73408     -1500.811 8        50.232
G23         7.000    21757491.857 7 114336516.62807     -2839.842 7        46.262                                    21757487.868 5  89093427.30305     -2212.859 5        34.990    21757487.825 7  89093426.30407     -2212.903 7        44.221
E15         8.000    28340050.455 5 148928288.07105     -3017.171 5        35.886                                                                    28340051.611 6 111212852.37906     -2253.007 6        39.712    28340050.734 6 114114033.40906     -2311.793 6        39.892
G02         9.000    24642169.146 6 129495505.94806      2327.353 6        38.318                                    24642163.366 3 100905579.11903      1813.520 3        20.429
G26        11.000    25442297.094 5 133700491.46905     -4085.294 5        30.091                                    25442299.844 2 104182370.24702     -3183.318 2        16.566    25442298.779 4 104182390.24904     -3184.004 4        29.299
S27        12.000    39119317.563 6 205573344.97806      -484.298 6        36.242
R20        13.000    20767827.613 6 111054954.52006      1751.308 6        39.817                                                                    20767828.754 7  86376142.73407      1362.085 7        46.091
S36        14.000    38168593.719 7 200577839.88507      -515.717 7        43.168
G27        15.000    20071086.497 8 105474551.98908     -1086.473 8        50.533                                    20071084.144 8  82188120.75708      -846.602 8        52.993    20071084.620 7  82188034.75607      -846.638 7        46.247
S45        17.000    63379423.864 6 333062351.06806      -562.265 6        37.059
E08        18.000    26515354.297 6 139339164.01506      1171.550 6        40.768                                                                    26515353.290 7 104051973.41507       874.948 7        43.581    26515353.159 7 106766368.62007       897.619 7        44.530
G16        19.000    23058675.303 7 121174402.36907     -4023.809 7        43.693                                    23058671.022 4  94421728.86504     -3135.436 4        28.768
E21        20.000    25984274.817 7 136548650.97807     -3406.788 7        42.789                                                                    25984275.624 7 101968362.14607     -2543.974 7        45.704    25984274.817 7 104628381.46507     -2610.376 7        46.257
E26        21.000    23721209.157 7 124656142.94807       427.041 7        47.559                                                                    23721206.962 8  93087576.36008       318.903 8        50.271    23721206.693 8  95515923.50108       327.220 8        51.273
I06        22.000    38545297.995 6 151260246.55406      -301.118 6        40.777
S28        23.000    40862238.062 5 214732521.93405      -508.970 5        33.347
G08        24.000    20798314.652 8 109295897.25008      1249.156 8        48.176                                    20798313.052 8  85165634.73808       973.370 8        48.923    20798313.682 7  85165635.74707       973.269 7        45.207
S23        25.000    38124046.878 7 200343212.03307      -515.427 7        43.693
C13        26.000                                                                                                                                    38801692.011 6 202050784.72306     -1536.034 6        41.590    38801693.141 7 156238593.51607     -1187.788 7        42.684    38801691.205 6 164182899.51006     -1248.225 6        40.448
G18        27.000    24570453.385 6 129118945.03406     -3642.973 6        38.646                                    24570450.228 3 100612335.50403     -2838.683 3        22.057    24570450.740 6 100612326.49406     -2838.589 6        38.772
I02        29.000    40408467.532 5 158571593.79805     -1027.518 5        32.665
C14        30.000                                                                                                                                    23071883.276 7 120141387.92307      -752.980 7        45.664    23071879.004 8  92900939.17708      -582.225 8        50.707    23071877.910 8  97624706.87908      -611.839 8        48.360
R05        31.000    22945730.634 7 122658085.74707      3983.386 7        43.367                                                                    22945731.478 7  95400735.19807      3098.174 7        43.060
E03        32.000    27433360.123 6 144163284.20606     -1203.081 6        37.418                                                                    27433361.264 6 107654412.18906      -898.399 6        40.963    27433360.981 6 110462781.60006      -921.807 6        41.423
G30        33.000    25805248.638 5 135607499.42805     -1358.719 5        34.462                                    25805249.182 3 105668185.05503     -1058.712 3        20.595    25805248.573 4 105668193.03704     -1058.747 4        28.758
R03        34.000    21292523.065 8 113980573.91508     -2282.453 8        49.730                                                                    21292521.250 7  88651580.37607     -1775.284 7        44.688
R10        35.000    21535438.674 7 114796064.35907     -2286.538 7        44.099
R18        36.000    22738950.835 7 121382452.86907     -3601.204 7        43.549                                                                    22738952.235 6  94408775.26706     -2800.761 6        41.604
G32        37.000    24628517.168 6 129423736.54806      2669.515 6        40.665                                    24628515.807 5 100849658.89805      2080.138 5        34.343    24628517.206 6 100849667.91406      2080.052 6        38.162
E07        38.000    27793787.707 6 146057321.19206      2442.338 6        37.811                                                                    27793790.118 6 109068806.30506      1823.781 6        40.975    27793789.504 7 111914073.10307      1871.503 7        42.262
R09        40.000    22758478.098 7 121529047.18707     -4479.804 7        45.381                                                                    22758479.326 7  94522609.61107     -3484.372 7        42.991
E33        41.000    27127264.697 6 142554808.58006      1848.641 6        39.643                                                                    27127263.925 6 106453293.43206      1380.500 6        41.044    27127264.153 7 109230332.45407      1416.571 7        42.277
S44        42.000    40429552.371 6 212458914.52706      -520.946 6        37.414
C38        43.000                                                                                                                                    40857461.064 6 212755661.05506     -1764.389 6        37.939                                                                    40857460.206 6 172881460.99606     -1433.466 6        38.084
C05        44.000                                                                                                                                    39170586.172 6 203971553.33906      -454.182 6        37.195    39170582.766 7 157723764.95007      -351.181 7        42.265    39170584.514 6 165743696.23206      -369.116 6        39.480
C08        45.000                                                                                                                                    39368985.494 6 205004816.44306     -1749.195 6        38.126    39368979.142 6 158522801.48206     -1352.546 6        41.387    39368978.305 6 166583255.72506     -1421.276 6        38.673
R11        46.000    22644226.819 7 121003887.74907      1468.043 7        44.178                                                                    22644226.312 7  94114134.97507      1141.859 7        42.123
R19        47.000    20094372.661 6 107491713.75206     -1982.473 6        40.338                                                                    20094372.193 7  83604833.24707     -1541.989 7        44.892
C43        48.000                                                                                                                                    24554803.692 7 127863619.57107     -3133.422 7        44.200                                                                    24554802.960 7 103899788.38607     -2546.075 7        43.591
C42        50.000                                                                                                                                    24338636.206 7 126737706.74907     -2292.991 7        45.144                                                                    24338643.791 7 102984815.84307     -1863.299 7        45.935
S48        51.000    77149112.765 6 405422474.10706      -549.774 6        36.968
G21        52.000    22489721.229 6 118184349.01706      1902.746 6        40.453                                    22489716.740 4  92091720.36504      1482.660 4        26.084
C37        53.000                                                                                                                                    26216330.422 6 136515298.60306     -3424.619 6        40.360                                                                    26216335.082 6 110929878.15606     -2782.693 6        40.937
C60        54.000                                                                                                                                    40429553.251 6 210527489.24806      -516.312 6        40.024                                                                    40429537.280 6 171070798.43106      -419.467 6        39.255
C27        55.000                                                                                                                                    23086628.273 7 120218148.48407      1698.891 7        47.449                                                                    23086626.729 7  97687096.73407      1380.546 7        46.883
R04        56.000    20426189.285 8 109381331.43608      1646.717 8        50.530                                                                    20426187.818 7  85074361.02007      1280.742 7        46.881
C02        57.000                                                                                                                                    40511259.681 5 210952802.67205      -469.161 5        34.124    40511253.495 6 163122080.82606      -362.699 6        39.679    40511256.955 6 171416434.10206      -381.174 6        36.136
I03        58.000   109227009.700 6 352844997.77406      1024.142 6        40.105
C11        59.000                                                                                                                                    26577040.586 6 138393901.79406     -3310.671 6        38.342    26577038.783 7 107015087.50807     -2559.925 7        42.468    26577036.957 6 112456485.46206     -2690.064 6        39.766
C28        60.000                                                                                                                                    21409953.322 8 111487559.43508      -461.614 8        50.627                                                                    21409951.640 8  90592910.40908      -375.080 8        48.414
> 2025 01 01 20 46 35.0000000  0 55
G10         1.000    20685089.613 8 108700981.53408      -155.990 8        51.572                                    20685087.431 8  84702125.77708      -121.551 8        52.443    20685087.684 7  84702102.77907      -121.568 7        45.658
G15         2.000    24502178.523 6 128759823.23706     -2919.032 6        37.346                                    24502175.466 4 100332317.57204     -2274.570 4        27.976    24502176.256 5 100332320.57205     -2274.396 5        35.024
C33         3.000                                                                                                                                    22925532.763 8 119379291.29408       919.410 8        49.535                                                                    22925544.218 8  97005511.84308       747.102 8        49.140
E31         4.000    26756778.544 6 140607855.73106      1449.025 6        40.172                                                                    26756779.335 7 104999382.38007      1082.065 7        43.344    26756778.778 7 107738493.54507      1110.305 7        44.092
S21         5.000    38399797.076 6 201792026.59906      -516.823 6        41.507
E13         6.000    24105065.929 7 126673324.65607     -1959.447 7        46.428                                                                    24105065.969 8  94593924.23708     -1463.242 8        49.141    24105065.534 8  97061561.33308     -1501.420 8        50.272
G23         7.000    21760195.098 7 114350721.51107     -2842.091 7        46.029                                    21760190.968 5  89104496.03905     -2214.616 5        34.867    21760190.942 7  89104495.04107     -2214.569 7        44.336
E15         8.000    28342920.939 6 148943373.83106     -3017.156 6        36.015                                                                    28342922.100 6 111224117.70606     -2253.063 6        39.745    28342921.433 6 114125592.62206     -2311.804 6        40.007
G02         9.000    24639955.461 6 129483871.23606      2326.671 6        39.189                                    24639949.560 3 100896513.11603      1812.994 3        20.357
G26        11.000    25446184.393 5 133720918.93005     -4085.086 5        30.128                                    25446187.151 2 104198287.70502     -3183.163 2        16.264    25446185.909 4 104198307.71904     -3183.289 4        28.663
S27        12.000    39119782.030 6 205575767.08206      -484.375 6        36.155
R20        13.000    20766190.932 6 111046201.61306      1749.897 6        39.898                                                                    20766191.896 7  86369334.91107      1361.056 7        46.215
S36        14.000    38169087.650 7 200580418.84207      -515.703 7        43.206
G27        15.000    20072121.378 8 105479991.65608     -1089.367 8        50.399                                    20072119.284 8  82192359.45508      -848.856 8        52.972    20072119.893 7  82192273.45307      -848.846 7        46.314
S45        17.000    63379911.763 6 333065161.88706      -562.032 6        37.108
E08        18.000    26514240.876 6 139333311.30706      1169.513 6        41.087                                                                    26514239.564 7 104047602.89407       873.432 7        43.520    26514239.298 7 106761884.08107       896.186 7        44.534
G16        19.000    23062504.470 7 121194524.55807     -4025.025 7        43.776                                    23062500.162 4  94437408.48904     -3136.378 4        28.815
E21        20.000    25987516.871 7 136565687.35607     -3407.821 7        42.882                                                                    25987517.544 7 101981084.10807     -2544.764 7        45.807    25987516.676 7 104641435.30307     -2611.144 7        46.227
E26        21.000    23720803.332 7 124654010.33407       425.945 7        47.808                                                                    23720801.117 8  93085983.82708       318.101 8        50.238    23720800.901 8  95514289.42208       326.411 8        51.263
I06        22.000    38545681.988 6 151261752.29206      -301.005 6        40.753
S28        23.000    40862726.788 5 214735066.53905      -508.796 5        33.353
G08        24.000    20797127.479 8 109289657.61908      1246.734 8        48.179                                    20797125.689 8  85160772.68508       971.482 8        48.971    20797126.266 7  85160773.69107       971.416 7        44.919
S23        25.000    38124539.110 7 200345789.05207      -515.566 7        43.757
C13        26.000                                                                                                                                    38803167.323 6 202058465.72406     -1536.279 6        41.819    38803168.349 7 156244532.95107     -1187.939 7        42.770    38803166.247 6 164189140.94606     -1248.355 6        40.403
G18        27.000    24573919.654 6 129137160.44706     -3643.216 6        39.183                                    24573916.456 3 100626529.32003     -2838.862 3        22.171    24573916.682 6 100626520.31406     -2838.887 6        38.513
I02        29.000    40409777.593 5 158576732.21405     -1027.719 5        32.820
C14        30.000                                                                                                                                    23072607.538 7 120145160.15407      -756.005 7        45.681    23072603.670 8  92903856.11008      -584.550 8        50.865    23072602.322 8  97627772.12708      -614.297 8        48.231
R05        31.000    22942005.179 7 122638170.68907      3982.701 7        43.445                                                                    22942005.511 7  95385245.71207      3097.648 7        42.624
E03        32.000    27434506.292 6 144169305.50706     -1205.520 6        37.939                                                                    27434506.982 6 107658908.61306      -900.202 6        41.058    27434506.792 6 110467395.32206      -923.729 6        41.626
G30        33.000    25806543.439 5 135614298.88805     -1361.058 5        34.524                                    25806543.001 3 105673483.32803     -1060.557 3        21.143    25806544.108 4 105673491.34504     -1060.749 4        29.545
R03        34.000    21294656.943 8 113991996.69408     -2286.680 8        48.720                                                                    21294654.741 7  88660464.75407     -1778.486 7        45.166
R10        35.000    21537585.450 7 114807507.31507     -2290.607 7        43.492
R18        36.000    22742324.570 7 121400460.50807     -3601.904 7        43.522                                                                    22742325.756 6  94422781.17706     -2801.478 6        41.859
G32        37.000    24625976.622 6 129410389.45306      2669.191 6        40.257                                    24625975.912 5 100839258.57105      2079.887 5        34.567    24625977.157 6 100839267.58406      2079.875 6        38.267
E07        38.000    27791463.639 6 146045109.35406      2442.295 6        37.894                                                                    27791466.183 6 109059687.08206      1823.810 6        40.882    27791465.532 7 111904715.98607      1871.427 7        42.347
R09        40.000    22762673.880 7 121551449.65507     -4481.053 7        45.911                                                                    22762674.103 7  94540033.72407     -3485.305 7        42.720
E33        41.000    27125505.908 6 142545566.44806      1848.288 6        39.664                                                                    27125505.487 6 106446391.86206      1379.992 6        41.125    27125505.400 7 109223250.82907      1416.262 7        42.275
S44        42.000    40430047.447 6 212461519.60706      -520.979 6        37.482
C38        43.000                                                                                                                                    40859155.109 6 212764482.25906     -1764.251 6        37.811                                                                    40859154.122 6 172888628.94306     -1433.555 6        37.939
C05        44.000                                                                                                                                    39171022.848 6 203973824.30406      -453.876 6        37.399    39171018.812 7 157725521.04207      -351.247 7        42.430    39171020.708 6 165745541.59906      -369.084 6        39.300
C08        45.000                                                                                                                                    39370665.325 6 205013562.24306     -1749.169 6        38.102    39370658.914 6 158529564.29406     -1352.734 6        41.247    39370657.767 6 166590362.38406     -1421.499 6        38.459
R11        46.000    22642855.649 7 120996557.25107      1464.094 7        45.162                                                                    22642854.764 7  94108433.44707      1138.825 7        42.009
R19        47.000    20096226.045 6 107501631.29906     -1984.457 6        40.329                                                                    20096225.945 7  83612546.90207     -1543.376 7        44.489
C43        48.000                                                                                                                                    24557812.679 7 127879288.72107     -3134.272 7        44.420                                                                    24557812.144 7 103912520.84707     -2546.841 7        43.738
C42        50.000                                                                                                                                    24340838.944 7 126749178.04007     -2295.466 7        45.344                                                                    24340846.718 7 102994137.20407     -1865.301 7        45.908
S48        51.000    77149609.066 6 405425222.70806      -549.676 6        37.108
G21        52.000    22487911.815 6 118174838.71506      1901.303 6        40.303                                    22487906.998 4  92084309.74204      1481.522 4        26.012
C37        53.000                                                                                                                                    26219618.690 6 136532422.06606     -3424.856 6        40.427                                                                    26219623.434 6 110943792.35106     -2782.965 6        40.822
C60        54.000                                                                                                                                    40430048.805 6 210530070.64406      -516.207 6        40.226                                                                    40430032.905 6 171072896.01806      -419.448 6        39.093
C27        55.000                                                                                                                                    23084997.552 7 120209656.45107      1697.999 7        47.468                                                                    23084995.882 7  97680196.25707      1379.758 7        46.801
R04        56.000    20424653.536 8 109373107.94808      1642.642 8        50.432                                                                    20424651.861 7  85067964.97007      1277.646 7        46.962
C02        57.000                                                                                                                                    40511710.305 5 210955147.90705      -468.931 5        34.324    40511704.212 6 163123894.33306      -362.576 6        39.811    40511707.087 6 171418339.82006      -381.007 6        36.030
I03        58.000   109225704.531 6 352839876.96006      1024.180 6        40.205
C11        59.000                                                                                                                                    26580220.297 6 138410455.46106     -3310.767 6        38.580    26580217.734 7 107027887.85607     -2560.205 7        42.396    26580215.909 6 112469936.66806     -2690.427 6        39.643
C28        60.000                                                                                                                                    21410397.513 8 111489871.92708      -463.346 8        50.705                                                                    21410395.787 8  90594789.49208      -376.498 8        48.428
> 2025 01 01 20 46 40.0000000  0 56
G10         1.000    20685239.346 8 108701768.33908      -158.636 8        51.472                                    20685237.154 8  84702738.87208      -123.612 8        52.538    20685237.021 7  84702715.87807      -123.588 7        45.687
G15         2.000    24504957.041 6 128774424.28306     -2921.318 6        37.497                                    24504954.204 4 100343695.01404     -2276.345 4        28.095    24504955.070 5 100343698.00305     -2276.337 5        35.371
C33         3.000                                                                                                                                    22924650.935 8 119374700.42208       917.022 8        49.527                                                                    22924662.645 8  97001781.39608       745.064 8        49.367
E31         4.000    26755400.535 6 140600614.81206      1447.488 6        40.131                                                                    26755401.429 7 104993975.21307      1080.968 7        43.357    26755400.940 7 107732945.33307      1109.123 7        44.096
S21         5.000    38400292.112 6 201794610.70406      -516.677 6        41.514
E13         6.000    24106930.536 7 126683123.84807     -1960.007 7        46.391                                                                    24106930.676 8  94601241.81408     -1463.742 8        49.123    24106930.274 8  97069069.80508     -1501.893 8        50.255
G23         7.000    21762900.074 7 114364937.19007     -2844.066 7        45.806                                    21762896.094 5  89115573.19305     -2216.155 5        34.948    21762896.156 7  89115572.19607     -2216.150 7        44.460
E15         8.000    28345791.651 5 148958458.79605     -3016.704 5        35.857                                                                    28345792.738 6 111235382.43306     -2252.806 6        39.471    28345792.249 6 114137151.21206     -2311.483 6        40.002
G02         9.000    24637741.947 6 129472238.77606      2326.345 6        39.306                                    24637736.134 3 100887448.87603      1812.707 3        20.929
G26        11.000    25450071.154 5 133741343.41605     -4084.570 5        30.136                                    25450073.801 2 104214202.83602     -3182.778 2        14.762    25450074.853 4 104214222.73204     -3181.822 4        28.379
S27        12.000    39120242.612 5 205578189.12405      -484.222 5        35.981
R20        13.000    20764555.546 6 111037454.84206      1748.955 6        40.319                                                                    20764556.653 7  86362531.87107      1360.272 7        46.188
S36        14.000    38169576.018 7 200582997.43507      -515.724 7        43.280
G27        15.000    20073159.176 8 105485445.23908     -1091.923 8        50.211                                    20073157.067 8  82196609.00108      -850.849 8        53.072    20073157.434 7  82196522.99707      -850.818 7        46.432
S45        17.000    63380397.551 6 333066272.31916      -561.966 6        37.180
E08        18.000    26513128.729 6 139327467.87806      1167.947 6        40.942                                                                    26513127.734 7 104043239.29807       872.120 7        43.541    26513127.262 7 106757406.64807       894.846 7        44.482
G16        19.000    23066334.353 7 121214652.23707     -4026.035 7        44.331                                    23066330.205 4  94453092.39204     -3137.171 4        28.976
E21        20.000    25990759.595 7 136582728.45507     -3408.572 7        42.948                                                                    25990760.340 7 101993809.60107     -2545.315 7        45.822    25990759.647 7 104654492.76607     -2611.725 7        46.099
E26        21.000    23720398.553 7 124651882.95807       425.101 7        47.891                                                                    23720396.228 8  93084395.20108       317.461 8        50.198    23720396.064 8  95512659.35508       325.694 8        51.253
I06        22.000    38546065.256 6 151263257.74906      -300.974 6        40.381
S28        23.000    40863206.817 5 214737610.72105      -508.592 5        33.485
G08        24.000    20795942.463 8 109283429.00408      1244.729 8        48.127                                    20795940.418 8  85155919.21608       969.918 8        49.059    20795941.293 7  85155920.21707       969.936 7        45.019
S23        25.000    38125027.675 7 200348365.74507      -515.168 7        43.570
C13        26.000                                                                                                                                    38804642.382 6 202066147.00006     -1536.167 6        41.826    38804643.291 7 156250472.61107     -1187.837 7        42.726    38804641.288 6 164195382.63306     -1248.366 6        40.682
G18        27.000    24577386.106 6 129155376.92106     -3643.165 6        39.237                                    24577382.947 3 100640723.94603     -2838.827 3        22.705    24577383.190 6 100640714.94706     -2838.926 6        38.649
I02        29.000    40411087.618 5 158581870.00305     -1027.249 5        32.593
C14        30.000                                                                                                                                    23073335.241 7 120148946.98807      -758.690 7        45.905    23073330.772 8  92906784.33308      -586.644 8        50.679    23073329.607 8  97630849.25108      -616.575 8        48.427
R05        31.000    22938279.657 7 122618258.92107      3982.098 7        43.750                                                                    22938280.901 7  95369758.79507      3097.224 7        42.184
E03        32.000    27435653.945 6 144175338.38306     -1207.654 6        38.174                                                                    27435654.993 6 107663413.67706      -901.737 6        40.877    27435654.783 6 110472017.90906      -925.212 6        41.523
G30        33.000    25807839.268 5 135621110.61305     -1363.300 5        33.054                                    25807839.186 3 105678791.15903     -1062.292 3        20.524    25807839.638 5 105678799.13705     -1062.370 5        30.226
R03        34.000    21296794.082 8 114003440.36108     -2290.626 8        48.963                                                                    21296792.482 7  88669365.39107     -1781.526 7        44.740
R10        35.000    21539735.914 7 114818969.82607     -2294.276 7        43.668
R18        36.000    22745698.603 7 121418471.36807     -3602.371 7        43.960                                                                    22745700.016 7  94436789.62207     -2801.862 7        42.311
G32        37.000    24623437.074 6 129397043.78306      2669.293 6        40.198                                    24623436.393 5 100828859.36205      2079.964 5        34.795    24623437.544 6 100828868.37206      2079.867 6        38.784
E07        38.000    27789139.885 6 146032897.39106      2442.527 6        38.360                                                                    27789142.375 6 109050567.77806      1824.010 6        40.915    27789141.792 7 111895358.79207      1871.495 7        42.311
C41        39.000                                                                                                                                    25101509.191 7 130710146.66317      2896.918 7        43.380                                                                    25101515.140 7 106212724.58217      2353.867 7        44.169
R09        40.000    22766871.039 7 121573858.01707     -4482.124 7        45.744                                                                    22766869.957 7  94557462.44607     -3486.110 7        42.076
E33        41.000    27123747.551 6 142536326.30306      1847.827 6        39.285                                                                    27123747.358 6 106439491.73506      1380.120 6        41.313    27123747.043 7 109216170.71607      1415.944 7        42.279
S44        42.000    40430543.650 6 212464124.59806      -520.869 6        37.312
C38        43.000                                                                                                                                    40860849.313 6 212773302.73306     -1764.010 6        38.237                                                                    40860848.077 6 172895796.29806     -1433.339 6        38.517
C05        44.000                                                                                                                                    39171459.001 6 203976095.15906      -454.152 6        37.146    39171455.010 7 157727276.97707      -350.980 7        42.288    39171456.633 6 165747386.85706      -369.012 6        39.444
C08        45.000                                                                                                                                    39372344.896 6 205022308.09806     -1749.061 6        37.830    39372338.589 6 158536327.12306     -1352.406 6        41.392    39372337.249 6 166597469.10106     -1421.171 6        38.658
R11        46.000    22641487.673 7 120989246.02307      1460.441 7        44.045                                                                    22641486.273 7  94102746.94707      1135.914 7        42.440
R19        47.000    20098082.336 6 107511557.64506     -1986.028 6        40.055                                                                    20098081.567 7  83620267.38207     -1544.664 7        44.120
C43        48.000                                                                                                                                    24560822.377 7 127894961.41907     -3134.722 7        44.536                                                                    24560822.105 7 103925256.21007     -2547.320 7        43.936
C42        50.000                                                                                                                                    24343044.326 7 126760661.14807     -2297.655 7        45.315                                                                    24343052.055 7 103003468.17707     -1867.106 7        45.991
S48        51.000    77150109.896 6 405427971.21206      -549.452 6        37.195
G21        52.000    22486103.241 6 118165334.46206      1900.400 6        40.007                                    22486098.410 4  92076903.83104      1480.832 4        25.985
C37        53.000                                                                                                                                    26222907.518 6 136549546.91306     -3424.940 6        40.446                                                                    26222912.072 6 110957707.67006     -2783.174 6        40.984
C60        54.000                                                                                                                                    40430544.913 6 210532651.93306      -515.877 6        40.052                                                                    40430528.755 6 171074993.55706      -419.388 6        39.249
C27        55.000                                                                                                                                    23083367.467 7 120201168.44107      1697.279 7        47.497                                                                    23083365.893 7  97673299.06807      1379.138 7        47.021
R04        56.000    20423121.484 8 109364904.32008      1638.843 8        50.643                                                                    20423119.687 7  85061584.38607      1274.702 7        46.813
C02        57.000                                                                                                                                    40512159.895 5 210957493.04205      -468.811 5        33.982    40512154.540 6 163125707.72706      -362.395 6        39.772    40512157.531 6 171420245.45806      -380.938 6        36.095
I03        58.000   109224399.582 6 352834756.14706      1024.264 6        40.040
C11        59.000                                                                                                                                    26583399.273 6 138427010.25306     -3310.777 6        38.441    26583397.347 7 107040689.04707     -2560.184 7        42.174    26583395.053 6 112483388.78106     -2690.380 6        39.577
C28        60.000                                                                                                                                    21410842.989 8 111492192.27408      -464.690 8        50.603                                                                    21410841.346 8  90596674.96808      -377.668 8        48.662
> 2025 01 01 20 46 45.0000000  0 56
G10         1.000    20685391.918 8 108702570.30708      -161.968 8        51.639                                    20685389.766 8  84703363.78208      -126.209 8        52.604    20685389.605 7  84703340.78307      -126.212 7        45.532
G15         2.000    24507737.851 6 128789038.84906     -2924.450 6        37.656                                    24507735.410 4 100355082.99204     -2278.801 4        28.294    24507736.258 5 100355086.00505     -2278.734 5        34.848
C33         3.000                                                                                                                                    22923771.637 8 119370123.25808       913.945 8        48.893                                                                    22923783.626 8  96998062.06608       742.791 8        49.290
E31         4.000    26754024.127 6 140593383.04806      1445.393 6        40.374                                                                    26754025.261 7 104988574.87307      1079.360 7        43.344    26754024.846 7 107727404.10307      1107.534 7        44.104
S21         5.000    38400780.243 6 201797195.14806      -516.933 6        41.638
E13         6.000    24108796.032 7 126692927.25007     -1961.149 7        46.493                                                                    24108796.190 8  94608562.52608     -1464.458 8        49.175    24108795.822 8  97076581.49508     -1502.664 8        50.278
G23         7.000    21765607.445 7 114379164.10407     -2846.518 7        45.767                                    21765603.389 5  89126659.10205     -2218.064 5        34.976    21765603.502 7  89126658.10407     -2218.065 7        44.284
E15         8.000    28348662.049 5 148973543.47905     -3017.016 5        35.943                                                                    28348663.346 6 111246646.94506     -2252.876 6        39.354    28348662.948 6 114148709.58806     -2311.602 6        40.224
G02         9.000    24635529.385 6 129460609.02506      2325.560 6        39.688                                    24635523.083 3 100878386.75003      1812.131 3        21.262
G26        11.000    25453957.499 4 133761765.27504     -4084.551 4        29.232                                    25453959.998 2 104230115.92702     -3182.739 2        14.333    25453959.685 4 104230135.85004     -3181.788 4        28.796
S27        12.000    39120701.731 6 205580611.38106      -484.271 6        36.261
R20        13.000    20762920.613 6 111028714.66106      1747.401 6        40.141                                                                    20762921.583 7  86355733.94307      1359.039 7        45.982
S36        14.000    38170068.022 7 200585576.25707      -515.758 7        43.365
G27        15.000    20074199.875 8 105490913.20608     -1094.999 8        50.361                                    20074197.596 8  82200869.75308      -853.246 8        53.037    20074197.759 7  82200783.75207      -853.257 7        46.280
S45        17.000    63380884.904 6 333069082.94406      -562.077 6        37.323
E08        18.000    26512018.418 6 139321634.20506      1165.828 6        40.984                                                                    26512017.671 7 104038882.98507       870.497 7        43.587    26512017.239 7 106752936.69807       893.192 7        44.454
G16        19.000    23070165.581 7 121234785.85707     -4027.323 7        44.036                                    23070161.483 4  94468780.92204     -3138.177 4        29.062
E21        20.000    25994003.447 7 136599774.76207     -3409.807 7        42.743                                                                    25994004.240 7 102006538.97807     -2546.290 7        45.872    25994003.529 7 104667554.21507     -2612.652 7        46.080
E26        21.000    23719994.939 7 124649761.29807       423.740 7        47.782                                                                    23719992.529 8  93082810.84808       316.417 8        50.276    23719992.356 8  95511033.66708       324.694 8        51.289
I06        22.000    38546449.357 6 151264763.24606      -301.133 6        40.553
S28        23.000    40863689.770 5 214740155.26805      -509.071 5        33.509
G08        24.000    20794759.056 8 109277211.88608      1242.228 8        48.303                                    20794757.347 8  85151074.70708       967.969 8        49.128    20794758.368 7  85151075.71407       967.968 7        45.046
S23        25.000    38125518.592 7 200350942.66307      -515.450 7        43.748
C13        26.000                                                                                                                                    38806117.763 6 202073829.10706     -1536.469 6        41.595    38806118.280 7 156256412.90007     -1188.181 7        42.832    38806116.527 6 164201624.96706     -1248.537 6        40.701
G18        27.000    24580852.838 6 129173594.91806     -3643.903 6        39.501                                    24580849.666 3 100654919.78203     -2839.400 3        23.295    24580849.768 6 100654910.75306     -2839.178 6        38.853
I02        29.000    40412395.941 5 158587007.73305     -1027.621 5        32.790
C14        30.000                                                                                                                                    23074065.752 7 120152748.85107      -761.929 7        45.637    23074060.769 8  92909724.16608      -589.099 8        50.520    23074059.732 8  97633938.57008      -619.036 8        48.459
R05        31.000    22934555.549 7 122598351.00207      3981.181 7        44.211                                                                    22934556.339 6  95354274.85506      3096.418 6        41.998
E03        32.000    27436804.282 6 144181383.32806     -1210.281 6        38.240                                                                    27436805.405 6 107667927.74106      -903.541 6        40.820    27436804.937 6 110476649.73506      -927.235 6        41.552
G30        33.000    25809137.861 5 135627935.09405     -1366.247 5        32.820                                    25809137.767 3 105684108.92203     -1064.613 3        20.929    25809139.309 4 105684116.89504     -1064.483 4        29.431
R03        34.000    21298936.550 8 114014904.80708     -2295.018 8        49.180                                                                    21298934.180 7  88678282.18307     -1784.995 7        44.605
R10        35.000    21541890.255 7 114830452.35207     -2298.526 7        43.560
R18        36.000    22749073.926 7 121436485.93107     -3603.309 7        44.618                                                                    22749075.173 7  94450800.93607     -2802.603 7        42.718
G32        37.000    24620898.150 6 129383700.08306      2668.473 6        40.443                                    24620897.311 5 100818461.68405      2079.326 5        35.067    24620898.297 6 100818470.68706      2079.429 6        38.862
E07        38.000    27786816.463 6 146020685.86206      2442.129 6        38.288                                                                    27786818.550 6 109041448.77206      1823.801 6        40.999    27786818.045 7 111886001.90007      1871.354 7        42.354
C41        39.000                                                                                                                                    25098727.395 7 130695665.31307      2895.859 7        42.781                                                                    25098734.062 7 106200957.29007      2353.126 7        44.170
R09        40.000    22771067.810 7 121596272.79207     -4483.649 7        45.580                                                                    22771068.333 7  94574896.13207     -3487.201 7        42.785
E33        41.000    27121990.496 6 142527088.55706      1847.428 6        40.045                                                                    27121989.539 6 106432593.42606      1379.343 6        41.344    27121989.087 7 109209092.44907      1415.436 7        42.172
S44        42.000    40431039.906 6 212466729.96506      -521.078 6        37.414
C38        43.000                                                                                                                                    40862542.712 6 212782122.94406     -1764.097 6        37.716                                                                    40862541.942 6 172902963.45706     -1433.331 6        38.210
C05        44.000                                                                                                                                    39171894.886 6 203978366.28206      -454.247 6        36.915    39171890.926 7 157729033.17007      -351.383 7        42.345    39171892.848 6 165749232.31706      -369.101 6        39.631
C08        45.000                                                                                                                                    39374024.718 6 205031054.39106     -1749.193 6        37.580    39374017.830 6 158543090.30606     -1352.677 6        41.642    39374016.969 6 166604576.18406     -1421.400 6        38.634
R11        46.000    22640122.604 7 120981954.63707      1456.186 7        44.910                                                                    22640122.176 7  94097075.87407      1132.575 7        42.353
R19        47.000    20099940.922 6 107521493.14406     -1988.158 6        40.541                                                                    20099939.235 7  83627994.97707     -1546.293 7        44.603
C43        48.000                                                                                                                                    24563833.068 7 127910638.16007     -3135.805 7        44.355                                                                    24563832.668 7 103937994.83007     -2547.995 7        44.003
C42        50.000                                                                                                                                    24345251.916 7 126772156.51207     -2300.278 7        45.374                                                                    24345259.706 7 103012809.10407     -1869.170 7        46.130
S48        51.000    77150606.470 6 405430719.95306      -549.902 6        37.225
G21        52.000    22484295.568 6 118155836.79206      1898.850 6        40.229                                    22484291.048 4  92069503.05904      1479.621 4        25.910
C37        53.000                                                                                                                                    26226196.264 6 136566673.58406     -3425.641 6        39.982                                                                    26226201.182 6 110971624.46306     -2783.537 6        40.756
C60        54.000                                                                                                                                    40431040.544 6 210535233.62906      -516.401 6        39.820                                                                    40431024.389 6 171077091.39506      -419.680 6        39.384
C27        55.000                                                                                                                                    23081738.513 7 120192684.93407      1696.155 7        47.534                                                                    23081736.702 7  97666405.51907      1378.393 7        47.025
R04        56.000    20421593.287 8 109356721.13108      1634.591 8        50.772                                                                    20421592.112 7  85055219.66807      1271.444 7        47.003
C02        57.000                                                                                                                                    40512610.460 5 210959838.59205      -469.342 5        33.838    40512605.199 6 163127521.45106      -362.678 6        40.036    40512607.882 6 171422151.38406      -381.126 6        36.181
I03        58.000   109223094.777 6 352829635.68306      1024.003 6        40.012
C11        59.000                                                                                                                                    26586578.329 6 138443566.63006     -3311.630 6        38.489    26586576.291 6 107053491.47106     -2560.723 6        41.919    26586574.720 6 112496842.17306     -2690.697 6        39.438
C28        60.000                                                                                                                                    21411289.902 8 111494520.91908      -466.591 8        50.348                                                                    21411288.598 8  90598567.18308      -379.112 8        48.601
> 2025 01 01 20 46 50.0000000  0 56
G10         1.000    20685547.274 8 108703387.04008      -164.781 8        51.432                                    20685545.186 8  84704000.19608      -128.398 8        52.485    20685545.346 7  84703977.19707      -128.325 7        45.428
G15         2.000    24510521.399 6 128803666.47406     -2926.922 6        36.877                                    24510518.937 4 100366481.15204     -2280.719 4        28.047    24510519.537 5 100366484.13305     -2280.419 5        35.367
C33         3.000                                                                                                                                    22922895.701 8 119365559.43208       911.449 8        49.101                                                                    22922907.119 8  96994353.58708       740.662 8        49.255
E31         4.000    26752649.433 6 140586160.09606      1443.807 6        40.653                                                                    26752650.826 7 104983181.12207      1078.190 7        43.490    26752650.307 7 107721869.64307      1106.265 7        44.190
S21         5.000    38401270.391 6 201799779.53206      -516.712 6        41.487
E13         6.000    24110662.535 7 126702734.51207     -1961.781 7        46.477                                                                    24110662.467 8  94615886.13608     -1464.965 8        49.188    24110662.089 8  97084096.15308     -1503.181 8        50.363
G23         7.000    21768316.777 7 114393401.88907     -2848.541 7        45.427                                    21768312.700 5  89137753.48405     -2219.640 5        34.943    21768312.924 7  89137752.48407     -2219.679 7        44.163
E15         8.000    28351532.751 5 148988627.48905     -3016.576 5        35.848                                                                    28351533.707 6 111257910.97606     -2252.731 6        39.462    28351533.479 6 114160267.46606     -2311.483 6        40.467
G02         9.000    24633316.532 6 129448981.62506      2325.313 6        39.730                                    24633310.475 3 100869326.46303      1811.935 3        21.357
G26        11.000    25457843.132 4 133782184.21604     -4083.789 4        28.777                                    25457845.561 2 104246026.76602     -3182.157 2        14.619    25457845.002 4 104246046.74104     -3181.851 4        28.389
S27        12.000    39121167.254 6 205583033.29106      -484.575 6        36.034
R20        13.000    20761287.441 6 111019980.78406      1746.179 6        40.307                                                                    20761288.913 7  86348940.93407      1358.178 7        46.221
S36        14.000    38170557.942 7 200588154.31307      -515.730 7        43.357
G27        15.000    20075243.185 8 105496395.23508     -1097.791 8        50.344                                    20075240.785 8  82205141.46508      -855.420 8        53.013    20075240.905 7  82205055.46707      -855.419 7        46.219
S45        17.000    63381375.271 6 333071893.46706      -562.183 6        36.938
E08        18.000    26510910.256 6 139315809.96606      1163.990 6        40.892                                                                    26510909.369 7 104034533.71307       869.139 7        43.685    26510908.931 7 106748473.96707       891.880 7        44.713
G16        19.000    23073997.479 7 121254925.02207     -4028.291 7        43.018                                    23073993.882 4  94484473.77004     -3138.926 4        28.834
E21        20.000    25997248.320 7 136616825.90107     -3410.622 7        42.474                                                                    25997248.952 7 102019271.97007     -2546.919 7        45.732    25997248.278 7 104680619.37007     -2613.325 7        46.148
E26        21.000    23719592.107 7 124647645.00207       422.745 7        47.864                                                                    23719589.821 8  93081230.49908       315.677 8        50.241    23719589.645 8  95509412.09108       323.926 8        51.392
I06        22.000    38546832.915 6 151266268.52906      -300.998 6        40.663
S28        23.000    40864176.868 5 214742699.96005      -508.908 5        33.383
G08        24.000    20793578.263 8 109271005.92408      1240.227 8        48.215                                    20793576.396 8  85146238.89508       966.409 8        49.050    20793577.252 7  85146239.90207       966.337 7        44.867
S23        25.000    38126008.843 7 200353519.52307      -515.256 7        43.719
C13        26.000                                                                                                                                    38807592.783 6 202081511.65606     -1536.374 6        41.447    38807593.799 7 156262353.53607     -1187.978 7        42.717    38807591.975 6 164207867.66906     -1248.461 6        40.548
G18        27.000    24584319.942 6 129191814.04506     -3643.800 6        39.649                                    24584316.667 3 100669116.48303     -2839.323 3        23.162    24584316.817 6 100669107.47406     -2839.307 6        38.757
I02        29.000    40413704.144 5 158592144.74005     -1027.280 5        33.012
C14        30.000                                                                                                                                    23074798.532 7 120156565.42707      -764.733 7        45.514    23074793.834 8  92912675.38508      -591.330 8        50.546    23074792.690 8  97637039.85308      -621.393 8        48.494
R05        31.000    22930832.559 7 122578446.52607      3980.611 7        43.989                                                                    22930833.262 6  95338793.60506      3095.974 6        41.778
E03        32.000    27437956.827 6 144187439.93906     -1212.570 6        38.628                                                                    27437957.828 6 107672450.54706      -905.431 6        40.934    27437957.360 6 110481290.52506      -929.021 6        41.714
G30        33.000    25810438.545 5 135634771.95305     -1368.471 5        34.357                                    25810438.504 3 105689436.35703     -1066.352 3        22.171    25810439.990 5 105689444.33505     -1066.466 5        30.219
R03        34.000    21301081.678 8 114026390.09008     -2299.000 8        49.022                                                                    21301079.673 7  88687215.17607     -1788.157 7        44.629
R10        35.000    21544048.091 7 114841954.38507     -2302.266 7        43.617
R18        36.000    22752449.703 7 121454503.86707     -3603.875 7        44.442                                                                    22752449.934 7  94464814.86907     -2803.019 7        42.616
G32        37.000    24618359.337 6 129370357.97506      2668.217 6        40.806                                    24618358.583 5 100808065.25005      2079.128 5        35.276    24618359.878 6 100808074.25406      2079.145 6        38.865
E07        38.000    27784492.530 6 146008474.36106      2442.177 6        38.132                                                                    27784494.797 6 109032329.80806      1823.822 6        41.180    27784494.310 7 111876645.04507      1871.460 7        42.609
C41        39.000                                                                                                                                    25095947.122 7 130681187.35607      2895.368 7        42.912                                                                    25095953.695 7 106189192.76407      2352.664 7        44.260
R09        40.000    22775266.973 7 121618693.44007     -4484.684 7        46.185                                                                    22775267.089 7  94592334.39207     -3488.177 7        43.007
E33        41.000    27120233.040 6 142517852.88606      1847.065 6        39.550                                                                    27120232.085 6 106425696.66906      1379.155 6        41.390    27120231.690 7 109202015.77007      1415.241 7        42.364
S44        42.000    40431535.353 6 212469335.36406      -521.039 6        37.236
C38        43.000                                                                                                                                    40864236.913 6 212790942.53506     -1763.667 6        37.588                                                                    40864235.520 6 172910130.10706     -1433.263 6        37.939
C05        44.000                                                                                                                                    39172331.030 6 203980637.34106      -453.924 6        37.161    39172327.410 7 157730789.29307      -351.192 7        42.449    39172329.033 6 165751077.75406      -369.067 6        39.655
C08        45.000                                                                                                                                    39375703.936 6 205039800.77006     -1749.513 6        37.471    39375697.765 6 158549853.55006     -1352.662 6        41.864    39375696.568 6 166611683.31006     -1421.422 6        38.886
R11        46.000    22638761.978 7 120974682.67507      1452.411 7        45.093                                                                    22638761.481 7  94091419.89407      1129.736 7        42.525
R19        47.000    20101799.225 6 107531437.42206     -1989.671 6        40.458                                                                    20101798.385 7  83635729.41707     -1547.471 7        44.874
C43        48.000                                                                                                                                    24566844.406 7 127926318.56807     -3136.386 7        44.537                                                                    24566843.801 7 103950736.44907     -2548.623 7        44.001
C42        50.000                                                                                                                                    24347462.033 7 126783663.78507     -2302.454 7        45.485                                                                    24347469.552 7 103022159.71107     -1871.099 7        46.154
S48        51.000    77151104.716 6 405431868.47216      -549.566 6        36.983
G21        52.000    22482490.246 6 118146345.31506      1897.720 6        40.012                                    22482484.794 4  92062107.10304      1478.748 4        26.048
C37        53.000                                                                                                                                    26229485.039 6 136583801.70706     -3425.635 6        40.360                                                                    26229490.252 6 110985542.45906     -2783.725 6        40.443
C60        54.000                                                                                                                                    40431536.142 6 210537815.36406      -516.355 6        39.919                                                                    40431520.216 6 171079189.24106      -419.547 6        39.474
C27        55.000                                                                                                                                    23080109.830 7 120184205.57507      1695.479 7        47.596                                                                    23080108.298 7  97659515.34607      1377.705 7        46.955
R04        56.000    20420068.992 8 109348557.94208      1630.667 8        50.807                                                                    20420067.377 7  85048870.53407      1268.262 7        46.669
C02        57.000                                                                                                                                    40513060.395 5 210962184.13305      -468.885 5        34.271    40513055.210 6 163129335.19206      -362.752 6        39.706    40513058.254 6 171424057.33106      -381.209 6        36.140
I03        58.000   109221789.978 6 352824515.34006      1024.039 6        40.172
C11        59.000                                                                                                                                    26589757.142 6 138460124.22206     -3311.470 6        38.387    26589755.844 6 107066294.85206     -2560.822 6        41.364    26589754.341 6 112510296.57406     -2690.948 6        39.426
C28        60.000                                                                                                                                    21411738.702 8 111496857.53008      -468.024 8        50.421                                                                    21411737.316 8  90600465.87508      -380.321 8        48.612
