     3.04           OBSERVATION DATA    M                   RINEX VERSION / TYPE
ssrcrin-15.6.1x                         20250101 133000 UTC PGM / RUN BY / DATE 
(00000000023479385599111004) Septentrio proprietary         COMMENT             
rref                                                        MARKER NAME         
01                                                          MARKER NUMBER       
geodetic                                                    MARKER TYPE         
NFB                 CLIMERS@TUW                             OBSERVER / AGENCY   
3297213             SEPT ASTERX SB3 PROB4.14.4              REC # / TYPE / VERS 
Unknown             Unknown                                 ANT # / TYPE        
  4127832.0641  1207193.9436  4695247.4566                  APPROX POSITION XYZ 
        0.0000        0.0000        0.0000                  ANTENNA: DELTA H/E/N
G   23 X1  C1C L1C D1C S1C C1W S1W C2W L2W D2W S2W C2L L2L  SYS / # / OBS TYPES 
       D2L S2L C5Q L5Q D5Q S5Q C1L L1L D1L S1L              SYS / # / OBS TYPES 
E   21 X1  C1C L1C D1C S1C C6C L6C D6C S6C C5Q L5Q D5Q S5Q  SYS / # / OBS TYPES 
       C7Q L7Q D7Q S7Q C8Q L8Q D8Q S8Q                      SYS / # / OBS TYPES 
S    9 X1  C1C L1C D1C S1C C5I L5I D5I S5I                  SYS / # / OBS TYPES 
R   17 X1  C1C L1C D1C S1C C2P L2P D2P S2P C2C L2C D2C S2C  SYS / # / OBS TYPES 
       C3Q L3Q D3Q S3Q                                      SYS / # / OBS TYPES 
C   25 X1  C1P L1P D1P S1P C5P L5P D5P S5P C2I L2I D2I S2I  SYS / # / OBS TYPES 
       C7I L7I D7I S7I C6I L6I D6I S6I C7D L7D D7D S7D      SYS / # / OBS TYPES 
J   17 X1  C1C L1C D1C S1C C2L L2L D2L S2L C5Q L5Q D5Q S5Q  SYS / # / OBS TYPES 
       C1L L1L D1L S1L                                      SYS / # / OBS TYPES 
I    5 X1  C5A L5A D5A S5A                                  SYS / # / OBS TYPES 
SEPTENTRIO RECEIVERS OUTPUT ALIGNED CARRIER PHASES.         COMMENT             
NO FURTHER PHASE SHIFT APPLIED IN THE RINEX ENCODER.        COMMENT             
G L1C                                                       SYS / PHASE SHIFT   
G L2W                                                       SYS / PHASE SHIFT   
G L2L  0.00000                                              SYS / PHASE SHIFT   
G L5Q  0.00000                                              SYS / PHASE SHIFT   
G L1L  0.00000                                              SYS / PHASE SHIFT   
E L1C  0.00000                                              SYS / PHASE SHIFT   
E L6C  0.00000                                              SYS / PHASE SHIFT   
E L5Q  0.00000                                              SYS / PHASE SHIFT   
E L7Q  0.00000                                              SYS / PHASE SHIFT   
E L8Q  0.00000                                              SYS / PHASE SHIFT   
S L1C                                                       SYS / PHASE SHIFT   
S L5I                                                       SYS / PHASE SHIFT   
R L1C                                                       SYS / PHASE SHIFT   
R L2P  0.00000                                              SYS / PHASE SHIFT   
R L2C                                                       SYS / PHASE SHIFT   
R L3Q  0.00000                                              SYS / PHASE SHIFT   
C L1P  0.00000                                              SYS / PHASE SHIFT   
C L5P  0.00000                                              SYS / PHASE SHIFT   
C L2I                                                       SYS / PHASE SHIFT   
C L7I                                                       SYS / PHASE SHIFT   
C L6I                                                       SYS / PHASE SHIFT   
C L7D                                                       SYS / PHASE SHIFT   
J L1C                                                       SYS / PHASE SHIFT   
J L2L  0.00000                                              SYS / PHASE SHIFT   
J L5Q  0.00000                                              SYS / PHASE SHIFT   
J L1L  0.00000                                              SYS / PHASE SHIFT   
I L5A                                                       SYS / PHASE SHIFT   
  2025     1     1    13    30    0.0000000     GPS         TIME OF FIRST OBS   
 C1C    0.000 C2C    0.000 C2P    0.000                     GLONASS COD/PHS/BIS 
DBHZ                                                        SIGNAL STRENGTH UNIT
    18                                                      LEAP SECONDS        
 24 R01  1 R02 -4 R03  5 R04  6 R05  1 R06 -4 R07  5 R08  6 GLONASS SLOT / FRQ #
    R09 -2 R10 -7 R11  0 R12 -1 R13 -2 R14 -7 R15  0 R16 -1 GLONASS SLOT / FRQ #
    R17  4 R18 -3 R19  3 R20  2 R21  4 R22 -3 R23  3 R24  2 GLONASS SLOT / FRQ #
                                                            END OF HEADER       
> 2025 01 01 13 30  0.0000000  0 57
G19         1.000    23899668.736 6 125593710.33006     -3995.052 6        40.470                                    23899672.611 4  97865303.76204     -3113.021 4        24.075
G25         2.000    20607191.114 8 108291617.78408      1155.989 8        48.265                                    20607196.781 8  84383155.54508       900.769 8        48.613    20607197.427 7  84383165.55807       900.759 7        44.498
G24         3.000    22300025.738 7 117187396.99507     -3833.347 7        45.582                                    22300031.917 7  91314876.55607     -2987.020 7        44.743    22300032.491 7  91314873.54707     -2986.980 7        42.648
G29         4.000    23514877.332 7 123571684.44207      2893.972 7        44.202                                    23514885.605 6  96289739.84106      2255.036 6        38.691    23514886.615 6  96289742.85606      2254.995 6        39.042
S21         5.000    38535920.704 7 202507248.74707      -611.527 7        43.033
G06         6.000    23033357.228 7 121041225.94707      -985.344 7        43.280                                    23033364.843 6  94317928.84106      -767.798 6        40.181    23033365.617 6  94317919.83806      -767.763 6        40.415
E19         7.000    28307777.475 5 148758356.65405      1815.245 5        31.789                                                                    28307787.298 5 111085797.07905      1355.681 5        35.981    28307785.451 5 113983688.13205      1390.813 5        35.738
G03         8.000    25503260.226 5 134020529.84905      -531.377 5        35.829                                    25503262.512 4 104431576.46304      -414.036 4        24.135    25503262.561 5 104431582.44305      -413.942 5        32.467
G11         9.000    23058114.846 7 121171367.04707      1321.362 7        44.558                                    23058119.582 5  94419344.61305      1029.630 5        30.974    23058119.352 7  94419344.61807      1029.718 7        42.726
E30        10.000    23682853.424 8 124454377.13708      -556.016 8        48.582                                                                    23682860.256 8  92936818.41908      -415.191 8        51.147    23682859.073 8  95361245.93208      -426.080 8        51.378
C26        11.000                                                                                                                                    24734808.952 7 128800571.20907     -3306.579 7        44.944                                                                    24734816.214 7 104661014.03707     -2686.820 7        44.403
S27        12.000    39325531.048 6 206656890.24206      -626.396 6        36.386
R15        13.000    23580157.127 7 126005216.68207      2852.578 7        45.026                                                                    23580175.559 6  98004124.48806      2218.877 6        39.544
S36        14.000    38308150.336 7 201311025.67907      -611.779 7        44.829
G12        15.000    20379525.289 8 107095268.28508     -1377.655 8        49.788                                    20379526.076 8  83450933.21908     -1073.498 8        50.693    20379526.675 7  83450933.21107     -1073.448 7        45.630
E29        16.000    25962822.049 7 136435470.21807        -4.661 7        43.058                                                                    25962835.523 7 101883635.69507        -3.492 7        46.104    25962833.740 7 104541468.10407        -3.566 7        46.192
S45        17.000    63505064.394 6 333721792.26606      -675.839 6        36.389
R03        18.000    24651119.706 6 131959049.23706     -4833.419 6        39.498                                                                    24651141.402 5 102634747.74505     -3759.000 5        34.310
C35        19.000                                                                                                                                    23861572.796 7 124253585.15507     -2576.032 7        46.800                                                                    23861578.196 7 100966287.60207     -2093.369 7        45.970
E11        20.000    28295665.692 5 148694889.75805     -2617.514 5        31.826                                                                    28295668.127 6 111038497.37106     -1954.720 6        36.979    28295667.101 6 113935139.82006     -2005.603 6        36.590
R14        21.000    19940421.579 8 106293748.24308      1073.099 8        52.519                                                                    19940428.814 8  82672988.32308       834.656 8        48.198
I06        22.000    38618688.829 7 151548044.26007      -555.586 7        42.163
S28        23.000    41008638.467 5 215501619.34305      -618.036 5        35.010
E34        24.000    26320926.527 6 138317557.96606      2025.300 6        41.952                                                                    26320939.205 7 103289226.28607      1512.485 7        46.238    26320937.160 7 105983713.04107      1551.902 7        45.983
S23        25.000    38249363.757 7 201001571.86507      -616.340 7        45.648
E08        26.000    28136599.876 6 147858521.99806     -3825.972 6        38.883                                                                    28136622.122 6 110413738.29006     -2857.166 6        41.342    28136619.370 6 113294104.96906     -2931.684 6        41.866
C07        27.000                                                                                                                                    40750311.731 6 212197497.84306     -1536.546 6        36.382    40750316.689 6 164084559.79406     -1188.296 6        39.571    40750313.162 6 172427832.94306     -1248.598 6        37.225
R24        28.000    21382895.296 8 114344153.20408      3160.618 8        48.948                                                                    21382903.298 7  88934487.94107      2458.328 7        44.932
I02        29.000    37211176.818 7 146024628.16007      -681.891 7        42.878
G28        30.000    24458533.669 6 128530392.53806      2857.591 6        40.181                                    24458546.915 3 100153584.77803      2226.684 3        23.810    24458547.939 6 100153581.79706      2226.682 6        39.793
E07        31.000    25453204.482 7 133757372.50007     -2737.173 7        44.864                                                                    25453216.817 7  99883735.43907     -2043.990 7        47.622    25453215.216 8 102489397.76708     -2097.284 8        48.229
C12        32.000                                                                                                                                    23063245.819 7 120096530.12607      1753.098 7        46.773    23063250.930 8  92866352.24008      1355.643 8        51.542    23063248.123 8  97588336.17408      1424.502 8        48.687
R23        34.000    20265261.634 7 108405622.77807     -1049.835 7        47.918
C24        35.000                                                                                                                                    21489984.678 8 111904033.72908     -1191.354 8        51.617                                                                    21489985.935 8  90931217.05808      -968.123 8        49.707
R05        36.000    22267395.831 7 119031923.12707      -422.553 7        46.678                                                                    22267409.150 7  92580401.04707      -328.541 7        44.638
E27        37.000    25882893.201 7 136015582.94207      1433.647 7        43.681                                                                    25882906.058 7 101570178.67507      1070.585 7        46.067    25882904.375 7 104219821.65607      1098.603 7        46.641
R04        38.000    22361569.290 7 119745031.91007     -3664.754 7        47.576                                                                    22361580.760 7  93134994.23107     -2850.272 7        42.409
C33        39.000                                                                                                                                    27148083.792 6 141366976.22006     -3566.442 6        39.084                                                                    27148111.995 6 114872276.21806     -2898.107 6        38.874
C32        40.000                                                                                                                                    26773000.052 6 139413930.36906        30.973 6        40.369                                                                    26773011.214 6 113285248.07506        25.189 6        41.404
C34        41.000                                                                                                                                    24364606.377 7 126873047.12607      2679.540 7        45.294                                                                    24364615.777 7 103094842.72307      2177.271 7        44.570
S44        42.000    40841933.882 6 214625779.35806      -533.324 6        37.803
R22        43.000    22945067.688 7 122482435.54207     -4133.694 7        44.301                                                                    22945075.191 6  95264198.42306     -3215.131 6        41.147
C05        44.000                                                                                                                                    39561780.952 6 206008418.50406      -598.272 6        39.000    39561786.798 6 159298752.25706      -462.730 6        41.869    39561785.743 6 167398778.98706      -486.222 6        39.315
C40        45.000                                                                                                                                    41405121.046 5 215607357.01105     -1773.447 5        34.571                                                                    41405123.353 5 175198659.34805     -1441.553 5        35.133
G32        46.000    22936442.181 7 120531724.45507      -671.823 7        46.087                                    22936451.571 7  93920826.88007      -523.497 7        42.777    22936452.452 6  93920828.87506      -523.514 6        41.523
E36        47.000    26116792.104 7 137244768.25207      -332.880 7        42.603                                                                    26116803.565 7 102488092.89707      -248.546 7        45.652    26116801.871 7 105161678.16207      -255.063 7        45.926
C41        48.000                                                                                                                                    26092956.951 6 135872797.03906     -2369.984 6        41.492                                                                    26092977.691 6 110407833.00506     -1925.908 6        41.754
C10        49.000                                                                                                                                    39666806.593 6 206555439.52306     -1337.066 6        38.604    39666813.763 6 159721774.00906     -1033.995 6        41.311    39666809.875 6 167843209.33706     -1086.533 6        39.571
C44        50.000                                                                                                                                    22100683.298 8 115084085.96708       217.344 8        51.166                                                                    22100686.689 8  93515276.44808       176.511 8        48.969
S48        51.000    77245569.827 6 405929636.26306      -627.344 6        38.162
E02        53.000    25469215.748 7 133841661.41207     -2635.458 7        44.545                                                                    25469224.091 7  99946756.56907     -1968.068 7        47.224    25469222.635 7 102554046.60307     -2019.444 7        47.592
C60        54.000                                                                                                                                    40841933.044 6 212674653.43306      -528.519 6        40.276                                                                    40841927.921 6 172815501.75006      -429.424 6        39.477
C25        55.000                                                                                                                                    23046547.739 7 120009486.86107      1614.257 7        47.976                                                                    23046552.991 7  97517589.82907      1311.640 7        47.797
R12        56.000    24235354.747 6 129460855.72506     -4040.606 6        41.032                                                                    24235368.443 6 100691776.79006     -3142.642 6        39.282
C02        57.000                                                                                                                                    41028353.808 5 213645234.04405      -551.151 5        33.311    41028362.499 6 165203982.81606      -426.090 6        36.684    41028362.570 5 173604209.50805      -447.663 5        32.707
I03        58.000   118920370.257 5 390883525.24705       918.647 5        31.638
R13        60.000    20574808.342 7 109868387.80507     -2715.157 7        45.723
> 2025 01 01 13 30  5.0000000  0 57
G19         1.000    23903470.341 6 125613689.07806     -3996.134 6        40.203                                    23903474.510 4  97880871.62404     -3113.875 4        24.256
G25         2.000    20606092.269 8 108285842.87808      1154.037 8        48.289                                    20606097.848 8  84378655.62808       899.248 8        48.710    20606098.434 7  84378665.62607       899.274 7        44.566
G24         3.000    22303673.738 7 117206568.25407     -3835.076 7        45.604                                    22303680.198 7  91329815.17607     -2988.363 7        44.880    22303680.520 7  91329812.16607     -2988.383 7        42.916
G29         4.000    23512124.551 7 123557217.71507      2892.772 7        44.591                                    23512132.695 6  96278467.10806      2254.103 6        38.883    23512133.591 6  96278470.12306      2254.125 6        39.474
S21         5.000    38536502.310 7 202510306.58007      -611.504 7        43.331
G06         6.000    23034296.682 7 121046161.13307      -988.726 7        43.740                                    23034303.901 6  94321774.44206      -770.436 6        40.305    23034304.811 6  94321765.44906      -770.498 6        40.608
E19         7.000    28306050.963 5 148749283.57105      1813.894 5        31.638                                                                    28306060.900 5 111079021.54405      1354.692 5        35.490    28306059.054 5 113976735.86005      1389.973 5        35.652
G03         8.000    25503767.615 5 134023195.61405      -534.779 5        35.190                                    25503770.037 3 104433653.66703      -416.703 3        23.352    25503770.813 5 104433659.63205      -416.659 5        32.048
G11         9.000    23056858.517 7 121164766.83107      1318.777 7        44.891                                    23056863.530 5  94414201.60705      1027.615 5        31.019    23056863.389 7  94414201.61307      1027.615 7        42.140
E30        10.000    23683383.011 8 124457160.18408      -557.172 8        48.610                                                                    23683389.849 8  92938896.66108      -416.057 8        50.977    23683388.684 8  95363378.38708      -426.856 8        51.345
C26        11.000                                                                                                                                    24737984.023 7 128817106.10607     -3307.478 7        44.826                                                                    24737991.741 7 104674449.94907     -2687.465 7        44.545
S27        12.000    39326125.117 6 206660022.51306      -626.364 6        36.386
R15        13.000    23577487.791 7 125990953.83007      2852.586 7        44.101                                                                    23577505.743 6  97993031.23706      2218.617 6        39.447
S36        14.000    38308730.932 7 201314085.26407      -612.087 7        45.040
G12        15.000    20380837.029 8 107102162.15208     -1379.842 8        49.917                                    20380837.938 8  83456305.05908     -1075.200 8        50.758    20380838.401 7  83456305.05407     -1075.192 7        45.889
E29        16.000    25962827.974 7 136435499.81207        -7.102 7        43.486                                                                    25962841.292 7 101883657.79607        -5.388 7        45.938    25962839.437 7 104541490.78007        -5.495 7        46.240
S45        17.000    63505653.392 6 333725171.92906      -675.512 6        36.405
R03        18.000    24655634.996 6 131983215.44806     -4832.970 6        39.174                                                                    24655657.078 5 102653543.52505     -3758.746 5        33.665
C35        19.000                                                                                                                                    23864047.188 7 124266471.20807     -2578.241 7        46.747                                                                    23864052.825 7 100976758.56507     -2095.002 7        45.998
E11        20.000    28298157.243 5 148707982.52605     -2619.653 5        32.323                                                                    28298159.679 6 111048274.49106     -1956.047 6        36.715    28298158.518 6 113945171.99506     -2007.156 6        36.412
R14        21.000    19939415.876 8 106288387.66408      1071.219 8        52.411                                                                    19939422.918 8  82668818.99408       833.201 8        48.066
I06        22.000    38619396.463 7 151550822.60007      -555.650 7        42.216
S28        23.000    41009223.458 5 215504709.71305      -617.882 5        35.476
E34        24.000    26319000.032 7 138307434.45507      2024.045 7        42.235                                                                    26319012.656 7 103281666.55507      1511.465 7        46.140    26319010.843 7 105975956.09407      1550.888 7        45.986
S23        25.000    38249949.615 7 201004654.00107      -616.458 7        45.634
E08        26.000    28140240.457 6 147877652.42806     -3825.854 6        38.781                                                                    28140262.675 6 110428023.89106     -2857.040 6        41.173    28140259.889 6 113308763.25706     -2931.515 6        41.852
C07        27.000                                                                                                                                    40751787.233 6 212205181.38006     -1536.592 6        36.219    40751792.293 6 164090501.19406     -1188.149 6        39.309    40751788.666 6 172434076.44706     -1248.676 6        37.459
R24        28.000    21379940.419 8 114328356.27208      3158.227 8        49.195                                                                    21379949.139 7  88922201.47107      2456.317 7        44.828
I02        29.000    37212045.552 7 146028037.86907      -682.052 7        42.914
G28        30.000    24455815.089 6 128516106.52006      2856.852 6        39.814                                    24455828.285 4 100142452.85104      2226.123 4        24.030    24455829.017 6 100142449.87206      2226.113 6        40.238
E07        31.000    25455809.254 7 133771062.77807     -2738.937 7        44.594                                                                    25455821.950 7  99893958.66407     -2045.324 7        47.509    25455820.420 8 102499887.69208     -2098.668 8        48.122
C12        32.000                                                                                                                                    23061563.904 7 120087769.91007      1750.966 7        46.777    23061568.720 8  92859578.29908      1353.965 8        51.417    23061565.824 8  97581217.78508      1422.809 8        48.669
R23        34.000    20266245.099 8 108410884.19808     -1054.603 8        48.324
C24        35.000                                                                                                                                    21491129.828 8 111909995.21708     -1193.197 8        51.533                                                                    21491130.815 8  90936061.24108      -969.560 8        49.721
R05        36.000    22267793.177 7 119034047.17707      -427.040 7        47.095                                                                    22267805.892 7  92582053.10107      -332.125 7        43.771
E27        37.000    25881529.322 7 136008416.00807      1433.074 7        43.426                                                                    25881542.318 7 101564826.75407      1070.141 7        45.977    25881540.558 7 104214330.12207      1098.099 7        46.634
R04        38.000    22364993.126 8 119763363.01008     -3667.603 8        48.416                                                                    22365003.837 6  93149251.69906     -2852.614 6        41.805
C33        39.000                                                                                                                                    27151508.045 6 141384808.75006     -3566.639 6        38.520                                                                    27151536.653 6 114886766.53806     -2897.919 6        38.841
C32        40.000                                                                                                                                    26772971.963 6 139413783.30906        27.954 6        40.148                                                                    26772983.060 6 113285128.40806        22.799 6        41.356
C34        41.000                                                                                                                                    24362033.447 7 126859652.34207      2678.625 7        45.031                                                                    24362043.408 7 103083958.38607      2176.498 7        44.685
S44        42.000    40842439.229 6 214628445.96906      -533.385 6        37.981
R22        43.000    22948941.386 7 122503110.89107     -4136.333 7        45.096                                                                    22948948.723 6  95280279.27406     -3217.164 6        41.445
C05        44.000                                                                                                                                    39562355.032 6 206011409.98806      -598.146 6        38.859    39562361.134 6 159301065.46206      -462.480 6        41.878    39562360.310 6 167401209.82106      -486.095 6        39.204
C40        45.000                                                                                                                                    41406823.158 5 215616225.50605     -1773.772 5        34.276                                                                    41406826.533 5 175205865.81505     -1441.381 5        35.195
G32        46.000    22937082.955 7 120535092.13207      -675.188 7        45.716                                    22937092.435 7  93923451.03307      -526.119 7        42.885    22937093.165 6  93923453.02406      -526.054 6        41.795
E36        47.000    26117109.861 7 137246439.14207      -335.507 7        42.459                                                                    26117121.437 7 102489340.63707      -250.517 7        45.561    26117119.834 7 105162958.45307      -256.943 7        45.845
C41        48.000                                                                                                                                    26095233.749 7 135884652.24107     -2372.062 7        42.002                                                                    26095254.444 6 110417466.27106     -1927.429 6        41.735
C10        49.000                                                                                                                                    39668090.710 6 206562125.06506     -1337.046 6        38.504    39668097.626 6 159726943.69606     -1033.906 6        41.321    39668093.655 6 167848641.88106     -1086.259 6        39.513
C44        50.000                                                                                                                                    22100476.093 8 115083006.69308       214.453 8        51.014                                                                    22100479.404 8  93514399.44508       174.289 8        48.909
S48        51.000    77246156.741 6 405932773.39406      -627.379 6        38.162
E02        53.000    25471723.500 7 133854840.20407     -2636.021 7        44.659                                                                    25471731.964 7  99956597.85807     -1968.481 7        46.972    25471730.492 7 102564144.62307     -2019.832 7        47.421
C60        54.000                                                                                                                                    40842440.690 6 212677295.79906      -528.647 6        40.250                                                                    40842435.536 6 172817648.86606      -429.455 6        39.676
C25        55.000                                                                                                                                    23044997.902 7 120001418.39607      1613.248 7        47.725                                                                    23045003.437 7  97511033.54007      1310.977 7        47.790
R12        56.000    24239136.806 6 129481060.37206     -4041.177 6        40.565                                                                    24239150.319 6 100707491.50106     -3143.118 6        38.931
C02        57.000                                                                                                                                    41028883.181 5 213647989.33305      -550.965 5        32.599    41028891.362 6 165206113.39406      -426.187 6        36.401    41028891.925 5 173606448.41705      -447.964 5        32.659
I03        58.000   118919200.508 5 390878932.47905       918.572 5        31.713
R13        60.000    20577350.675 7 109881969.01607     -2717.198 7        46.152
> 2025 01 01 13 30 10.0000000  0 57
G19         1.000    23907273.138 6 125633673.34906     -3997.287 6        39.757                                    23907277.370 4  97896443.79104     -3114.785 4        24.060
G25         2.000    20604995.105 8 108280077.75208      1152.255 8        48.310                                    20605000.776 8  84374163.33208       897.859 8        48.593    20605001.503 7  84374173.33707       897.910 7        44.311
G24         3.000    22307323.671 7 117225748.09207     -3836.656 7        46.299                                    22307330.106 7  91344760.47707     -2989.600 7        44.867    22307330.429 7  91344757.48107     -2989.665 7        42.548
G29         4.000    23509373.121 7 123542757.06607      2891.594 7        43.913                                    23509381.020 6  96267199.11306      2253.181 6        38.766    23509381.223 6  96267202.13306      2253.342 6        39.147
S21         5.000    38537084.734 7 202513364.56507      -611.454 7        43.139
G06         6.000    23035239.219 7 121051113.68707      -992.091 7        43.435                                    23035246.309 6  94325633.57406      -773.060 6        40.238    23035247.641 6  94325624.58506      -773.015 6        40.870
E19         7.000    28304325.995 5 148740217.46005      1812.411 5        31.872                                                                    28304335.778 5 111072251.07505      1353.511 5        35.367    28304334.046 5 113969788.80205      1388.887 5        35.257
G03         8.000    25504278.324 5 134025877.49005      -537.745 5        34.805                                    25504280.477 3 104435743.39603      -419.034 3        23.657    25504281.058 5 104435749.36305      -418.476 5        32.677
G11         9.000    23055605.486 7 121158179.74007      1316.207 7        44.473                                    23055609.995 5  94409068.82905      1025.612 5        30.875    23055610.029 7  94409068.83807      1025.683 7        42.176
E30        10.000    23683913.777 8 124459949.12808      -558.246 8        48.527                                                                    23683920.590 8  92940979.30508      -416.848 8        51.071    23683919.430 8  95365515.36208      -427.747 8        51.295
C26        11.000                                                                                                                                    24741160.037 7 128833645.79107     -3308.192 7        45.437                                                                    24741168.007 7 104687889.77907     -2688.273 7        44.488
S27        12.000    39326719.986 6 206663155.01406      -626.660 6        36.227
R15        13.000    23574818.679 7 125976691.49007      2852.596 7        44.393                                                                    23574837.847 6  97981938.36706      2218.571 6        39.826
S36        14.000    38309313.522 7 201317145.92407      -611.963 7        44.813
G12        15.000    20382151.220 8 107109066.89808     -1381.901 8        49.794                                    20382151.866 8  83461685.37408     -1076.807 8        50.648    20382152.417 7  83461685.37507     -1076.735 7        45.789
E29        16.000    25962836.756 7 136435541.77207        -9.519 7        43.352                                                                    25962849.184 7 101883689.11707        -7.088 7        46.002    25962847.383 7 104541522.92207        -7.268 7        46.124
S45        17.000    63506241.674 6 333728552.16806      -675.934 6        36.321
R03        18.000    24660149.263 6 132007379.58006     -4832.439 6        38.982                                                                    24660169.926 5 102672337.75105     -3758.660 5        32.832
C35        19.000                                                                                                                                    23866524.208 7 124279368.50807     -2580.409 7        46.862                                                                    23866529.602 7 100987238.67107     -2096.844 7        46.033
E11        20.000    28300650.359 5 148721084.83105     -2621.294 5        32.228                                                                    28300652.953 6 111058058.77306     -1957.478 6        36.639    28300651.935 6 113955211.49206     -2008.543 6        36.454
R14        21.000    19938411.878 8 106283036.78608      1069.343 8        52.377                                                                    19938419.227 7  82664657.21007       831.714 7        47.903
I06        22.000    38620104.375 6 151553601.11706      -555.607 6        41.948
S28        23.000    41009809.451 5 215507800.60605      -618.100 5        35.190
E34        24.000    26317074.810 7 138297317.62707      2022.885 7        42.104                                                                    26317087.301 7 103274111.80007      1510.578 7        46.043    26317085.717 7 105968204.25807      1549.938 7        45.979
S23        25.000    38250536.373 7 201007736.41107      -616.398 7        45.494
E08        26.000    28143880.516 6 147896782.31406     -3825.916 6        38.547                                                                    28143903.029 6 110442309.10106     -2856.947 6        41.147    28143900.244 6 113323421.12906     -2931.477 6        41.878
C07        27.000                                                                                                                                    40753263.863 6 212212865.00506     -1536.478 6        36.227    40753267.936 6 164096442.65606     -1188.084 6        39.195    40753264.234 6 172440320.04506     -1248.751 6        37.384
R24        28.000    21376988.955 8 114312571.88508      3155.761 8        49.525                                                                    21376997.226 7  88909924.74207      2454.458 7        44.530
I02        29.000    37212914.892 7 146031448.51907      -681.975 7        42.762
G28        30.000    24453097.166 6 128501824.25106      2856.205 6        39.559                                    24453110.491 3 100131323.84803      2225.603 3        23.905    24453111.148 6 100131320.85906      2225.600 6        40.102
E07        31.000    25458416.386 7 133784762.04307     -2740.603 7        44.716                                                                    25458428.855 7  99904188.59807     -2046.565 7        47.516    25458427.334 8 102510384.49808     -2099.908 8        48.064
C12        32.000                                                                                                                                    23059883.850 7 120079020.59107      1748.907 7        46.466    23059888.217 8  92852812.77808      1352.390 8        51.400    23059885.661 8  97574108.25308      1421.137 8        48.674
R23        34.000    20267232.802 8 108416169.54708     -1059.304 8        48.168
C24        35.000                                                                                                                                    21492276.263 8 111915966.16408     -1195.004 8        51.360                                                                    21492277.464 8  90940913.11108      -971.074 8        49.650
R05        36.000    22268195.479 7 119036194.07307      -431.507 7        46.776                                                                    22268207.743 7  92583722.87407      -335.597 7        44.315
E27        37.000    25880165.931 7 136001252.36007      1432.573 7        43.202                                                                    25880179.082 7 101559477.29307      1069.707 7        46.025    25880177.395 7 104208841.11107      1097.738 7        46.551
R04        38.000    22368418.872 7 119781708.32807     -3670.422 7        47.303                                                                    22368429.971 6  93163520.21506     -2854.649 6        41.883
C33        39.000                                                                                                                                    27154932.927 6 141402641.50206     -3566.545 6        38.399                                                                    27154961.101 6 114901257.08106     -2898.114 6        38.676
C32        40.000                                                                                                                                    26772946.475 6 139413650.31106        25.477 6        40.021                                                                    26772957.609 6 113285020.28906        20.601 6        41.201
C34        41.000                                                                                                                                    24359462.365 7 126846262.71107      2677.527 7        44.673                                                                    24359472.118 7 103073078.22307      2175.700 7        44.807
S44        42.000    40842947.961 6 214631112.89206      -533.283 6        37.766
R22        43.000    22952816.032 7 122523799.04907     -4138.811 7        44.486                                                                    22952824.108 6  95296370.08706     -3219.090 6        41.754
C05        44.000                                                                                                                                    39562929.962 6 206014401.75406      -598.202 6        38.841    39562935.460 6 159303378.88806      -462.611 6        41.933    39562934.762 6 167403640.87006      -486.195 6        39.321
C40        45.000                                                                                                                                    41408526.182 5 215625093.69805     -1773.631 5        34.100                                                                    41408529.181 5 175213072.01805     -1441.190 5        34.819
G32        46.000    22937726.996 7 120538476.35607      -678.319 7        45.600                                    22937736.429 7  93926088.08507      -528.557 7        42.715    22937737.560 7  93926090.07907      -528.543 7        42.282
E36        47.000    26117430.332 7 137248123.22607      -338.133 7        42.514                                                                    26117441.860 7 102490598.23307      -252.369 7        45.543    26117440.260 7 105164248.84807      -258.959 7        45.704
C41        48.000                                                                                                                                    26097512.761 7 135896517.81507     -2373.974 7        42.186                                                                    26097533.233 6 110427107.99306     -1929.159 6        41.669
C10        49.000                                                                                                                                    39669374.917 6 206568811.05406     -1336.999 6        38.787    39669381.970 6 159732113.74906     -1033.994 6        41.507    39669377.607 6 167854074.81606     -1086.658 6        39.550
C44        50.000                                                                                                                                    22100271.541 8 115081941.58808       211.766 8        51.076                                                                    22100274.807 8  93513533.95508       172.008 8        48.974
S48        51.000    77246739.715 6 405935910.80006      -627.433 6        37.962
E02        53.000    25474231.473 7 133868021.93407     -2636.558 7        44.521                                                                    25474240.507 7  99966441.33207     -1968.866 7        46.998    25474238.901 7 102574244.88207     -2020.139 7        47.342
C60        54.000                                                                                                                                    40842948.313 6 212679938.48206      -528.489 6        40.031                                                                    40842942.877 6 172819796.26406      -429.520 6        39.688
C25        55.000                                                                                                                                    23043449.469 7 119993355.32307      1612.246 7        47.678                                                                    23043455.024 7  97504481.64207      1309.971 7        47.811
R12        56.000    24242919.257 6 129501268.05306     -4041.704 6        40.224                                                                    24242933.913 6 100723208.54906     -3143.440 6        38.778
C02        57.000                                                                                                                                    41029413.257 5 213650744.84405      -550.716 5        32.742    41029420.865 6 165208244.16406      -426.095 6        36.658    41029420.860 5 173608687.52505      -447.909 5        32.946
I03        58.000   118918030.520 5 390874339.69905       918.617 5        31.441
R13        60.000    20579896.673 7 109895560.57607     -2719.123 7        45.767
> 2025 01 01 13 30 15.0000000  0 57
G19         1.000    23911076.983 6 125653662.47006     -3998.393 6        39.462                                    23911081.044 3  97912019.74303     -3115.632 3        23.962
G25         2.000    20603899.798 8 108274321.72708      1150.313 8        48.356                                    20603905.438 8  84369678.13208       896.347 8        48.782    20603906.074 7  84369688.13507       896.367 7        44.336
G24         3.000    22310975.240 7 117244935.85307     -3838.335 7        46.500                                    22310981.504 7  91359711.95407     -2990.906 7        45.124    22310981.910 7  91359708.95207     -2990.835 7        42.705
G29         4.000    23506622.268 7 123528301.87607      2890.538 7        44.418                                    23506630.386 6  96255935.37306      2252.358 6        38.970    23506630.137 6  96255938.39506      2252.386 6        38.895
S21         5.000    38537666.403 7 202516422.02307      -611.453 7        43.100
G06         6.000    23036184.596 7 121056082.96107      -995.467 7        43.045                                    23036191.941 6  94329505.74206      -775.684 6        40.412    23036193.070 6  94329496.73406      -775.702 6        41.108
E19         7.000    28302602.589 5 148731157.84605      1811.405 5        32.341                                                                    28302612.055 5 111065485.60005      1352.464 5        35.067    28302610.533 5 113962846.86605      1387.865 5        35.281
G03         8.000    25504791.095 5 134028574.71005      -540.997 5        34.176                                    25504793.877 3 104437845.07203      -421.551 3        23.752    25504794.278 5 104437851.03805      -421.614 5        33.210
G11         9.000    23054353.891 7 121151605.15307      1313.612 7        44.194                                    23054358.808 5  94403945.79105      1023.589 5        31.064    23054359.305 7  94403945.80807      1023.583 7        42.518
E30        10.000    23684445.593 8 124462743.31508      -559.316 8        48.664                                                                    23684452.280 8  92943065.86708      -417.685 8        51.049    23684451.121 8  95367656.36108      -428.586 8        51.156
C26        11.000                                                                                                                                    24744337.941 7 128850189.64507     -3309.140 7        45.663                                                                    24744344.950 7 104701333.02107     -2689.019 7        44.426
S27        12.000    39327316.684 6 206666287.35206      -626.247 6        36.268
R15        13.000    23572149.620 7 125962428.90607      2852.590 7        44.611                                                                    23572168.428 6  97970845.31006      2218.618 6        40.446
S36        14.000    38309896.608 7 201320206.67507      -612.042 7        44.900
G12        15.000    20383466.647 8 107115981.89108     -1383.968 8        49.600                                    20383467.753 8  83467073.67708     -1078.416 8        50.791    20383468.280 7  83467073.67207     -1078.417 7        45.871
E29        16.000    25962846.524 7 136435595.46007       -11.917 7        43.427                                                                    25962859.429 7 101883729.20907        -8.886 7        46.008    25962857.686 7 104541564.05707        -9.176 7        46.143
S45        17.000    63506830.014 6 333731932.14006      -675.830 6        36.318
R03        18.000    24664662.701 5 132031540.75005     -4831.687 5        34.671                                                                    24664682.352 4 102691129.67104     -3758.170 4        28.938
C35        19.000                                                                                                                                    23869003.243 7 124292276.39407     -2582.650 7        46.727                                                                    23869008.477 7 100997727.40507     -2098.619 7        46.038
E11        20.000    28303145.780 5 148734196.14205     -2623.209 5        32.713                                                                    28303147.751 6 111067849.74906     -1958.716 6        37.013    28303146.623 6 113965257.90106     -2009.905 6        36.329
R14        21.000    19937410.027 8 106277694.87308      1067.490 8        52.297                                                                    19937416.935 8  82660502.40708       830.238 8        48.075
I06        22.000    38620812.812 7 151556379.34107      -555.476 7        42.013
S28        23.000    41010401.180 5 215510891.25105      -618.238 5        35.057
E34        24.000    26315150.935 7 138287206.86507      2021.625 7        42.324                                                                    26315163.167 7 103266561.56607      1509.635 7        46.041    26315161.819 7 105960457.06707      1549.002 7        45.932
S23        25.000    38251123.555 7 201010818.49407      -616.452 7        45.434
E08        26.000    28147520.574 6 147915911.02706     -3825.673 6        38.426                                                                    28147543.220 6 110456593.43006     -2856.776 6        41.228    28147540.283 6 113338078.10506     -2931.274 6        41.664
C07        27.000                                                                                                                                    40754739.169 6 212220548.13106     -1536.641 6        36.457    40754742.908 6 164102383.74306     -1188.068 6        39.264    40754739.729 6 172446563.21906     -1248.574 6        37.622
R24        28.000    21374040.182 8 114296799.44508      3153.288 8        49.681                                                                    21374047.609 7  88897657.31007      2452.502 7        45.193
I02        29.000    37213783.670 7 146034859.70007      -682.277 7        42.620
G28        30.000    24450379.311 6 128487545.13406      2855.514 6        39.682                                    24450393.434 4 100120197.29504      2225.075 4        24.045    24450393.861 6 100120194.31406      2225.062 6        39.988
E07        31.000    25461024.805 7 133798469.67107     -2742.462 7        44.813                                                                    25461037.406 7  99914424.78007     -2047.918 7        47.442    25461035.821 7 102520887.71207     -2101.319 7        47.989
C12        32.000                                                                                                                                    23058205.559 7 120070281.51107      1746.853 7        46.880    23058210.019 8  92846055.18108      1350.724 8        51.133    23058207.426 8  97567007.07208      1419.416 8        48.775
R23        34.000    20268224.957 8 108421478.29908     -1064.053 8        48.007
C24        35.000                                                                                                                                    21493424.613 8 111921945.93608     -1196.818 8        51.379                                                                    21493425.823 8  90945772.19208      -972.568 8        49.757
R05        36.000    22268600.537 7 119038362.97307      -436.053 7        46.936                                                                    22268613.390 7  92585409.76107      -339.115 7        44.048
E27        37.000    25878803.323 7 135994091.39407      1432.008 7        43.420                                                                    25878816.364 7 101554129.83407      1069.308 7        45.940    25878814.651 7 104203354.14807      1097.246 7        46.378
R04        38.000    22371846.637 7 119800067.15307     -3673.079 7        46.839                                                                    22371857.585 6  93177799.27506     -2856.902 6        41.890
C33        39.000                                                                                                                                    27158357.250 6 141420473.85406     -3566.315 6        38.354                                                                    27158385.639 6 114915747.30306     -2898.082 6        38.504
C32        40.000                                                                                                                                    26772923.181 6 139413530.05106        22.683 6        39.607                                                                    26772934.596 6 113284922.31506        18.552 6        40.670
C34        41.000                                                                                                                                    24356892.085 7 126832877.56907      2676.574 7        44.591                                                                    24356901.635 7 103062201.75207      2174.985 7        44.944
S44        42.000    40843455.611 6 214633779.50806      -533.328 6        37.807
R22        43.000    22956693.010 7 122544499.32507     -4141.164 7        43.100                                                                    22956702.135 6  95312470.29606     -3221.045 6        41.707
C05        44.000                                                                                                                                    39563504.347 6 206017393.13706      -598.341 6        38.901    39563510.166 6 159305692.01106      -462.528 6        41.967    39563509.258 6 167406071.64206      -486.169 6        39.234
C40        45.000                                                                                                                                    41410229.517 5 215633960.88005     -1773.545 5        34.200                                                                    41410231.993 5 175220277.42905     -1440.787 5        34.652
G32        46.000    22938374.684 7 120541876.50107      -681.528 7        45.582                                    22938383.446 7  93928737.53907      -531.059 7        42.899    22938383.643 6  93928739.54806      -531.130 6        41.468
E36        47.000    26117753.704 7 137249819.85607      -340.597 7        42.971                                                                    26117764.813 7 102491865.21407      -254.304 7        45.553    26117763.159 7 105165548.88707      -261.033 7        45.538
C41        48.000                                                                                                                                    26099794.152 7 135908393.17207     -2376.115 7        42.082                                                                    26099813.731 6 110436757.66806     -1930.762 6        41.683
C10        49.000                                                                                                                                    39670658.697 6 206575496.98006     -1337.037 6        38.874    39670665.833 6 159737283.73906     -1033.992 6        41.723    39670661.664 6 167859507.70606     -1086.617 6        39.547
C44        50.000                                                                                                                                    22100069.534 8 115080890.02108       208.981 8        50.981                                                                    22100072.874 8  93512679.50108       169.825 8        49.011
S48        51.000    77247326.034 6 405937448.15816      -627.566 6        38.081
E02        53.000    25476740.303 7 133881205.93707     -2636.984 7        44.524                                                                    25476749.404 7  99976286.50707     -1969.223 7        46.993    25476747.656 7 102584346.90207     -2020.605 7        47.249
C60        54.000                                                                                                                                    40843455.489 6 212682580.84006      -528.270 6        40.126                                                                    40843450.285 6 172821943.43706      -429.410 6        39.384
C25        55.000                                                                                                                                    23041901.965 7 119985297.02107      1611.274 7        47.717                                                                    23041907.510 7  97497933.65207      1309.152 7        47.891
R12        56.000    24246702.706 6 129521478.03006     -4042.005 6        39.985                                                                    24246717.438 6 100738927.40406     -3143.893 6        39.171
C02        57.000                                                                                                                                    41029941.382 5 213653499.99505      -551.162 5        32.748    41029949.639 6 165210374.61506      -426.092 6        36.692    41029949.831 5 173610926.33005      -448.044 5        32.467
I03        58.000   118916859.047 5 390869746.51805       918.936 5        31.751
R13        60.000    20582443.562 7 109909161.56107     -2721.104 7        45.374
> 2025 01 01 13 30 20.0000000  0 57
G19         1.000    23914881.844 6 125673657.13106     -3999.312 6        39.880                                    23914885.885 3  97927600.00103     -3116.344 3        23.905
G25         2.000    20602806.272 8 108268575.54308      1148.407 8        48.451                                    20602811.975 8  84365200.59508       894.860 8        48.839    20602812.547 7  84365210.60107       894.873 7        43.977
G24         3.000    22314627.985 7 117264132.23907     -3840.086 7        46.126                                    22314634.600 7  91374670.15207     -2992.272 7        45.238    22314634.659 7  91374667.14407     -2992.244 7        42.840
G29         4.000    23503872.698 7 123513852.85407      2889.286 7        43.898                                    23503880.808 6  96244676.43006      2251.385 6        39.060    23503880.545 6  96244679.43806      2251.534 6        38.435
S21         5.000    38538248.689 7 202519479.88307      -611.484 7        42.872
G06         6.000    23037133.003 7 121061069.63907      -998.967 7        43.554                                    23037140.945 6  94333391.46206      -778.419 6        40.508    23037141.870 6  94333382.45906      -778.349 6        41.056
E19         7.000    28300880.495 5 148722105.45205      1809.627 5        31.532                                                                    28300889.576 5 111058725.49405      1351.767 5        34.557    28300887.570 5 113955910.42305      1386.964 5        34.633
G03         8.000    25505308.138 5 134031288.15505      -544.365 5        33.802                                    25505310.403 3 104439959.34703      -424.185 3        23.314    25505310.786 5 104439965.33005      -424.311 5        32.365
G11         9.000    23053105.360 7 121145043.76907      1311.012 7        43.786                                    23053110.170 5  94398833.04605      1021.565 5        31.140    23053110.536 7  94398833.05807      1021.502 7        42.627
E30        10.000    23684978.403 8 124465543.46208      -560.509 8        48.691                                                                    23684985.153 8  92945156.88008      -418.543 8        50.793    23684983.966 8  95369801.92208      -429.418 8        51.119
C26        11.000                                                                                                                                    24747516.129 7 128866738.35007     -3310.031 7        45.255                                                                    24747522.926 7 104714780.15807     -2689.645 7        44.175
S27        12.000    39327914.946 6 206669420.26306      -626.760 6        36.431
R15        13.000    23569480.830 7 125948166.94207      2852.400 7        44.280                                                                    23569498.661 6  97959752.71706      2218.485 6        40.219
S36        14.000    38310476.363 7 201323267.04307      -611.817 7        44.685
G12        15.000    20384784.707 8 107122907.96508     -1386.175 8        49.739                                    20384785.742 8  83472470.61708     -1080.135 8        50.860    20384786.228 7  83472470.61607     -1080.149 7        45.473
E29        16.000    25962858.712 7 136435661.59507       -14.406 7        43.338                                                                    25962872.052 7 101883778.58907       -10.739 7        45.809    25962870.221 7 104541614.72407       -11.034 7        46.014
S45        17.000    63507422.200 6 333735312.46306      -675.833 6        36.325
R03        18.000    24669175.989 5 132055700.00305     -4831.701 5        31.826                                                                    24669199.412 4 102709920.10404     -3758.429 4        26.647
C35        19.000                                                                                                                                    23871483.759 7 124305195.56407     -2584.866 7        46.410                                                                    23871489.473 7 101008225.26007     -2100.353 7        45.830
E11        20.000    28305642.397 5 148747317.02005     -2624.968 5        32.892                                                                    28305644.328 6 111077647.92406     -1960.261 6        36.684    28305643.350 6 113975311.65306     -2011.403 6        36.571
R14        21.000    19936409.687 8 106272362.80408      1065.542 8        52.445                                                                    19936416.953 7  82656355.24207       828.787 7        47.990
I06        22.000    38621520.900 6 151559157.81106      -555.624 6        41.878
S28        23.000    41010986.757 5 215513982.23705      -618.225 5        35.043
E34        24.000    26313228.164 7 138277102.86007      2020.299 7        42.445                                                                    26313240.361 7 103259016.39207      1508.667 7        45.594    26313238.950 7 105952715.05907      1547.973 7        45.893
S23        25.000    38251709.016 7 201013901.13107      -616.366 7        45.412
E08        26.000    28151160.817 6 147935039.24806     -3825.458 6        38.384                                                                    28151183.355 6 110470877.40006     -2856.656 6        40.925    28151180.428 6 113352734.71506     -2931.178 6        41.499
C07        27.000                                                                                                                                    40756213.994 6 212228231.41306     -1536.326 6        36.238    40756218.760 6 164108324.95806     -1188.034 6        39.009    40756215.326 6 172452806.50806     -1248.561 6        37.471
R24        28.000    21371092.319 8 114281039.61108      3150.784 8        49.553                                                                    21371100.685 7  88885399.70307      2450.524 7        44.755
I02        29.000    37214653.433 7 146038271.68907      -682.409 7        42.610
G28        30.000    24447662.902 6 128473269.83906      2854.863 6        40.067                                    24447676.982 4 100109073.72704      2224.561 4        24.045    24447677.571 6 100109070.74406      2224.615 6        39.850
E07        31.000    25463635.261 7 133812186.30407     -2744.099 7        45.105                                                                    25463647.603 7  99924667.68807     -2049.096 7        47.218    25463646.041 7 102531397.84507     -2102.685 7        47.939
C12        32.000                                                                                                                                    23056530.085 7 120061553.39307      1744.641 7        46.709    23056533.710 8  92839306.06308      1349.066 8        50.960    23056531.172 8  97559914.75308      1417.698 8        48.547
R23        34.000    20269222.105 7 108426811.15607     -1068.854 7        47.901
C24        35.000                                                                                                                                    21494574.690 8 111927935.21108     -1198.658 8        51.401                                                                    21494576.003 8  90950638.94408      -973.987 8        49.451
R05        36.000    22269010.857 7 119040555.08307      -440.524 7        46.765                                                                    22269023.740 7  92587114.74507      -342.739 7        43.966
E27        37.000    25877441.572 7 135986933.76707      1431.308 7        43.454                                                                    25877454.368 7 101548784.86907      1068.830 7        45.818    25877452.626 7 104197869.75407      1096.720 7        46.434
R04        38.000    22375277.590 7 119818440.34007     -3675.956 7        47.421                                                                    22375289.353 6  93192089.47806     -2859.075 6        41.897
C33        39.000                                                                                                                                    27161782.024 6 141438306.46306     -3566.429 6        38.904                                                                    27161810.362 6 114930237.71506     -2898.075 6        38.129
C32        40.000                                                                                                                                    26772902.534 6 139413423.91806        20.086 6        39.862                                                                    26772914.584 6 113284835.89406        16.193 6        40.863
C34        41.000                                                                                                                                    24354323.060 7 126819497.61407      2675.605 7        44.853                                                                    24354332.050 7 103051329.45607      2174.193 7        44.701
S44        42.000    40843961.468 6 214636446.48406      -533.134 6        37.766
R22        43.000    22960573.222 7 122565212.40407     -4143.776 7        42.576                                                                    22960581.989 6  95328580.50206     -3222.941 6        41.101
C05        44.000                                                                                                                                    39564079.142 6 206020384.77306      -598.180 6        38.724    39564084.421 6 159308005.36506      -462.611 6        41.912    39564083.750 6 167408502.59006      -486.009 6        38.934
C40        45.000                                                                                                                                    41411932.004 5 215642827.76205     -1773.156 5        34.424                                                                    41411934.713 5 175227482.59505     -1440.867 5        34.957
G32        46.000    22939024.749 7 120545293.27307      -684.803 7        45.673                                    22939033.620 7  93931399.95307      -533.612 7        42.978    22939033.769 6  93931401.95206      -533.578 6        41.128
E36        47.000    26118078.999 7 137251529.74907      -343.276 7        43.075                                                                    26118090.165 7 102493142.09307      -256.245 7        45.302    26118088.594 7 105166859.07807      -263.017 7        45.726
C41        48.000                                                                                                                                    26102076.552 6 135920278.96006     -2378.033 6        40.927                                                                    26102096.340 6 110446415.78406     -1932.461 6        41.521
C10        49.000                                                                                                                                    39671942.755 6 206582183.37406     -1337.118 6        38.736    39671949.878 6 159742454.11806     -1034.073 6        41.797    39671945.706 6 167864940.94406     -1086.589 6        39.297
C44        50.000                                                                                                                                    22099870.149 8 115079852.68008       206.168 8        50.736                                                                    22099873.633 8  93511836.56608       167.532 8        48.808
S48        51.000    77247906.330 6 405940586.03106      -627.296 6        38.081
E02        53.000    25479249.849 7 133894392.92407     -2637.541 7        44.262                                                                    25479258.875 7  99986133.92107     -1969.622 7        46.887    25479257.066 7 102594451.20207     -2020.981 7        47.168
C60        54.000                                                                                                                                    40843962.973 6 212685223.60406      -528.598 6        39.952                                                                    40843957.868 6 172824090.86506      -429.331 6        39.501
C25        55.000                                                                                                                                    23040355.428 7 119977244.17907      1610.124 7        47.481                                                                    23040360.967 7  97491390.05307      1308.385 7        47.675
R12        56.000    24250486.645 6 129541691.07906     -4042.764 6        39.847                                                                    24250502.474 6 100754648.63106     -3144.253 6        39.369
C02        57.000                                                                                                                                    41030469.950 5 213656255.42905      -551.069 5        32.731    41030478.953 6 165212505.32806      -425.908 6        36.730    41030479.221 5 173613165.34005      -447.389 5        32.407
I03        58.000   118915688.774 5 390865153.47305       918.528 5        31.351
R13        60.000    20584992.839 7 109922772.60207     -2723.115 7        46.001
> 2025 01 01 13 30 25.0000000  0 56
G19         1.000    23918687.614 6 125693657.08506     -4000.624 6        40.298                                    23918691.786 4  97943184.39704     -3117.368 4        24.000
G25         2.000    20601714.569 8 108262838.96108      1146.330 8        48.474                                    20601720.322 8  84360730.54308       893.242 8        48.870    20601721.300 7  84360740.54707       893.250 7        44.343
G24         3.000    22318282.234 7 117283337.02107     -3841.901 7        45.767                                    22318289.244 7  91389634.88907     -2993.681 7        45.111    22318288.917 7  91389631.86907     -2993.622 7        42.751
G29         4.000    23501123.979 7 123499409.78707      2887.940 7        43.725                                    23501132.302 6  96233422.13006      2250.335 6        39.033    23501132.905 6  96233425.14606      2250.453 6        38.979
S21         5.000    38538831.229 7 202522537.53807      -611.561 7        43.158
G06         6.000    23038085.482 7 121066073.47907     -1002.576 7        43.268                                    23038093.235 6  94337290.56606      -781.231 6        40.560    23038094.074 6  94337281.57406      -781.208 6        41.344
E19         7.000    28299159.297 5 148713059.76705      1808.337 5        31.819                                                                    28299168.236 5 111051970.31405      1350.315 5        34.757    28299166.853 5 113948979.02705      1385.792 5        35.295
G03         8.000    25505827.981 5 134034017.60605      -547.317 5        33.317                                    25505829.778 3 104442086.17803      -426.470 3        23.752    25505830.338 5 104442092.18605      -426.620 5        33.222
G11         9.000    23051859.299 7 121138495.36307      1308.222 7        44.003                                    23051864.108 5  94393730.42505      1019.389 5        31.260    23051864.482 7  94393730.42807      1019.500 7        43.403
E30        10.000    23685512.144 8 124468349.27608      -561.763 8        48.822                                                                    23685519.108 8  92947252.12908      -419.524 8        50.785    23685517.922 8  95371951.83008      -430.428 8        51.292
C26        11.000                                                                                                                                    24750694.827 7 128883291.67207     -3311.182 7        44.935                                                                    24750701.798 7 104728231.07107     -2690.629 7        44.208
S27        12.000    39328509.341 6 206672553.15706      -626.610 6        36.250
R15        13.000    23566811.646 7 125933905.27107      2852.278 7        43.716                                                                    23566830.123 6  97948660.38506      2218.348 6        40.744
S36        14.000    38311060.410 7 201326326.34307      -611.811 7        44.825
G12        15.000    20386104.965 8 107129844.68908     -1388.406 8        49.750                                    20386105.760 8  83477875.85208     -1081.872 8        50.861    20386106.403 7  83477875.84507     -1081.801 7        45.713
E29        16.000    25962873.579 7 136435739.90907       -16.937 7        43.503                                                                    25962886.929 7 101883837.06607       -12.649 7        45.716    25962885.126 7 104541674.73607       -13.041 7        46.214
S45        17.000    63508008.671 6 333736992.98216      -676.117 6        36.378
C35        19.000                                                                                                                                    23873966.795 7 124318125.77507     -2587.141 7        46.386                                                                    23873972.468 7 101018732.12407     -2102.307 7        45.965
E11        20.000    28308140.836 5 148760447.19505     -2627.015 5        33.120                                                                    28308142.924 6 111087452.98306     -1961.522 6        36.624    28308142.089 6 113985372.49606     -2013.014 6        36.983
R14        21.000    19935411.185 8 106267040.24208      1063.470 8        52.590                                                                    19935418.431 8  82652215.47708       827.199 8        48.179
I06        22.000    38622228.850 6 151561936.28906      -555.681 6        41.986
S28        23.000    41011576.985 5 215517073.13505      -618.250 5        35.181
E34        24.000    26311306.326 7 138267005.37907      2018.707 7        42.311                                                                    26311318.909 7 103251476.07407      1507.533 7        45.384    26311317.307 7 105944978.03407      1546.830 7        45.943
S23        25.000    38252296.649 7 201016983.98007      -616.725 7        45.466
E08        26.000    28154800.547 6 147954166.74406     -3825.613 6        38.054                                                                    28154823.207 6 110485160.81706     -2856.660 6        40.899    28154820.327 6 113367390.75206     -2931.247 6        41.733
C07        27.000                                                                                                                                    40757689.645 6 212235914.61306     -1536.758 6        36.321    40757694.154 6 164114266.11306     -1188.369 6        38.913    40757690.994 6 172459049.75906     -1248.727 6        37.656
R24        28.000    21368147.755 8 114265292.25208      3148.230 8        49.735                                                                    21368155.500 7  88873151.74307      2448.624 7        44.537
I02        29.000    37215523.125 7 146041684.37607      -682.523 7        42.663
G28        30.000    24444947.390 6 128458998.14306      2854.006 6        40.010                                    24444961.129 4 100097952.96104      2223.900 4        24.165    24444961.576 6 100097949.96706      2223.853 6        40.367
E07        31.000    25466247.170 7 133825911.74907     -2745.964 7        45.049                                                                    25466259.538 7  99934917.18007     -2050.577 7        47.231    25466257.956 8 102541914.71008     -2104.035 8        48.120
C12        32.000                                                                                                                                    23054855.748 7 120052836.02507      1742.353 7        46.856    23054859.798 8  92832565.25408      1347.281 8        51.241    23054857.084 8  97552831.19408      1415.807 8        48.750
R23        34.000    20270223.844 8 108432167.99008     -1073.744 8        48.029
C24        35.000                                                                                                                                    21495726.766 8 111933933.77708     -1200.669 8        51.458                                                                    21495727.961 8  90955513.27708      -975.709 8        49.760
R05        36.000    22269425.270 7 119042769.84207      -445.258 7        46.889                                                                    22269437.668 7  92588837.30207      -346.393 7        43.391
E27        37.000    25876079.988 7 135979779.25007      1430.531 7        43.500                                                                    25876092.941 7 101543442.22207      1068.262 7        45.816    25876091.160 7 104192387.73007      1096.081 7        46.532
R04        38.000    22378710.901 7 119836827.43707     -3678.834 7        46.730                                                                    22378723.154 7  93206390.49407     -2861.258 7        42.095
C33        39.000                                                                                                                                    27165207.385 6 141456139.11906     -3566.739 6        39.622                                                                    27165234.980 6 114944728.16306     -2898.141 6        38.402
C32        40.000                                                                                                                                    26772885.027 6 139413331.65406        16.974 6        40.076                                                                    26772897.211 6 113284760.78706        13.873 6        41.507
C34        41.000                                                                                                                                    24351754.326 7 126806122.64507      2674.454 7        45.111                                                                    24351763.382 7 103040461.23807      2173.211 7        44.861
S44        42.000    40844470.589 6 214639113.63506      -533.493 6        37.924
R22        43.000    22964456.439 7 122585938.07207     -4146.444 7        43.204                                                                    22964464.550 6  95344700.49406     -3224.925 6        41.182
C05        44.000                                                                                                                                    39564653.151 6 206023376.52606      -598.500 6        38.733    39564658.998 7 159310318.77607      -462.798 7        42.123    39564658.170 6 167410933.63806      -486.267 6        39.294
C40        45.000                                                                                                                                    41413635.062 5 215651694.13405     -1773.361 5        34.129                                                                    41413637.301 5 175234687.33305     -1440.869 5        35.048
G32        46.000    22939677.776 7 120548726.42107      -688.263 7        45.455                                    22939686.902 7  93934075.12707      -536.305 7        42.952    22939687.105 6  93934077.11806      -536.328 6        41.199
E36        47.000    26118406.796 7 137253252.64707      -345.792 7        43.232                                                                    26118418.033 7 102494428.69007      -258.337 7        45.220    26118416.539 7 105168179.22707      -265.099 7        45.911
C41        48.000                                                                                                                                    26104360.646 6 135932174.96506     -2380.335 6        40.660                                                                    26104380.904 6 110456082.20206     -1934.088 6        41.819
C10        49.000                                                                                                                                    39673226.408 6 206588870.10806     -1337.432 6        38.769    39673234.039 7 159747624.74007     -1034.221 7        42.078    39673229.777 6 167870374.47606     -1086.700 6        39.628
C44        50.000                                                                                                                                    22099673.746 8 115078829.33608       203.261 8        50.782                                                                    22099677.153 8  93511005.02508       165.174 8        49.014
S48        51.000    77248494.125 6 405943724.20406      -627.793 6        38.015
E02        53.000    25481759.810 7 133907582.65407     -2638.251 7        44.217                                                                    25481768.792 7  99995983.37507     -1970.219 7        46.874    25481767.109 7 102604557.59807     -2021.569 7        47.396
C60        54.000                                                                                                                                    40844470.668 6 212687866.48606      -528.606 6        39.820                                                                    40844465.366 6 172826238.43306      -429.355 6        39.529
C25        55.000                                                                                                                                    23038809.826 7 119969196.56507      1608.890 7        47.368                                                                    23038815.496 7  97484850.72507      1307.380 7        47.980
R12        56.000    24254271.306 6 129561906.85306     -4043.365 6        38.604                                                                    24254285.672 6 100770371.98406     -3144.974 6        39.598
C02        57.000                                                                                                                                    41030999.430 5 213659010.89205      -551.363 5        32.425    41031008.510 6 165214636.06706      -426.119 6        36.654    41031008.143 5 173615404.41905      -447.908 5        32.617
I03        58.000   118914518.713 5 390860560.27105       918.966 5        31.887
R13        60.000    20587543.809 7 109936393.72707     -2725.259 7        46.178
> 2025 01 01 13 30 30.0000000  0 56
G19         1.000    23922494.665 6 125713662.45506     -4001.553 6        40.627                                    23922498.635 4  97958773.00604     -3118.105 4        24.195
G25         2.000    20600624.883 8 108257112.13808      1144.504 8        48.293                                    20600630.529 8  84356268.09508       891.818 8        48.930    20600631.383 7  84356278.10107       891.841 7        44.257
G24         3.000    22321938.502 7 117302550.26507     -3843.475 7        46.457                                    22321945.350 7  91404606.21807     -2994.912 7        45.085    22321945.061 7  91404603.21907     -2994.943 7        42.125
G29         4.000    23498376.640 7 123484972.78907      2886.941 7        44.193                                    23498385.058 6  96222172.56206      2249.554 6        39.150    23498385.440 6  96222175.57806      2249.466 6        39.249
S21         5.000    38539411.328 7 202525595.38707      -611.516 7        43.128
G06         6.000    23039040.992 7 121071094.65507     -1005.911 7        43.706                                    23039048.870 6  94341203.17206      -783.826 6        40.689    23039049.581 6  94341194.18406      -783.773 6        41.983
E19         7.000    28297439.308 5 148704021.46605      1807.061 5        33.120                                                                    28297448.855 5 111045220.74605      1349.378 5        35.848    28297447.394 6 113942053.43206      1384.565 6        36.798
G03         8.000    25506349.912 5 134036763.24705      -550.250 5        33.976                                    25506352.368 4 104444225.64404      -428.780 4        24.195    25506352.591 5 104444231.65605      -428.736 5        32.904
G11         9.000    23050616.073 7 121131960.10907      1305.787 7        44.095                                    23050620.510 5  94388638.03705      1017.493 5        31.577    23050620.483 7  94388638.03507      1017.697 7        42.677
E30        10.000    23686047.194 8 124471160.97308      -562.847 8        48.765                                                                    23686054.121 8  92949351.76708      -420.261 8        50.841    23686052.978 8  95374106.24208      -431.239 8        51.418
C26        11.000                                                                                                                                    24753874.734 7 128899849.76507     -3311.940 7        44.436                                                                    24753881.727 7 104741685.83707     -2691.178 7        44.166
S27        12.000    39329106.392 5 206675686.31605      -626.457 5        35.948
R15        13.000    23564142.806 7 125919644.03607      2852.100 7        43.901                                                                    23564160.828 6  97937568.33806      2218.610 6        39.961
S36        14.000    38311641.846 7 201329385.97507      -611.743 7        44.957
G12        15.000    20387427.076 8 107136792.24408     -1390.498 8        49.764                                    20387427.836 8  83483289.52408     -1083.502 8        50.921    20387428.404 7  83483289.51807     -1083.536 7        45.783
E29        16.000    25962890.847 7 136435830.57607       -19.220 7        43.617                                                                    25962904.198 7 101883904.77007       -14.315 7        45.779    25962902.340 7 104541744.20007       -14.745 7        46.251
S45        17.000    63508596.663 6 333740373.84806      -676.240 6        36.287
C35        19.000                                                                                                                                    23876452.353 7 124331067.16307     -2589.309 7        46.351                                                                    23876457.760 7 101029248.04207     -2103.970 7        46.017
E11        20.000    28310641.214 5 148773586.95605     -2628.798 5        32.593                                                                    28310643.071 6 111097265.29206     -1963.247 6        36.015    28310642.104 6 113995440.75506     -2014.478 6        36.476
R14        21.000    19934414.633 8 106261727.55108      1061.682 8        52.503                                                                    19934421.653 7  82648083.41207       825.704 7        47.996
I06        22.000    38622936.656 7 151564714.94507      -555.617 7        42.083
S28        23.000    41012164.981 5 215520164.54305      -618.162 5        35.124
E34        24.000    26309386.108 7 138256914.59507      2017.584 7        42.237                                                                    26309398.799 7 103243940.76807      1506.729 7        45.543    26309396.890 7 105937246.14707      1545.980 7        46.082
S23        25.000    38252882.776 7 201020067.23607      -616.608 7        45.336
E08        26.000    28158440.297 6 147973293.64406     -3825.228 6        37.879                                                                    28158463.046 6 110499443.80706     -2856.469 6        40.822    28158460.178 6 113382046.34106     -2930.992 6        41.752
C07        27.000                                                                                                                                    40759165.318 6 212243597.89606     -1536.534 6        36.355    40759169.544 6 164120207.33706     -1188.133 6        38.835    40759166.310 6 172465293.05106     -1248.491 6        38.126
R24        28.000    21365205.587 8 114249557.54008      3145.796 8        50.169                                                                    21365213.292 7  88860913.68507      2446.751 7        45.609
I02        29.000    37216392.720 7 146045098.13407      -682.794 7        42.673
G28        30.000    24442232.480 6 128444730.23206      2853.268 6        39.910                                    24442246.053 4 100086835.13104      2223.312 4        24.211    24442246.613 6 100086832.16106      2223.313 6        40.427
E07        31.000    25468860.781 7 133839646.12807     -2747.647 7        45.186                                                                    25468873.069 7  99945173.34107     -2051.764 7        47.218    25468871.559 8 102552438.42308     -2105.297 8        48.244
C12        32.000                                                                                                                                    23053183.787 7 120044129.57007      1740.314 7        46.909    23053187.775 8  92825832.88808      1345.745 8        51.685    23053185.063 8  97545756.49208      1414.221 8        48.745
R23        34.000    20271229.551 8 108437548.85308     -1078.479 8        48.050
C24        35.000                                                                                                                                    21496880.579 8 111939941.77808     -1202.470 8        51.556                                                                    21496881.747 8  90960395.25708      -977.076 8        49.777
R05        36.000    22269843.691 7 119045007.40507      -449.701 7        47.130                                                                    22269856.632 7  92590577.60207      -349.712 7        43.704
E27        37.000    25874719.262 7 135972628.00207      1430.147 7        43.848                                                                    25874732.010 7 101538102.03207      1067.818 7        45.983    25874730.241 7 104186908.22307      1095.733 7        46.709
R04        38.000    22382147.734 7 119855228.74307     -3681.543 7        46.738                                                                    22382159.852 6  93220702.57406     -2863.356 6        41.504
C33        39.000                                                                                                                                    27168632.359 6 141473971.94006     -3566.490 6        40.005                                                                    27168659.752 6 114959218.74306     -2897.954 6        38.489
C32        40.000                                                                                                                                    26772869.846 6 139413253.33706        14.380 6        39.694                                                                    26772881.972 6 113284697.05506        11.690 6        41.383
C34        41.000                                                                                                                                    24349186.198 7 126792752.83207      2673.632 7        44.727                                                                    24349195.483 7 103029597.18407      2172.582 7        44.632
S44        42.000    40844973.955 6 214641781.05706      -533.260 6        37.633
R22        43.000    22968341.460 7 122606676.47707     -4148.869 7        43.189                                                                    22968350.077 7  95360830.36807     -3226.913 7        42.100
C05        44.000                                                                                                                                    39565227.428 6 206026368.45606      -598.398 6        38.922    39565233.547 7 159312632.33507      -462.704 7        42.044    39565232.733 6 167413364.81906      -486.090 6        39.327
C40        45.000                                                                                                                                    41415337.779 5 215660560.15605     -1773.151 5        34.381                                                                    41415339.755 5 175241891.75105     -1440.671 5        34.714
G32        46.000    22940334.251 7 120552176.09007      -691.499 7        45.225                                    22940343.332 7  93936763.17207      -538.830 7        42.980    22940344.001 6  93936765.17606      -538.881 6        41.228
E36        47.000    26118737.043 7 137254988.72607      -348.392 7        43.490                                                                    26118748.343 7 102495725.11607      -260.247 7        45.391    26118746.941 7 105169509.47707      -266.995 7        46.122
C41        48.000                                                                                                                                    26106647.657 6 135944081.26606     -2382.271 6        40.973                                                                    26106667.431 6 110465757.01606     -1935.552 6        41.802
C10        49.000                                                                                                                                    39674510.634 6 206595557.29606     -1337.509 6        38.793    39674518.356 7 159752795.69707     -1034.162 7        42.381    39674513.840 6 167875808.35406     -1086.649 6        39.694
C44        50.000                                                                                                                                    22099480.071 8 115077820.15408       200.530 8        50.720                                                                    22099483.341 8  93510184.98508       163.019 8        48.972
S48        51.000    77249081.280 6 405946862.55106      -627.629 6        37.996
E02        53.000    25484270.328 7 133920775.27507     -2638.667 7        44.421                                                                    25484279.282 7 100005834.97907     -1970.459 7        47.010    25484277.772 7 102614666.20207     -2021.815 7        47.478
C60        54.000                                                                                                                                    40844978.389 6 212690509.66206      -528.452 6        39.970                                                                    40844972.900 6 172828386.23206      -429.262 6        39.622
C25        55.000                                                                                                                                    23037265.778 7 119961154.33007      1608.033 7        47.503                                                                    23037271.066 7  97478315.75907      1306.716 7        47.937
R12        56.000    24258056.154 6 129582125.59406     -4043.858 6        39.492                                                                    24258070.151 6 100786097.61706     -3145.290 6        39.607
C02        57.000                                                                                                                                    41031529.756 5 213661766.59505      -551.094 5        32.719    41031537.543 6 165216766.95906      -426.021 6        36.964    41031537.243 5 173617643.65805      -447.517 5        32.880
I03        58.000   118913348.665 5 390855967.20105       918.449 5        31.457
R13        60.000    20590096.351 7 109950024.90407     -2727.110 7        46.228
> 2025 01 01 13 30 35.0000000  0 56
G19         1.000    23926302.108 6 125733673.03006     -4002.685 6        40.555                                    23926306.445 4  97974365.66804     -3118.980 4        24.541
G25         2.000    20599536.486 8 108251394.86408      1142.515 8        48.023                                    20599542.570 8  84351813.08408       890.271 8        48.853    20599543.337 7  84351823.09007       890.268 7        44.257
G24         3.000    22325596.498 7 117321771.83207     -3845.157 7        46.311                                    22325602.963 7  91419584.04007     -2996.223 7        44.942    22325603.196 7  91419581.03807     -2996.167 7        42.235
G29         4.000    23495630.807 7 123470541.70507      2885.591 7        43.814                                    23495638.914 6  96210927.60506      2248.504 6        38.973    23495638.861 6  96210930.62006      2248.538 6        39.027
S21         5.000    38539993.400 7 202528653.40207      -611.633 7        43.257
G06         6.000    23040000.113 7 121076132.92907     -1009.260 7        43.109                                    23040007.738 6  94345129.10706      -786.435 6        40.579    23040008.559 7  94345120.11007      -786.421 7        42.324
E19         7.000    28295721.173 5 148694990.23505      1805.448 5        32.695                                                                    28295730.041 5 111038476.63305      1348.276 5        35.410    28295728.522 6 113935133.37006      1383.611 6        36.049
G03         8.000    25506875.171 5 134039524.84405      -553.763 5        34.995                                    25506878.047 4 104446377.54904      -431.510 4        24.782    25506877.633 5 104446383.54905      -431.672 5        34.114
G11         9.000    23049374.795 7 121125437.80807      1303.192 7        44.224                                    23049379.366 5  94383555.74105      1015.471 5        31.683    23049379.477 7  94383555.75407      1015.447 7        43.081
E30        10.000    23686583.338 8 124473978.33308      -564.029 8        48.613                                                                    23686590.247 8  92951455.63408      -421.193 8        50.951    23686589.096 8  95376264.99408      -432.199 8        51.516
C26        11.000                                                                                                                                    24757055.314 7 128916412.40407     -3312.856 7        44.665                                                                    24757062.218 7 104755144.30707     -2692.009 7        44.035
S27        12.000    39329701.288 6 206678819.40106      -626.526 6        36.272
R15        13.000    23561474.784 7 125905383.18207      2852.053 7        44.584                                                                    23561492.936 6  97926476.62006      2218.342 6        39.922
S36        14.000    38312225.084 7 201332445.94607      -612.094 7        44.951
G12        15.000    20388751.139 8 107143750.50208     -1392.668 8        49.609                                    20388751.946 8  83488711.53908     -1085.193 8        50.796    20388752.511 7  83488711.54007     -1085.212 7        45.741
E29        16.000    25962910.585 7 136435933.40507       -21.712 7        43.435                                                                    25962923.696 7 101883981.56307       -16.361 7        46.000    25962921.933 7 104541822.99007       -16.689 7        46.262
S45        17.000    63509184.113 6 333743754.90606      -675.996 6        36.522
C35        19.000                                                                                                                                    23878939.439 7 124344019.55007     -2591.622 7        46.317                                                                    23878945.135 7 101039772.89407     -2105.810 7        45.901
E11        20.000    28313142.680 5 148786736.05105     -2630.608 5        33.024                                                                    28313145.081 6 111107084.54406     -1964.509 6        36.420    28313144.542 6 114005516.15506     -2015.880 6        36.987
R14        21.000    19933419.492 8 106256424.23608      1059.693 8        52.419                                                                    19933426.684 7  82643958.61707       824.238 7        47.854
I06        22.000    38623644.869 7 151567493.62407      -555.631 7        42.260
S28        23.000    41012755.360 5 215523256.05905      -618.193 5        35.214
E34        24.000    26307467.229 7 138246830.34407      2016.118 7        42.768                                                                    26307479.889 7 103236410.33607      1505.614 7        45.711    26307478.079 7 105929519.27207      1544.887 7        46.093
S23        25.000    38253469.578 7 201023150.41507      -616.616 7        45.582
E08        26.000    28162080.168 6 147992419.75606     -3825.010 6        37.856                                                                    28162102.720 6 110513726.18606     -2856.417 6        40.973    28162099.788 6 113396701.32406     -2930.916 6        41.609
C07        27.000                                                                                                                                    40760640.561 6 212251280.99406     -1536.592 6        36.590    40760644.945 6 164126148.40406     -1188.018 6        38.823    40760641.876 6 172471536.19706     -1248.468 6        37.849
R24        28.000    21362265.862 8 114233835.22908      3143.216 8        49.887                                                                    21362273.438 7  88848685.24707      2444.847 7        46.157
I02        29.000    37217262.990 7 146048512.66807      -682.975 7        42.770
G28        30.000    24439518.157 6 128430465.92206      2852.584 6        40.174                                    24439531.456 4 100075720.10504      2222.788 4        24.000    24439531.819 6 100075717.10106      2222.856 6        39.372
E07        31.000    25471475.930 7 133853389.23607     -2749.499 7        44.996                                                                    25471488.356 7  99955436.01907     -2053.209 7        47.432    25471486.796 8 102562968.83008     -2106.769 8        48.205
C12        32.000                                                                                                                                    23051513.521 7 120035433.85307      1738.041 7        46.680    23051518.034 8  92819108.81908      1343.998 8        51.613    23051515.116 8  97538690.50508      1412.388 8        48.762
R23        34.000    20272239.709 8 108442953.44708     -1083.275 8        48.006
C24        35.000                                                                                                                                    21498036.314 8 111945959.01908     -1204.360 8        51.485                                                                    21498037.311 8  90965284.74608      -978.575 8        49.745
R05        36.000    22270266.988 7 119047267.50607      -454.278 7        46.666                                                                    22270279.428 7  92592335.43807      -353.271 7        42.887
E27        37.000    25873359.046 7 135965479.83407      1429.395 7        43.875                                                                    25873371.798 7 101532764.12807      1067.395 7        46.036    25873370.013 7 104181431.07207      1095.258 7        46.824
R04        38.000    22385586.693 7 119873643.89007     -3684.306 7        47.293                                                                    22385599.206 7  93235025.41107     -2865.506 7        42.260
C33        39.000                                                                                                                                    27172056.383 6 141491804.71906     -3566.522 6        39.465                                                                    27172084.195 6 114973709.30106     -2898.087 6        38.435
C32        40.000                                                                                                                                    26772858.662 6 139413188.56506        11.769 6        40.384                                                                    26772869.879 6 113284644.27806         9.599 6        41.554
C34        41.000                                                                                                                                    24346619.316 7 126779387.97507      2672.497 7        44.551                                                                    24346628.963 7 103018737.16407      2171.562 7        44.688
S44        42.000    40845486.868 6 214644448.59706      -533.460 6        38.081
R22        43.000    22972229.018 7 122627427.32107     -4151.394 7        43.702                                                                    22972237.872 6  95376969.92106     -3228.802 6        41.774
C05        44.000                                                                                                                                    39565802.743 6 206029360.43206      -598.358 6        38.724    39565808.053 6 159314945.92406      -462.703 6        41.969    39565807.422 6 167415796.05206      -486.122 6        39.366
C40        45.000                                                                                                                                    41417040.353 5 215669425.59205     -1772.844 5        34.371                                                                    41417042.192 5 175249095.71805     -1440.492 5        35.276
G32        46.000    22940993.989 7 120555642.08907      -694.830 7        45.025                                    22941002.878 7  93939463.94807      -541.418 7        42.897    22941003.675 6  93939465.94506      -541.373 6        41.647
E36        47.000    26119069.798 7 137256737.80107      -351.115 7        43.314                                                                    26119081.175 7 102497031.23807      -262.093 7        45.529    26119079.801 7 105170849.67707      -269.091 7        46.108
C41        48.000                                                                                                                                    26108935.973 6 135955997.70906     -2384.395 6        40.315                                                                    26108955.861 6 110475440.05106     -1937.232 6        41.764
C10        49.000                                                                                                                                    39675795.174 6 206602244.69906     -1337.466 6        38.646    39675802.721 7 159757966.81407     -1034.237 7        42.368    39675798.175 6 167881242.42606     -1086.920 6        39.498
C44        50.000                                                                                                                                    22099288.967 8 115076824.93208       197.719 8        50.795                                                                    22099292.206 8  93509376.28008       160.728 8        49.063
S48        51.000    77249664.165 6 405950001.12906      -627.738 6        38.060
E02        53.000    25486781.334 7 133933970.59307     -2639.367 7        44.617                                                                    25486790.221 7 100015688.60607     -1970.935 7        47.186    25486788.890 7 102624776.88707     -2022.347 7        47.540
C60        54.000                                                                                                                                    40845485.632 6 212693152.95306      -528.653 6        40.019                                                                    40845480.541 6 172830534.11806      -429.605 6        39.510
C25        55.000                                                                                                                                    23035722.516 7 119953117.31107      1606.864 7        47.653                                                                    23035727.634 7  97471785.02407      1305.791 7        47.932
R12        56.000    24261842.474 6 129602347.16106     -4044.483 6        39.504                                                                    24261855.997 6 100801825.45306     -3145.474 6        39.090
C02        57.000                                                                                                                                    41032058.888 5 213664522.30805      -551.129 5        32.569    41032066.339 6 165218897.86906      -426.023 6        37.036    41032066.786 5 173619882.90805      -447.625 5        32.659
I03        58.000   118912177.575 5 390851373.92705       918.721 5        31.924
R13        60.000    20592650.402 7 109963665.86607     -2729.243 7        45.967
> 2025 01 01 13 30 40.0000000  0 56
G19         1.000    23930111.248 6 125753688.75406     -4004.009 6        40.434                                    23930115.306 4  97989962.33904     -3119.999 4        24.677
G25         2.000    20598450.666 8 108245687.08308      1140.334 8        48.296                                    20598456.413 8  84347365.47608       888.571 8        48.989    20598457.259 7  84347375.47907       888.516 7        44.415
G24         3.000    22329255.260 7 117341001.62307     -3847.042 7        45.857                                    22329262.248 7  91434568.26707     -2997.689 7        45.085    22329262.486 7  91434565.25407     -2997.619 7        42.459
G29         4.000    23492885.403 7 123456116.47107      2884.185 7        44.047                                    23492893.736 6  96199687.20206      2247.411 6        39.018    23492893.751 6  96199690.22406      2247.445 6        39.033
S21         5.000    38540575.797 7 202531711.26207      -611.872 7        43.412
G06         6.000    23040961.547 7 121081188.28307     -1012.941 7        43.082                                    23040969.866 6  94349068.34906      -789.303 6        40.684    23040970.049 6  94349059.34806      -789.363 6        41.638
E19         7.000    28294003.225 5 148685965.66105      1803.954 5        32.623                                                                    28294012.980 5 111031737.34505      1347.297 5        34.795    28294011.578 5 113928218.31405      1382.346 5        35.462
G03         8.000    25507403.026 5 134042302.03505      -557.251 5        34.724                                    25507406.418 4 104448541.60304      -434.199 4        25.128    25507406.616 5 104448547.59205      -434.481 5        33.323
G11         9.000    23048135.928 7 121118928.39307      1300.355 7        44.510                                    23048140.780 5  94378483.49105      1013.252 5        31.992    23048141.066 7  94378483.51407      1013.262 7        43.143
E30        10.000    23687120.550 8 124476801.26908      -565.431 8        48.653                                                                    23687127.426 8  92953563.66708      -422.212 8        50.930    23687126.262 8  95378428.02008      -433.233 8        51.496
C26        11.000                                                                                                                                    24760237.068 7 128932979.53607     -3314.159 7        44.876                                                                    24760243.793 7 104768606.43107     -2692.864 7        44.107
S27        12.000    39330298.048 6 206681952.67306      -626.994 6        36.344
R15        13.000    23558806.045 7 125891122.39407      2851.767 7        44.926                                                                    23558823.884 6  97915384.96006      2218.038 6        40.815
S36        14.000    38312809.217 7 201335505.88007      -612.306 7        44.974
G12        15.000    20390077.194 8 107150719.29708     -1395.088 8        49.960                                    20390078.072 8  83494141.76208     -1087.081 8        50.944    20390078.722 7  83494141.76307     -1087.072 7        45.801
E29        16.000    25962932.525 7 136436048.31907       -24.481 7        43.397                                                                    25962945.552 7 101884067.35907       -18.275 7        45.980    25962943.832 7 104541911.03107       -18.755 7        46.332
S45        17.000    63509772.986 6 333747136.05106      -676.639 6        36.401
C35        19.000                                                                                                                                    23881429.039 7 124356982.83307     -2594.052 7        46.573                                                                    23881434.623 7 101050306.62807     -2107.818 7        46.065
E11        20.000    28315646.710 5 148799894.29505     -2632.688 5        32.551                                                                    28315648.995 6 111116910.57806     -1966.124 6        36.076    28315648.384 6 114015598.49006     -2017.346 6        36.681
R14        21.000    19932426.320 8 106251130.43208      1057.550 8        52.573                                                                    19932433.804 8  82639841.22208       822.518 8        48.459
I06        22.000    38624353.105 7 151570272.25607      -556.077 7        42.188
S28        23.000    41013341.764 5 215526347.51705      -618.757 5        35.043
E34        24.000    26305549.651 7 138236752.52507      2014.682 7        43.115                                                                    26305562.154 7 103228884.70807      1504.421 7        45.837    26305560.387 7 105921797.31707      1543.727 7        46.198
S23        25.000    38254056.041 7 201026233.59707      -616.917 7        45.452
E08        26.000    28165719.605 6 148011544.96606     -3825.017 6        37.429                                                                    28165742.192 6 110528007.90606     -2856.426 6        40.932    28165739.206 6 113411355.62706     -2930.898 6        41.566
C07        27.000                                                                                                                                    40762116.297 6 212258963.93006     -1536.954 6        36.764    40762120.276 6 164132089.35806     -1188.441 6        38.553    40762117.308 6 172477779.21606     -1248.566 6        37.970
R24        28.000    21359327.266 8 114218125.33308      3140.425 8        49.376                                                                    21359335.281 7  88836466.47307      2442.520 7        45.848
I02        29.000    37218133.416 7 146051927.86807      -683.335 7        42.679
G28        30.000    24436804.135 6 128416205.17306      2851.519 6        40.389                                    24436817.709 4 100064607.86004      2221.956 4        24.120    24436818.091 6 100064604.88906      2221.832 6        39.399
E07        31.000    25474092.750 7 133867141.00707     -2751.511 7        44.749                                                                    25474105.258 7  99965705.15607     -2054.658 7        47.393    25474103.713 8 102573505.86108     -2108.281 8        48.210
C12        32.000                                                                                                                                    23049845.383 7 120026748.74107      1735.749 7        46.653    23049849.869 8  92812392.95008      1342.147 8        51.281    23049847.326 8  97531633.16308      1410.429 8        48.803
R23        34.000    20273254.688 8 108448381.89808     -1088.371 8        48.283
C24        35.000                                                                                                                                    21499193.458 8 111951985.43508     -1206.511 8        51.257                                                                    21499194.624 8  90970181.69808      -980.249 8        49.794
R05        36.000    22270693.648 7 119049550.29607      -459.051 7        47.235                                                                    22270706.330 7  92594110.93207      -356.972 7        43.333
E27        37.000    25871999.198 7 135958334.66007      1428.378 7        43.628                                                                    25872012.083 7 101527428.46007      1066.719 7        45.964    25872010.311 7 104175956.20907      1094.558 7        46.760
R04        38.000    22389028.583 7 119892072.89907     -3687.471 7        46.956                                                                    22389040.684 7  93249359.03507     -2868.051 7        43.077
C33        39.000                                                                                                                                    27175480.592 6 141509637.38706     -3566.884 6        39.000                                                                    27175508.809 6 114988199.77606     -2898.256 6        38.501
C32        40.000                                                                                                                                    26772848.964 6 139413137.58806         8.530 6        40.279                                                                    26772860.091 6 113284602.79406         7.029 6        41.199
C34        41.000                                                                                                                                    24344053.863 7 126766027.98307      2671.271 7        44.536                                                                    24344063.469 7 103007881.11107      2170.706 7        44.674
S44        42.000    40845995.506 6 214647116.14206      -533.665 6        38.036
R22        43.000    22976119.351 7 122648190.58107     -4154.073 7        43.591                                                                    22976126.490 6  95393119.14006     -3230.985 6        41.244
C05        44.000                                                                                                                                    39566377.346 6 206032352.33306      -598.653 6        38.889    39566382.813 6 159317259.46906      -462.917 6        41.986    39566381.887 6 167418227.21706      -486.289 6        39.357
C40        45.000                                                                                                                                    41418742.815 5 215678290.36105     -1773.116 5        34.343                                                                    41418744.446 5 175256299.14705     -1440.824 5        34.924
G32        46.000    22941656.469 7 120559124.33507      -698.367 7        45.840                                    22941665.510 7  93942177.38107      -544.182 7        42.999    22941666.699 6  93942179.37406      -544.194 6        41.719
E36        47.000    26119405.006 7 137258499.75507      -353.964 7        43.065                                                                    26119416.475 7 102498347.00607      -264.388 7        45.442    26119415.031 7 105172199.76007      -271.214 7        46.368
C41        48.000                                                                                                                                    26111225.690 6 135967924.16506     -2386.468 6        41.075                                                                    26111246.232 6 110485131.25706     -1939.118 6        41.897
C10        49.000                                                                                                                                    39677079.267 6 206608932.32506     -1337.616 6        38.444    39677086.850 7 159763138.10407     -1034.503 7        42.322    39677082.389 6 167886676.65006     -1086.972 6        39.763
C44        50.000                                                                                                                                    22099100.501 8 115075843.58708       194.598 8        50.674                                                                    22099103.706 8  93508578.86608       158.259 8        49.034
S48        51.000    77250250.136 6 405953139.93906      -628.164 6        38.030
E02        53.000    25489292.939 7 133947168.52107     -2640.130 7        44.429                                                                    25489301.671 7 100025544.18407     -1971.573 7        47.125    25489300.377 7 102634889.56707     -2022.938 7        47.675
C60        54.000                                                                                                                                    40845993.215 6 212695796.24706      -528.968 6        39.949                                                                    40845988.168 6 172832682.00906      -429.618 6        39.529
C25        55.000                                                                                                                                    23034179.841 7 119945085.41207      1605.602 7        47.604                                                                    23034185.221 8  97465258.47008      1304.757 8        48.024
R12        56.000    24265628.286 6 129622571.33506     -4045.374 6        39.640                                                                    24265641.329 6 100817555.32906     -3146.435 6        38.814
C02        57.000                                                                                                                                    41032587.639 5 213667277.93205      -551.480 5        32.754    41032595.994 6 165221028.71906      -426.350 6        36.960    41032596.123 5 173622122.10005      -447.837 5        32.814
I03        58.000   118911005.979 5 390846780.51505       918.974 5        31.517
R13        60.000    20595206.472 7 109977316.79507     -2731.426 7        46.060
> 2025 01 01 13 30 45.0000000  0 56
G19         1.000    23933920.791 6 125773710.00106     -4004.865 6        40.586                                    23933925.236 4  98005563.32104     -3120.672 4        24.481
G25         2.000    20597366.481 8 108239989.22008      1138.641 8        48.717                                    20597372.143 8  84342925.59208       887.250 8        48.895    20597373.096 7  84342935.59907       887.226 7        44.417
G24         3.000    22332916.386 7 117360240.05307     -3848.538 7        45.851                                    22332923.250 7  91449559.22407     -2998.856 7        44.916    22332923.459 7  91449556.21607     -2998.851 7        42.548
G29         4.000    23490141.543 7 123441697.51807      2883.223 7        44.319                                    23490149.769 6  96188451.69206      2246.661 6        38.934    23490149.723 6  96188454.72106      2246.639 6        38.829
S21         5.000    38541157.564 7 202534769.51707      -611.722 7        43.372
G06         6.000    23041927.251 7 121086261.07507     -1016.226 7        42.935                                    23041935.258 6  94353021.18006      -791.865 6        40.567    23041935.021 6  94353012.18406      -791.925 6        41.228
E19         7.000    28292287.656 5 148676948.32005      1802.819 5        32.790                                                                    28292296.955 5 111025003.45405      1346.112 5        35.162    28292295.737 5 113921308.76805      1381.332 5        35.843
G03         8.000    25507934.688 5 134045095.48805      -560.271 5        34.081                                    25507938.175 4 104450718.23404      -436.560 4        24.632    25507938.538 5 104450724.20705      -436.797 5        34.452
G11         9.000    23046899.731 7 121112432.30507      1297.918 7        45.097                                    23046904.784 5  94373421.62905      1011.360 5        31.924    23046904.659 7  94373421.64407      1011.362 7        43.183
E30        10.000    23687658.915 8 124479630.19808      -566.425 8        48.690                                                                    23687665.789 8  92955676.17908      -422.971 8        50.914    23687664.596 8  95380595.63808      -433.988 8        51.533
C26        11.000                                                                                                                                    24763419.681 7 128949551.54807     -3314.913 7        44.683                                                                    24763426.488 7 104782072.53607     -2693.536 7        44.141
S27        12.000    39330893.713 6 206685086.29406      -627.035 6        36.446
R15        13.000    23556137.014 7 125876862.34807      2851.875 7        43.289                                                                    23556155.365 6  97904293.87806      2218.200 6        40.072
S36        14.000    38313388.735 7 201338566.95407      -612.148 7        45.081
G12        15.000    20391405.457 8 107157699.03808     -1397.019 8        50.063                                    20391406.278 8  83499580.51508     -1088.587 8        50.917    20391407.236 7  83499580.51307     -1088.623 7        45.955
E29        16.000    25962957.095 7 136436175.74007       -26.755 7        42.973                                                                    25962969.875 7 101884162.50507       -19.932 7        45.806    25962968.036 7 104542008.66107       -20.432 7        46.362
S45        17.000    63510364.407 6 333750517.65806      -676.346 6        36.684
C35        19.000                                                                                                                                    23883920.787 7 124369957.40907     -2596.088 7        46.911                                                                    23883926.216 7 101060849.53807     -2109.414 7        45.887
E11        20.000    28318152.701 5 148813062.22305     -2634.490 5        33.024                                                                    28318154.381 6 111126743.87906     -1967.271 6        36.204    28318154.017 6 114025688.31606     -2018.701 6        37.028
R14        21.000    19931435.093 8 106245846.48308      1055.850 8        52.434                                                                    19931442.348 8  82635731.49708       821.205 8        48.312
I06        22.000    38625061.265 7 151573051.14507      -555.869 7        42.235
S28        23.000    41013925.521 5 215529439.74705      -618.278 5        35.271
E34        24.000    26303633.050 7 138226681.58407      2013.489 7        42.819                                                                    26303645.717 7 103221364.21307      1503.543 7        45.719    26303643.826 7 105914080.63607      1542.817 7        46.149
S23        25.000    38254644.202 7 201029317.53007      -616.897 7        45.500
E08        26.000    28169359.191 6 148030669.74606     -3824.922 6        37.191                                                                    28169381.671 6 110542289.28906     -2856.114 6        40.839    28169378.714 6 113426009.58206     -2930.758 6        41.721
C07        27.000                                                                                                                                    40763591.682 6 212266647.07306     -1536.658 6        36.941    40763595.515 6 164138030.49106     -1188.141 6        38.598    40763592.791 6 172484022.42706     -1248.570 6        37.773
R24        28.000    21356390.650 8 114202428.12308      3138.130 8        49.395                                                                    21356399.229 7  88824257.56607      2440.796 7        44.910
I02        29.000    37219003.976 7 146055344.08607      -683.312 7        42.667
G28        30.000    24434090.963 6 128401948.35906      2850.942 6        40.257                                    24434104.525 4 100053498.69004      2221.511 4        24.120    24434105.252 6 100053495.70506      2221.555 6        39.258
E07        31.000    25476711.336 7 133880901.81707     -2753.100 7        44.727                                                                    25476723.931 7  99975981.05807     -2055.809 7        47.331    25476722.273 8 102584049.83808     -2109.456 8        48.235
C12        32.000                                                                                                                                    23048179.383 7 120018074.71007      1733.687 7        46.257    23048184.033 8  92805685.64708      1340.670 8        51.301    23048181.533 8  97524584.80808      1408.802 8        48.626
R23        34.000    20274274.416 7 108453834.43207     -1092.977 7        47.855
C24        35.000                                                                                                                                    21500352.590 8 111958021.42708     -1208.188 8        51.206                                                                    21500353.792 8  90975086.43208      -981.743 8        49.613
R05        36.000    22271124.966 7 119051856.06807      -463.405 7        47.370                                                                    22271138.354 7  92595904.31807      -360.420 7        43.729
E27        37.000    25870639.931 7 135951192.89307      1428.015 7        43.642                                                                    25870653.067 7 101522095.34507      1066.436 7        45.992    25870651.261 7 104170483.96907      1094.192 7        46.821
R04        38.000    22392472.421 7 119910516.21307     -3690.075 7        46.522                                                                    22392484.666 7  93263703.77407     -2870.078 7        43.238
C33        39.000                                                                                                                                    27178905.666 6 141527470.33606     -3566.577 6        39.192                                                                    27178933.674 6 115002690.45206     -2898.006 6        38.174
C32        40.000                                                                                                                                    26772842.105 6 139413100.62206         5.879 6        40.608                                                                    26772852.883 6 113284572.69006         4.833 6        41.359
C34        41.000                                                                                                                                    24341489.503 7 126752673.32107      2670.379 7        44.385                                                                    24341498.742 7 102997029.38107      2169.872 7        44.500
S44        42.000    40846500.607 6 214649784.12606      -533.573 6        38.147
R22        43.000    22980010.534 7 122668966.64707     -4156.410 7        43.615                                                                    22980018.380 6  95409278.31506     -3232.705 6        41.159
C05        44.000                                                                                                                                    39566951.570 6 206035344.60706      -598.580 6        38.865    39566957.157 7 159319573.28807      -462.749 7        42.034    39566956.651 6 167420658.69906      -486.351 6        39.153
C40        45.000                                                                                                                                    41420445.121 5 215687154.93005     -1772.669 5        34.171                                                                    41420446.535 5 175263502.43305     -1440.821 5        35.138
G32        46.000    22942322.404 7 120562623.25907      -701.435 7        45.618                                    22942331.344 7  93944903.80407      -546.573 7        42.902    22942331.874 6  93944905.79806      -546.655 6        41.306
E36        47.000    26119742.886 7 137260275.04507      -356.356 7        43.060                                                                    26119754.335 7 102499672.71207      -266.084 7        45.532    26119752.817 7 105173560.05607      -273.050 7        46.454
C41        48.000                                                                                                                                    26113518.882 6 135979861.08806     -2388.453 6        41.857                                                                    26113538.695 6 110494830.95306     -1940.743 6        41.704
C10        49.000                                                                                                                                    39678364.423 6 206615620.57906     -1337.531 6        38.336    39678371.009 7 159768309.88807     -1034.489 7        42.603    39678366.806 6 167892111.40306     -1086.935 6        39.306
C44        50.000                                                                                                                                    22098914.888 8 115074876.55408       191.915 8        50.848                                                                    22098918.064 8  93507793.07608       156.035 8        48.853
S48        51.000    77250835.945 6 405956279.26306      -627.911 6        38.138
E02        53.000    25491805.156 7 133960369.47607     -2640.479 7        44.453                                                                    25491813.642 7 100035402.02407     -1971.718 7        47.083    25491812.380 7 102645004.57307     -2023.207 7        47.733
C60        54.000                                                                                                                                    40846501.120 6 212698440.00406      -528.920 6        39.922                                                                    40846495.872 6 172834830.26406      -429.569 6        39.465
C25        55.000                                                                                                                                    23032638.365 7 119937059.07007      1604.767 7        47.616                                                                    23032643.775 7  97458736.42307      1304.058 7        47.854
R12        56.000    24269414.412 6 129642798.63906     -4045.787 6        39.459                                                                    24269427.990 6 100833287.64306     -3146.570 6        39.114
C02        57.000                                                                                                                                    41033116.077 5 213670033.89805      -551.159 5        32.731    41033124.813 6 165223159.84006      -426.350 6        36.824    41033124.996 5 173624361.59705      -448.401 5        32.413
I03        58.000   118909835.837 5 390842187.29105       918.391 5        31.826
R13        60.000    20597765.380 7 109990977.85707     -2733.188 7        45.893
> 2025 01 01 13 30 50.0000000  0 56
G19         1.000    23937731.859 6 125793736.42006     -4005.982 6        40.751                                    23937736.145 4  98021168.32604     -3121.546 4        24.406
G25         2.000    20596284.033 8 108234300.84408      1136.765 8        48.821                                    20596289.671 8  84338493.10508       885.788 8        48.985    20596290.429 7  84338503.11807       885.739 7        44.703
G24         3.000    22336578.987 7 117379486.68407     -3850.214 7        45.737                                    22336585.742 7  91464556.57007     -3000.159 7        44.885    22336586.225 7  91464553.55907     -3000.193 7        42.440
G29         4.000    23487398.998 7 123427284.46207      2882.017 7        44.269                                    23487406.975 6  96177220.78106      2245.720 6        39.033    23487407.344 6  96177223.81106      2245.775 6        39.141
S21         5.000    38541740.771 7 202537827.86907      -611.624 7        43.082
G06         6.000    23042895.816 7 121091350.92507     -1019.565 7        42.593                                    23042903.842 6  94356987.29906      -794.466 6        40.565    23042904.403 6  94356978.31106      -794.509 6        41.597
E19         7.000    28290573.006 5 148667937.60305      1801.180 5        32.371                                                                    28290582.409 5 111018274.34705      1345.305 5        34.648    28290581.353 5 113914404.17805      1380.408 5        34.800
G03         8.000    25508469.800 5 134047904.97905      -563.423 5        33.928                                    25508472.892 4 104452907.45504      -439.036 4        24.376    25508472.742 5 104452913.44605      -438.845 5        34.210
G11         9.000    23045665.920 7 121105949.14507      1295.367 7        45.806                                    23045671.170 5  94368369.83705      1009.372 5        31.834    23045670.862 7  94368369.86607      1009.233 7        43.600
E30        10.000    23688198.370 8 124482464.71108      -567.410 8        48.552                                                                    23688205.196 8  92957792.85908      -423.763 8        50.941    23688203.995 8  95382767.53408      -434.775 8        51.390
C26        11.000                                                                                                                                    24766602.890 7 128966128.07007     -3315.790 7        44.163                                                                    24766610.012 7 104795542.27407     -2694.220 7        44.212
S27        12.000    39331490.635 6 206688220.03206      -626.882 6        36.095
R15        13.000    23553467.944 7 125862602.38507      2851.907 7        44.363                                                                    23553486.754 6  97893202.87106      2218.207 6        40.911
S36        14.000    38313973.395 7 201341627.74207      -612.154 7        44.892
G12        15.000    20392735.690 8 107164689.34208     -1399.077 8        49.963                                    20392736.492 8  83505027.50008     -1090.186 8        50.945    20392737.194 7  83505027.48907     -1090.209 7        46.090
E29        16.000    25962983.345 7 136436315.25307       -29.185 7        43.014                                                                    25962996.375 7 101884266.68307       -21.771 7        45.794    25962994.575 7 104542115.55407       -22.337 7        46.227
S45        17.000    63510954.567 6 333753899.42006      -676.461 6        36.197
C35        19.000                                                                                                                                    23886414.576 7 124382942.87307     -2598.151 7        46.959                                                                    23886420.042 7 101071401.29207     -2111.088 7        46.000
E11        20.000    28320660.411 5 148826239.26305     -2636.299 5        32.371                                                                    28320661.959 5 111136583.93705     -1968.665 5        35.771    28320661.599 6 114035785.05006     -2020.036 6        36.537
R14        21.000    19930445.695 8 106240571.90408      1053.912 8        52.216                                                                    19930452.880 8  82631629.06508       819.713 8        48.415
I06        22.000    38625769.266 7 151575829.99307      -555.830 7        42.135
S28        23.000    41014519.366 5 215532531.90805      -618.366 5        35.143
E34        24.000    26301717.598 7 138216617.09407      2012.282 7        42.457                                                                    26301730.491 7 103213848.53507      1502.716 7        45.759    26301728.541 7 105906368.89907      1541.867 7        45.976
S23        25.000    38255230.597 7 201032401.61907      -616.842 7        45.598
E08        26.000    28172998.330 6 148049793.63206     -3824.823 6        37.025                                                                    28173020.833 6 110556570.00306     -2855.938 6        40.820    28173017.880 6 113440662.83906     -2930.486 6        41.423
C07        27.000                                                                                                                                    40765067.108 6 212274330.00706     -1536.495 6        37.149    40765071.094 6 164143971.42206     -1188.052 6        38.568    40765068.061 6 172490265.46506     -1248.544 6        38.039
R24        28.000    21353458.723 8 114186743.46408      3135.732 8        50.548                                                                    21353466.503 7  88812058.38407      2438.905 7        44.898
I02        29.000    37219874.596 7 146058760.94307      -683.475 7        42.677
G28        30.000    24431378.631 6 128387695.08406      2850.365 6        40.582                                    24431392.151 4 100042392.28204      2221.057 4        24.105    24431393.285 6 100042389.29706      2221.049 6        39.844
E07        31.000    25479331.774 7 133894671.26307     -2754.790 7        44.578                                                                    25479344.145 7  99986263.40507     -2057.121 7        47.311    25479342.452 8 102594600.42208     -2110.804 8        48.158
C12        32.000                                                                                                                                    23046515.732 7 120009411.32707      1731.629 7        46.318    23046520.267 8  92798986.58108      1339.018 8        50.956    23046517.815 8  97517545.10808      1407.108 8        48.673
R23        34.000    20275297.634 8 108459310.68808     -1097.576 8        48.370
C24        35.000                                                                                                                                    21501513.488 8 111964066.58108     -1209.978 8        51.326                                                                    21501514.644 8  90979998.60208      -983.132 8        49.706
R05        36.000    22271560.326 7 119054184.32307      -467.909 7        47.408                                                                    22271573.754 7  92597715.15007      -364.038 7        44.504
E27        37.000    25869281.609 7 135944054.13307      1427.437 7        44.057                                                                    25869294.585 7 101516764.47507      1065.944 7        46.074    25869292.721 7 104165014.02007      1093.819 7        46.689
R04        38.000    22395919.726 7 119928973.22907     -3692.716 7        47.442                                                                    22395930.520 7  93278059.18307     -2872.203 7        43.198
C33        39.000                                                                                                                                    27182330.269 6 141545303.13706     -3566.477 6        39.096                                                                    27182358.046 6 115017181.02806     -2898.103 6        38.384
C32        40.000                                                                                                                                    26772837.065 6 139413077.17206         3.279 6        40.470                                                                    26772848.697 6 113284553.51206         2.720 6        41.080
C34        41.000                                                                                                                                    24338925.910 7 126739323.56507      2669.467 7        44.202                                                                    24338935.055 7 102986181.62407      2169.252 7        44.621
S44        42.000    40847008.740 6 214652452.15406      -533.558 6        38.063
R22        43.000    22983904.756 7 122689755.06507     -4158.887 7        43.827                                                                    22983913.416 6  95425447.10806     -3234.732 6        41.414
C05        44.000                                                                                                                                    39567525.941 6 206038336.80806      -598.260 6        38.787    39567532.113 6 159321887.05206      -462.736 6        41.866    39567531.286 6 167423090.10606      -486.109 6        39.117
C40        45.000                                                                                                                                    41422147.176 5 215696018.82505     -1772.846 5        33.904                                                                    41422148.809 5 175270705.12505     -1440.698 5        35.124
G32        46.000    22942991.139 7 120566138.42507      -704.588 7        46.084                                    22943000.267 7  93947642.88707      -549.027 7        42.948    22943000.981 6  93947644.88706      -549.062 6        41.607
E36        47.000    26120083.210 7 137262063.25207      -358.900 7        42.872                                                                    26120094.603 7 102501008.06907      -268.028 7        45.488    26120093.002 7 105174930.24407      -275.050 7        46.296
C41        48.000                                                                                                                                    26115813.199 6 135991808.05206     -2390.510 6        41.709                                                                    26115832.921 6 110504538.80206     -1942.386 6        41.728
C10        49.000                                                                                                                                    39679647.921 6 206622309.00506     -1337.570 6        38.300    39679655.570 7 159773481.79407     -1034.465 7        42.436    39679651.299 6 167897546.28306     -1086.882 6        39.369
C44        50.000                                                                                                                                    22098731.936 8 115073923.40008       189.228 8        51.020                                                                    22098735.065 8  93507018.55908       153.810 8        48.969
S48        51.000    77251420.985 6 405959418.91706      -627.883 6        38.111
E02        53.000    25494317.621 7 133973573.05507     -2641.031 7        44.265                                                                    25494326.294 7 100045261.82007     -1972.215 7        46.989    25494324.811 7 102655121.57707     -2023.640 7        47.608
C60        54.000                                                                                                                                    40847008.707 6 212701083.75906      -528.846 6        39.853                                                                    40847003.647 6 172836978.54206      -429.593 6        39.610
C25        55.000                                                                                                                                    23031097.873 7 119929037.87507      1603.797 7        47.586                                                                    23031103.430 7  97452218.55407      1303.249 7        47.986
R12        56.000    24273202.288 6 129663028.58006     -4046.254 6        40.567                                                                    24273214.969 6 100849022.01106     -3146.978 6        38.928
C02        57.000                                                                                                                                    41033645.790 5 213672789.78405      -550.990 5        32.455    41033653.899 6 165225290.88906      -426.291 6        36.722    41033654.243 5 173626600.96805      -447.774 5        32.521
I03        58.000   118908665.959 5 390837593.82505       918.917 5        31.668
R13        60.000    20600325.871 7 110004648.81607     -2735.144 7        46.061
> 2025 01 01 13 30 55.0000000  0 56
G19         1.000    23941543.855 6 125813767.89506     -4006.563 6        40.515                                    23941547.935 4  98036777.29204     -3122.002 4        24.075
G25         2.000    20595203.135 8 108228621.90508      1135.075 8        48.821                                    20595208.987 8  84334067.96708       884.471 8        48.887    20595209.635 7  84334077.97407       884.417 7        44.366
G24         3.000    22340243.490 7 117398741.44307     -3851.570 7        46.161                                    22340249.727 7  91479560.24907     -3001.216 7        44.799    22340250.308 7  91479557.23507     -3001.199 7        42.138
G29         4.000    23484657.377 7 123412877.22207      2881.041 7        44.014                                    23484665.324 6  96165994.39406      2244.960 6        39.033    23484666.233 6  96165997.41106      2244.947 6        39.174
S21         5.000    38542321.872 7 202540886.10107      -611.512 7        42.952
G06         6.000    23043867.566 7 121096457.76707     -1022.981 7        43.122                                    23043875.615 6  94360966.66306      -797.132 6        40.429    23043875.872 6  94360957.66706      -797.070 6        41.437
E19         7.000    28288860.373 5 148658933.64705      1800.643 5        32.018                                                                    28288869.434 5 111011550.36105      1344.582 5        34.890    28288868.148 5 113907504.81705      1379.310 5        35.238
G03         8.000    25509007.728 5 134050730.16205      -566.446 5        34.386                                    25509010.407 4 104455108.93704      -441.391 4        24.511    25509010.788 5 104455114.94105      -441.360 5        34.262
G11         9.000    23044434.523 7 121099478.85507      1292.948 7        45.541                                    23044439.922 5  94363328.07705      1007.487 5        31.955    23044439.594 7  94363328.09607      1007.389 7        42.861
E30        10.000    23688738.875 8 124485304.76408      -568.414 8        48.421                                                                    23688745.625 8  92959913.67008      -424.479 8        50.924    23688744.461 8  95384943.67408      -435.558 8        51.362
C26        11.000                                                                                                                                    24769786.780 7 128982708.99107     -3316.517 7        44.188                                                                    24769794.271 7 104809015.62307     -2695.002 7        44.218
S27        12.000    39332086.447 6 206691353.71406      -626.595 6        36.223
R15        13.000    23550800.545 7 125848342.66707      2852.123 7        45.211                                                                    23550818.324 6  97882112.01706      2218.156 6        41.094
S36        14.000    38314554.983 7 201344688.45707      -612.045 7        44.754
G12        15.000    20394067.820 8 107171690.13208     -1401.023 8        50.033                                    20394068.696 8  83510482.65508     -1091.703 8        50.846    20394069.281 7  83510482.65607     -1091.757 7        46.067
E29        16.000    25963011.912 7 136436466.80807       -31.325 7        43.027                                                                    25963025.171 7 101884379.84107       -23.391 7        45.893    25963023.535 7 104542231.67207       -24.068 7        46.221
S45        17.000    63511543.932 6 333755581.23616      -676.237 6        36.408
C35        19.000                                                                                                                                    23888910.429 7 124395939.19607     -2600.203 7        46.390                                                                    23888915.883 7 101081961.87107     -2112.852 7        45.938
E11        20.000    28323168.944 5 148839425.55605     -2637.958 5        32.138                                                                    28323171.523 5 111146430.96305     -1969.597 5        35.695    28323170.798 6 114045888.96406     -2021.174 6        36.975
R14        21.000    19929457.679 8 106235306.89808      1052.297 8        52.484                                                                    19929465.135 8  82627534.07608       818.464 8        48.344
I06        22.000    38626477.115 7 151578608.73007      -555.534 7        42.038
S28        23.000    41015106.302 5 215535623.99805      -618.279 5        35.176
E34        24.000    26299803.990 7 138206559.03407      2011.165 7        42.172                                                                    26299816.436 7 103206337.66107      1501.805 7        45.916    26299814.575 7 105898662.08507      1540.974 7        46.047
S23        25.000    38255817.019 7 201035485.68107      -616.637 7        45.470
E08        26.000    28176637.358 6 148068916.52706     -3824.256 6        36.994                                                                    28176659.919 6 110570850.00506     -2855.802 6        40.787    28176656.924 6 113455315.37306     -2930.306 6        41.471
C07        27.000                                                                                                                                    40766543.185 6 212282012.69006     -1536.225 6        37.448    40766546.961 6 164149912.17306     -1187.997 6        38.309    40766543.509 6 172496508.29906     -1248.558 6        37.989
R24        28.000    21350528.233 8 114171071.13008      3133.395 8        49.981                                                                    21350535.611 7  88799868.81807      2437.045 7        45.062
I02        29.000    37220745.663 7 146062178.45107      -683.423 7        42.595
G28        30.000    24428666.943 6 128373445.33606      2849.640 6        40.105                                    24428680.514 4 100031288.61804      2220.479 4        24.030    24428681.486 6 100031285.63506      2220.622 6        40.110
E07        31.000    25481953.812 7 133908449.27507     -2756.233 7        44.427                                                                    25481966.070 7  99996552.15607     -2058.300 7        47.342    25481964.413 8 102605157.57408     -2111.989 8        48.163
C12        32.000                                                                                                                                    23044854.969 7 120000758.57107      1729.608 7        46.800    23044858.685 8  92792295.73108      1337.488 8        51.087    23044856.175 8  97510514.06208      1405.455 8        48.606
R23        34.000    20276325.719 8 108464810.59908     -1102.192 8        48.163
C24        35.000                                                                                                                                    21502676.179 8 111970120.84508     -1211.606 8        51.283                                                                    21502677.356 8  90984918.20608      -984.583 8        49.642
R05        36.000    22272000.303 7 119056535.28407      -472.252 7        45.836                                                                    22272013.282 7  92599543.64207      -367.415 7        43.962
E27        37.000    25867923.752 7 135936918.30307      1426.996 7        43.727                                                                    25867936.721 7 101511435.78507      1065.701 7        45.998    25867934.763 7 104159546.32907      1093.469 7        46.710
R04        38.000    22399369.353 7 119947443.98807     -3695.286 7        47.418                                                                    22399379.819 7  93292425.25307     -2874.117 7        42.383
C33        39.000                                                                                                                                    27185754.866 6 141563135.73206     -3566.317 6        38.961                                                                    27185782.825 6 115031671.43606     -2897.879 6        38.372
C32        40.000                                                                                                                                    26772834.874 6 139413067.34106         0.799 6        40.091                                                                    26772846.775 6 113284545.47306         0.546 6        41.187
C34        41.000                                                                                                                                    24336363.503 7 126725978.66407      2668.593 7        44.295                                                                    24336372.409 7 102975337.84407      2168.457 7        44.656
S44        42.000    40847515.710 6 214655120.13406      -533.421 6        37.970
R22        43.000    22987801.850 7 122710555.74707     -4161.107 7        44.044                                                                    22987809.527 6  95441625.42006     -3236.486 6        41.099
C05        44.000                                                                                                                                    39568100.540 6 206041328.92306      -598.314 6        38.883    39568106.547 7 159324200.74607      -462.587 7        42.059    39568105.724 6 167425521.47606      -486.233 6        39.405
C40        45.000                                                                                                                                    41423849.489 5 215704882.10405     -1772.689 5        33.377                                                                    41423850.732 5 175277907.35405     -1440.171 5        34.609
G32        46.000    22943662.857 7 120569669.78807      -707.773 7        46.207                                    22943672.271 7  93950394.58907      -551.510 7        42.815    22943672.701 6  93950396.58106      -551.500 6        41.194
E36        47.000    26120425.730 7 137263864.30107      -361.276 7        42.662                                                                    26120437.375 7 102502353.01607      -269.834 7        45.544    26120435.670 7 105176310.27507      -276.893 7        46.323
C41        48.000                                                                                                                                    26118109.082 6 136003764.95806     -2392.120 6        41.287                                                                    26118129.036 6 110514254.74706     -1943.874 6        41.452
C10        49.000                                                                                                                                    39680932.446 6 206628997.58506     -1337.551 6        38.306    39680940.118 7 159778653.81707     -1034.436 7        42.474    39680935.557 6 167902981.31106     -1086.918 6        39.306
C44        50.000                                                                                                                                    22098551.388 8 115072984.07808       186.617 8        51.014                                                                    22098554.642 8  93506255.31608       151.588 8        48.887
S48        51.000    77252004.908 6 405962558.54606      -627.827 6        37.879
E02        53.000    25496830.686 7 133986779.18207     -2641.378 7        43.991                                                                    25496839.400 7 100055123.50907     -1972.379 7        46.900    25496837.812 7 102665240.53707     -2023.897 7        47.603
C60        54.000                                                                                                                                    40847516.339 6 212703727.48006      -528.567 6        39.895                                                                    40847511.332 6 172839126.79506      -429.412 6        39.508
C25        55.000                                                                                                                                    23029558.738 7 119921021.77907      1602.867 7        47.719                                                                    23029564.009 7  97445704.84607      1302.450 7        47.892
R12        56.000    24276989.779 6 129683261.08806     -4046.563 6        40.024                                                                    24277002.675 6 100864758.37406     -3147.349 6        38.787
C02        57.000                                                                                                                                    41034175.257 5 213675545.55805      -550.794 5        32.563    41034183.107 6 165227421.87306      -426.270 6        36.741    41034183.509 5 173628840.30005      -447.763 5        32.509
I03        58.000   118907495.538 5 390833000.22105       918.896 5        31.630
R13        60.000    20602887.490 7 110018329.57007     -2737.062 7        45.856
> 2025 01 01 13 31  0.0000000  0 56
G19         1.000    23945356.624 6 125833804.92706     -4008.188 6        40.420                                    23945360.995 3  98052390.58603     -3123.261 3        23.657
G25         2.000    20594124.353 8 108222952.93608      1132.657 8        49.069                                    20594130.208 8  84329650.60108       882.588 8        48.918    20594130.876 7  84329660.60307       882.620 7        44.691
G24         3.000    22343909.261 7 117418004.84307     -3853.658 7        45.436                                    22343915.433 7  91494570.66907     -3002.844 7        44.798    22343916.220 7  91494567.65207     -3002.833 7        42.624
G29         4.000    23481917.161 7 123398476.29407      2879.477 7        43.979                                    23481924.917 6  96154772.93206      2243.740 6        39.063    23481925.321 6  96154775.96506      2243.656 6        39.336
S21         5.000    38542904.234 7 202543944.90707      -611.961 7        42.883
G06         6.000    23044843.178 7 121101582.09107     -1026.690 7        43.228                                    23044850.657 6  94364959.64806      -800.019 6        40.338    23044850.669 6  94364950.64406      -799.796 6        40.930
E19         7.000    28287148.321 5 148649937.29805      1798.440 5        32.090                                                                    28287157.755 5 111004832.08905      1343.139 5        35.200    28287156.118 5 113900611.29505      1378.190 5        35.381
G03         8.000    25509548.406 5 134053571.68505      -570.240 5        34.114                                    25509551.286 4 104457323.12804      -444.336 4        24.226    25509551.816 5 104457329.16405      -444.362 5        33.898
G11         9.000    23043205.579 7 121093021.96307      1289.982 7        44.495                                    23043211.206 5  94358296.75705      1005.178 5        31.955    23043210.926 7  94358296.76507      1005.069 7        43.300
E30        10.000    23689280.528 8 124488150.84908      -569.955 8        48.322                                                                    23689287.235 8  92962038.99008      -425.594 8        50.840    23689286.059 8  95387124.43708      -436.715 8        51.467
C26        11.000                                                                                                                                    24772971.930 7 128999294.83607     -3317.715 7        44.280                                                                    24772979.142 7 104822492.93907     -2695.846 7        44.188
S27        12.000    39332683.994 6 206694487.86706      -626.854 6        36.382
R15        13.000    23548131.630 7 125834083.70907      2851.562 7        44.351                                                                    23548149.432 6  97871021.78006      2217.815 6        40.181
S36        14.000    38315137.193 7 201347749.85307      -612.439 7        44.888
G12        15.000    20395402.055 8 107178701.96408     -1403.603 8        50.025                                    20395403.024 8  83515946.41408     -1093.713 8        50.809    20395403.686 7  83515946.41407     -1093.721 7        46.141
E29        16.000    25963043.516 7 136436630.91207       -34.130 7        42.944                                                                    25963056.300 7 101884502.39107       -25.562 7        45.789    25963054.746 7 104542357.41507       -26.206 7        46.319
S45        17.000    63512129.272 6 333758963.59006      -676.551 6        36.431
C35        19.000                                                                                                                                    23891408.211 7 124408946.81807     -2602.751 7        46.067                                                                    23891413.895 7 101092531.61107     -2114.786 7        46.099
E11        20.000    28325680.201 5 148852621.45805     -2640.179 5        31.721                                                                    28325682.413 5 111156285.18905     -1971.549 5        35.900    28325681.555 6 114056000.23306     -2023.110 6        36.480
R14        21.000    19928472.138 8 106230051.80308      1049.888 8        52.350                                                                    19928478.956 8  82623446.78208       816.548 8        48.059
I06        22.000    38627185.338 7 151581387.80307      -555.993 7        42.116
S28        23.000    41015694.137 5 215538716.60605      -618.712 5        35.400
E34        24.000    26297891.512 7 138196507.91907      2009.235 7        42.121                                                                    26297903.735 7 103198831.96307      1500.564 7        45.872    26297902.059 7 105890960.58807      1539.676 7        46.305
S23        25.000    38256403.365 7 201038570.26407      -617.051 7        45.609
E08        26.000    28180276.418 6 148088038.97606     -3824.440 6        37.115                                                                    28180298.812 6 110585129.66206     -2855.934 6        40.782    28180295.847 6 113469967.55406     -2930.450 6        41.375
C07        27.000                                                                                                                                    40768018.745 6 212289695.58506     -1536.620 6        37.520    40768022.198 6 164155853.10106     -1188.142 6        38.544    40768018.737 6 172502751.25806     -1248.574 6        37.974
R24        28.000    21347599.141 8 114155411.70408      3130.421 8        50.068                                                                    21347607.642 7  88787689.29007      2434.859 7        45.568
I02        29.000    37221616.738 7 146065597.00907      -683.952 7        42.525
G28        30.000    24425955.977 6 128359199.63606      2848.555 6        40.577                                    24425969.857 3 100020188.13603      2219.646 3        23.886    24425970.232 6 100020185.15306      2219.673 6        40.362
E07        31.000    25484577.450 7 133922236.36007     -2758.337 7        44.435                                                                    25484589.679 7 100006847.66807     -2059.818 7        47.258    25484587.966 8 102615721.67408     -2113.565 8        48.217
C12        32.000                                                                                                                                    23043195.901 7 119992116.94407      1727.125 7        47.013    23043199.144 8  92785613.49108      1335.475 8        51.103    23043196.587 8  97503492.01908      1403.540 8        48.765
R23        34.000    20277358.533 8 108470334.73308     -1107.276 8        48.257
C24        35.000                                                                                                                                    21503840.608 8 111976184.73808     -1213.873 8        51.186                                                                    21503841.880 8  90989845.58808      -986.209 8        49.729
R05        36.000    22272444.218 7 119058909.00607      -477.144 7        47.293                                                                    22272457.704 7  92601389.84007      -371.066 7        43.797
E27        37.000    25866566.031 7 135929785.91307      1426.113 7        43.744                                                                    25866579.395 7 101506109.68907      1064.859 7        45.923    25866577.638 7 104154081.28707      1092.660 7        46.828
R04        38.000    22402821.143 7 119965928.95607     -3698.542 7        47.462                                                                    22402831.870 7  93306802.40007     -2876.645 7        42.047
C33        39.000                                                                                                                                    27189179.054 6 141580968.60606     -3566.715 6        38.291                                                                    27189207.589 6 115046162.03606     -2898.042 6        38.757
C32        40.000                                                                                                                                    26772835.862 6 139413071.69106        -2.491 6        40.012                                                                    26772847.673 6 113284548.95306        -1.731 6        41.359
C34        41.000                                                                                                                                    24333801.873 7 126712639.13507      2667.220 7        44.104                                                                    24333810.701 7 102964498.39407      2167.481 7        44.959
S44        42.000    40848025.113 6 214657788.60206      -533.922 6        38.018
R22        43.000    22991700.680 7 122731369.24607     -4164.140 7        43.606                                                                    22991708.333 6  95457813.71606     -3238.804 6        41.104
C05        44.000                                                                                                                                    39568675.358 6 206044321.40106      -598.672 6        38.655    39568681.329 6 159326514.73606      -462.845 6        41.948    39568680.493 6 167427953.09806      -486.287 6        39.408
C40        45.000                                                                                                                                    41425551.263 5 215713745.10205     -1772.767 5        33.461                                                                    41425552.592 5 175285109.29005     -1440.280 5        34.862
G32        46.000    22944338.692 7 120573217.83807      -711.405 7        45.735                                    22944347.451 7  93953159.29307      -554.342 7        42.864    22944348.159 6  93953161.29506      -554.360 6        41.692
E36        47.000    26120771.219 7 137265678.71607      -364.357 7        42.354                                                                    26120782.524 7 102503707.94307      -272.121 7        45.415    26120780.933 7 105177700.54707      -279.217 7        46.348
C41        48.000                                                                                                                                    26120407.254 6 136015732.32806     -2394.604 6        40.949                                                                    26120427.182 6 110523979.15506     -1945.671 6        41.719
C10        49.000                                                                                                                                    39682217.422 6 206635686.86106     -1338.008 6        38.168    39682224.764 7 159783826.38407     -1034.620 7        42.559    39682220.345 6 167908416.89106     -1087.152 6        39.282
C44        50.000                                                                                                                                    22098373.559 8 115072059.11508       183.406 8        50.951                                                                    22098376.965 8  93505503.69008       149.166 8        49.069
S48        51.000    77252591.719 6 405965698.83306      -628.296 6        38.021
E02        53.000    25499344.366 7 133999988.36507     -2642.241 7        44.048                                                                    25499353.003 7 100064987.49807     -1973.131 7        46.834    25499351.375 7 102675361.84807     -2024.587 7        47.615
C60        54.000                                                                                                                                    40848024.342 6 212706371.66806      -528.913 6        39.760                                                                    40848019.130 6 172841275.41306      -429.764 6        39.631
C25        55.000                                                                                                                                    23028020.352 7 119913011.28407      1601.455 7        47.660                                                                    23028025.668 8  97439195.65508      1301.462 8        48.045
R12        56.000    24280776.700 6 129703496.70006     -4047.621 6        40.300                                                                    24280790.814 6 100880497.16206     -3148.254 6        39.072
C02        57.000                                                                                                                                    41034704.326 5 213678301.73505      -551.353 5        32.593    41034712.802 6 165229553.14206      -426.570 6        36.646    41034712.681 5 173631079.91805      -448.111 5        32.754
I03        58.000   118906324.950 5 390828406.76405       918.454 5        31.577
R13        60.000    20605450.792 7 110032020.49807     -2739.402 7        45.515
> 2025 01 01 13 31  5.0000000  0 56
G19         1.000    23949170.365 6 125853846.77106     -4008.831 6        40.424                                    23949174.855 3  98068007.62903     -3123.768 3        23.867
G25         2.000    20593047.537 8 108217293.19108      1130.967 8        48.985                                    20593053.186 8  84325240.42008       881.270 8        48.833    20593053.903 7  84325250.43007       881.267 7        44.611
G24         3.000    22347576.322 7 117437276.15407     -3855.151 7        45.792                                    22347582.696 7  91509587.24407     -3004.008 7        44.789    22347583.078 7  91509584.24207     -3004.040 7        42.417
G29         4.000    23479177.984 7 123384081.00107      2878.411 7        44.632                                    23479185.642 6  96143555.86006      2242.912 6        39.162    23479186.162 6  96143558.88006      2242.894 6        39.249
S21         5.000    38543487.275 7 202547003.56207      -611.854 7        43.391
G06         6.000    23045821.462 7 121106723.19907     -1029.927 7        43.092                                    23045828.869 6  94368965.71806      -802.541 6        40.367    23045829.206 6  94368956.72506      -802.540 6        41.180
E19         7.000    28285436.997 5 148640947.51905      1797.218 5        31.691                                                                    28285447.281 5 110998118.81605      1342.168 5        34.743    28285445.611 5 113893722.89305      1377.172 5        35.490
G03         8.000    25510091.666 5 134056428.88305      -573.126 5        32.814                                    25510094.767 3 104459549.61103      -446.612 3        23.371    25510094.538 5 104459555.66405      -446.672 5        32.581
G11         9.000    23041979.064 7 121086577.73007      1287.622 7        44.590                                    23041984.930 5  94353275.30005      1003.334 5        31.849    23041984.539 7  94353275.31707      1003.303 7        43.266
E30        10.000    23689823.018 8 124491002.24708      -570.845 8        48.385                                                                    23689829.822 8  92964168.27408      -426.271 8        50.905    23689828.602 8  95389309.26708      -437.384 8        51.386
C26        11.000                                                                                                                                    24776157.891 7 129015884.88707     -3318.453 7        44.226                                                                    24776165.003 7 104835973.68207     -2696.578 7        44.078
S27        12.000    39333279.829 6 206697621.90406      -626.915 6        36.382
R15        13.000    23545462.114 7 125819824.55007      2851.781 7        44.173                                                                    23545481.303 6  97859931.37806      2218.093 6        40.250
S36        14.000    38315719.792 7 201350811.16307      -612.292 7        44.953
G12        15.000    20396738.477 8 107185724.04508     -1405.486 8        50.049                                    20396739.283 8  83521418.16008     -1095.182 8        50.820    20396739.966 7  83521418.15707     -1095.148 7        46.139
E29        16.000    25963076.970 7 136436806.83507       -36.332 7        42.809                                                                    25963089.885 7 101884633.76307       -27.268 7        45.809    25963088.279 7 104542492.20707       -27.876 7        46.271
S45        17.000    63512721.847 6 333762345.67206      -676.227 6        36.533
C35        19.000                                                                                                                                    23893908.252 7 124421964.99607     -2604.817 7        46.215                                                                    23893913.871 7 101103109.93507     -2116.594 7        46.105
E11        20.000    28328192.807 5 148865826.26605     -2642.048 5        31.525                                                                    28328195.077 6 111166146.02706     -1972.933 6        36.405    28328194.382 6 114066118.29806     -2024.343 6        36.824
R14        21.000    19927487.917 8 106224805.85108      1048.224 8        52.301                                                                    19927495.085 8  82619366.61008       815.207 8        48.056
I06        22.000    38627893.663 7 151584166.60007      -555.648 7        42.161
S28        23.000    41016285.956 5 215541809.26605      -618.467 5        35.048
E34        24.000    26295979.843 7 138186462.99907      2008.326 7        42.396                                                                    26295992.269 7 103191330.90107      1499.645 7        45.995    26295990.575 7 105883263.84507      1538.772 7        46.434
S23        25.000    38256991.379 7 201041654.86407      -616.987 7        45.600
E08        26.000    28183915.069 6 148107160.26906     -3824.251 6        36.960                                                                    28183937.609 6 110599408.43406     -2855.735 6        40.896    28183934.641 6 113484618.81806     -2930.187 6        41.406
C07        27.000                                                                                                                                    40769493.782 6 212297378.01906     -1536.430 6        37.652    40769497.675 6 164161793.64306     -1188.013 6        38.835    40769493.900 6 172508993.87906     -1248.473 6        38.051
R24        28.000    21344673.135 8 114139764.44408      3128.151 8        50.359                                                                    21344681.326 7  88775519.21907      2433.030 7        44.909
I02        29.000    37222488.112 7 146069015.98507      -683.841 7        42.584
G28        30.000    24423246.057 6 128344957.20206      2848.152 6        40.496                                    24423259.682 4 100009090.17604      2219.340 4        24.030    24423260.107 6 100009087.19306      2219.337 6        40.162
E07        31.000    25487202.372 7 133936031.80907     -2759.977 7        44.492                                                                    25487214.944 7 100017149.42207     -2061.030 7        47.387    25487213.230 8 102626292.16908     -2114.767 8        48.099
C12        32.000                                                                                                                                    23041538.097 7 119983485.71807      1725.155 7        46.950    23041541.596 8  92778939.29208      1333.984 8        51.286    23041539.037 8  97496478.44108      1401.815 8        48.818
R23        34.000    20278395.245 8 108475882.33008     -1112.007 8        48.088
C24        35.000                                                                                                                                    21505006.785 8 111982257.52308     -1215.522 8        51.375                                                                    21505008.048 8  90994780.21808      -987.697 8        49.914
R05        36.000    22272893.351 7 119061305.19507      -481.527 7        47.542                                                                    22272905.834 7  92603253.54407      -374.607 7        43.664
E27        37.000    25865209.261 7 135922656.29007      1425.557 7        43.505                                                                    25865222.627 7 101500785.63307      1064.558 7        46.007    25865220.849 7 104148618.33307      1092.303 7        46.656
R04        38.000    22406275.258 7 119984427.38807     -3701.027 7        47.077                                                                    22406286.997 7  93321190.01707     -2878.620 7        42.286
C33        39.000                                                                                                                                    27192603.714 6 141598801.00506     -3566.619 6        38.889                                                                    27192632.208 6 115060652.28206     -2898.131 6        38.976
C32        40.000                                                                                                                                    26772839.457 6 139413089.39606        -5.096 6        40.160                                                                    26772851.421 6 113284563.30906        -4.061 6        41.654
C34        41.000                                                                                                                                    24331241.192 7 126699304.26307      2666.449 7        44.361                                                                    24331250.144 7 102953662.74907      2166.727 7        45.338
S44        42.000    40848531.587 6 214660456.79706      -533.636 6        38.087
R22        43.000    22995601.866 7 122752194.71007     -4166.288 7        44.060                                                                    22995610.892 6  95474011.32806     -3240.534 6        41.199
C05        44.000                                                                                                                                    39569250.194 6 206047313.58506      -598.456 6        38.814    39569255.826 6 159328828.49006      -462.693 6        41.983    39569255.217 6 167430384.48906      -486.204 6        39.384
C40        45.000                                                                                                                                    41427253.440 5 215722607.22605     -1772.450 5        33.551                                                                    41427254.468 5 175292310.58805     -1439.928 5        34.624
G32        46.000    22945016.357 7 120576781.89107      -714.506 7        45.884                                    22945025.697 7  93955936.47307      -556.752 7        42.787    22945026.877 7  93955938.46907      -556.787 7        42.121
E36        47.000    26121118.783 7 137267505.76907      -366.791 7        42.432                                                                    26121130.255 7 102505072.29807      -273.760 7        45.603    26121128.564 7 105179100.49307      -280.959 7        46.182
C41        48.000                                                                                                                                    26122707.841 6 136027709.42606     -2396.437 6        40.796                                                                    26122727.321 6 110533711.48306     -1947.246 6        41.745
C10        49.000                                                                                                                                    39683502.172 6 206642376.06306     -1337.897 6        38.453    39683509.462 7 159788998.90907     -1034.472 7        42.620    39683504.892 6 167913852.43206     -1087.237 6        39.216
C44        50.000                                                                                                                                    22098198.648 8 115071147.77108       180.873 8        51.089                                                                    22098201.967 8  93504763.15108       146.947 8        49.108
S48        51.000    77253174.546 6 405968839.01206      -627.968 6        38.090
E02        53.000    25501858.514 7 134013199.90007     -2642.622 7        44.336                                                                    25501867.059 7 100074853.22707     -1973.364 7        47.008    25501865.572 7 102685484.94707     -2024.834 7        47.583
C60        54.000                                                                                                                                    40848532.274 6 212709015.62306      -528.891 6        39.871                                                                    40848526.838 6 172843423.82506      -429.614 6        39.535
C25        55.000                                                                                                                                    23026482.988 7 119905005.68107      1600.642 7        47.720                                                                    23026488.219 8  97432690.45508      1300.657 8        48.090
R12        56.000    24284566.109 6 129723734.71306     -4047.938 6        40.324                                                                    24284580.647 6 100896237.81406     -3148.250 6        39.156
C02        57.000                                                                                                                                    41035232.613 5 213681057.60105      -551.104 5        32.611    41035241.866 6 165231684.13906      -426.293 6        36.575    41035241.969 5 173633319.29205      -448.041 5        32.904
I03        58.000   118905154.039 5 390823812.91405       918.958 5        31.245
R13        60.000    20608016.438 7 110045721.04307     -2741.065 7        45.211
> 2025 01 01 13 31 10.0000000  0 56
G19         1.000    23952985.108 6 125873893.37506     -4009.818 6        40.539                                    23952989.762 4  98083628.35604     -3124.539 4        24.030
G25         2.000    20591971.880 8 108211642.69808      1129.193 8        49.006                                    20591977.913 8  84320837.45108       879.890 8        48.890    20591978.759 7  84320847.45707       879.859 7        44.725
G24         3.000    22351244.895 7 117456555.35907     -3856.722 7        45.701                                    22351251.434 7  91524609.97207     -3005.231 7        44.802    22351251.800 6  91524606.96806     -3005.203 6        41.990
G29         4.000    23476439.640 7 123369691.31907      2877.306 7        44.059                                    23476447.417 6  96132343.16206      2242.048 6        39.156    23476447.647 6  96132346.18606      2241.958 6        39.249
S21         5.000    38544068.206 7 202550062.35807      -611.865 7        43.380
G06         6.000    23046802.479 7 121111881.09007     -1033.362 7        43.348                                    23046810.283 6  94372984.86206      -805.216 6        40.307    23046811.002 6  94372975.85506      -805.205 6        40.708
E19         7.000    28283727.861 5 148631964.23305      1795.969 5        32.257                                                                    28283737.543 5 110991410.30405      1341.383 5        34.767    28283736.284 5 113886839.42105      1376.013 5        35.376
G03         8.000    25510638.776 5 134059301.57005      -576.357 5        33.413                                    25510641.311 3 104461788.17603      -449.096 3        22.686    25510640.842 5 104461794.13505      -449.004 5        33.257
G11         9.000    23040755.528 7 121080146.22907      1285.000 7        45.001                                    23040761.029 5  94348263.76305      1001.293 5        31.743    23040760.612 7  94348263.77107      1001.289 7        43.120
E30        10.000    23690366.518 8 124493858.95708      -571.998 8        48.528                                                                    23690373.443 8  92966301.53308      -427.096 8        50.894    23690372.265 8  95391498.17708      -438.219 8        51.315
C26        11.000                                                                                                                                    24779344.436 7 129032479.14207     -3319.273 7        44.065                                                                    24779351.903 7 104849457.87407     -2697.134 7        43.865
S27        12.000    39333880.292 6 206700755.31306      -626.854 6        36.423
R15        13.000    23542794.810 7 125805565.48907      2851.658 7        43.748                                                                    23542812.452 6  97848841.05306      2217.892 6        40.257
S36        14.000    38316302.735 7 201353872.09607      -612.219 7        45.159
G12        15.000    20398076.568 8 107192756.37808     -1407.601 8        49.953                                    20398077.501 8  83526897.89608     -1096.827 8        50.800    20398078.012 7  83526897.89307     -1096.811 7        46.188
E29        16.000    25963112.575 7 136436994.58507       -38.802 7        42.993                                                                    25963125.602 7 101884773.97107       -28.990 7        45.723    25963123.947 7 104542636.07807       -29.704 7        46.177
S45        17.000    63513310.339 6 333765727.61706      -676.501 6        36.643
C35        19.000                                                                                                                                    23896410.495 7 124434993.76307     -2606.912 7        45.857                                                                    23896415.888 7 101113696.89807     -2118.288 7        45.953
E11        20.000    28330707.486 5 148879040.08005     -2643.959 5        31.774                                                                    28330709.511 6 111176013.62106     -1974.009 6        36.034    28330708.575 6 114076243.30106     -2025.755 6        36.737
R14        21.000    19926505.053 8 106219569.20208      1046.382 8        52.088                                                                    19926512.736 8  82615293.68108       813.782 8        48.220
I06        22.000    38628601.882 6 151586945.17406      -555.832 6        41.967
S28        23.000    41016870.992 5 215544901.63905      -618.437 5        35.505
E34        24.000    26294069.382 7 138176424.30807      2007.132 7        42.705                                                                    26294082.123 7 103183834.50907      1498.748 7        46.103    26294080.216 7 105875571.88907      1537.854 7        46.460
S23        25.000    38257577.229 7 201044739.32707      -616.880 7        45.663
E08        26.000    28187553.795 6 148126280.31406     -3823.935 6        37.316                                                                    28187576.066 6 110613686.31406     -2855.564 6        40.799    28187573.113 6 113499269.18206     -2929.983 6        41.218
C07        27.000                                                                                                                                    40770969.401 6 212305059.99706     -1536.693 6        37.425    40770973.032 6 164167733.82906     -1188.018 6        38.760    40770969.085 6 172515236.11306     -1248.348 6        37.694
R24        28.000    21341749.558 8 114124129.46708      3125.736 8        50.213                                                                    21341757.189 7  88763358.71107      2431.144 7        44.915
I02        29.000    37223359.271 7 146072435.50507      -684.037 7        42.447
G28        30.000    24420536.266 6 128330718.09606      2847.408 6        40.329                                    24420550.027 3  99997994.82503      2218.758 3        23.962    24420550.512 6  99997991.82506      2218.646 6        40.288
E07        31.000    25489829.129 7 133949835.56407     -2761.651 7        44.850                                                                    25489841.683 7 100027457.39707     -2062.274 7        47.265    25489840.038 8 102636869.05008     -2116.007 8        48.055
C12        32.000                                                                                                                                    23039881.770 7 119974864.94707      1723.091 7        46.854    23039886.116 8  92772273.18408      1332.407 8        51.377    23039883.448 8  97489473.39408      1400.269 8        48.764
R23        34.000    20279437.171 8 108481453.39408     -1116.567 8        48.160
C24        35.000                                                                                                                                    21506174.875 8 111988339.23108     -1217.298 8        51.276                                                                    21506176.007 8  90999722.12708      -989.015 8        49.683
R05        36.000    22273345.443 7 119063723.68907      -486.016 7        46.460                                                                    22273358.318 7  92605134.59007      -377.976 7        43.556
E27        37.000    25863853.158 7 135915529.39007      1424.986 7        43.619                                                                    25863866.343 7 101495463.62007      1064.155 7        46.086    25863864.637 7 104143157.48907      1091.916 7        46.643
R04        38.000    22409732.695 7 120002939.22307     -3703.857 7        47.511                                                                    22409744.223 7  93335588.04707     -2880.719 7        43.120
C33        39.000                                                                                                                                    27196028.340 6 141616632.95306     -3566.473 6        39.616                                                                    27196056.788 6 115075142.17906     -2897.903 6        38.667
C32        40.000                                                                                                                                    26772844.966 6 139413120.23406        -7.497 6        40.057                                                                    26772857.211 6 113284588.31706        -5.965 6        41.428
C34        41.000                                                                                                                                    24328681.630 7 126685974.08907      2665.440 7        45.150                                                                    24328690.403 7 102942830.95007      2166.013 7        45.318
S44        42.000    40849038.678 6 214663124.77506      -533.674 6        38.027
R22        43.000    22999505.603 7 122773032.21807     -4168.750 7        43.312                                                                    22999513.467 6  95490218.27706     -3242.393 6        40.708
C05        44.000                                                                                                                                    39569824.542 6 206050305.44206      -598.523 6        38.616    39569830.389 6 159331141.99606      -462.617 6        41.812    39569829.552 6 167432815.65906      -486.148 6        39.078
C40        45.000                                                                                                                                    41428954.616 5 215731468.38005     -1772.367 5        33.527                                                                    41428955.960 5 175299511.06805     -1440.138 5        34.333
G32        46.000    22945697.905 7 120580361.88807      -717.731 7        45.831                                    22945706.967 7  93958726.07007      -559.271 7        42.800    22945707.889 7  93958728.07107      -559.279 7        42.485
E36        47.000    26121469.198 7 137269345.46307      -369.191 7        42.701                                                                    26121480.263 7 102506446.10407      -275.654 7        45.410    26121478.688 7 105180510.14107      -282.902 7        45.997
C41        48.000                                                                                                                                    26125009.524 6 136039696.22506     -2398.332 6        40.789                                                                    26125029.478 6 110543451.74306     -1948.787 6        41.497
C10        49.000                                                                                                                                    39684786.185 6 206649065.12806     -1337.859 6        38.207    39684794.022 7 159794171.34107     -1034.590 7        42.548    39684789.425 6 167919287.86006     -1087.044 6        39.105
C44        50.000                                                                                                                                    22098026.215 8 115070250.06608       178.121 8        50.994                                                                    22098029.560 8  93504033.71808       144.879 8        49.002
S48        51.000    77253761.075 6 405971979.11106      -628.058 6        38.228
E02        53.000    25504372.968 7 134026413.77507     -2643.064 7        44.334                                                                    25504381.616 7 100084720.71907     -1973.730 7        46.765    25504380.144 7 102695609.84807     -2025.198 7        47.383
C60        54.000                                                                                                                                    40849039.709 6 212711659.34406      -528.913 6        39.739                                                                    40849034.533 6 172845572.09406      -429.536 6        39.441
C25        55.000                                                                                                                                    23024946.389 7 119897004.98407      1599.597 7        47.461                                                                    23024951.862 7  97426189.27307      1299.872 7        47.984
R12        56.000    24288355.548 6 129743975.09106     -4048.392 6        40.112                                                                    24288369.073 6 100911980.30906     -3148.705 6        39.261
C02        57.000                                                                                                                                    41035763.215 5 213683813.11505      -550.974 5        32.174    41035771.083 6 165233814.90306      -426.058 6        36.522    41035771.136 5 173635558.42105      -447.993 5        32.491
I03        58.000   118903982.534 5 390819218.71205       919.131 5        31.532
R13        60.000    20610584.637 7 110059430.99407     -2742.955 7        46.110
> 2025 01 01 13 31 15.0000000  0 56
G19         1.000    23956800.883 6 125893944.63406     -4010.831 6        40.486                                    23956805.393 4  98099252.70204     -3125.318 4        24.120
G25         2.000    20590898.356 8 108206001.30808      1127.344 8        48.713                                    20590904.397 8  84316441.57808       878.449 8        48.840    20590905.223 7  84316451.58307       878.372 7        44.781
G24         3.000    22354915.182 7 117475842.30307     -3858.206 7        46.151                                    22354921.608 7  91539638.73207     -3006.387 7        44.766    22354922.388 7  91539635.73507     -3006.400 7        42.428
G29         4.000    23473702.084 7 123355307.11207      2876.318 7        43.907                                    23473710.247 6  96121134.72706      2241.278 6        39.111    23473710.379 6  96121137.75406      2241.091 6        39.486
S21         5.000    38544652.540 7 202553121.16207      -611.806 7        43.022
G06         6.000    23047787.296 7 121117055.59007     -1036.592 7        43.357                                    23047794.917 6  94377016.94906      -807.736 6        40.272    23047795.364 6  94377007.95306      -807.685 6        40.834
E19         7.000    28282019.882 5 148622987.53505      1794.661 5        32.024                                                                    28282029.748 5 110984706.74905      1340.107 5        34.109    28282028.196 5 113879961.01405      1374.981 5        34.467
G03         8.000    25511187.969 5 134062189.56005      -579.064 5        33.748                                    25511190.614 3 104464038.52503      -451.215 3        22.705    25511189.596 5 104464044.52005      -451.111 5        32.557
G11         9.000    23039534.083 7 121073727.27107      1282.476 7        44.772                                    23039539.489 5  94343262.00605       999.329 5        31.577    23039539.444 7  94343262.00107       999.375 7        43.111
E30        10.000    23690911.225 8 124496720.82408      -572.922 8        48.536                                                                    23690918.072 8  92968438.64308      -427.825 8        50.773    23690916.861 8  95393691.03808      -438.995 8        51.553
C26        11.000                                                                                                                                    24782531.815 7 129049077.45507     -3320.095 7        44.376                                                                    24782539.664 7 104862945.32907     -2697.802 7        43.981
S27        12.000    39334474.231 6 206703888.63206      -626.512 6        36.382
R15        13.000    23540125.791 7 125791306.23607      2851.995 7        43.740                                                                    23540145.054 6  97837750.59506      2218.122 6        40.622
S36        14.000    38316884.842 7 201356932.16407      -611.995 7        44.829
G12        15.000    20399416.727 8 107199798.84008     -1409.557 8        49.965                                    20399417.655 8  83532385.52408     -1098.354 8        50.717    20399418.241 7  83532385.52507     -1098.389 7        46.192
E29        16.000    25963150.580 7 136437194.04207       -41.146 7        42.957                                                                    25963163.562 7 101884922.90907       -30.741 7        45.649    25963161.967 7 104542788.90107       -31.501 7        46.491
S45        17.000    63513897.396 6 333769109.19906      -676.341 6        36.257
C35        19.000                                                                                                                                    23898914.472 7 124448032.95907     -2608.979 7        46.165                                                                    23898919.903 7 101124292.30207     -2120.018 7        45.974
E11        20.000    28333223.608 5 148892262.46605     -2645.284 5        31.774                                                                    28333225.470 5 111185887.61305     -1975.593 5        35.552    28333224.559 6 114086374.82506     -2026.865 6        36.624
R14        21.000    19925524.716 8 106214341.56208      1044.556 8        52.255                                                                    19925531.964 8  82611227.73908       812.400 8        48.042
I06        22.000    38629309.592 7 151589723.37807      -555.670 7        42.146
S28        23.000    41017458.501 5 215547993.46705      -618.433 5        35.248
E34        24.000    26292160.123 7 138166391.74507      2005.910 7        43.069                                                                    26292173.079 7 103176342.66407      1497.882 7        46.087    26292170.996 7 105867884.61107      1536.916 7        46.728
S23        25.000    38258164.397 7 201047823.23707      -616.756 7        45.580
E08        26.000    28191191.976 6 148145399.03806     -3823.564 6        37.376                                                                    28191214.385 6 110627963.19206     -2855.314 6        40.725    28191211.589 6 113513918.51506     -2929.872 6        41.321
C07        27.000                                                                                                                                    40772444.282 6 212312741.30906     -1536.305 6        37.297    40772448.007 6 164173673.54306     -1187.980 6        38.682    40772444.366 6 172521477.82406     -1248.447 6        37.648
R24        28.000    21338827.534 8 114108506.53908      3123.356 8        50.061                                                                    21338835.147 7  88751207.56607      2429.281 7        44.167
I02        29.000    37224230.882 7 146075855.38807      -683.932 7        42.700
G28        30.000    24417827.094 6 128316482.17106      2846.862 6        39.736                                    24417840.836 3  99986901.92703      2218.322 3        23.943    24417841.273 6  99986898.93306      2218.291 6        40.553
E07        31.000    25492457.529 7 133963647.52207     -2763.265 7        44.837                                                                    25492470.073 7 100037771.49007     -2063.489 7        47.149    25492468.367 8 102647452.21308     -2117.333 8        48.217
C12        32.000                                                                                                                                    23038228.006 7 119966254.46607      1721.001 7        46.420    23038232.762 8  92765615.03208      1330.812 8        51.045    23038229.940 8  97482476.66508      1398.587 8        48.768
R23        34.000    20280483.157 8 108487047.67308     -1121.224 8        48.319
C24        35.000                                                                                                                                    21507344.576 8 111994429.70308     -1219.009 8        51.511                                                                    21507345.637 8  91004671.11608      -990.469 8        49.730
R05        36.000    22273801.402 7 119066164.21407      -490.450 7        46.870                                                                    22273814.772 7  92607032.74807      -381.358 7        43.558
E27        37.000    25862497.777 7 135908405.06407      1424.539 7        43.621                                                                    25862510.683 7 101490143.52907      1063.819 7        45.979    25862508.939 7 104137698.61207      1091.545 7        46.869
R04        38.000    22413191.223 7 120021464.32707     -3706.367 7        46.987                                                                    22413203.640 7  93349996.42707     -2882.705 7        42.404
C33        39.000                                                                                                                                    27199452.980 6 141634464.31406     -3566.254 6        38.835                                                                    27199481.176 6 115089631.55706     -2897.674 6        38.712
C32        40.000                                                                                                                                    26772855.180 6 139413164.34606       -10.284 6        40.603                                                                    26772865.618 6 113284624.07506        -8.376 6        41.366
C34        41.000                                                                                                                                    24326122.060 7 126672648.44407      2664.695 7        45.406                                                                    24326131.176 7 102932002.78907      2165.329 7        45.296
S44        42.000    40849548.291 6 214665792.35006      -533.658 6        38.093
R22        43.000    23003410.775 7 122793881.57507     -4171.090 7        43.196                                                                    23003419.560 6  95506434.47306     -3244.273 6        41.757
C05        44.000                                                                                                                                    39570398.980 6 206053296.83506      -598.279 6        38.823    39570405.050 6 159333455.14406      -462.681 6        41.771    39570404.017 6 167435246.40306      -486.053 6        39.144
C40        45.000                                                                                                                                    41430655.618 5 215740328.44505     -1771.886 5        34.162                                                                    41430657.394 5 175306710.63505     -1439.763 5        34.348
G32        46.000    22946382.190 7 120583957.72807      -720.834 7        46.048                                    22946391.282 7  93961528.01807      -561.684 7        42.787    22946391.642 7  93961530.01807      -561.688 7        42.186
E36        47.000    26121821.460 7 137271197.66307      -371.738 7        42.597                                                                    26121832.691 7 102507829.25707      -277.692 7        45.363    26121831.213 7 105181929.37107      -284.876 7        46.200
C41        48.000                                                                                                                                    26127313.123 6 136051692.62606     -2400.266 6        41.056                                                                    26127333.325 6 110553199.74006     -1950.310 6        41.557
C10        49.000                                                                                                                                    39686071.272 6 206655754.00506     -1337.642 6        38.520    39686078.140 7 159799343.61507     -1034.430 7        42.495    39686073.980 6 167924723.11806     -1087.035 6        38.997
C44        50.000                                                                                                                                    22097856.255 8 115069365.85408       175.459 8        50.869                                                                    22097859.763 8  93503315.22008       142.685 8        48.983
S48        51.000    77254347.000 6 405975118.82406      -627.940 6        38.234
E02        53.000    25506887.824 7 134039629.84807     -2643.478 7        44.315                                                                    25506896.531 7 100094589.85207     -1974.042 7        46.769    25506895.165 7 102705736.44507     -2025.567 7        47.651
C60        54.000                                                                                                                                    40849547.328 6 212714302.67106      -528.726 6        39.973                                                                    40849542.142 6 172847719.99706      -429.596 6        39.417
C25        55.000                                                                                                                                    23023411.028 7 119889009.06407      1598.656 7        47.678                                                                    23023416.255 7  97419691.93107      1299.116 7        47.983
R12        56.000    24292144.670 6 129764217.75906     -4048.912 6        40.627                                                                    24292158.241 6 100927724.57706     -3148.924 6        39.508
C02        57.000                                                                                                                                    41036291.855 5 213686568.17605      -551.253 5        32.731    41036299.839 6 165235945.29006      -426.104 6        36.801    41036300.201 5 173637797.11205      -447.767 5        32.647
I03        58.000   118902812.682 5 390814624.09205       918.919 5        31.887
R13        60.000    20613154.163 7 110073150.42707     -2744.864 7        46.294
> 2025 01 01 13 31 20.0000000  0 56
G19         1.000    23960617.816 6 125914001.41706     -4011.927 6        40.555                                    23960621.967 4  98114881.37004     -3126.168 4        24.241
G25         2.000    20589826.887 8 108200369.86508      1125.347 8        48.686                                    20589832.755 8  84312053.44808       876.891 8        48.885    20589833.279 7  84312063.45007       876.942 7        44.734
G24         3.000    22358587.244 7 117495137.79807     -3860.006 7        45.643                                    22358593.418 7  91554674.15407     -3007.791 7        44.832    22358594.286 7  91554671.14007     -3007.743 7        42.781
G29         4.000    23470966.181 7 123340929.19807      2874.983 7        43.761                                    23470974.271 6  96109931.19706      2240.240 6        39.126    23470974.489 6  96109934.20906      2240.313 6        39.685
S21         5.000    38545232.903 7 202556180.52907      -611.922 7        43.132
G06         6.000    23048775.069 7 121122247.53707     -1040.174 7        43.064                                    23048782.855 6  94381062.62606      -810.525 6        40.338    23048783.863 6  94381053.63406      -810.448 6        41.232
E19         7.000    28280313.179 5 148614018.18405      1792.933 5        32.048                                                                    28280323.195 5 110978008.74505      1339.264 5        34.271    28280321.380 5 113873088.28305      1374.183 5        35.005
G03         8.000    25511741.447 5 134065093.89505      -582.283 5        33.994                                    25511743.047 3 104466301.67803      -453.741 3        23.257    25511743.525 5 104466307.72105      -454.103 5        33.431
G11         9.000    23038315.136 7 121067321.70007      1279.779 7        44.476                                    23038320.449 5  94338270.67005       997.222 5        31.494    23038320.186 7  94338270.67307       997.381 7        42.741
E30        10.000    23691456.936 8 124499588.67908      -574.157 8        48.439                                                                    23691463.806 8  92970580.21808      -428.759 8        50.827    23691462.617 8  95395888.47908      -439.908 8        51.591
C26        11.000                                                                                                                                    24785720.581 7 129065680.64407     -3321.151 7        44.409                                                                    24785728.267 7 104876436.74207     -2698.616 7        43.968
S27        12.000    39335068.863 6 206707021.96506      -626.717 6        36.352
R15        13.000    23537458.048 7 125777047.59707      2851.616 7        44.495                                                                    23537475.744 6  97826660.59406      2217.981 6        40.105
S36        14.000    38317467.427 7 201359992.27507      -611.851 7        44.918
G12        15.000    20400759.130 8 107206852.26108     -1411.779 8        49.728                                    20400759.876 8  83537881.69008     -1100.088 8        50.778    20400760.521 7  83537881.68207     -1099.990 7        46.336
E29        16.000    25963191.009 7 136437405.99307       -43.712 7        42.656                                                                    25963203.864 7 101885081.18107       -32.504 7        45.853    25963202.276 7 104542951.30307       -33.363 7        46.438
S45        17.000    63514486.653 6 333772491.34806      -676.457 6        36.246
C35        19.000                                                                                                                                    23901421.029 7 124461083.38507     -2611.140 7        46.310                                                                    23901426.081 7 101134896.84107     -2121.806 7        45.824
E11        20.000    28335741.347 5 148905494.56805     -2647.532 5        31.162                                                                    28335743.363 6 111195768.80806     -1976.981 6        36.038    28335742.497 6 114096513.80006     -2028.622 6        36.560
R14        21.000    19924546.019 8 106209123.79608      1042.589 8        52.135                                                                    19924552.959 7  82607169.49607       810.912 7        47.650
I06        22.000    38630017.515 7 151592501.85207      -555.664 7        42.008
S28        23.000    41018049.354 5 215551085.58605      -618.514 5        35.348
E34        24.000    26290252.482 7 138156366.11407      2004.436 7        42.707                                                                    26290265.149 7 103168856.01007      1496.787 7        46.262    26290263.250 7 105860202.63907      1535.908 7        46.801
S23        25.000    38258751.410 7 201050907.56507      -616.938 7        45.574
E08        26.000    28194830.050 6 148164517.23806     -3823.561 6        37.592                                                                    28194852.475 6 110642239.66906     -2855.315 6        40.884    28194849.595 6 113528567.42906     -2929.830 6        41.361
C07        27.000                                                                                                                                    40773919.298 6 212320422.85806     -1536.158 6        37.289    40773923.540 6 164179613.41306     -1188.078 6        39.123    40773919.471 6 172527719.71806     -1248.362 6        37.463
R24        28.000    21335908.494 8 114092896.58608      3120.738 8        49.563                                                                    21335916.518 7  88739066.51607      2427.264 7        44.561
I02        29.000    37225102.664 7 146079276.14807      -684.258 7        42.400
G28        30.000    24415119.237 6 128302250.23006      2846.140 6        39.898                                    24415132.486 3  99975812.12803      2217.770 3        23.981    24415133.078 6  99975809.14406      2217.618 6        40.162
E07        31.000    25495087.691 7 133977468.45807     -2764.988 7        44.638                                                                    25495100.120 7 100048092.28607     -2064.818 7        47.291    25495098.472 8 102658042.25008     -2118.678 8        48.197
C12        32.000                                                                                                                                    23036576.276 7 119957655.10907      1718.798 7        46.531    23036581.069 8  92758965.47708      1329.052 8        51.141    23036578.495 8  97475489.00008      1396.625 8        48.656
R23        34.000    20281533.829 8 108492666.14008     -1126.124 8        48.400
C24        35.000                                                                                                                                    21508516.071 8 112000529.75108     -1220.925 8        51.548                                                                    21508517.068 8  91009627.89908      -992.080 8        49.544
R05        36.000    22274263.017 7 119068627.86807      -495.013 7        47.439                                                                    22274275.149 7  92608948.89107      -385.000 7        42.935
E27        37.000    25861142.624 7 135901284.14107      1423.975 7        43.422                                                                    25861155.620 7 101484825.98407      1063.236 7        46.086    25861153.758 7 104132242.34407      1090.990 7        46.870
R04        38.000    22416653.026 7 120040003.58407     -3709.204 7        46.457                                                                    22416664.773 7  93364415.78307     -2884.862 7        42.277
C33        39.000                                                                                                                                    27202877.038 6 141652295.86006     -3566.249 6        38.895                                                                    27202905.506 6 115104121.11306     -2897.892 6        38.538
C32        40.000                                                                                                                                    26772865.155 6 139413222.49306       -12.878 6        40.167                                                                    26772877.098 6 113284671.25006       -10.399 6        41.354
C34        41.000                                                                                                                                    24323562.931 7 126659328.19407      2663.497 7        44.691                                                                    24323572.874 7 102921179.01807      2164.326 7        45.090
S44        42.000    40850055.368 6 214668460.36406      -533.871 6        38.027
R22        43.000    23007319.887 7 122814743.59407     -4173.670 7        44.358                                                                    23007328.175 6  95522660.49306     -3246.204 6        41.971
C05        44.000                                                                                                                                    39570973.682 6 206056288.59206      -598.395 6        38.859    39570979.404 6 159335768.57306      -462.669 6        41.847    39570978.563 6 167437677.46006      -486.136 6        39.192
C40        45.000                                                                                                                                    41432356.980 5 215749188.32805     -1771.812 5        33.311                                                                    41432358.773 5 175313910.10305     -1439.811 5        33.653
G32        46.000    22947069.441 7 120587570.20207      -724.183 7        46.247                                    22947078.727 7  93964342.92307      -564.296 7        42.813    22947079.102 7  93964344.91907      -564.302 7        42.074
E36        47.000    26122176.056 7 137273063.17507      -374.387 7        42.516                                                                    26122187.690 7 102509222.34907      -279.690 7        45.570    26122186.242 7 105183358.80107      -286.947 7        46.163
C41        48.000                                                                                                                                    26129618.955 6 136063699.36806     -2402.357 6        41.452                                                                    26129639.322 6 110562956.19906     -1952.225 6        41.406
C10        49.000                                                                                                                                    39687356.207 6 206662443.49606     -1338.036 6        38.814    39687362.873 7 159804516.35707     -1034.595 7        42.436    39687358.590 6 167930158.87706     -1087.240 6        38.985
C44        50.000                                                                                                                                    22097689.065 8 115068495.96508       172.575 8        50.764                                                                    22097692.676 8  93502608.36408       140.232 8        48.920
S48        51.000    77254929.979 6 405978259.06106      -627.969 6        38.300
E02        53.000    25509403.354 7 134052848.93907     -2644.136 7        44.135                                                                    25509412.013 7 100104461.22907     -1974.444 7        46.984    25509410.519 7 102715865.34007     -2026.012 7        47.614
C60        54.000                                                                                                                                    40850054.969 6 212716946.42506      -528.804 6        39.922                                                                    40850049.855 6 172849868.27106      -429.831 6        39.465
C25        55.000                                                                                                                                    23021876.748 7 119881018.70207      1597.610 7        47.830                                                                    23021881.783 7  97413199.12107      1298.171 7        47.878
R12        56.000    24295934.939 6 129784463.43506     -4049.333 6        40.872                                                                    24295949.019 6 100943471.20106     -3149.529 6        39.111
C02        57.000                                                                                                                                    41036819.659 5 213689323.53705      -550.883 5        32.431    41036828.993 6 165238075.95806      -426.182 6        36.488    41036829.064 5 173640036.11605      -447.816 5        32.701
I03        58.000   118901642.317 5 390810029.49305       918.964 5        31.328
R13        60.000    20615724.776 7 110086880.02307     -2746.913 7        45.878
> 2025 01 01 13 31 25.0000000  0 56
G19         1.000    23964435.254 6 125934063.07906     -4012.843 6        40.558                                    23964439.414 4  98130513.86404     -3126.897 4        24.271
G25         2.000    20588756.884 8 108194747.71608      1123.573 8        48.426                                    20588762.870 8  84307672.56408       875.508 8        48.932    20588763.659 7  84307682.57207       875.426 7        44.713
G24         3.000    22362260.392 7 117514441.23507     -3861.426 7        45.959                                    22362266.829 7  91569715.76507     -3008.897 7        44.894    22362267.458 7  91569712.75407     -3008.974 7        42.840
G29         4.000    23468231.030 7 123326557.03307      2873.930 7        43.718                                    23468239.297 6  96098732.14306      2239.416 6        39.132    23468239.181 6  96098735.16206      2239.275 6        39.856
S21         5.000    38545814.339 7 202559239.91007      -611.842 7        43.018
G06         6.000    23049766.362 7 121127456.31007     -1043.501 7        43.280                                    23049774.034 6  94385121.41606      -813.119 6        40.358    23049774.975 6  94385112.41106      -813.035 6        41.561
E19         7.000    28278607.776 5 148605055.52105      1792.072 5        32.245                                                                    28278617.521 5 110971315.72405      1338.177 5        34.924    28278615.896 5 113866220.68605      1372.999 5        35.600
G03         8.000    25512296.224 5 134068014.04405      -585.579 5        34.143                                    25512298.664 3 104468577.22103      -456.324 3        23.371    25512299.254 5 104468583.26205      -456.220 5        33.060
G11         9.000    23037098.664 7 121060928.91007      1277.282 7        44.570                                    23037103.779 5  94333289.29005       995.281 5        31.487    23037103.763 7  94333289.31307       995.337 7        42.885
E30        10.000    23692003.686 8 124502461.89808      -575.115 8        48.533                                                                    23692010.558 8  92972725.80008      -429.470 8        50.971    23692009.331 8  95398090.04108      -440.718 8        51.569
C26        11.000                                                                                                                                    24788909.704 7 129082288.06807     -3321.828 7        44.348                                                                    24788917.343 7 104889931.60407     -2699.309 7        43.782
S27        12.000    39335668.740 6 206710155.56606      -626.593 6        36.299
R15        13.000    23534789.701 7 125762788.95007      2851.762 7        44.104                                                                    23534807.117 6  97815570.56906      2217.924 6        38.132
S36        14.000    38318050.030 7 201363051.08107      -611.875 7        44.760
G12        15.000    20402103.163 8 107213916.03808     -1413.723 8        49.680                                    20402104.086 8  83543385.92908     -1101.600 8        50.817    20402104.577 7  83543385.92407     -1101.619 7        46.246
E29        16.000    25963233.683 7 136437629.85107       -45.916 7        42.682                                                                    25963246.509 7 101885248.34707       -34.234 7        45.773    25963244.890 7 104543122.83207       -35.194 7        46.435
S45        17.000    63515074.242 6 333774173.40216      -676.402 6        36.393
C35        19.000                                                                                                                                    23903928.877 7 124474144.43907     -2613.200 7        46.177                                                                    23903934.377 7 101145510.00607     -2123.452 7        45.743
E11        20.000    28338260.359 5 148918735.45605     -2649.410 5        31.441                                                                    28338263.069 6 111205656.51106     -1978.350 6        36.238    28338262.107 6 114106659.44106     -2029.752 6        36.609
R14        21.000    19923568.932 8 106203915.45608      1040.780 8        52.188                                                                    19923576.081 8  82603118.57508       809.440 8        48.083
I06        22.000    38630725.952 7 151595280.13407      -555.642 7        42.063
S28        23.000    41018637.270 5 215554177.94205      -618.320 5        35.443
E34        24.000    26288345.700 7 138146346.80407      2003.282 7        42.480                                                                    26288358.487 7 103161374.07307      1495.932 7        46.257    26288356.730 7 105852525.52507      1534.973 7        46.764
S23        25.000    38259338.386 7 201053991.88607      -616.943 7        45.515
E08        26.000    28198468.091 6 148183634.28306     -3823.170 6        37.652                                                                    28198490.436 6 110656515.27806     -2855.047 6        40.946    28198487.500 6 113543215.44906     -2929.368 6        41.368
C07        27.000                                                                                                                                    40775394.229 6 212328103.99606     -1536.166 6        37.089    40775398.323 6 164185552.97606     -1187.840 6        39.297    40775394.510 6 172533961.29406     -1248.443 6        37.210
R24        28.000    21332991.314 8 114077298.84608      3118.404 8        49.262                                                                    21332999.908 7  88726934.97707      2425.359 7        45.165
I02        29.000    37225974.518 7 146082697.72407      -684.487 7        42.442
G28        30.000    24412411.476 6 128288021.74106      2845.473 6        39.808                                    24412424.816 3  99964725.02803      2217.244 3        23.905    24412425.173 6  99964722.04606      2217.220 6        40.317
E07        31.000    25497718.828 7 133991297.78207     -2766.687 7        44.527                                                                    25497731.723 7 100058419.34007     -2066.034 7        47.211    25497730.142 8 102668638.71508     -2119.968 8        48.205
C12        32.000                                                                                                                                    23034927.484 7 119949066.26207      1716.732 7        46.636    23034931.730 8  92752324.04908      1327.481 8        51.541    23034929.109 8  97468509.86108      1394.991 8        48.584
R23        34.000    20282587.993 8 108498308.04408     -1130.661 8        48.208
C24        35.000                                                                                                                                    21509689.119 8 112006638.77308     -1222.713 8        51.368                                                                    21509690.249 8  91014591.97208      -993.561 8        49.496
R05        36.000    22274728.466 8 119071113.78708      -499.404 8        48.139                                                                    22274740.668 7  92610882.33507      -388.441 7        42.506
E27        37.000    25859788.318 7 135894166.03307      1423.360 7        43.528                                                                    25859801.043 7 101479510.52607      1062.894 7        46.135    25859799.273 7 104126788.22507      1090.661 7        46.892
R04        38.000    22420118.293 7 120058556.15507     -3711.875 7        46.930                                                                    22420129.037 7  93378845.50607     -2886.922 7        42.032
C33        39.000                                                                                                                                    27206301.470 6 141670126.95506     -3566.073 6        38.838                                                                    27206329.543 6 115118610.29106     -2897.811 6        37.985
C32        40.000                                                                                                                                    26772879.278 6 139413294.13506       -15.687 6        40.708                                                                    26772890.880 6 113284729.42606       -12.910 6        41.097
C34        41.000                                                                                                                                    24321005.856 7 126646012.70407      2662.634 7        44.256                                                                    24321015.647 7 102910359.11407      2163.599 7        44.823
S44        42.000    40850565.334 6 214671128.19606      -533.579 6        38.105
R22        43.000    23011230.755 7 122835617.59407     -4175.926 7        43.958                                                                    23011238.587 7  95538895.82407     -3247.958 7        42.021
C05        44.000                                                                                                                                    39571548.071 6 206059280.06806      -598.315 6        38.823    39571553.918 6 159338081.77906      -462.621 6        41.855    39571553.103 6 167440108.28506      -486.168 6        39.000
C40        45.000                                                                                                                                    41434058.002 5 215758047.42105     -1771.859 5        32.796                                                                    41434060.319 5 175321108.89305     -1439.823 5        33.569
G32        46.000    22947759.994 7 120591198.74307      -727.303 7        46.177                                    22947769.257 7  93967170.34707      -566.729 7        42.853    22947769.504 6  93967172.33506      -566.807 6        41.986
E36        47.000    26122533.627 7 137274941.41307      -376.931 7        42.609                                                                    26122545.176 7 102510624.92207      -281.416 7        45.565    26122543.742 7 105184797.96607      -288.831 7        46.158
C41        48.000                                                                                                                                    26131926.384 6 136075715.85606     -2404.208 6        41.569                                                                    26131946.970 6 110572720.55106     -1953.706 6        41.364
C10        49.000                                                                                                                                    39688640.809 6 206669132.92206     -1337.790 6        38.823    39688647.604 7 159809689.05407     -1034.472 7        42.372    39688643.249 6 167935594.59006     -1087.145 6        38.649
C44        50.000                                                                                                                                    22097525.136 8 115067639.75308       169.940 8        50.972                                                                    22097528.267 8  93501912.62908       138.027 8        48.797
S48        51.000    77255516.182 6 405981399.27106      -628.307 6        38.129
E02        53.000    25511919.301 7 134066070.42007     -2644.446 7        44.309                                                                    25511927.990 7 100114334.40307     -1974.769 7        46.936    25511926.477 7 102725996.07707     -2026.335 7        47.558
C60        54.000                                                                                                                                    40850562.703 6 212719589.99506      -528.663 6        39.955                                                                    40850557.464 6 172852016.39406      -429.734 6        39.309
C25        55.000                                                                                                                                    23020343.181 8 119873033.33208      1596.504 8        48.062                                                                    23020348.232 7  97406710.35807      1297.330 7        47.770
R12        56.000    24299725.096 6 129804711.53906     -4049.735 6        40.884                                                                    24299740.115 6 100959219.69906     -3149.878 6        39.135
C02        57.000                                                                                                                                    41037350.042 5 213692078.66405      -550.750 5        32.575    41037358.093 6 165240206.40906      -425.834 6        36.718    41037358.656 5 173642274.87205      -447.402 5        32.461
I03        58.000   118900470.601 5 390805434.61605       919.303 5        31.525
R13        60.000    20618296.856 7 110100619.19007     -2748.791 7        45.014
> 2025 01 01 13 31 30.0000000  0 56
G19         1.000    23968254.189 6 125954130.19906     -4013.666 6        40.615                                    23968257.710 4  98146150.61804     -3127.541 4        24.316
G25         2.000    20587688.919 8 108189135.53808      1121.640 8        48.424                                    20587694.899 8  84303299.45108       874.005 8        49.098    20587695.390 7  84303309.46107       873.936 7        44.643
G24         3.000    22365935.369 7 117533753.22907     -3863.038 7        45.875                                    22365941.863 7  91584764.04307     -3010.158 7        45.123    22365941.931 7  91584761.03507     -3010.179 7        42.671
G29         4.000    23465497.149 7 123312191.24707      2872.723 7        44.482                                    23465505.477 6  96087538.06706      2238.478 6        39.267    23465505.280 6  96087541.08106      2238.403 6        39.535
S21         5.000    38546396.785 7 202562299.97107      -611.881 7        43.225
G06         6.000    23050760.953 7 121132682.55607     -1046.764 7        43.570                                    23050768.532 6  94389193.82506      -815.659 6        40.524    23050769.520 6  94389184.82906      -815.730 6        41.592
E19         7.000    28276903.626 5 148596100.13905      1790.446 5        31.328                                                                    28276913.615 5 110964628.06905      1336.976 5        34.300    28276912.238 5 113859358.56705      1371.992 5        35.362
G03         8.000    25512854.797 5 134070950.35605      -588.644 5        34.005                                    25512857.331 3 104470865.38303      -458.701 3        23.638    25512858.738 5 104470871.44705      -458.972 5        33.245
G11         9.000    23035884.718 7 121054549.57907      1274.721 7        44.442                                    23035889.657 5  94328318.41105       993.288 5        31.645    23035889.662 7  94328318.41307       993.291 7        42.836
E30        10.000    23692551.538 8 124505341.14908      -576.242 8        48.782                                                                    23692558.436 8  92974875.88408      -430.299 8        50.853    23692557.277 8  95400296.20508      -441.478 8        51.512
C26        11.000                                                                                                                                    24792099.816 7 129098900.39307     -3322.627 7        44.682                                                                    24792107.346 7 104903430.45007     -2700.098 7        43.786
S27        12.000    39336264.212 6 206713289.33806      -626.612 6        36.212
R15        13.000    23532120.884 7 125748530.97007      2851.731 7        44.232                                                                    23532139.054 6  97804481.11106      2217.969 6        39.432
S36        14.000    38318632.687 7 201366110.40607      -611.533 7        44.907
G12        15.000    20403449.543 8 107220990.82408     -1415.853 8        49.863                                    20403450.388 8  83548898.74408     -1103.262 8        51.001    20403450.772 7  83548898.74507     -1103.305 7        45.925
E29        16.000    25963278.452 7 136437866.25907       -48.334 7        43.126                                                                    25963291.490 7 101885424.88107       -36.029 7        45.691    25963289.903 7 104543303.97307       -37.040 7        46.361
S45        17.000    63515666.651 6 333777555.77806      -676.321 6        36.514
C35        19.000                                                                                                                                    23906439.250 7 124487216.73107     -2615.304 7        46.675                                                                    23906444.780 7 101156132.30407     -2125.229 7        45.788
E11        20.000    28340782.202 5 148931985.99705     -2650.964 5        31.502                                                                    28340784.517 5 111215551.52205     -1979.515 5        35.676    28340783.696 6 114116812.56106     -2031.176 6        36.378
R14        21.000    19922593.610 8 106198717.00408      1038.924 8        52.448                                                                    19922601.135 8  82599075.34808       808.091 8        48.239
I06        22.000    38631433.966 6 151598058.68006      -555.569 6        41.967
S28        23.000    41019224.921 5 215557270.47505      -618.402 5        35.090
E34        24.000    26286440.567 7 138136334.46107      2001.899 7        42.550                                                                    26286453.075 7 103153897.34307      1494.968 7        46.114    26286451.504 7 105844853.74507      1534.026 7        46.756
S23        25.000    38259926.185 7 201057076.63107      -616.842 7        45.384
E08        26.000    28202106.054 6 148202750.79306     -3823.106 6        38.039                                                                    28202128.316 6 110670790.48606     -2854.716 6        40.746    28202125.270 6 113557863.07506     -2929.294 6        41.328
C07        27.000                                                                                                                                    40776869.793 6 212335785.37506     -1536.114 6        36.957    40776873.472 6 164191492.69606     -1187.785 6        39.312    40776869.597 6 172540203.02306     -1248.309 6        37.248
R24        28.000    21330077.055 8 114061714.19108      3115.782 8        48.432                                                                    21330085.492 7  88714813.61207      2423.395 7        45.561
I02        29.000    37226846.804 7 146086120.16307      -684.453 7        42.432
G28        30.000    24409704.646 6 128273797.33006      2844.737 6        40.517                                    24409717.995 4  99953641.11504      2216.672 4        24.226    24409718.352 6  99953638.13506      2216.663 6        40.174
E07        31.000    25500352.700 7 134005136.10607     -2768.359 7        44.873                                                                    25500365.078 7 100068753.11507     -2067.215 7        47.095    25500363.482 8 102679242.06808     -2121.149 8        48.186
C12        32.000                                                                                                                                    23033280.595 7 119940488.54307      1714.611 7        46.738    23033284.528 8  92745691.22808      1325.841 8        51.448    23033281.773 8  97461539.76408      1393.160 8        48.637
R23        34.000    20283647.004 8 108503974.06508     -1135.421 8        48.260
C24        35.000                                                                                                                                    21510864.040 8 112012757.39708     -1224.422 8        51.435                                                                    21510865.242 8  91019563.84308      -995.119 8        49.567
R05        36.000    22275197.279 7 119073622.78707      -503.894 7        47.225                                                                    22275210.162 6  92612833.75306      -391.873 6        41.948
E27        37.000    25858434.278 7 135887051.34907      1422.807 7        43.953                                                                    25858447.114 7 101474197.62907      1062.493 7        45.983    25858445.330 7 104121336.72007      1090.191 7        46.803
R04        38.000    22423585.557 7 120077122.88107     -3714.548 7        47.137                                                                    22423596.698 6  93393286.23406     -2889.118 6        41.478
C33        39.000                                                                                                                                    27209726.505 6 141687958.26306     -3565.980 6        38.586                                                                    27209753.810 6 115133099.65106     -2897.906 6        37.921
C32        40.000                                                                                                                                    26772896.638 6 139413379.76406       -18.416 6        41.311                                                                    26772907.592 6 113284798.94706       -15.142 6        40.872
C34        41.000                                                                                                                                    24318450.663 7 126632702.61407      2661.634 7        44.444                                                                    24318459.465 7 102899543.59907      2162.666 7        44.746
S44        42.000    40851070.503 6 214673796.47206      -533.432 6        37.784
R22        43.000    23015142.595 7 122856504.24307     -4178.457 7        44.167                                                                    23015150.902 6  95555141.00106     -3249.830 6        41.578
C05        44.000                                                                                                                                    39572122.505 6 206062271.92706      -598.158 6        38.889    39572128.459 6 159340395.28406      -462.535 6        41.888    39572127.528 6 167442539.41806      -486.235 6        38.940
C40        45.000                                                                                                                                    41435759.228 5 215766906.29805     -1771.547 5        32.814                                                                    41435760.898 5 175328307.48505     -1439.596 5        33.671
G32        46.000    22948453.896 7 120594843.90707      -730.543 7        46.014                                    22948462.931 7  93970010.72807      -569.256 7        43.022    22948463.628 7  93970012.72607      -569.184 7        42.161
E36        47.000    26122893.787 7 137276832.98707      -379.445 7        42.899                                                                    26122905.168 7 102512037.46607      -283.197 7        45.476    26122903.707 7 105186247.36007      -290.713 7        46.173
C41        48.000                                                                                                                                    26134235.945 7 136087742.74007     -2406.172 7        42.457                                                                    26134256.603 6 110582493.33306     -1955.386 6        41.595
C10        49.000                                                                                                                                    39689925.265 6 206675822.94106     -1337.888 6        38.793    39689932.278 7 159814862.18707     -1034.523 7        42.294    39689927.974 6 167941030.76506     -1087.203 6        38.982
C44        50.000                                                                                                                                    22097363.537 8 115066797.90108       167.150 8        51.029                                                                    22097366.593 8  93501228.54308       135.711 8        48.861
S48        51.000    77256102.984 6 405984540.15806      -627.962 6        37.928
E02        53.000    25514435.830 7 134079294.94407     -2645.010 7        44.333                                                                    25514444.544 7 100124209.84307     -1975.095 7        46.854    25514442.982 7 102736129.12807     -2026.628 7        47.408
C60        54.000                                                                                                                                    40851070.537 6 212722234.01706      -528.602 6        39.973                                                                    40851065.356 6 172854164.86706      -429.702 6        39.486
C25        55.000                                                                                                                                    23018810.445 8 119865053.57808      1595.582 8        48.162                                                                    23018815.808 7  97400226.16107      1296.416 7        47.902
R12        56.000    24303515.600 6 129824962.74106     -4050.312 6        40.515                                                                    24303529.844 6 100974970.62806     -3150.314 6        39.186
C02        57.000                                                                                                                                    41037879.098 5 213694834.18205      -551.125 5        32.713    41037887.158 6 165242337.19106      -426.139 6        36.594    41037887.560 5 173644513.96305      -448.039 5        32.784
I03        58.000   118899300.407 5 390800839.91505       919.225 5        31.306
R13        60.000    20620872.303 7 110114368.73307     -2750.739 7        45.475
> 2025 01 01 13 31 35.0000000  0 56
G19         1.000    23972073.120 6 125974201.81206     -4014.665 6        40.410                                    23972077.088 4  98161790.87404     -3128.304 4        24.211
G25         2.000    20586622.798 8 108183532.37308      1119.796 8        48.516                                    20586628.641 8  84298933.36008       872.566 8        49.117    20586629.273 7  84298943.36707       872.615 7        44.743
G24         3.000    22369611.636 7 117553072.81907     -3864.578 7        46.139                                    22369618.329 7  91599818.23907     -3011.352 7        45.047    22369618.707 7  91599815.23707     -3011.429 7        42.480
G29         4.000    23462764.688 7 123297830.88507      2871.674 7        43.846                                    23462772.636 6  96076348.21006      2237.663 6        39.147    23462772.564 6  96076351.23806      2237.500 6        39.201
S21         5.000    38546979.000 7 202565359.70607      -611.847 7        42.948
G06         6.000    23051758.620 7 121137925.32907     -1050.120 7        43.725                                    23051766.183 6  94393279.10306      -818.275 6        40.474    23051766.570 6  94393270.11506      -818.326 6        41.256
E19         7.000    28275201.075 5 148587150.91205      1789.783 5        32.467                                                                    28275210.757 5 110957944.91105      1336.475 5        34.757    28275209.445 5 113852501.09905      1371.378 5        35.714
G03         8.000    25513417.081 5 134073902.14705      -591.680 5        33.814                                    25513418.931 3 104473165.65103      -461.071 3        23.676    25513419.503 5 104473171.71605      -461.282 5        32.623
G11         9.000    23034673.372 7 121048182.72907      1272.302 7        44.754                                    23034678.053 5  94323357.24605       991.403 5        31.623    23034678.084 7  94323357.25207       991.365 7        43.300
E30        10.000    23693100.383 8 124508225.45808      -577.283 8        48.948                                                                    23693107.288 8  92977029.74608      -431.060 8        50.664    23693106.157 8  95402506.25808      -442.277 8        51.288
C26        11.000                                                                                                                                    24795291.373 7 129115516.65107     -3323.553 7        44.859                                                                    24795298.369 7 104916932.50207     -2700.615 7        43.791
S27        12.000    39336855.692 5 206716422.95205      -626.721 5        35.924
R15        13.000    23529453.098 7 125734272.75107      2851.816 7        44.524                                                                    23529471.712 6  97793391.42006      2218.240 6        40.696
S36        14.000    38319214.414 7 201369170.00307      -612.052 7        44.813
G12        15.000    20404797.746 8 107228075.59208     -1417.817 8        49.895                                    20404798.574 8  83554419.33508     -1104.792 8        50.960    20404799.031 7  83554419.33907     -1104.886 7        45.916
E29        16.000    25963325.456 7 136438114.25607       -50.631 7        43.164                                                                    25963338.650 7 101885610.07907       -37.813 7        45.478    25963337.118 7 104543494.00007       -38.812 7        46.220
S45        17.000    63516256.065 6 333780937.76306      -676.276 6        36.291
C35        19.000                                                                                                                                    23908951.831 7 124500299.32907     -2617.462 7        46.672                                                                    23908957.242 7 101166762.98907     -2126.919 7        45.795
E11        20.000    28343305.463 5 148945245.16005     -2652.776 5        32.431                                                                    28343307.429 5 111225452.91705     -1980.958 5        35.943    28343306.698 6 114126972.25906     -2032.483 6        36.446
R14        21.000    19921620.323 8 106193527.47408      1037.080 8        52.543                                                                    19921627.253 8  82595039.06008       806.662 8        48.317
I06        22.000    38632141.291 6 151600836.80506      -555.474 6        41.776
S28        23.000    41019813.293 5 215560362.82705      -618.338 5        35.057
E34        24.000    26284536.312 7 138126328.15007      2000.752 7        42.339                                                                    26284548.838 7 103146425.11707      1493.984 7        45.833    26284547.393 7 105837186.58407      1533.054 7        46.522
S23        25.000    38260512.473 7 201060160.84607      -616.687 7        45.439
E08        26.000    28205743.388 6 148221865.81506     -3822.671 6        38.132                                                                    28205765.764 6 110685064.60406     -2854.669 6        40.548    28205762.774 6 113572509.56806     -2929.055 6        40.944
C07        27.000                                                                                                                                    40778343.681 6 212343465.94506     -1535.948 6        36.764    40778348.440 6 164197431.84806     -1187.841 6        39.532    40778344.539 6 172546444.16006     -1248.210 6        37.164
R24        28.000    21327164.626 8 114046141.57208      3113.385 8        49.902                                                                    21327173.143 7  88702701.59607      2421.504 7        45.526
I02        29.000    37227718.933 7 146089542.91207      -684.562 7        42.320
G28        30.000    24406998.512 6 128259576.01006      2844.000 6        40.760                                    24407011.868 4  99942559.60704      2216.101 4        24.421    24407012.197 6  99942556.62806      2216.158 6        40.331
E07        31.000    25502987.553 7 134018982.47207     -2769.935 7        44.795                                                                    25503000.069 7 100079092.90407     -2068.489 7        46.880    25502998.463 8 102689851.59708     -2122.453 8        48.015
C12        32.000                                                                                                                                    23031635.230 7 119931921.07007      1712.579 7        46.935    23031639.298 8  92739066.33008      1324.264 8        51.722    23031636.504 8  97454578.00308      1391.689 8        48.711
R23        34.000    20284710.421 7 108509663.32407     -1140.050 7        47.568
C24        35.000                                                                                                                                    21512040.886 8 112018884.69808     -1226.245 8        51.514                                                                    21512041.915 8  91024542.77008      -996.429 8        49.556
R05        36.000    22275670.490 7 119076153.71207      -508.273 7        47.540                                                                    22275684.162 7  92614802.24107      -395.409 7        42.597
E27        37.000    25857080.474 7 135879939.15907      1422.291 7        43.998                                                                    25857093.761 7 101468886.59307      1062.125 7        45.777    25857091.812 7 104115887.13707      1089.847 7        46.583
R04        38.000    22427055.184 7 120095702.64907     -3717.114 7        46.814                                                                    22427066.726 7  93407737.11407     -2891.176 7        42.502
C33        39.000                                                                                                                                    27213150.330 6 141705788.83306     -3565.930 6        38.453                                                                    27213177.912 6 115147588.36706     -2897.613 6        38.066
C32        40.000                                                                                                                                    26772914.855 6 139413478.69906       -20.961 6        40.825                                                                    26772926.446 6 113284879.34006       -17.026 6        41.120
C34        41.000                                                                                                                                    24315895.683 7 126619397.00307      2660.762 7        45.038                                                                    24315904.171 7 102888731.72607      2162.161 7        44.704
S44        42.000    40851578.685 6 214676464.26206      -533.389 6        37.788
R22        43.000    23019057.786 7 122877402.53307     -4180.737 7        43.496                                                                    23019065.714 6  95571395.21506     -3251.724 6        41.244
C05        44.000                                                                                                                                    39572696.912 6 206065263.20306      -598.120 6        38.967    39572702.807 6 159342708.33206      -462.430 6        41.890    39572702.078 6 167444970.07006      -485.809 6        39.267
C40        45.000                                                                                                                                    41437460.020 5 215775763.96905     -1771.396 5        32.108                                                                    41437462.373 5 175335505.15605     -1439.435 5        33.383
G32        46.000    22949149.859 7 120598504.82607      -733.667 7        45.842                                    22949159.614 7  93972863.38707      -571.685 7        42.988    22949160.006 7  93972865.36507      -571.651 7        42.552
E36        47.000    26123256.318 7 137278736.97707      -381.991 7        42.779                                                                    26123267.393 7 102513459.28907      -285.202 7        45.183    26123265.973 7 105187706.26907      -292.683 7        45.845
C41        48.000                                                                                                                                    26136547.806 7 136099779.08807     -2408.064 7        42.267                                                                    26136567.953 6 110592273.80206     -1956.749 6        41.535
C10        49.000                                                                                                                                    39691209.737 6 206682512.69506     -1337.719 6        38.763    39691217.085 7 159820035.14607     -1034.453 7        42.248    39691212.624 6 167946466.76106     -1087.145 6        38.937
C44        50.000                                                                                                                                    22097204.175 8 115065969.43008       164.499 8        50.956                                                                    22097207.469 8  93500555.35508       133.660 8        48.934
S48        51.000    77256687.555 6 405987680.58106      -627.891 6        38.027
E02        53.000    25516952.868 7 134092521.54307     -2645.365 7        44.149                                                                    25516961.581 7 100134086.84107     -1975.521 7        46.473    25516960.012 7 102746263.78707     -2027.031 7        47.252
C60        54.000                                                                                                                                    40851577.927 6 212724877.57206      -528.632 6        40.048                                                                    40851572.961 6 172856312.96406      -429.434 6        39.417
C25        55.000                                                                                                                                    23017278.893 8 119857078.50408      1594.678 8        48.152                                                                    23017284.244 7  97393745.77507      1295.796 7        47.904
R12        56.000    24307307.459 6 129845216.08006     -4050.895 6        40.782                                                                    24307322.016 6 100990723.17406     -3150.612 6        39.480
C02        57.000                                                                                                                                    41038408.833 5 213697589.08805      -550.737 5        32.509    41038416.526 6 165244467.44906      -425.712 6        36.677    41038416.790 5 173646752.58505      -447.944 5        32.659
I03        58.000   118898128.618 5 390796244.65305       919.673 5        31.011
R13        60.000    20623449.269 7 110128127.52807     -2752.628 7        45.425
> 2025 01 01 13 31 40.0000000  0 56
G19         1.000    23975893.705 6 125994278.59706     -4015.847 6        40.052                                    23975897.768 3  98177435.13703     -3129.228 3        23.905
G25         2.000    20585558.424 8 108177938.94208      1117.742 8        48.481                                    20585564.234 8  84294574.85508       870.965 8        49.092    20585565.268 7  84294584.86107       870.970 7        44.898
G24         3.000    22373289.823 7 117572400.74907     -3866.466 7        46.214                                    22373296.404 7  91614878.93507     -3012.826 7        45.038    22373296.672 7  91614875.92207     -3012.818 7        42.851
G29         4.000    23460032.938 7 123283476.68307      2870.255 7        43.505                                    23460040.971 6  96065163.15106      2236.555 6        39.162    23460041.648 6  96065166.15706      2236.549 6        38.934
S21         5.000    38547561.442 7 202568419.92307      -611.988 7        43.225
G06         6.000    23052759.525 7 121143185.32107     -1053.675 7        42.855                                    23052767.093 6  94397377.80506      -821.052 6        40.508    23052767.836 6  94397368.82406      -821.020 6        41.499
E19         7.000    28273500.180 5 148578208.56905      1787.359 5        31.517                                                                    28273509.403 5 110951266.69005      1335.090 5        33.515    28273508.009 5 113845648.73505      1369.972 5        35.057
G03         8.000    25513982.567 5 134076869.91905      -595.101 5        34.257                                    25513983.500 3 104475478.38503      -463.740 3        23.467    25513984.595 5 104475484.40805      -463.630 5        32.503
G11         9.000    23033464.044 7 121041829.11907      1269.485 7        44.454                                    23033468.975 5  94318406.40305       989.206 5        31.698    23033469.098 7  94318406.41707       989.144 7        43.693
E30        10.000    23693650.313 8 124511115.53408      -578.588 8        48.575                                                                    23693657.283 8  92979187.91608      -432.055 8        50.521    23693656.088 8  95404720.72708      -443.327 8        51.416
C26        11.000                                                                                                                                    24798483.434 7 129132137.57907     -3324.576 7        44.647                                                                    24798490.440 7 104930438.34807     -2701.687 7        43.920
S27        12.000    39337456.021 6 206719556.62406      -626.774 6        36.178
R15        13.000    23526785.228 7 125720014.99607      2851.456 7        44.087                                                                    23526803.544 6  97782302.10606      2217.924 6        39.721
S36        14.000    38319798.600 7 201372230.36407      -612.041 7        44.909
G12        15.000    20406147.839 8 107235171.12508     -1420.146 8        49.948                                    20406148.820 8  83559948.31708     -1106.605 8        51.008    20406149.450 7  83559948.31307     -1106.590 7        45.947
E29        16.000    25963374.987 7 136438374.56907       -53.192 7        42.773                                                                    25963388.270 7 101885804.47707       -39.862 7        45.353    25963386.623 7 104543693.46507       -40.870 7        46.230
S45        17.000    63516841.682 6 333784319.97106      -676.457 6        36.302
C35        19.000                                                                                                                                    23911465.973 7 124513392.93607     -2619.830 7        46.525                                                                    23911471.671 7 101177402.62307     -2128.928 7        45.896
E11        20.000    28345830.341 5 148958513.65205     -2654.644 5        32.090                                                                    28345832.218 5 111235361.29405     -1982.118 5        35.705    28345831.811 6 114137139.11706     -2033.863 6        36.609
R14        21.000    19920648.355 8 106188347.83508      1035.016 8        52.380                                                                    19920655.272 8  82591010.45908       805.046 8        48.157
I06        22.000    38632849.209 7 151603615.03307      -555.577 7        42.127
S28        23.000    41020404.343 5 215563455.27705      -618.380 5        35.014
E34        24.000    26282633.448 7 138116328.60307      1999.203 7        42.243                                                                    26282645.910 7 103138957.92507      1492.902 7        45.549    26282644.535 7 105829524.59907      1531.929 7        46.661
S23        25.000    38261098.685 7 201063245.28707      -616.854 7        45.333
E08        26.000    28209380.553 6 148240980.07806     -3822.844 6        37.924                                                                    28209403.184 6 110699338.13706     -2854.652 6        40.574    28209400.222 6 113587155.46606     -2929.092 6        41.137
C07        27.000                                                                                                                                    40779818.498 6 212351146.57906     -1535.953 6        36.174    40779823.524 6 164203371.00406     -1187.849 6        39.520    40779819.450 6 172552685.28806     -1248.150 6        37.081
R24        28.000    21324255.539 8 114030581.77108      3110.721 8        49.854                                                                    21324263.038 7  88690599.54807      2419.392 7        44.781
I02        29.000    37228591.469 7 146092966.45607      -684.812 7        42.536
G28        30.000    24404293.050 6 128245358.57406      2843.099 6        41.385                                    24404306.388 4  99931481.14104      2215.398 4        24.571    24404306.909 6  99931478.16606      2215.417 6        40.100
E07        31.000    25505624.215 7 134032837.60007     -2771.918 7        44.740                                                                    25505636.569 7 100089439.22907     -2069.833 7        46.828    25505635.081 8 102700467.82908     -2123.887 8        48.104
C12        32.000                                                                                                                                    23029992.379 7 119923364.54307      1710.270 7        46.803    23029996.208 8  92732449.88308      1322.452 8        51.604    23029993.415 8  97447625.14308      1389.568 8        48.812
R23        34.000    20285778.572 7 108515376.34007     -1144.944 7        47.846
C24        35.000                                                                                                                                    21513219.380 8 112025021.37608     -1228.208 8        51.339                                                                    21513220.435 8  91029529.32308      -998.122 8        49.639
R05        36.000    22276148.558 7 119078707.47407      -512.980 7        47.462                                                                    22276161.704 7  92616788.48007      -399.008 7        43.026
E27        37.000    25855727.847 7 135872830.17407      1421.491 7        43.831                                                                    25855740.884 7 101463577.95207      1061.533 7        45.562    25855738.965 7 104110440.00907      1089.190 7        46.689
R04        38.000    22430527.523 7 120114296.19107     -3720.044 7        47.467                                                                    22430539.580 6  93422198.72306     -2893.374 6        41.695
C33        39.000                                                                                                                                    27216573.797 6 141723619.32206     -3565.971 6        38.315                                                                    27216602.258 6 115162077.06706     -2897.900 6        37.845
C32        40.000                                                                                                                                    26772935.363 6 139413591.26606       -23.754 6        40.543                                                                    26772948.139 6 113284970.74506       -19.427 6        41.442
C34        41.000                                                                                                                                    24313341.426 7 126606096.59607      2659.638 7        45.347                                                                    24313349.829 7 102877924.09707      2161.037 7        44.715
S44        42.000    40852087.837 6 214679132.29206      -533.607 6        37.921
R22        43.000    23022975.154 7 122898313.17007     -4183.379 7        43.735                                                                    23022983.537 6  95587659.05106     -3253.666 6        41.259
C05        44.000                                                                                                                                    39573271.587 6 206068254.64206      -598.103 6        38.895    39573277.411 6 159345021.52806      -462.745 6        41.902    39573276.731 6 167447400.87806      -486.176 6        39.129
C40        45.000                                                                                                                                    41439160.854 5 215784621.20405     -1771.148 5        31.668                                                                    41439163.152 5 175342702.48705     -1439.712 5        34.152
G32        46.000    22949849.776 7 120602182.14607      -737.122 7        45.941                                    22949859.378 7  93975728.81407      -574.379 7        42.982    22949859.770 7  93975730.80407      -574.315 7        42.152
E36        47.000    26123620.884 7 137280654.09607      -384.787 7        42.360                                                                    26123632.192 7 102514890.92407      -287.400 7        45.102    26123630.785 7 105189175.24007      -294.809 7        45.968
C41        48.000                                                                                                                                    26138861.126 7 136111825.49907     -2410.177 7        42.207                                                                    26138881.382 6 110602062.49306     -1958.625 6        41.571
C10        49.000                                                                                                                                    39692494.703 6 206689202.83006     -1338.041 6        38.489    39692501.619 7 159825208.39807     -1034.781 7        42.296    39692497.380 6 167951903.03506     -1087.382 6        39.189
C44        50.000                                                                                                                                    22097047.691 8 115065155.08608       161.507 8        50.849                                                                    22097051.087 8  93499893.63608       131.137 8        48.967
S48        51.000    77257273.503 6 405990821.34906      -628.166 6        37.917
E02        53.000    25519470.363 7 134105750.95207     -2646.091 7        43.727                                                                    25519479.206 7 100143965.92107     -1976.088 7        46.454    25519477.621 7 102756400.59207     -2027.600 7        47.387
C60        54.000                                                                                                                                    40852085.599 6 212727521.33606      -528.733 6        40.026                                                                    40852080.691 6 172858461.23606      -429.633 6        39.562
C25        55.000                                                                                                                                    23015748.122 7 119849108.83807      1593.441 7        47.830                                                                    23015753.723 7  97387269.79007      1294.648 7        47.978
R12        56.000    24311100.611 6 129865472.20606     -4051.534 6        40.884                                                                    24311114.276 6 101006477.92706     -3151.218 6        39.126
C02        57.000                                                                                                                                    41038937.629 5 213700344.17005      -551.034 5        32.647    41038945.305 6 165246597.88906      -426.227 6        36.491    41038945.689 5 173648991.32705      -447.933 5        32.784
I03        58.000   118896957.430 5 390791649.40005       919.116 5        31.849
R13        60.000    20626027.681 7 110141896.40207     -2754.727 7        45.713
> 2025 01 01 13 31 45.0000000  0 56
G19         1.000    23979715.639 6 126014360.63206     -4016.796 6        40.002                                    23979719.337 3  98193083.48103     -3129.970 3        23.810
G25         2.000    20584495.837 8 108172355.33208      1115.868 8        48.467                                    20584501.700 8  84290224.00208       869.507 8        49.088    20584502.706 7  84290234.00907       869.430 7        44.712
G24         3.000    22376969.370 7 117591737.03807     -3868.104 7        46.167                                    22376976.039 7  91629946.14607     -3014.102 7        44.941    22376976.181 6  91629943.13806     -3014.035 6        41.979
G29         4.000    23457302.456 7 123269128.73907      2869.009 7        43.962                                    23457310.554 6  96053982.97206      2235.584 6        39.168    23457311.234 6  96053985.99506      2235.618 6        39.673
S21         5.000    38548142.838 7 202571480.46507      -612.198 7        43.124
G06         6.000    23053763.675 7 121148462.65107     -1057.176 7        42.675                                    23053771.272 6  94401490.02006      -823.775 6        40.398    23053772.288 6  94401481.02406      -823.777 6        41.695
E19         7.000    28271799.941 5 148569273.91905      1786.392 5        32.467                                                                    28271809.960 5 110944594.53305      1334.280 5        34.857    28271808.431 6 113838802.54906      1368.785 6        36.129
G03         8.000    25514549.572 5 134079853.79705      -598.399 5        33.964                                    25514551.030 3 104477803.60503      -466.326 3        23.181    25514551.366 5 104477809.63205      -465.812 5        32.126
G11         9.000    23032257.197 7 121035488.84807      1266.762 7        45.142                                    23032262.545 5  94313465.95705       987.085 5        31.864    23032262.432 7  94313465.96907       987.032 7        43.793
E30        10.000    23694201.397 8 124514011.49808      -579.763 8        48.438                                                                    23694208.349 8  92981350.48908      -432.976 8        50.689    23694207.209 8  95406939.71808      -444.285 8        51.409
C26        11.000                                                                                                                                    24801676.070 7 129148763.25207     -3325.677 7        44.826                                                                    24801683.488 7 104943948.02307     -2702.295 7        44.128
S27        12.000    39338049.476 6 206722690.38006      -626.722 6        36.197
R15        13.000    23524116.244 7 125705757.71207      2851.457 7        44.522                                                                    23524133.656 6  97771213.17406      2217.849 6        40.219
S36        14.000    38320379.889 7 201375290.83807      -612.066 7        44.855
G12        15.000    20407500.344 8 107242277.49208     -1422.335 8        50.171                                    20407501.115 8  83565485.74408     -1108.315 8        50.961    20407501.992 7  83565485.74707     -1108.299 7        45.916
E29        16.000    25963426.896 7 136438647.29407       -55.779 7        43.185                                                                    25963440.144 7 101886008.12507       -41.658 7        45.538    25963438.458 7 104543902.42807       -42.827 7        46.366
S45        17.000    63517433.671 6 333787702.53906      -676.482 6        36.336
C35        19.000                                                                                                                                    23913982.670 7 124526497.59407     -2621.896 7        46.634                                                                    23913988.235 7 101188051.22407     -2130.494 7        45.959
E11        20.000    28348356.654 5 148971791.49505     -2656.404 5        32.216                                                                    28348358.962 5 111245276.66705     -1983.674 5        35.895    28348358.330 6 114147313.13506     -2035.613 6        36.972
R14        21.000    19919678.362 8 106183177.98608      1032.957 8        52.209                                                                    19919685.681 8  82586989.47808       803.422 8        48.211
I06        22.000    38633557.634 7 151606393.44107      -555.659 7        42.224
S28        23.000    41020991.239 5 215566548.11405      -618.588 5        35.238
E34        24.000    26280731.773 6 138106335.90206      1997.919 6        41.907                                                                    26280744.428 7 103131495.87307      1491.864 7        45.780    26280742.885 7 105821867.88707      1530.786 7        46.588
S23        25.000    38261686.122 7 201066330.15607      -616.997 7        45.532
E08        26.000    28213017.858 6 148260093.64506     -3822.576 6        37.992                                                                    28213040.422 6 110713611.15906     -2854.567 6        40.751    28213037.341 6 113601800.83706     -2928.955 6        40.994
C07        27.000                                                                                                                                    40781292.925 6 212358827.24606     -1536.099 6        36.083    40781298.382 6 164209310.19106     -1187.918 6        39.700    40781294.489 6 172558926.46206     -1248.094 6        36.858
R24        28.000    21321348.259 8 114015034.94008      3108.131 8        50.643                                                                    21321356.074 7  88678507.57507      2417.375 7        44.855
I02        29.000    37229463.845 7 146096390.80507      -685.125 7        42.707
G28        30.000    24401587.952 6 128231145.04406      2842.397 6        40.305                                    24401601.522 4  99920405.69404      2214.865 4        24.526    24401601.907 6  99920402.71506      2214.756 6        39.745
E07        31.000    25508262.475 7 134046701.56507     -2773.638 7        44.712                                                                    25508274.849 7 100099792.16907     -2071.281 7        47.003    25508273.354 8 102711090.84408     -2125.253 8        48.047
C12        32.000                                                                                                                                    23028350.956 7 119914819.05807      1707.980 7        46.892    23028354.894 8  92725841.99208      1320.690 8        51.587    23028352.300 8  97440681.23908      1387.948 8        48.749
R23        34.000    20286851.131 7 108521113.35607     -1149.728 7        47.712
C24        35.000                                                                                                                                    21514399.571 8 112031167.52008     -1230.155 8        51.323                                                                    21514400.729 8  91034523.55508      -999.573 8        49.575
R05        36.000    22276630.720 7 119081284.01707      -517.541 7        46.926                                                                    22276643.489 7  92618792.46107      -402.567 7        43.791
E27        37.000    25854375.479 7 135865724.48207      1420.888 7        43.397                                                                    25854388.733 7 101458271.77907      1060.986 7        45.753    25854386.797 7 104104995.40907      1088.716 7        46.742
R04        38.000    22434002.221 7 120132903.65807     -3722.867 7        47.046                                                                    22434013.708 6  93436671.13206     -2895.502 6        41.292
C33        39.000                                                                                                                                    27219998.034 6 141741449.81506     -3566.089 6        38.868                                                                    27220026.698 6 115176565.75806     -2897.512 6        37.758
C32        40.000                                                                                                                                    26772960.160 6 139413717.60506       -26.626 6        40.613                                                                    26772972.449 6 113285073.27806       -21.741 6        41.070
C34        41.000                                                                                                                                    24310787.222 7 126592801.49607      2658.531 7        45.132                                                                    24310796.658 7 102867120.74807      2160.340 7        44.569
S44        42.000    40852592.106 6 214681800.61506      -533.624 6        38.042
R22        43.000    23026894.851 7 122919236.29807     -4185.845 7        43.575                                                                    23026902.754 6  95603932.61206     -3255.669 6        41.597
C05        44.000                                                                                                                                    39573846.110 6 206071246.31406      -598.344 6        38.820    39573851.876 6 159347334.87406      -462.570 6        41.933    39573851.021 6 167449831.85306      -486.278 6        39.351
C40        45.000                                                                                                                                    41440862.032 5 215793478.08405     -1771.302 5        31.600                                                                    41440863.802 5 175349899.47505     -1439.324 5        33.970
G32        46.000    22950553.133 7 120605876.00807      -740.449 7        46.173                                    22950562.286 7  93978607.13907      -576.969 7        42.990    22950563.060 7  93978609.11907      -576.843 7        42.394
E36        47.000    26123988.156 7 137282584.41107      -387.331 7        42.552                                                                    26123999.498 7 102516332.40107      -289.291 7        45.226    26123998.016 7 105190654.32707      -296.821 7        45.886
C41        48.000                                                                                                                                    26141176.965 7 136123882.14507     -2412.410 7        42.116                                                                    26141196.716 6 110611859.46106     -1960.279 6        41.442
C10        49.000                                                                                                                                    39693779.468 6 206695893.46306     -1338.152 6        38.402    39693786.319 7 159830382.00607     -1034.691 7        42.123    39693782.171 6 167957339.71706     -1087.377 6        38.982
C44        50.000                                                                                                                                    22096894.382 8 115064354.93008       158.661 8        51.125                                                                    22096897.422 8  93499243.43408       128.964 8        48.889
S48        51.000    77257856.884 6 405993962.70306      -628.361 6        38.111
E02        53.000    25521988.332 7 134118983.24707     -2646.673 7        43.589                                                                    25521997.183 7 100153847.16507     -1976.450 7        46.662    25521995.673 7 102766539.61307     -2028.117 7        47.400
C60        54.000                                                                                                                                    40852593.620 6 212730165.41006      -528.742 6        40.043                                                                    40852588.395 6 172860609.75306      -429.610 6        39.330
C25        55.000                                                                                                                                    23014218.776 7 119841144.67407      1592.334 7        47.872                                                                    23014224.365 7  97380798.25107      1293.873 7        47.956
R12        56.000    24314892.627 6 129885731.30406     -4052.276 6        40.422                                                                    24314905.669 6 101022234.96006     -3151.730 6        39.060
C02        57.000                                                                                                                                    41039466.488 5 213703099.46305      -550.892 5        32.695    41039474.311 6 165248728.48506      -426.244 6        36.575    41039474.758 5 173651230.23705      -447.759 5        32.671
I03        58.000   118895786.441 5 390787054.18605       918.886 5        31.781
R13        60.000    20628608.297 7 110155675.23207     -2756.796 7        45.782
