     3.04           OBSERVATION DATA    M                   RINEX VERSION / TYPE
ssrcrin-15.6.1x                         20250101 070000 UTC PGM / RUN BY / DATE 
(00000000023479385599111004) Septentrio proprietary         COMMENT             
rref                                                        MARKER NAME         
01                                                          MARKER NUMBER       
geodetic                                                    MARKER TYPE         
NFB                 CLIMERS@TUW                             OBSERVER / AGENCY   
3297213             SEPT ASTERX SB3 PROB4.14.4              REC # / TYPE / VERS 
Unknown             Unknown                                 ANT # / TYPE        
  4127831.7704  1207192.7731  4695247.6905                  APPROX POSITION XYZ 
        0.0000        0.0000        0.0000                  ANTENNA: DELTA H/E/N
G   23 X1  C1C L1C D1C S1C C1W S1W C2W L2W D2W S2W C2L L2L  SYS / # / OBS TYPES 
       D2L S2L C5Q L5Q D5Q S5Q C1L L1L D1L S1L              SYS / # / OBS TYPES 
E   21 X1  C1C L1C D1C S1C C6C L6C D6C S6C C5Q L5Q D5Q S5Q  SYS / # / OBS TYPES 
       C7Q L7Q D7Q S7Q C8Q L8Q D8Q S8Q                      SYS / # / OBS TYPES 
S    9 X1  C1C L1C D1C S1C C5I L5I D5I S5I                  SYS / # / OBS TYPES 
R   17 X1  C1C L1C D1C S1C C2P L2P D2P S2P C2C L2C D2C S2C  SYS / # / OBS TYPES 
       C3Q L3Q D3Q S3Q                                      SYS / # / OBS TYPES 
C   25 X1  C1P L1P D1P S1P C5P L5P D5P S5P C2I L2I D2I S2I  SYS / # / OBS TYPES 
       C7I L7I D7I S7I C6I L6I D6I S6I C7D L7D D7D S7D      SYS / # / OBS TYPES 
J   17 X1  C1C L1C D1C S1C C2L L2L D2L S2L C5Q L5Q D5Q S5Q  SYS / # / OBS TYPES 
       C1L L1L D1L S1L                                      SYS / # / OBS TYPES 
I    5 X1  C5A L5A D5A S5A                                  SYS / # / OBS TYPES 
SEPTENTRIO RECEIVERS OUTPUT ALIGNED CARRIER PHASES.         COMMENT             
NO FURTHER PHASE SHIFT APPLIED IN THE RINEX ENCODER.        COMMENT             
G L1C                                                       SYS / PHASE SHIFT   
G L2W                                                       SYS / PHASE SHIFT   
G L2L  0.00000                                              SYS / PHASE SHIFT   
G L5Q  0.00000                                              SYS / PHASE SHIFT   
G L1L  0.00000                                              SYS / PHASE SHIFT   
E L1C  0.00000                                              SYS / PHASE SHIFT   
E L6C  0.00000                                              SYS / PHASE SHIFT   
E L5Q  0.00000                                              SYS / PHASE SHIFT   
E L7Q  0.00000                                              SYS / PHASE SHIFT   
E L8Q  0.00000                                              SYS / PHASE SHIFT   
S L1C                                                       SYS / PHASE SHIFT   
S L5I                                                       SYS / PHASE SHIFT   
R L1C                                                       SYS / PHASE SHIFT   
R L2P  0.00000                                              SYS / PHASE SHIFT   
R L2C                                                       SYS / PHASE SHIFT   
R L3Q  0.00000                                              SYS / PHASE SHIFT   
C L1P  0.00000                                              SYS / PHASE SHIFT   
C L5P  0.00000                                              SYS / PHASE SHIFT   
C L2I                                                       SYS / PHASE SHIFT   
C L7I                                                       SYS / PHASE SHIFT   
C L6I                                                       SYS / PHASE SHIFT   
C L7D                                                       SYS / PHASE SHIFT   
J L1C                                                       SYS / PHASE SHIFT   
J L2L  0.00000                                              SYS / PHASE SHIFT   
J L5Q  0.00000                                              SYS / PHASE SHIFT   
J L1L  0.00000                                              SYS / PHASE SHIFT   
I L5A                                                       SYS / PHASE SHIFT   
  2025     1     1     7     0    0.0000000     GPS         TIME OF FIRST OBS   
 C1C    0.000 C2C    0.000 C2P    0.000                     GLONASS COD/PHS/BIS 
DBHZ                                                        SIGNAL STRENGTH UNIT
    18                                                      LEAP SECONDS        
 24 R01  1 R02 -4 R03  5 R04  6 R05  1 R06 -4 R07  5 R08  6 GLONASS SLOT / FRQ #
    R09 -2 R10 -7 R11  0 R12 -1 R13 -2 R14 -7 R15  0 R16 -1 GLONASS SLOT / FRQ #
    R17  4 R18 -3 R19  3 R20  2 R21  4 R22 -3 R23  3 R24  2 GLONASS SLOT / FRQ #
                                                            END OF HEADER       
> 2025 01 01 07 00  0.0000000  0 57
G08         1.000    24526363.470 6 128886933.28306      1113.689 6        38.081                                    24526371.855 4 100431423.93504       867.798 4        29.896    24526372.406 5 100431433.93905       868.009 5        35.590
R01         2.000    20670976.491 8 110498194.09008      2579.055 8        48.075                                                                    20670977.527 6  85943104.98006      2006.030 6        40.200
G09         3.000    23844697.927 6 125304624.14506     -3607.604 6        39.694                                    23844704.049 5  97639939.86905     -2811.108 5        34.781    23844704.051 6  97639940.85106     -2811.237 6        37.293
E34         4.000    28439487.825 6 149450428.76406     -3484.498 6        37.410                                                                    28439494.833 6 111602572.21206     -2601.886 6        39.378    28439493.736 6 114513946.32106     -2669.910 6        40.305
S21         5.000    38411527.872 7 201853723.41007      -390.802 7        43.151
E05         6.000    22649795.633 7 119025481.24607     -1763.133 7        46.643                                                                    22649798.368 8  88882681.93608     -1316.648 8        49.926    22649797.864 8  91201354.08208     -1350.982 8        50.862
E15         7.000    26523202.352 6 139380354.84806     -2640.772 6        40.560                                                                    26523205.642 7 104082745.71507     -1972.005 7        44.084    26523204.948 7 106797946.75307     -2023.588 7        44.629
R10         8.000    19496870.268 7 103929277.56007     -1426.684 7        45.982
E31         9.000    27528956.594 6 144665600.93806     -2711.634 6        38.204                                                                    27528960.930 6 108029516.42006     -2025.022 6        41.242    27528960.161 6 110847677.42706     -2077.819 6        41.683
G18        10.000    25340683.182 6 133166179.63406      1220.629 6        38.994                                    25340680.710 3 103765838.39103       951.149 3        22.438    25340681.218 6 103765846.38106       951.147 6        40.329
E09        11.000    28585639.334 5 150218377.29305     -2889.198 5        35.581                                                                    28585654.709 6 112176013.28706     -2157.443 6        41.318    28585652.791 6 115102350.84606     -2213.784 6        41.344
S27        12.000    39074269.802 6 205336565.62306      -416.675 6        36.503
G15        13.000    24987555.937 6 131310492.65306      3315.645 6        38.631                                    24987552.521 4 102319848.17104      2583.626 4        26.575    24987552.565 5 102319840.15005      2583.638 5        33.437
S36        14.000    38180263.486 7 200639100.56507      -391.188 7        44.212
G20        15.000    20878647.261 8 109718010.49808     -1688.466 8        48.082                                    20878644.465 6  85494527.82906     -1315.683 6        39.096
R11        16.000    20407387.644 8 109050894.05008      2785.328 8        51.168                                                                    20407388.691 7  84817360.00207      2166.351 7        47.389
S45        17.000    63362134.187 6 332971101.61806      -435.297 6        36.427
E13        18.000    26850524.140 6 141100469.12406      -223.233 6        39.595                                                                    26850525.038 7 105367222.94407      -166.648 7        43.424    26850524.662 7 108115933.93107      -171.001 7        44.206
E24        19.000    25050356.909 7 131640474.59907      -333.120 7        44.947                                                                    25050358.763 8  98302954.78708      -248.723 8        48.372    25050357.828 8 100867377.24908      -255.240 8        49.085
R18        20.000    24127394.428 6 128793668.37906      1743.218 6        39.273                                                                    24127397.668 6 100172845.51406      1355.882 6        38.847
G30        21.000    20374570.886 8 107069097.16308      -482.919 8        50.927                                    20374570.561 8  83430468.18308      -376.299 8        52.793    20374571.132 7  83430472.18207      -376.260 7        45.457
I06        22.000    37952762.561 7 148934941.85507      -328.325 7        43.685
S28        23.000    40843795.485 5 214635407.17205      -396.418 5        34.814
G14        24.000    22408281.167 7 117756304.81707      2704.620 7        45.544                                    22408281.925 5  91758159.24205      2107.498 5        33.305    22408281.385 7  91758161.22907      2107.533 7        43.410
S23        25.000    38114568.384 7 200293341.35007      -388.834 7        44.379
E08        26.000    27237494.815 6 143133994.87206      2046.705 6        38.877                                                                    27237493.283 6 106885772.60606      1528.457 6        41.530    27237493.173 7 109674094.87907      1568.323 7        42.790
C07        27.000                                                                                                                                    39994730.048 6 208263036.56606       981.739 6        37.648    39994730.793 7 161042199.27507       759.191 7        43.024    39994727.431 6 169230772.55606       797.823 6        38.784
G13        28.000    21850154.855 7 114823339.42707      2313.115 7        45.112                                    21850151.697 5  89472710.31005      1802.425 5        30.755
R09        29.000    22104802.050 7 118038374.56507     -4142.386 7        45.407                                                                    22104803.704 7  91807617.42007     -3221.851 7        43.435
C22        30.000                                                                                                                                    21926137.357 8 114175140.68008     -1892.984 8        51.578                                                                    21926132.745 8  92776633.47108     -1538.192 8        50.180
I01        31.000   345084662.356 6  51045378.28606     -3034.777 6        40.112
E03        32.000    23619672.619 7 124122218.56307       598.875 7        47.800                                                                    23619673.889 8  92688683.76908       447.169 8        50.735    23619673.460 8  95106643.87008       458.868 8        51.668
G05        33.000    21228551.760 7 111556801.71007       851.745 7        47.124                                    21228548.510 7  86927372.71307       663.700 7        47.070    21228548.944 7  86927375.71907       663.688 7        44.018
R24        34.000    24046214.692 7 128585921.17707     -3661.023 7        42.442                                                                    24046214.981 5 100011271.30805     -2847.367 5        35.757
C36        35.000                                                                                                                                    22116475.829 8 115166273.83108     -1534.576 8        49.610                                                                    22116481.845 8  93582047.99908     -1246.960 8        50.257
G11        36.000    24966139.453 6 131197910.71606     -3618.174 6        39.718                                    24966139.458 3 102232121.26003     -2819.358 3        22.438    24966140.124 6 102232121.22506     -2819.246 6        38.655
I09        38.000    39016407.523 7 153108630.81007      -886.041 7        42.066
R08        39.000    19384611.052 8 103803693.32508     -1247.934 8        50.747                                                                    19384610.462 7  80736199.46907      -970.573 7        46.936
E25        40.000    25272650.777 7 132808676.54507      2201.323 7        44.960                                                                    25272655.192 7  99175313.65907      1643.786 7        47.405    25272654.138 7 101762487.79907      1686.654 7        47.853
G27        41.000    24881684.387 6 130754145.60306      -298.939 6        36.246                                    24881686.303 4 101886360.89204      -232.939 4        28.882    24881686.406 5 101886364.89805      -233.274 5        34.843
S44        42.000    40838205.617 6 214606216.72006      -426.670 6        36.397
C09        43.000                                                                                                                                    40125669.023 6 208944819.37306     -1140.441 6        37.611    40125671.867 7 161569355.56407      -881.946 7        42.565    40125668.413 6 169784742.94506      -926.731 6        38.904
C05        44.000                                                                                                                                    39257661.416 6 204424873.95906      -451.596 6        38.763    39257661.977 7 158074277.40107      -349.121 7        43.065    39257662.562 6 166112037.15706      -366.912 6        39.949
C40        45.000                                                                                                                                    40173404.101 6 209193450.26306      1233.724 6        40.050                                                                    40173407.625 6 169986827.87606      1002.468 6        40.672
C21        46.000                                                                                                                                    22494452.011 8 117134500.55408      1208.912 8        50.776                                                                    22494447.321 8  95181345.93108       982.431 8        49.926
R17        47.000    23191205.040 7 124100841.98107     -1056.316 7        44.491                                                                    23191206.778 7  96522882.96607      -821.653 7        42.136
C06        49.000                                                                                                                                    41024487.315 5 213625127.87005     -1318.851 5        35.371    41024494.469 6 165188438.87006     -1020.052 6        39.159    41024490.875 6 173587858.74506     -1071.543 6        36.960
C16        50.000                                                                                                                                    41547007.797 4 216346009.62104     -1253.687 4        28.900    41547022.142 5 167292418.86405      -969.083 5        32.826    41547015.498 4 175798814.19004     -1017.952 4        27.234
S48        51.000    77135314.177 6 405347841.91606      -376.378 6        37.947
C19        52.000                                                                                                                                    26170989.445 6 136279105.18606     -3582.717 6        40.830                                                                    26170992.696 7 110737904.88007     -2911.223 7        42.918
C60        54.000                                                                                                                                    40838204.726 6 212655268.90606      -422.526 6        39.907                                                                    40838197.224 6 172799756.95606      -343.418 6        38.420
C45        55.000                                                                                                                                    22309744.997 8 116172684.51708      1531.158 8        50.444                                                                    22309738.714 8  94399792.90708      1244.208 8        50.029
C11        56.000                                                                                                                                    27040336.641 3                     -2543.091 3        20.881    27040339.156 3                     -1965.379 3        22.267    27040337.644 3                     -2067.901 3        20.357
C02        57.000                                                                                                                                    40834431.629 5 212635459.14905      -460.708 5        33.281    40834437.341 6 164423169.50906      -356.400 6        40.031    40834438.244 5 172783691.71605      -374.388 5        35.686
I03        58.000   126413603.531 7 420288642.15107       916.317 7        42.019
R07        59.000    22373158.587 7 119765180.28207     -3882.825 7        46.093                                                                    22373163.140 7  93150669.13307     -3019.947 7        42.184
G07        60.000    21792826.440 7 114522067.95007     -2363.497 7        46.828                                    21792824.031 7  89237960.53107     -1841.684 7        45.673    21792823.968 7  89237961.51507     -1841.696 7        43.234
> 2025 01 01 07 00  5.0000000  0 57
G08         1.000    24525304.156 6 128881369.78506      1111.563 6        38.012                                    24525313.047 4 100427088.78804       866.135 4        29.336    24525313.716 5 100427098.81405       866.217 5        35.481
R01         2.000    20668564.559 7 110485302.15607      2577.729 7        47.721                                                                    20668565.728 6  85933077.91406      2005.027 6        40.758
G09         3.000    23848130.485 6 125322663.45606     -3608.041 6        40.002                                    23848136.712 5  97653996.39905     -2811.445 5        34.948    23848137.534 6  97653997.38306     -2811.410 6        37.372
E34         4.000    28442802.750 6 149467849.73806     -3483.884 6        37.191                                                                    28442810.056 6 111615581.32206     -2601.596 6        39.357    28442808.891 6 114527294.79706     -2669.495 6        40.381
S21         5.000    38411901.883 7 201855676.69007      -390.477 7        43.344
E05         6.000    22651473.204 7 119034298.77007     -1763.832 7        46.831                                                                    22651476.318 8  88889266.42408     -1317.167 8        49.789    22651475.782 8  91208110.34408     -1351.470 8        50.868
E15         7.000    26525715.628 6 139393562.23006     -2642.135 6        40.884                                                                    26525718.978 7 104092608.33507     -1972.967 7        44.017    26525718.413 7 106808066.65607     -2024.440 7        44.450
R10         8.000    19498210.235 7 103936420.56807     -1430.542 7        46.169
E31         9.000    27531537.188 6 144679162.44706     -2712.782 6        38.456                                                                    27531541.380 6 108039643.51006     -2025.938 6        40.968    27531540.891 6 110858068.70006     -2078.751 6        41.528
G18        10.000    25339522.730 6 133160082.46706      1218.154 6        38.520                                    25339520.315 3 103761087.35503       949.207 3        22.038    25339519.762 6 103761095.34806       949.206 6        39.640
E09        11.000    28588388.133 5 150232822.58805     -2888.920 5        35.838                                                                    28588403.663 6 112186800.30006     -2157.422 6        41.259    28588401.646 6 115113419.25106     -2213.476 6        41.292
S27        12.000    39074665.617 6 205338649.52106      -416.705 6        36.310
G15        13.000    24984400.625 6 131293913.08906      3316.003 6        37.905                                    24984397.308 4 102306929.02804      2583.910 4        26.180    24984398.090 5 102306921.00905      2583.954 5        31.366
S36        14.000    38180631.447 7 200641055.97507      -390.937 7        44.200
G20        15.000    20880255.260 8 109726460.45408     -1691.464 8        48.295                                    20880252.434 6  85501112.19306     -1318.021 6        38.949
R11        16.000    20404783.184 8 109036974.45308      2782.520 8        50.858                                                                    20404783.936 7  84806533.64207      2164.203 7        47.274
S45        17.000    63362505.649 6 332973277.25706      -435.077 6        36.363
E13        18.000    26850737.113 6 141101590.69706      -225.524 6        39.408                                                                    26850738.519 7 105368060.47007      -168.404 7        43.372    26850738.063 7 108116793.30507      -172.754 7        44.232
E24        19.000    25050675.002 7 131642145.50507      -335.315 7        45.192                                                                    25050676.650 8  98304202.52808      -250.377 8        48.346    25050675.789 8 100868657.53708      -256.884 8        48.982
R18        20.000    24125763.640 6 128784960.70706      1739.924 6        38.718                                                                    24125766.534 6 100166072.88606      1353.248 6        39.492
G30        21.000    20375031.387 8 107071516.96208      -484.900 8        51.011                                    20375031.049 8  83432353.73008      -377.844 8        52.641    20375031.622 7  83432357.73107      -377.853 7        45.484
I06        22.000    37953180.462 7 148936583.15007      -328.156 7        43.772
S28        23.000    40844168.320 5 214637387.25405      -396.013 5        34.609
G14        24.000    22405708.281 7 117742785.08407      2703.324 7        45.394                                    22405709.154 5  91747624.38605      2106.488 5        33.216    22405709.161 7  91747626.38607      2106.437 7        43.771
S23        25.000    38114938.147 7 200295285.29907      -388.731 7        44.412
E08        26.000    27235547.067 6 143123760.78106      2046.927 6        38.898                                                                    27235545.839 6 106878130.25406      1528.542 6        41.456    27235545.665 7 109666253.16707      1568.384 7        42.682
C07        27.000                                                                                                                                    39993786.864 6 208258128.49006       981.501 6        38.003    39993788.330 7 161038404.06107       758.934 7        42.993    39993785.004 6 169226784.38206       797.386 6        38.805
G13        28.000    21847954.404 7 114811775.53107      2312.426 7        45.270                                    21847951.203 5  89463699.47105      1801.891 5        30.634
R09        29.000    22108681.677 7 118059090.05007     -4143.826 7        45.297                                                                    22108682.942 7  91823729.44007     -3222.862 7        42.957
C22        30.000                                                                                                                                    21927955.833 8 114184610.31608     -1894.849 8        51.822                                                                    21927951.300 8  92784328.33008     -1539.882 8        50.162
I01        31.000   345088529.029 6  51060550.91006     -3034.396 6        39.883
E03        32.000    23619103.300 7 124119226.05307       598.185 7        47.791                                                                    23619104.340 8  92686449.08408       446.713 8        50.663    23619104.010 8  95104350.88908       458.363 8        51.536
G05        33.000    21227742.947 7 111552550.51307       848.811 7        47.020                                    21227739.540 7  86924060.08107       661.411 7        47.008    21227740.209 7  86924063.07207       661.377 7        44.242
R24        34.000    24049638.606 7 128604230.88107     -3662.587 7        43.052                                                                    24049638.841 6 100025512.17706     -2848.695 6        36.200
C36        35.000                                                                                                                                    22117950.231 8 115173951.87708     -1536.681 8        49.890                                                                    22117956.408 8  93588287.04208     -1248.812 8        50.213
G11        36.000    24969581.939 6 131216001.03906     -3617.740 6        39.865                                    24969582.035 3 102246217.56103     -2819.011 3        22.667    24969582.742 6 102246217.56806     -2819.225 6        39.267
I09        38.000    39017536.528 7 153113060.81207      -886.029 7        42.425
R08        39.000    19385777.501 8 103809940.09208     -1250.729 8        50.371                                                                    19385777.001 7  80741058.04507      -972.715 7        47.320
E25        40.000    25270556.690 7 132797672.69107      2200.121 7        44.874                                                                    25270561.222 7  99167096.48407      1643.039 7        47.340    25270560.172 7 101754056.25407      1685.921 7        47.590
G27        41.000    24881970.092 6 130755648.86706      -302.039 6        36.730                                    24881972.495 4 101887532.25804      -235.354 4        28.521    24881972.823 5 101887536.24505      -235.325 5        35.090
S44        42.000    40838607.942 6 214608348.66506      -426.173 6        36.159
C09        43.000                                                                                                                                    40126764.346 6 208950521.43106     -1140.071 6        37.698    40126766.929 7 161573764.73607      -881.712 7        42.504    40126763.362 6 169789376.35106      -926.692 6        38.934
C05        44.000                                                                                                                                    39258094.667 6 204427131.25206      -451.211 6        38.874    39258095.434 7 158076022.87307      -348.973 7        42.927    39258096.184 6 166113871.40406      -366.871 6        39.787
C40        45.000                                                                                                                                    40172219.699 6 209187283.66606      1233.108 6        40.257                                                                    40172223.460 6 169981817.03406      1001.736 6        40.522
C21        46.000                                                                                                                                    22493291.939 8 117128459.78508      1207.404 8        50.791                                                                    22493287.263 8  95176437.31908       980.930 8        49.896
R17        47.000    23192194.723 7 124106133.88007     -1060.329 7        44.167                                                                    23192194.620 6  96526998.87706      -824.580 6        41.514
C06        49.000                                                                                                                                    41025754.624 5 213631721.98605     -1318.538 5        35.919    41025760.254 6 165193537.80306     -1019.643 6        39.204    41025757.299 6 173593217.00706     -1071.545 6        37.032
C16        50.000                                                                                                                                    41548211.986 4 216352274.43304     -1252.567 4        27.796    41548223.792 5 167297263.13805      -968.611 5        32.395    41548219.089 4 175803904.85104     -1018.341 4        27.880
S48        51.000    77135678.820 6 405349722.91406      -376.031 6        37.928
C19        52.000                                                                                                                                    26174429.614 6 136297019.91606     -3583.141 6        40.953                                                                    26174433.062 7 110752462.02807     -2911.770 7        42.679
C60        54.000                                                                                                                                    40838610.275 6 212657381.47906      -422.340 6        39.847                                                                    40838602.903 6 172801473.56806      -343.366 6        38.294
C45        55.000                                                                                                                                    22308275.599 8 116165033.62408      1529.254 8        50.533                                                                    22308269.469 8  94393575.94008      1242.472 8        50.011
C11        56.000                                                                                                                                                                                                    27042777.554 3                     -1964.559 3        21.619    27042777.155 3                     -2065.044 3        21.429
C02        57.000                                                                                                                                    40834874.172 5 212637762.47205      -460.459 5        33.389    40834879.737 6 164424950.52806      -356.167 6        39.976    40834880.514 5 172785563.35105      -374.638 5        35.443
I03        58.000   126412435.695 6 420284059.99206       916.501 6        41.857
R07        59.000    22376785.032 7 119784597.42707     -3884.066 7        45.580                                                                    22376790.831 7  93165771.29907     -3020.897 7        43.185
G07        60.000    21795075.521 7 114533888.23107     -2364.573 7        46.997                                    21795073.364 7  89247171.12307     -1842.524 7        45.601    21795072.808 7  89247172.11607     -1842.555 7        42.718
> 2025 01 01 07 00 10.0000000  0 57
G08         1.000    24524248.554 6 128875819.14106      1109.027 6        37.796                                    24524256.599 4 100422763.65804       864.163 4        28.768    24524257.706 5 100422773.68505       864.291 5        35.033
R01         2.000    20666154.524 8 110472418.57208      2576.053 8        48.044                                                                    20666154.507 6  85923057.34406      2003.528 6        40.131
G09         3.000    23851564.265 6 125340706.61206     -3608.924 6        39.471                                    23851570.234 5  97668055.93205     -2812.137 5        35.138    23851570.809 6  97668056.90706     -2812.022 6        37.713
E34         4.000    28446117.586 6 149485268.92906     -3483.376 6        37.161                                                                    28446124.756 6 111628589.09306     -2601.369 6        39.456    28446123.729 6 114540641.91706     -2669.156 6        40.305
S21         5.000    38412275.085 7 201857630.31207      -390.417 7        43.482
E05         6.000    22653152.514 7 119043121.74207     -1764.995 7        46.869                                                                    22653155.325 8  88895854.98708     -1318.006 8        50.005    22653154.775 8  91214870.79008     -1352.426 8        50.717
E15         7.000    26528230.358 6 139406777.72406     -2643.613 6        40.636                                                                    26528233.809 7 104102477.03007     -1974.241 7        44.116    26528233.223 7 106818192.79807     -2025.743 7        44.414
R10         8.000    19499555.116 7 103943584.78607     -1434.748 7        46.192
E31         9.000    27534119.137 6 144692731.62006     -2714.233 6        38.432                                                                    27534123.540 6 108049776.32306     -2026.976 6        41.023    27534122.972 6 110868465.85806     -2079.955 6        41.590
G18        10.000    25338364.779 6 133153999.49906      1215.379 6        37.588                                    25338362.737 3 103756347.38803       947.031 3        22.057    25338362.506 6 103756355.38306       947.008 6        39.207
E09        11.000    28591137.194 6 150247269.35206     -2889.316 6        36.140                                                                    28591152.865 6 112197588.39906     -2157.644 6        41.435    28591150.878 6 115124488.80006     -2213.830 6        41.397
S27        12.000    39075065.594 6 205340733.41506      -416.596 6        36.809
G15        13.000    24981245.717 6 131277333.87206      3315.759 6        38.051                                    24981242.185 4 102294010.16104      2583.702 4        26.287    24981242.855 5 102294002.11605      2583.925 5        32.545
S36        14.000    38181004.747 7 200643012.01807      -391.059 7        44.390
G20        15.000    20881866.294 8 109734926.45508     -1694.604 8        48.344                                    20881863.465 6  85507709.06506     -1320.468 6        38.964
R11        16.000    20402180.854 8 109023070.32208      2779.502 8        51.135                                                                    20402181.974 7  84795719.31307      2161.822 7        47.044
S45        17.000    63362875.479 6 332975453.18506      -435.097 6        36.370
E13        18.000    26850952.604 6 141102725.30106      -227.951 6        39.649                                                                    26850954.450 7 105368907.73807      -170.328 7        43.390    26850953.874 7 108117662.67807      -174.795 7        44.163
E24        19.000    25050995.648 7 131643829.12407      -337.835 7        45.344                                                                    25050997.063 8  98305459.77008      -252.209 8        48.334    25050996.210 8 100869947.58308      -258.863 8        49.009
R18        20.000    24124136.011 6 128776270.57706      1736.381 6        38.853                                                                    24124138.472 6 100159313.90506      1350.526 6        39.129
G30        21.000    20375494.220 8 107073948.54808      -487.377 8        51.104                                    20375493.777 8  83434248.46408      -379.772 8        52.651    20375494.361 7  83434252.45607      -379.720 7        45.457
I06        22.000    37953598.873 7 148938224.86007      -328.228 7        43.585
S28        23.000    40844541.508 5 214639367.35405      -395.787 5        34.752
G14        24.000    22403137.132 7 117729273.37607      2701.749 7        44.990                                    22403137.833 5  91737095.78105      2105.262 5        33.174    22403137.699 7  91737097.78107      2105.263 7        43.321
S23        25.000    38115308.509 7 200297229.60007      -388.642 7        44.504
E08        26.000    27233599.445 6 143113527.57106      2046.644 6        39.429                                                                    27233598.711 6 106870488.56906      1528.427 6        41.487    27233598.338 7 109658412.13007      1568.308 7        42.711
C07        27.000                                                                                                                                    39992844.843 6 208253223.78906       980.914 6        37.864    39992846.355 7 161034611.45207       758.431 7        42.904    39992843.182 6 169222798.90706       796.960 6        38.871
G13        28.000    21845754.816 7 114800217.47107      2311.247 7        44.671                                    21845751.768 5  89454693.17605      1800.975 5        30.672
R09        29.000    22112562.103 7 118079814.52507     -4145.621 7        44.315                                                                    22112564.110 7  91839848.45007     -3224.286 7        42.819
C22        30.000                                                                                                                                    21929776.624 8 114194090.74308     -1896.971 8        52.050                                                                    21929771.900 8  92792031.92908     -1541.446 8        50.286
I01        31.000   345092395.289 6  51075724.31706     -3034.821 6        39.595
E03        32.000    23618534.887 7 124116238.91807       597.034 7        47.689                                                                    23618535.996 8  92684218.42208       445.852 8        50.736    23618535.626 8  95102062.03908       457.494 8        51.464
G05        33.000    21226937.064 7 111548315.89307       845.445 7        46.907                                    21226933.727 7  86920760.36507       658.791 7        46.983    21226934.129 7  86920763.35607       658.814 7        44.188
R24        34.000    24053063.917 7 128622549.58407     -3664.458 7        42.246                                                                    24053064.709 6 100039760.06006     -2850.244 6        36.616
C36        35.000                                                                                                                                    22119427.096 8 115181641.81508     -1538.986 8        49.837                                                                    22119433.179 8  93594535.72508     -1250.501 8        50.301
G11        36.000    24973024.612 6 131234092.88106     -3618.290 6        40.236                                    24973025.180 3 102260315.06303     -2819.427 3        22.476    24973024.864 6 102260315.02406     -2819.344 6        39.222
I09        38.000    39018665.770 7 153117491.51607      -885.961 7        42.326
R08        39.000    19386946.572 8 103816202.59608     -1253.919 8        50.445                                                                    19386946.614 7  80745928.86707      -975.233 7        46.998
E25        40.000    25268463.742 7 132786676.02407      2198.740 7        44.340                                                                    25268468.744 7  99158884.69007      1641.917 7        47.504    25268467.563 7 101745630.24407      1684.822 7        47.553
G27        41.000    24882259.608 6 130757168.61806      -305.422 6        36.745                                    24882261.769 4 101888716.46504      -237.991 4        28.720    24882261.797 5 101888720.44405      -237.713 5        35.071
S44        42.000    40839015.665 6 214610480.82206      -426.382 6        36.522
C09        43.000                                                                                                                                    40127859.291 6 208956223.25906     -1140.147 6        37.705    40127861.966 7 161578173.69707      -881.585 7        42.381    40127858.679 6 169794009.49206      -926.565 6        39.108
C05        44.000                                                                                                                                    39258528.777 6 204429388.89506      -451.426 6        38.688    39258528.846 7 158077768.59607      -348.996 7        42.916    39258529.717 6 166115705.87306      -366.739 6        40.017
C40        45.000                                                                                                                                    40171036.614 6 209181121.06406      1232.340 6        40.334                                                                    40171040.059 6 169976809.40606      1001.381 6        40.646
C21        46.000                                                                                                                                    22492133.606 8 117122428.38208      1205.472 8        50.751                                                                    22492129.003 8  95171536.29208       979.575 8        49.953
R17        47.000    23193188.223 7 124111447.03007     -1064.558 7        45.607                                                                    23193187.308 6  96531131.31006      -827.938 6        41.466
C06        49.000                                                                                                                                    41027022.562 5 213638315.58305     -1318.448 5        35.781    41027026.487 6 165198636.33806     -1019.500 6        39.688    41027023.717 6 173598574.78406     -1071.378 6        37.089
C16        50.000                                                                                                                                    41549414.665 4 216358538.57504     -1252.856 4        28.512    41549426.404 5 167302106.97405      -968.752 5        31.600    41549422.054 4 175808994.89504     -1017.066 4        26.754
S48        51.000    77136042.265 6 405351604.15106      -376.033 6        37.909
C19        52.000                                                                                                                                    26177870.855 6 136314937.95506     -3583.703 6        40.894                                                                    26177874.192 7 110767021.82807     -2911.973 7        42.718
C60        54.000                                                                                                                                    40839016.070 6 212659494.24506      -422.371 6        39.700                                                                    40839008.559 6 172803190.31406      -343.210 6        38.348
C45        55.000                                                                                                                                    22306808.431 8 116157393.90008      1526.974 8        50.280                                                                    22306802.363 8  94387368.01808      1240.847 8        49.978
C11        56.000                                                                                                                                                                                                    27045219.672 3                     -1969.278 3        21.976    27045220.598 3                     -2065.126 3        20.500
C02        57.000                                                                                                                                    40835316.487 5 212640066.01405      -460.154 5        33.413    40835322.409 6 164426731.73106      -356.149 6        39.958    40835323.026 5 172787435.11905      -374.341 5        35.548
I03        58.000   126411268.417 6 420279478.03006       916.553 6        41.907
R07        59.000    22380413.080 7 119804022.57207     -3885.595 7        45.081                                                                    22380419.716 7  93180879.70507     -3022.244 7        43.086
G07        60.000    21797326.296 7 114545715.35207     -2365.991 7        47.327                                    21797323.999 7  89256387.04307     -1843.627 7        45.561    21797324.148 7  89256388.05207     -1843.605 7        42.591
> 2025 01 01 07 00 15.0000000  0 57
G08         1.000    24523194.162 6 128870281.11606      1106.439 6        37.459                                    24523202.445 4 100418448.36504       862.155 4        28.303    24523202.996 5 100418458.37205       862.373 5        34.733
R01         2.000    20663745.998 7 110459543.05307      2574.354 7        47.983                                                                    20663746.514 6  85913043.03006      2002.219 6        40.298
G09         3.000    23854998.413 6 125358753.31506     -3609.626 6        39.297                                    23855004.534 5  97682118.21705     -2812.677 5        35.195    23855005.370 6  97682119.17906     -2812.626 6        38.237
E34         4.000    28449432.025 6 149502686.06606     -3483.426 6        37.161                                                                    28449439.177 6 111641595.34706     -2601.210 6        39.261    28449438.263 6 114553987.45806     -2669.033 6        40.186
S21         5.000    38412648.604 7 201859584.08707      -390.720 7        43.422
E05         6.000    22654832.567 7 119051949.86407     -1765.969 7        47.317                                                                    22654835.269 8  88902447.39008     -1318.789 8        50.084    22654834.665 8  91221635.17208     -1353.172 8        50.709
E15         7.000    26530746.916 6 139420001.06006     -2645.373 6        40.684                                                                    26530750.046 7 104112351.56207     -1975.409 7        44.138    26530749.511 7 106828324.93907     -2027.055 7        44.465
R10         8.000    19500902.944 7 103950769.97407     -1439.027 7        46.091
E31         9.000    27536702.731 6 144706308.17706     -2716.051 6        38.372                                                                    27536707.056 6 108059914.65306     -2028.197 6        41.182    27536706.525 6 110878868.64906     -2081.027 6        41.268
G18        10.000    25337210.145 6 133147930.46606      1212.577 6        38.553                                    25337207.994 3 103751618.28203       944.867 3        21.810    25337208.087 6 103751626.28506       944.783 6        38.991
E09        11.000    28593886.668 6 150261717.27806     -2889.446 6        36.420                                                                    28593902.296 6 112208377.38706     -2157.766 6        41.518    28593900.327 6 115135559.25406     -2214.243 6        41.573
S27        12.000    39075460.305 6 205342817.47106      -416.681 6        36.624
G15        13.000    24978090.864 5 131260754.64605      3316.169 5        35.514                                    24978087.062 4 102281091.28204      2584.039 4        26.192    24978088.314 5 102281083.31905      2583.689 5        33.455
S36        14.000    38181375.449 7 200644967.55107      -391.082 7        44.295
G20        15.000    20883480.526 8 109743408.34208     -1697.906 8        48.343                                    20883477.538 6  85514318.31306     -1323.040 6        39.006
R11        16.000    20399581.972 8 109009181.43608      2776.306 8        51.170                                                                    20399582.859 7  84784916.84507      2159.425 7        47.411
S45        17.000    63363245.533 6 332977629.29206      -435.165 6        36.272
E13        18.000    26851171.096 6 141103872.67706      -230.703 6        39.826                                                                    26851172.902 7 105369764.53007      -172.316 7        43.583    26851172.313 7 108118541.82207      -176.768 7        44.132
E24        19.000    25051317.955 7 131645525.17907      -340.391 7        45.675                                                                    25051319.818 8  98306726.30208      -254.172 8        48.510    25051319.000 8 100871247.15708      -260.825 8        49.041
R18        20.000    24122510.214 6 128767597.70006      1733.029 6        38.907                                                                    24122513.402 6 100152568.36706      1347.841 6        39.523
G30        21.000    20375959.195 8 107076391.61708      -489.670 8        51.020                                    20375958.683 8  83436152.14508      -381.560 8        52.708    20375959.019 7  83436156.14507      -381.560 7        45.547
I06        22.000    37954017.402 7 148939866.78707      -328.371 7        43.611
S28        23.000    40844924.158 5 214641347.25805      -396.114 5        35.033
G14        24.000    22400567.537 7 117715769.45807      2700.105 7        44.900                                    22400567.973 5  91726573.24905      2103.974 5        33.168    22400568.207 7  91726575.24507      2103.971 7        43.835
S23        25.000    38115677.454 7 200299173.85207      -388.797 7        44.364
E08        26.000    27231651.843 6 143103294.97606      2046.560 6        39.504                                                                    27231651.615 6 106862847.34706      1528.148 6        41.640    27231651.165 7 109650571.55507      1568.148 7        42.766
C07        27.000                                                                                                                                    39991903.296 6 208248322.22806       980.037 6        37.788    39991904.965 7 161030821.27507       757.856 7        42.887    39991901.875 6 169218816.00906       796.418 6        38.976
G13        28.000    21843556.524 7 114788664.96407      2310.026 7        45.242                                    21843553.398 5  89445691.21805      1800.025 5        30.755
R09        29.000    22116444.612 7 118100547.55307     -4147.367 7        45.246                                                                    22116447.332 7  91855974.11907     -3225.661 7        43.268
C22        30.000                                                                                                                                    21931599.325 8 114203581.70508     -1899.191 8        52.201                                                                    21931594.567 8  92799744.10308     -1543.236 8        50.327
I01        31.000   345096262.756 6  51090898.22006     -3034.717 6        39.580
E03        32.000    23617967.361 8 124113256.87608       596.052 8        48.148                                                                    23617968.542 8  92681991.56508       445.035 8        50.872    23617968.200 8  95099777.09208       456.676 8        51.501
G05        33.000    21226134.445 7 111544097.60607       842.097 7        47.297                                    21226131.017 7  86917473.37607       656.184 7        46.999    21226131.462 7  86917476.37507       656.250 7        44.445
R24        34.000    24056492.041 7 128640876.92407     -3666.209 7        42.633                                                                    24056492.271 6 100054014.61706     -2851.504 6        36.915
C36        35.000                                                                                                                                    22120906.081 8 115189343.38208     -1541.346 8        49.936                                                                    22120912.176 8  93600793.87208     -1252.496 8        50.307
G11        36.000    24976467.923 6 131252185.86106     -3618.483 6        40.267                                    24976468.294 3 102274413.44403     -2819.581 3        22.190    24976467.406 6 102274413.41906     -2819.562 6        38.652
I09        38.000    39019795.189 7 153121922.74007      -886.185 7        42.444
R08        39.000    19388119.071 8 103822480.44208     -1257.041 8        50.290                                                                    19388118.597 7  80750811.62207      -977.721 7        47.334
E25        40.000    25266372.668 7 132775686.27307      2197.319 7        44.707                                                                    25266377.539 7  99150678.05607      1640.873 7        47.719    25266376.379 7 101737209.52807      1683.669 7        47.628
G27        41.000    24882551.549 6 130758704.57506      -308.722 6        36.302                                    24882554.075 4 101889913.29604      -240.561 4        28.559    24882554.627 5 101889917.29105      -240.770 5        34.681
S44        42.000    40839415.039 6 214612612.86806      -426.319 6        36.378
C09        43.000                                                                                                                                    40128953.899 6 208961924.54906     -1140.123 6        37.864    40128956.556 7 161582582.26807      -881.508 7        42.362    40128953.742 6 169798642.24006      -926.572 6        38.994
C05        44.000                                                                                                                                    39258961.844 6 204431646.56106      -451.500 6        38.766    39258962.495 7 158079514.34507      -349.105 7        42.880    39258963.277 6 166117540.40906      -366.945 6        39.997
C40        45.000                                                                                                                                    40169853.960 6 209174962.18806      1231.585 6        40.789                                                                    40169857.324 6 169971804.84306      1000.634 6        40.589
C21        46.000                                                                                                                                    22490976.932 8 117116406.08808      1203.629 8        50.922                                                                    22490972.507 8  95166642.68008       977.983 8        50.056
R17        47.000    23194184.806 7 124116781.21307     -1068.988 7        45.242                                                                    23194184.695 7  96535280.10507      -831.319 7        42.172
C06        49.000                                                                                                                                    41028287.673 5 213644908.33605     -1318.308 5        35.967    41028292.017 6 165203734.23406     -1019.497 6        39.571    41028289.553 6 173603931.89506     -1071.236 6        37.202
C16        50.000                                                                                                                                    41550617.384 4 216364801.79104     -1252.730 4        26.180    41550630.177 5 167306950.04205      -968.292 5        30.294    41550624.471 4 175814084.30904     -1017.428 4        26.431
S48        51.000    77136408.455 6 405353485.35006      -376.101 6        38.036
C19        52.000                                                                                                                                    26181312.540 6 136332859.08906     -3584.467 6        41.066                                                                    26181316.056 7 110781584.14607     -2912.595 7        42.988
C60        54.000                                                                                                                                    40839421.713 6 212661606.92106      -422.481 6        39.979                                                                    40839414.350 6 172804907.00306      -343.403 6        38.294
C45        55.000                                                                                                                                    22305343.265 8 116149765.05808      1524.763 8        50.396                                                                    22305337.343 8  94381168.96208      1238.947 8        50.063
C11        56.000                                                                                                                                                                                                    27047666.415 3                     -1972.147 3        20.167
C02        57.000                                                                                                                                    40835758.373 5 212642369.57205      -460.525 5        33.659    40835764.867 6 164428512.96106      -356.334 6        39.835    40835765.395 5 172789306.93505      -374.644 5        35.638
I03        58.000   126410100.639 6 420274896.02206       916.489 6        41.881
R07        59.000    22384044.132 7 119823455.29807     -3887.287 7        45.533                                                                    22384050.046 7  93195993.96807     -3023.443 7        43.304
G07        60.000    21799578.258 7 114557549.01707     -2367.307 7        46.934                                    21799575.881 7  89265608.06507     -1844.649 7        45.561    21799576.280 7  89265609.06407     -1844.670 7        43.357
> 2025 01 01 07 00 20.0000000  0 56
G08         1.000    24522142.875 6 128864755.45706      1103.591 6        37.342                                    24522150.604 4 100414142.71004       859.926 4        28.114    24522152.390 5 100414152.71505       860.032 5        35.114
R01         2.000    20661338.819 8 110446675.35108      2572.522 8        48.164                                                                    20661340.178 6  85903034.82006      2001.007 6        40.694
G09         3.000    23858433.054 6 125376803.33606     -3610.625 6        39.411                                    23858439.483 5  97696183.09105     -2813.460 5        35.276    23858439.826 6  97696184.06306     -2813.338 6        38.282
E34         4.000    28452745.973 6 149520100.88206     -3482.921 6        37.036                                                                    28452753.106 6 111654599.85106     -2600.873 6        39.288    28452752.306 6 114567331.22406     -2668.728 6        40.112
S21         5.000    38413019.064 7 201861537.59707      -390.928 7        43.494
E05         6.000    22656513.271 7 119060782.90607     -1767.317 7        47.025                                                                    22656516.105 8  88909043.46708     -1319.729 8        50.070    22656515.546 8  91228403.32008     -1354.165 8        50.730
E15         7.000    26533264.698 6 139433231.94906     -2647.094 6        40.756                                                                    26533267.886 7 104122231.76407     -1976.677 7        44.072    26533267.376 7 106838462.88407     -2028.337 7        44.379
R10         8.000    19502254.625 7 103957975.81007     -1443.467 7        46.066
E31         9.000    27539287.507 6 144719891.88206     -2717.671 6        38.252                                                                    27539292.025 6 108070058.28606     -2029.457 6        41.042    27539291.376 6 110889276.91006     -2082.274 6        41.199
G18        10.000    25336057.851 6 133141875.14006      1209.629 6        38.721                                    25336055.555 3 103746899.85003       942.544 3        21.952    25336055.478 6 103746907.85506       942.485 6        38.802
E09        11.000    28596636.670 6 150276166.18406     -2890.234 6        36.480                                                                    28596651.969 6 112219167.06806     -2158.124 6        41.275    28596649.997 6 115146630.41106     -2214.412 6        41.483
S27        12.000    39075852.689 6 205344900.54906      -416.938 6        36.624
G15        13.000    24974935.177 6 131244175.40306      3315.595 6        38.087                                    24974932.108 4 102268172.40804      2583.584 4        25.699    24974933.138 5 102268164.37305      2583.599 5        33.329
S36        14.000    38181745.078 7 200646923.24607      -391.442 7        44.340
G20        15.000    20885097.410 8 109751905.88908     -1701.260 8        48.352                                    20885094.579 6  85520939.76306     -1325.656 6        38.958
R11        16.000    20396985.972 8 108995307.50408      2773.080 8        50.975                                                                    20396986.708 7  84774126.01307      2156.762 7        47.738
S45        17.000    63363619.387 6 332978205.20616      -435.289 6        36.491
E13        18.000    26851392.059 6 141105032.58906      -233.569 6        39.532                                                                    26851393.631 7 105370630.67107      -174.233 7        43.437    26851392.981 7 108119430.57407      -178.931 7        43.949
E24        19.000    25051642.926 7 131647233.44907      -343.146 7        45.427                                                                    25051644.836 8  98308001.94508      -256.150 8        48.607    25051644.100 8 100872556.07708      -262.913 8        49.008
R18        20.000    24120889.100 6 128758941.93106      1729.287 6        38.760                                                                    24120891.867 6 100145836.11206      1344.871 6        39.441
G30        21.000    20376426.105 8 107078845.94908      -492.164 8        50.871                                    20376425.726 8  83438064.60208      -383.502 8        52.661    20376426.264 7  83438068.60107      -383.499 7        45.509
I06        22.000    37954436.155 7 148941508.74507      -328.581 7        43.587
S28        23.000    40845298.706 5 214643326.90805      -396.026 5        35.010
G14        24.000    22397999.237 7 117702273.10707      2698.375 7        45.323                                    22397999.670 5  91716056.61205      2102.630 5        33.353    22398000.104 7  91716058.61807      2102.531 7        44.247
S23        25.000    38116047.704 7 200301117.80807      -388.952 7        44.527
E08        26.000    27229704.930 6 143093062.77906      2046.265 6        38.940                                                                    27229704.453 6 106855206.38906      1528.026 6        41.628    27229703.946 7 109642731.28907      1567.876 7        42.614
C07        27.000                                                                                                                                    39990962.440 6 208243423.58306       979.271 6        37.701    39990964.208 7 161027033.33407       757.202 7        42.770    39990961.079 6 169214835.46206       795.743 6        38.973
G13        28.000    21841359.613 7 114777117.73007      2308.722 7        44.942                                    21841356.047 5  89436693.36505      1799.007 5        30.823
R09        29.000    22120329.403 7 118121288.99907     -4149.414 7        45.300                                                                    22120330.973 7  91872106.32907     -3227.220 7        43.627
C22        30.000                                                                                                                                    21933423.904 8 114213082.96108     -1901.457 8        52.211                                                                    21933419.211 8  92807464.64008     -1545.062 8        50.289
I01        31.000   345100129.385 6  51106072.47206     -3034.982 6        39.817
E03        32.000    23617400.691 8 124110279.71708       594.697 8        48.085                                                                    23617401.978 8  92679768.34308       444.179 8        50.827    23617401.648 8  95097495.87608       455.732 8        51.510
G05        33.000    21225334.784 7 111539895.42307       838.613 7        47.323                                    21225331.388 7  86914198.93607       653.468 7        47.027    21225331.665 7  86914201.93507       653.508 7        44.339
R24        34.000    24059921.315 7 128659212.72807     -3668.269 7        43.012                                                                    24059920.509 6 100068275.77206     -2852.948 6        36.454
C36        35.000                                                                                                                                    22122387.020 8 115197056.32308     -1543.884 8        50.087                                                                    22122393.333 8  93607061.25708     -1254.478 8        50.244
G11        36.000    24979911.051 6 131270279.80306     -3619.116 6        39.985                                    24979911.188 3 102288512.57503     -2820.084 3        21.952    24979910.992 6 102288512.54006     -2819.961 6        37.837
I09        38.000    39020924.610 7 153126354.27807      -886.454 7        42.624
R08        39.000    19389294.490 8 103828773.40808     -1260.286 8        50.693                                                                    19389293.861 7  80755706.13307      -980.238 7        46.746
E25        40.000    25264282.905 7 132764703.22907      2195.760 7        44.963                                                                    25264287.591 7  99142476.42007      1639.731 7        47.787    25264286.368 7 101728793.94007      1682.492 7        47.688
G27        41.000    24882846.782 6 130760256.53106      -311.974 6        36.503                                    24882849.340 4 101891122.59104      -243.095 4        28.275    24882849.525 5 101891126.59305      -243.210 5        34.757
S44        42.000    40839828.847 6 214614744.62706      -426.740 6        36.382
C09        43.000                                                                                                                                    40130048.624 6 208967625.13506     -1140.347 6        37.701    40130051.685 7 161586990.28207      -881.657 7        42.360    40130048.351 6 169803274.38906      -926.601 6        38.985
C05        44.000                                                                                                                                    39259395.498 6 204433904.05306      -451.649 6        38.994    39259395.889 7 158081259.95407      -349.265 7        42.828    39259396.787 6 166119374.79506      -366.999 6        40.024
C40        45.000                                                                                                                                    40168671.757 6 209168806.83706      1230.564 6        40.896                                                                    40168675.147 6 169966803.11106       999.878 6        40.551
C21        46.000                                                                                                                                    22489822.206 8 117110392.66208      1201.663 8        50.869                                                                    22489817.755 8  95161756.26808       976.506 8        49.952
R17        47.000    23195184.008 7 124122136.00107     -1073.229 7        44.625                                                                    23195185.170 6  96539444.98706      -834.818 6        41.745
C06        49.000                                                                                                                                    41029552.462 5 213651500.07805     -1318.315 5        35.871    41029557.962 6 165208831.31506     -1019.591 6        39.354    41029555.562 6 173609288.16706     -1071.334 6        37.202
C16        50.000                                                                                                                                    41551819.016 4 216371063.88604     -1252.196 4        26.347    41551832.056 5 167311792.25905      -968.749 5        30.400    41551827.557 4 175819172.73804     -1017.891 4        26.108
S48        51.000    77136772.244 6 405355366.54906      -376.591 6        38.075
C19        52.000                                                                                                                                    26184754.506 6 136350782.99606     -3585.328 6        41.159                                                                    26184758.241 7 110796148.73207     -2913.137 7        43.255
C60        54.000                                                                                                                                    40839827.433 6 212663719.27906      -422.647 6        40.172                                                                    40839820.083 6 172806623.44106      -343.352 6        38.405
C45        55.000                                                                                                                                    22303880.715 8 116142146.88408      1522.372 8        50.656                                                                    22303874.346 8  94374978.56808      1237.062 8        50.005
C02        57.000                                                                                                                                    40836200.647 5 212644672.88605      -460.873 5        34.000    40836207.156 6 164430293.96506      -356.231 6        39.811    40836207.723 5 172791178.49405      -374.389 5        35.667
I03        58.000   126408932.896 7 420270313.82107       916.310 7        42.000
R07        59.000    22387676.475 7 119842895.38407     -3888.868 7        45.824                                                                    22387681.530 7  93211113.96307     -3024.742 7        42.863
G07        60.000    21801831.271 7 114569388.99907     -2368.767 7        47.008                                    21801828.971 7  89274834.00607     -1845.788 7        45.583    21801829.632 7  89274835.00207     -1845.798 7        43.517
> 2025 01 01 07 00 25.0000000  0 56
G08         1.000    24521093.593 6 128859242.63806      1101.347 6        37.161                                    24521101.413 4 100409847.05004       858.181 4        28.190    24521102.518 5 100409857.05505       858.323 5        35.681
R01         2.000    20658932.683 7 110433816.15007      2571.032 7        47.880                                                                    20658934.537 6  85893033.20306      1999.673 6        40.608
G09         3.000    23861868.845 6 125394857.10906     -3611.138 6        39.477                                    23861875.146 5  97710250.88905     -2813.860 5        35.267    23861876.110 6  97710251.86706     -2813.826 6        38.456
E34         4.000    28456059.699 6 149537513.85106     -3482.333 6        37.059                                                                    28456066.644 6 111667602.96706     -2600.392 6        39.051    28456065.814 6 114580673.56506     -2668.218 6        40.219
S21         5.000    38413391.215 7 201863491.25807      -390.707 7        43.295
E05         6.000    22658195.215 7 119069621.32107     -1768.090 7        47.054                                                                    22658198.041 8  88915643.55808     -1320.364 8        50.113    22658197.491 8  91235175.58908     -1354.761 8        50.823
E15         7.000    26535784.049 6 139446470.90706     -2648.500 6        41.189                                                                    26535787.251 7 104132117.96307     -1977.760 7        44.245    26535786.722 7 106848606.98307     -2029.358 7        44.522
R10         8.000    19503610.012 7 103965202.91507     -1447.459 7        46.269
E31         9.000    27541873.695 6 144733483.13206     -2718.885 6        38.141                                                                    27541878.441 6 108080207.60206     -2030.392 6        41.232    27541877.577 6 110899690.98306     -2083.372 6        41.106
G18        10.000    25334907.741 6 133135834.00806      1206.898 6        38.297                                    25334905.722 3 103742192.49003       940.430 3        21.333    25334905.833 6 103742200.50206       940.426 6        38.036
E09        11.000    28599386.310 6 150290616.45806     -2890.105 6        36.968                                                                    28599401.869 6 112229957.80006     -2158.285 6        41.299    28599399.769 6 115157702.64506     -2214.549 6        41.564
S27        12.000    39076250.521 6 205346984.07106      -416.755 6        36.703
G15        13.000    24971781.277 6 131227596.27406      3315.800 6        36.008                                    24971777.155 4 102255253.60904      2583.748 4        25.429    24971778.039 5 102255245.64905      2583.703 5        32.976
S36        14.000    38182120.676 7 200648879.78807      -391.202 7        44.194
G20        15.000    20886717.366 8 109760419.50408     -1704.258 8        48.080                                    20886714.706 6  85527573.73606     -1327.988 6        38.874
R11        16.000    20394392.227 8 108981449.07508      2770.229 8        51.161                                                                    20394393.205 7  84763347.23107      2154.728 7        47.577
S45        17.000    63363987.026 6 332980381.25206      -435.284 6        36.295
E13        18.000    26851615.620 6 141106205.47206      -235.734 6        39.483                                                                    26851616.718 7 105371506.53807      -176.151 7        43.534    26851616.144 7 108120329.27107      -180.575 7        44.208
E24        19.000    25051970.777 7 131648954.36907      -345.436 7        45.652                                                                    25051972.288 8  98309287.04108      -257.928 8        48.537    25051971.617 8 100873874.69508      -264.620 8        49.137
R18        20.000    24119270.735 6 128750303.69406      1725.913 6        38.631                                                                    24119273.456 6 100139117.49006      1342.334 6        39.294
G30        21.000    20376895.425 8 107081311.99508      -494.348 8        51.058                                    20376895.009 8  83439986.18708      -385.202 8        52.620    20376895.621 7  83439990.18707      -385.235 7        45.484
I06        22.000    37954854.076 7 148943151.09507      -328.495 7        43.467
S28        23.000    40845674.027 5 214645306.98605      -395.966 5        34.629
G14        24.000    22395432.392 7 117688784.76807      2696.905 7        45.314                                    22395433.021 5  91705546.22205      2101.486 5        33.437    22395433.047 7  91705548.21907      2101.476 7        44.128
S23        25.000    38116417.301 7 200303062.07307      -388.760 7        44.388
E08        26.000    27227758.103 6 143082831.44206      2046.301 6        39.006                                                                    27227757.538 6 106847566.08106      1528.137 6        41.678    27227756.982 7 109634891.67607      1567.944 7        42.845
C07        27.000                                                                                                                                    39990021.887 6 208238528.25906       978.750 6        37.758    39990024.168 7 161023247.96607       756.844 7        42.961    39990020.946 6 169210857.59106       795.575 6        38.784
G13        28.000    21839163.286 7 114765576.27907      2307.730 7        44.680                                    21839159.720 5  89427700.01605      1798.235 5        30.574
R09        29.000    22124214.855 7 118142039.34707     -4150.781 7        44.429                                                                    22124216.645 7  91888245.46007     -3228.343 7        43.627
C22        30.000                                                                                                                                    21935250.520 8 114222594.95408     -1903.425 8        52.328                                                                    21935245.903 8  92815193.87508     -1546.545 8        50.107
I01        31.000   345103996.480 6  51121247.46306     -3035.020 6        40.029
E03        32.000    23616835.433 8 124107307.88508       593.910 8        48.138                                                                    23616836.457 8  92677549.11008       443.537 8        50.876    23616836.112 8  95095218.75308       455.061 8        51.580
G05        33.000    21224538.179 7 111535709.81007       835.489 7        47.347                                    21224534.903 7  86910937.40907       651.031 7        46.961    21224535.116 7  86910940.40607       651.108 7        44.427
R24        34.000    24063351.666 6 128677557.39506     -3669.770 6        41.540                                                                    24063351.420 6 100082543.83006     -2854.381 6        36.658
C36        35.000                                                                                                                                    22123870.492 8 115204781.07508     -1546.042 8        50.305                                                                    22123876.776 8  93613338.22708     -1256.140 8        50.100
G11        36.000    24983354.434 6 131288375.11306     -3619.195 6        39.327                                    24983354.659 3 102302612.76603     -2820.146 3        21.810    24983354.592 6 102302612.75606     -2820.094 6        37.297
I09        38.000    39022054.046 7 153130786.50307      -886.493 7        42.698
R08        39.000    19390472.314 8 103835081.99908     -1263.238 8        50.693                                                                    19390471.988 7  80760612.79807      -982.505 7        47.007
E25        40.000    25262194.260 7 132753727.33407      2194.553 7        44.913                                                                    25262198.858 7  99134280.13607      1638.763 7        47.756    25262197.665 7 101720383.83907      1681.490 7        47.717
G27        41.000    24883145.880 6 130761824.92006      -315.130 6        36.665                                    24883147.660 4 101892344.71904      -245.566 4        28.360    24883147.985 5 101892348.71705      -245.731 5        34.562
S44        42.000    40840229.800 6 214616876.49606      -426.564 6        36.336
C09        43.000                                                                                                                                    40131143.273 6 208973325.40806     -1140.126 6        37.607    40131146.297 7 161591398.05407      -881.499 7        42.480    40131142.963 6 169807906.28006      -926.072 6        39.000
C05        44.000                                                                                                                                    39259828.811 6 204436161.81506      -451.415 6        39.144    39259829.623 7 158083005.77907      -349.168 7        42.988    39259830.463 6 166121209.36806      -366.714 6        39.778
C40        45.000                                                                                                                                    40167490.517 6 209162655.42606      1230.039 6        41.120                                                                    40167493.892 6 169961804.57106       999.633 6        40.310
C21        46.000                                                                                                                                    22488669.162 8 117104388.57908      1199.911 8        50.961                                                                    22488664.637 8  95156877.42708       975.236 8        49.829
R17        47.000    23196188.628 7 124127512.08707     -1077.280 7        44.117                                                                    23196189.841 6  96543626.35506      -837.825 6        41.137
C06        49.000                                                                                                                                    41030818.973 5 213658091.20505     -1318.139 5        35.867    41030823.191 6 165213927.95406     -1019.347 6        39.060    41030821.460 6 173614643.93706     -1070.601 6        36.809
C16        50.000                                                                                                                                    41553021.148 4 216377325.27404     -1252.196 4        26.168    41553033.417 4 167316633.88904      -968.147 4        29.554    41553029.435 4 175824260.56004     -1017.440 4        25.308
S48        51.000    77137137.490 6 405357248.16606      -376.316 6        38.087
C19        52.000                                                                                                                                    26188197.120 6 136368710.18206     -3585.694 6        41.406                                                                    26188201.095 7 110810715.95807     -2913.576 7        43.154
C60        54.000                                                                                                                                    40840233.085 6 212665831.77706      -422.607 6        40.160                                                                    40840225.869 6 172808339.94706      -343.013 6        38.246
C45        55.000                                                                                                                                    22302419.884 8 116134539.83008      1520.338 8        50.803                                                                    22302413.488 8  94368797.18708      1235.632 8        49.883
C02        57.000                                                                                                                                    40836643.423 5 212646976.37005      -460.643 5        33.760    40836649.725 6 164432075.11306      -356.064 6        39.943    40836650.007 5 172793050.21005      -374.260 5        35.438
I03        58.000   126407765.787 6 420265731.74406       916.393 6        41.921
R07        59.000    22391308.962 7 119862343.33607     -3890.331 7        45.484                                                                    22391314.401 7  93226240.07707     -3025.777 7        42.612
G07        60.000    21804085.731 7 114581235.76707     -2369.953 7        47.004                                    21804083.371 7  89284065.23607     -1846.710 7        45.514    21804083.376 7  89284066.22507     -1846.644 7        43.238
> 2025 01 01 07 00 30.0000000  0 56
G08         1.000    24520047.052 6 128853742.00906      1099.064 6        36.922                                    24520054.709 4 100405560.89304       856.406 4        28.332    24520055.611 5 100405570.93105       856.324 5        35.805
R01         2.000    20656528.641 7 110420964.60707      2569.663 7        47.823                                                                    20656529.941 6  85883037.58306      1998.540 6        40.729
G09         3.000    23865304.692 6 125412914.00306     -3611.614 6        39.339                                    23865311.472 5  97724321.12205     -2814.232 5        35.295    23865311.875 6  97724322.10306     -2814.304 6        38.904
E34         4.000    28459372.786 6 149554924.31506     -3481.819 6        36.866                                                                    28459379.964 6 111680604.23006     -2600.065 6        39.153    28459379.000 6 114594013.97406     -2667.782 6        40.276
S21         5.000    38413761.135 7 201865444.48107      -390.515 7        43.141
E05         6.000    22659877.746 7 119078464.46107     -1769.008 7        46.975                                                                    22659880.802 8  88922247.17108     -1320.997 8        50.066    22659880.297 8  91241951.48308     -1355.539 8        50.913
E15         7.000    26538304.443 6 139459717.22906     -2649.880 6        41.187                                                                    26538308.126 7 104142009.66707     -1978.837 7        44.126    26538307.380 7 106858756.73107     -2030.440 7        44.581
R10         8.000    19504969.786 7 103972450.49607     -1451.439 7        46.105
E31         9.000    27544461.514 6 144747081.32706     -2720.107 6        37.690                                                                    27544466.022 6 108090362.07506     -2031.470 6        41.194    27544465.360 6 110910110.37106     -2084.437 6        41.178
G18        10.000    25333760.505 6 133129806.39206      1204.240 6        39.195                                    25333758.661 3 103737495.67703       938.366 3        22.210    25333758.931 6 103737503.68406       938.292 6        39.000
E09        11.000    28602136.379 6 150305067.47206     -2890.262 6        37.312                                                                    28602151.821 6 112240749.08106     -2158.281 6        41.046    28602149.814 6 115168775.44206     -2214.555 6        41.566
S27        12.000    39076645.978 6 205349068.23206      -416.714 6        36.284
G15        13.000    24968626.175 6 131211016.85106      3316.001 6        37.032                                    24968622.215 4 102242334.57604      2583.907 4        25.925    24968623.077 5 102242326.54205      2584.005 5        32.437
S36        14.000    38182493.677 7 200650835.80307      -391.162 7        44.033
G20        15.000    20888340.472 8 109768948.57008     -1707.210 8        48.229                                    20888337.740 6  85534219.74406     -1330.292 6        38.976
R11        16.000    20391801.410 8 108967605.44108      2767.391 8        51.207                                                                    20391802.496 7  84752579.95507      2152.412 7        47.680
S45        17.000    63364357.916 5 332982556.85505      -435.135 5        35.967
E13        18.000    26851841.346 6 141107390.69506      -238.221 6        39.465                                                                    26851842.215 7 105372391.58607      -177.743 7        43.431    26851841.616 7 108121237.41707      -182.473 7        44.173
E24        19.000    25052300.444 7 131650687.29007      -347.638 7        45.648                                                                    25052302.044 8  98310581.10508      -259.688 8        48.545    25052301.417 8 100875202.51708      -266.428 8        49.184
R18        20.000    24117656.771 6 128741682.32506      1722.598 6        39.291                                                                    24117657.381 6 100132412.00006      1339.827 6        38.273
G30        21.000    20377367.031 8 107083789.08608      -496.385 8        50.963                                    20377366.376 8  83441916.38008      -386.792 8        52.710    20377367.059 7  83441920.38107      -386.871 7        45.696
I06        22.000    37955272.789 7 148944793.30507      -328.423 7        43.594
S28        23.000    40846051.817 5 214647287.12305      -395.966 5        34.567
G14        24.000    22392867.103 7 117675303.80807      2695.540 7        45.369                                    22392867.777 5  91695041.58205      2100.421 5        33.629    22392867.822 7  91695043.58407      2100.392 7        44.403
S23        25.000    38116787.923 7 200305006.07507      -388.599 7        44.257
E08        26.000    27225811.680 6 143072600.26106      2046.450 6        39.718                                                                    27225810.554 6 106839925.91906      1528.011 6        41.692    27225810.055 7 109627052.19707      1567.926 7        42.957
C07        27.000                                                                                                                                    39989082.313 6 208233635.59706       978.489 6        38.057    39989084.495 7 161019464.66707       756.519 7        43.109    39989081.243 6 169206881.92906       795.054 6        38.913
G13        28.000    21836967.833 7 114754039.95407      2306.808 7        44.310                                    21836964.467 5  89418710.66305      1797.516 5        30.808
R09        29.000    22128101.299 7 118162797.85307     -4152.405 7        44.439                                                                    22128104.129 7  91904390.96107     -3229.640 7        44.078
C22        30.000                                                                                                                                    21937079.239 8 114232117.03708     -1905.306 8        52.222                                                                    21937074.575 8  92822931.34408     -1548.170 8        50.309
I01        31.000   345107863.466 6  51136422.66206     -3035.005 6        40.234
E03        32.000    23616270.930 8 124104340.73808       593.068 8        48.165                                                                    23616271.818 8  92675333.37008       442.853 8        50.825    23616271.520 8  95092945.21108       454.392 8        51.672
G05        33.000    21223744.722 7 111531540.12807       832.453 7        47.439                                    21223741.454 7  86907688.29707       648.669 7        47.123    21223741.912 7  86907691.29607       648.699 7        44.460
R24        34.000    24066782.724 7 128695910.29707     -3671.241 7        42.161                                                                    24066783.719 6 100096818.31106     -2855.356 6        36.518
C36        35.000                                                                                                                                    22125356.086 8 115212517.00108     -1548.162 8        50.362                                                                    22125362.461 8  93619624.30508     -1257.938 8        50.241
G11        36.000    24986798.255 6 131306471.10806     -3619.159 6        39.724                                    24986798.332 3 102316713.49903     -2820.114 3        21.929    24986798.591 6 102316713.47006     -2820.116 6        37.951
I09        38.000    39023183.513 7 153135218.89607      -886.432 7        42.677
R08        39.000    19391652.847 8 103841405.51808     -1266.121 8        50.730                                                                    19391653.294 7  80765531.07307      -984.742 7        47.117
E25        40.000    25260106.435 7 132742757.96507      2193.335 7        45.236                                                                    25260111.326 7  99126088.71507      1637.885 7        47.635    25260110.131 7 101711978.73007      1680.607 7        47.753
G27        41.000    24883447.374 6 130763409.10906      -318.424 6        36.605                                    24883449.016 4 101893579.15704      -248.117 4        28.673    24883449.841 5 101893583.14805      -247.988 5        35.014
S44        42.000    40840635.126 6 214619007.83306      -426.135 6        36.026
C09        43.000                                                                                                                                    40132237.613 6 208979024.73706     -1139.785 6        37.297    40132240.840 7 161595805.11607      -881.304 7        42.595    40132237.647 6 169812537.44606      -926.037 6        39.096
C05        44.000                                                                                                                                    39260263.064 6 204438419.21306      -451.371 6        39.255    39260263.231 7 158084751.30707      -349.013 7        42.999    39260264.085 6 166123043.67106      -366.560 6        40.069
C40        45.000                                                                                                                                    40166309.770 6 209156507.32706      1229.347 6        41.254                                                                    40166313.157 6 169956808.75106       999.056 6        40.555
C21        46.000                                                                                                                                    22487518.008 8 117098393.17508      1198.343 8        50.935                                                                    22487513.310 8  95152005.67608       973.801 8        50.001
R17        47.000    23197198.090 7 124132908.69107     -1081.275 7        44.527                                                                    23197198.317 6  96547823.72206      -840.962 6        41.485
C06        49.000                                                                                                                                    41032084.177 5 213664681.10005     -1317.730 5        35.976    41032089.263 6 165219023.62606     -1019.082 6        38.862    41032087.117 6 173619998.74906     -1070.829 6        37.013
C16        50.000                                                                                                                                    41554224.794 4 216383585.30004     -1251.691 4        26.132    41554236.244 5 167321474.50005      -967.883 5        30.030    41554230.902 4                     -1017.294 4        25.429
S48        51.000    77137503.381 6 405359129.20706      -376.171 6        37.815
C19        52.000                                                                                                                                    26191640.466 6 136386639.95006     -3586.023 6        41.642                                                                    26191644.294 7 110825285.30607     -2913.924 7        43.410
C60        54.000                                                                                                                                    40840638.706 6 212667943.73306      -422.213 6        40.381                                                                    40840631.548 6 172810056.06306      -343.004 6        38.189
C45        55.000                                                                                                                                    22300960.921 8 116126943.25208      1518.376 8        50.954                                                                    22300954.662 8  94362624.35808      1233.871 8        50.098
C02        57.000                                                                                                                                    40837085.233 5 212649279.36705      -460.378 5        33.880    40837091.866 6 164433855.91206      -356.109 6        40.057    40837092.170 5 172794921.57405      -373.954 5        35.738
I03        58.000   126406598.199 6 420261149.29606       916.701 6        41.871
R07        59.000    22394943.350 7 119881798.45907     -3891.709 7        45.779                                                                    22394949.340 7  93241371.79907     -3026.784 7        43.177
G07        60.000    21806340.919 7 114593088.59007     -2371.057 7        47.439                                    21806338.902 7  89293301.18507     -1847.572 7        45.637    21806338.860 7  89293302.17307     -1847.484 7        43.416
> 2025 01 01 07 00 35.0000000  0 56
G08         1.000    24519003.098 6 128848254.43506      1096.354 6        36.737                                    24519010.478 4 100401284.92104       854.290 4        28.237    24519011.825 5 100401294.93605       854.237 5        35.824
R01         2.000    20654126.049 8 110408121.54008      2567.853 8        48.020                                                                    20654127.390 6  85873048.50006      1997.230 6        40.322
G09         3.000    23868741.043 6 125430974.85206     -3612.475 6        38.985                                    23868748.491 5  97738394.42905     -2814.900 5        34.948    23868748.993 6  97738395.40306     -2814.879 6        38.535
E34         4.000    28462685.797 6 149572333.06606     -3481.445 6        37.002                                                                    28462692.718 6 111693604.21806     -2599.765 6        38.988    28462691.915 6 114607353.11306     -2667.571 6        40.348
S21         5.000    38414134.466 7 201867398.19707      -390.716 7        43.196
E05         6.000    22661561.746 7 119087313.15907     -1770.129 7        47.076                                                                    22661564.693 8  88928854.94908     -1321.920 8        49.990    22661564.275 8  91248731.63108     -1356.363 8        50.923
E15         7.000    26540826.732 6 139472971.75106     -2651.541 6        41.097                                                                    26540830.504 7 104151907.50707     -1980.144 7        44.099    26540829.685 7 106868912.77307     -2031.687 7        44.704
R10         8.000    19506333.394 7 103979719.29907     -1455.737 7        46.496
E31         9.000    27547050.402 6 144760687.29406     -2721.896 6        37.716                                                                    27547055.292 6 108100522.33906     -2032.475 6        41.111    27547054.709 6 110920535.69506     -2085.611 6        41.220
G18        10.000    25332616.689 6 133123793.09606      1201.377 6        38.697                                    25332614.301 3 103732810.00403       936.133 3        21.524    25332615.063 6 103732818.01906       936.193 6        39.078
E09        11.000    28604886.580 6 150319520.09406     -2890.556 6        37.418                                                                    28604902.048 6 112251541.54706     -2158.376 6        41.035    28604900.050 6 115179849.47706     -2214.793 6        41.809
S27        12.000    39077045.477 6 205351152.62206      -416.618 6        36.310
G15        13.000    24965471.162 6 131194437.79906      3315.928 6        36.503                                    24965467.298 4 102229415.83204      2583.839 4        25.850    24965468.220 5 102229407.84405      2583.893 5        33.617
S36        14.000    38182865.859 7 200652792.55407      -391.401 7        44.149
G20        15.000    20889966.587 8 109777493.92308     -1710.566 8        48.391                                    20889963.845 6  85540878.44506     -1332.905 6        38.871
R11        16.000    20389213.901 8 108953777.51808      2764.152 8        51.055                                                                    20389214.569 7  84741824.91207      2149.884 7        46.866
S45        17.000    63364730.134 6 332984732.94106      -435.301 6        36.132
E13        18.000    26852069.050 6 141108589.09506      -240.918 6        39.354                                                                    26852070.337 7 105373286.50407      -179.918 7        43.469    26852069.645 7 108122155.68707      -184.633 7        44.262
E24        19.000    25052632.279 7 131652433.05407      -350.293 7        45.588                                                                    25052634.225 8  98311884.74608      -261.627 8        48.443    25052633.621 8 100876540.17108      -268.411 8        49.266
R18        20.000    24116044.913 6 128733078.68006      1719.131 6        38.970                                                                    24116046.079 6 100125720.28606      1337.143 6        38.453
G30        21.000    20377840.368 8 107086278.07708      -498.827 8        50.785                                    20377840.015 8  83443855.84508      -388.699 8        52.623    20377840.729 7  83443859.84607      -388.766 7        45.658
I06        22.000    37955691.287 7 148946436.04407      -328.461 7        43.558
S28        23.000    40846427.795 5 214649267.48805      -395.953 5        34.543
G14        24.000    22390303.381 7 117661831.08807      2693.817 7        45.142                                    22390304.044 5  91684543.36305      2099.079 5        33.497    22390303.993 7  91684545.36107      2099.069 7        44.141
S23        25.000    38117156.997 7 200306950.30207      -388.739 7        44.235
E08        26.000    27223864.540 6 143062370.14906      2046.084 6        39.880                                                                    27223863.875 6 106832286.52506      1527.878 6        41.569    27223863.420 7 109619213.52407      1567.665 7        43.014
C07        27.000                                                                                                                                    39988144.096 6 208228746.49906       977.552 6        38.189    39988145.785 7 161015684.11707       755.909 7        43.132    39988142.480 6 169202909.14506       794.411 6        38.799
G13        28.000    21834773.930 7 114742509.61507      2305.545 7        44.521                                    21834770.411 5  89409725.97205      1796.529 5        30.672
R09        29.000    22131991.089 7 118183565.30107     -4154.192 7        44.239                                                                    22131993.681 7  91920543.39507     -3231.032 7        43.985
C22        30.000                                                                                                                                    21938909.892 8 114241650.04708     -1907.577 8        52.138                                                                    21938905.241 8  92830677.67608     -1549.965 8        50.232
I01        31.000   345111730.494 6  51151598.68706     -3035.181 6        40.305
E03        32.000    23615707.398 8 124101379.11408       591.942 8        48.437                                                                    23615708.272 8  92673121.76208       442.002 8        50.783    23615707.954 8  95090675.90708       453.520 8        51.707
G05        33.000    21222954.583 7 111527387.24707       829.029 7        47.305                                    21222951.197 7  86904452.27607       645.999 7        47.041    21222951.855 7  86904455.27607       645.888 7        44.105
R24        34.000    24070217.283 6 128714272.30606     -3673.218 6        41.356                                                                    24070216.308 6 100111099.88006     -2857.207 6        36.741
C36        35.000                                                                                                                                    22126844.021 8 115220264.93108     -1550.637 8        50.450                                                                    22126850.362 8  93625920.11508     -1259.924 8        50.217
G11        36.000    24990241.782 6 131324568.63706     -3619.463 6        39.321                                    24990242.103 3 102330815.43803     -2820.345 3        21.619    24990242.701 6 102330815.42406     -2820.434 6        37.784
I09        38.000    39024313.100 7 153139652.10307      -886.686 7        42.582
R08        39.000    19392836.854 8 103847744.99708     -1269.279 8        50.473                                                                    19392836.841 7  80770461.76607      -987.207 7        47.103
E25        40.000    25258020.744 7 132731795.97107      2191.718 7        45.502                                                                    25258025.244 7  99117902.80507      1636.720 7        47.613    25258024.127 7 101703579.27207      1679.362 7        47.767
G27        41.000    24883751.506 6 130765009.88006      -321.729 6        36.155                                    24883753.619 4 101894826.49404      -250.701 4        28.607    24883754.327 5 101894830.48405      -250.715 5        35.695
S44        42.000    40841040.456 6 214621139.50006      -425.955 6        36.034
C09        43.000                                                                                                                                    40133332.276 6 208984723.92506     -1139.688 6        37.607    40133335.232 7 161600212.05007      -881.352 7        42.681    40133332.021 6 169817168.47706      -926.062 6        39.087
C05        44.000                                                                                                                                    39260696.677 6 204440677.02806      -451.654 6        39.210    39260696.898 7 158086497.17607      -349.088 7        43.090    39260697.703 6 166124878.32206      -366.935 6        40.086
C40        45.000                                                                                                                                    40165129.671 6 209150363.38606      1228.446 6        41.285                                                                    40165133.447 6 169951816.29406       998.363 6        40.574
C21        46.000                                                                                                                                    22486368.438 8 117092407.32208      1196.339 8        50.897                                                                    22486363.807 8  95147141.66508       972.255 8        49.930
R17        47.000    23198211.627 7 124138326.61307     -1085.643 7        44.020                                                                    23198211.356 6  96552037.64906      -844.311 6        41.106
C06        49.000                                                                                                                                    41033350.001 6 213671270.55606     -1317.673 6        36.427    41033354.882 6 165224118.98306     -1018.975 6        39.057    41033352.376 6 173625353.20206     -1070.673 6        37.108
C16        50.000                                                                                                                                    41555426.625 4 216389844.91804     -1251.889 4        26.671    41555440.957 5 167326314.73405      -967.610 5        30.008    41555433.926 4                     -1016.889 4        24.481
S48        51.000    77137867.304 6 405361011.07606      -376.536 6        37.724
C19        52.000                                                                                                                                    26195084.277 6 136404573.17106     -3586.838 6        41.814                                                                    26195088.334 7 110839857.43207     -2914.448 7        43.397
C60        54.000                                                                                                                                    40841044.510 6 212670056.02706      -422.398 6        40.181                                                                    40841037.227 6 172811772.45206      -343.124 6        38.159
C45        55.000                                                                                                                                    22299504.149 8 116119358.00508      1516.069 8        50.941                                                                    22299497.992 8  94356460.71108      1231.973 8        50.032
C02        57.000                                                                                                                                    40837527.973 5 212651582.75205      -460.740 5        33.934    40837534.360 6 164435636.98006      -356.145 6        40.124    40837534.869 5 172796793.20405      -374.205 5        35.276
I03        58.000   126405430.455 6 420256567.15106       916.477 6        41.802
R07        59.000    22398579.783 7 119901261.66107     -3893.296 7        46.514                                                                    22398585.666 7  93256509.77507     -3028.088 7        43.591
G07        60.000    21808597.916 7 114604948.31007     -2372.480 7        47.776                                    21808595.752 7  89302542.51007     -1848.682 7        45.533    21808595.789 7  89302543.51007     -1848.687 7        43.173
> 2025 01 01 07 00 40.0000000  0 56
G08         1.000    24517961.084 6 128842779.72106      1093.722 6        37.841                                    24517968.702 4 100397018.95504       852.238 4        28.654    24517969.611 5 100397028.97505       852.310 5        35.790
R01         2.000    20651725.510 8 110395286.87808      2566.171 8        48.276                                                                    20651725.747 6  85863065.96106      1996.009 6        40.522
G09         3.000    23872178.903 6 125449039.38806     -3613.191 6        38.387                                    23872186.185 5  97752470.60905     -2815.455 5        34.481    23872186.355 6  97752471.58306     -2815.479 6        38.532
E34         4.000    28465998.166 6 149589739.92406     -3481.159 6        36.378                                                                    28466005.168 6 111706602.76106     -2599.532 6        39.117    28466004.290 6 114620690.75106     -2667.279 6        40.205
S21         5.000    38414502.633 7 201869352.18107      -390.742 7        43.227
E05         6.000    22663246.914 7 119096167.18607     -1771.214 7        47.090                                                                    22663249.569 8  88935466.69108     -1322.649 8        50.134    22663249.170 8  91255515.85808     -1357.173 8        50.788
E15         7.000    26543350.678 6 139486234.22306     -2653.142 6        40.980                                                                    26543354.184 7 104161811.28207     -1981.413 7        44.176    26543353.539 7 106879074.91107     -2032.940 7        44.486
R10         8.000    19507701.273 7 103987009.33507     -1460.057 7        46.259
E31         9.000    27549640.616 6 144774300.75606     -2723.308 6        37.422                                                                    27549645.888 6 108110688.21806     -2033.718 6        41.197    27549645.356 6 110930966.76206     -2086.652 6        41.280
G18        10.000    25331475.238 6 133117793.92606      1198.499 6        38.138                                    25331472.888 3 103728135.32303       933.915 3        21.857    25331473.640 6 103728143.31906       933.814 6        39.330
E09        11.000    28607636.738 6 150333974.03206     -2890.933 6        37.172                                                                    28607652.562 6 112262335.01806     -2158.675 6        41.123    28607650.718 6 115190924.51406     -2215.081 6        41.573
S27        12.000    39077442.727 6 205353236.89406      -416.881 6        36.476
G15        13.000    24962316.703 5 131177858.99805      3315.860 5        35.095                                    24962312.546 4 102216497.30004      2583.792 4        25.429    24962314.290 5 102216489.31805      2583.729 5        34.119
S36        14.000    38183241.359 7 200654749.41007      -391.302 7        44.006
G20        15.000    20891595.796 8 109786055.27608     -1713.744 8        48.504                                    20891593.041 6  85547549.61506     -1335.383 6        38.823
R11        16.000    20386629.193 8 108939965.06008      2761.117 8        50.883                                                                    20386629.592 7  84731081.87907      2147.547 7        46.873
S45        17.000    63365101.091 6 332986909.19906      -435.125 6        36.265
E13        18.000    26852299.432 6 141109800.44206      -243.519 6        39.372                                                                    26852300.876 7 105374191.06207      -181.748 7        43.482    26852300.196 7 108123083.83807      -186.464 7        44.172
E24        19.000    25052967.329 7 131654191.44907      -352.779 7        45.458                                                                    25052968.827 8  98313197.82608      -263.478 8        48.620    25052968.243 8 100877887.50508      -270.352 8        49.093
R18        20.000    24114435.088 6 128724492.51606      1715.607 6        39.372                                                                    24114439.138 6 100119042.17706      1334.242 6        39.285
G30        21.000    20378316.273 8 107088778.70608      -501.173 8        50.879                                    20378315.881 8  83445804.37808      -390.524 8        52.577    20378316.466 7  83445808.37507      -390.501 7        45.464
I06        22.000    37956110.277 7 148948079.13307      -328.525 7        43.573
S28        23.000    40846803.241 5 214651247.80105      -396.110 5        34.571
G14        24.000    22387741.014 7 117648366.36607      2692.302 7        44.680                                    22387741.710 5  91674051.37205      2097.899 5        33.347    22387741.978 7  91674053.36907      2097.839 7        43.477
S23        25.000    38117527.440 7 200308894.65507      -388.826 7        44.239
E08        26.000    27221917.868 6 143052140.83206      2045.886 6        39.715                                                                    27221917.310 6 106824647.72506      1527.766 6        41.764    27221916.884 7 109611375.45007      1567.606 7        42.828
C07        27.000                                                                                                                                    39987206.488 6 208223860.69706       976.896 6        38.625    39987207.475 7 161011906.12407       755.342 7        42.961    39987204.106 6 169198939.02306       794.090 6        39.000
G13        28.000    21832580.961 7 114730984.98407      2304.533 7        44.251                                    21832577.394 5  89400745.73305      1795.739 5        30.589
R09        29.000    22135882.627 7 118204341.60507     -4155.905 7        45.029                                                                    22135884.105 7  91936702.71507     -3232.481 7        43.909
C22        30.000                                                                                                                                    21940742.774 8 114251193.73408     -1909.684 8        52.164                                                                    21940738.014 8  92838432.68808     -1551.707 8        50.256
I01        31.000   345115598.209 6  51166775.39006     -3035.322 6        40.574
E03        32.000    23615144.670 8 124098422.77308       590.881 8        48.179                                                                    23615145.745 8  92670914.08908       441.200 8        50.900    23615145.382 8  95088410.64508       452.741 8        51.550
G05        33.000    21222167.092 7 111523250.94807       825.750 7        47.168                                    21222164.089 7  86901229.17407       643.446 7        46.999    21222164.292 7  86901232.17507       643.386 7        43.979
R24        34.000    24073652.206 7 128732642.93507     -3674.824 7        42.451                                                                    24073651.562 6 100125388.14906     -2858.076 6        36.926
C36        35.000                                                                                                                                    22128334.334 8 115228024.60508     -1552.942 8        50.265                                                                    22128340.576 8  93632225.47608     -1261.876 8        50.234
G11        36.000    24993686.075 6 131342667.46006     -3619.814 6        39.420                                    24993686.361 3 102344918.36203     -2820.628 3        21.571    24993687.110 6 102344918.34706     -2820.532 6        38.342
I09        38.000    39025443.103 7 153144085.95107      -886.841 7        42.665
R08        39.000    19394023.644 8 103854099.92808     -1272.415 8        50.344                                                                    19394023.529 7  80775404.48707      -989.682 7        47.172
E25        40.000    25255935.945 7 132720841.08807      2190.414 7        45.139                                                                    25255940.579 7  99109722.20807      1635.708 7        47.705    25255939.606 7 101695185.26907      1678.345 7        47.870
G27        41.000    24884059.012 6 130766627.05506      -325.249 6        36.129                                    24884061.423 4 101896086.62204      -253.441 4        28.616    24884062.380 5 101896090.60005      -253.091 5        35.248
S44        42.000    40841447.025 6 214623271.23006      -426.142 6        36.113
C09        43.000                                                                                                                                    40134427.508 6 208990422.81206     -1139.745 6        37.293    40134429.703 7 161604618.75907      -881.284 7        42.463    40134426.290 6 169821799.24606      -926.029 6        38.970
C05        44.000                                                                                                                                    39261130.067 6 204442935.07206      -451.645 6        39.108    39261130.275 7 158088243.21207      -349.203 7        42.800    39261131.213 6 166126713.13006      -366.760 6        40.005
C40        45.000                                                                                                                                    40163950.375 6 209144223.35006      1227.711 6        41.151                                                                    40163954.190 6 169946827.02606       997.698 6        40.746
C21        46.000                                                                                                                                    22485220.746 8 117086430.77208      1194.472 8        50.939                                                                    22485216.068 8  95142285.22008       970.667 8        49.918
R17        47.000    23199228.300 7 124143765.72707     -1089.750 7        45.335                                                                    23199228.023 7  96556268.06607      -847.625 7        42.373
C06        49.000                                                                                                                                    41034615.146 6 213677859.42906     -1317.662 6        36.147    41034620.333 6 165229213.84906     -1018.969 6        38.721    41034617.678 6 173630707.13306     -1070.717 6        36.892
C16        50.000                                                                                                                                    41556628.102 4 216396103.62804     -1251.405 4        27.461    41556641.373 5 167331154.36005      -967.489 5        30.906    41556636.042 4 175839519.46614     -1017.119 4        25.053
S48        51.000    77138229.022 6 405362892.95906      -376.410 6        38.069
C19        52.000                                                                                                                                    26198529.150 6 136422509.57106     -3587.499 6        41.692                                                                    26198532.883 7 110854432.17007     -2915.113 7        43.475
C60        54.000                                                                                                                                    40841450.296 6 212672168.41506      -422.550 6        40.248                                                                    40841442.821 6 172813488.88706      -343.234 6        38.312
C45        55.000                                                                                                                                    22298049.647 8 116111783.83308      1513.838 8        50.841                                                                    22298043.453 8  94350306.07008      1230.171 8        50.010
C02        57.000                                                                                                                                    40837970.551 5 212653886.23105      -460.575 5        33.659    40837976.563 6 164437418.15306      -356.088 6        39.793    40837977.265 5 172798664.95705      -374.118 5        35.490
I03        58.000   126404262.694 6 420251985.08906       916.409 6        41.840
R07        59.000    22402216.720 7 119920732.71207     -3894.824 7        46.056                                                                    22402222.817 7  93271653.86607     -3029.363 7        43.647
G07        60.000    21810856.071 7 114616814.73507     -2373.837 7        47.733                                    21810853.868 7  89311789.05607     -1849.739 7        45.508    21810853.845 7  89311790.05807     -1849.779 7        43.088
> 2025 01 01 07 00 45.0000000  0 56
G08         1.000    24516921.542 6 128837317.01106      1091.344 6        37.361                                    24516929.242 4 100392762.34804       850.399 4        28.825    24516930.491 6 100392772.38606       850.303 6        36.215
R01         2.000    20649326.040 8 110382459.74508      2564.624 8        48.131                                                                    20649326.507 6  85853089.31106      1994.667 6        40.458
G09         3.000    23875616.798 6 125467106.86006     -3613.857 6        37.667                                    23875624.478 5  97766549.07405     -2815.975 5        34.038    23875624.897 6  97766550.03506     -2815.789 6        38.652
E34         4.000    28469309.552 6 149607144.01806     -3480.545 6        36.318                                                                    28469317.209 6 111719599.27206     -2599.238 6        39.045    28469316.224 6 114634026.29206     -2666.847 6        39.835
S21         5.000    38414878.441 7 201871305.33807      -390.607 7        43.551
E05         6.000    22664932.524 7 119105025.74407     -1772.197 7        47.097                                                                    22664935.295 8  88942081.82708     -1323.462 8        50.229    22664934.876 8  91262303.56508     -1357.973 8        50.697
E15         7.000    26545875.886 6 139499503.87106     -2654.724 6        40.813                                                                    26545879.312 7 104171720.38307     -1982.362 7        44.299    26545878.702 7 106889242.52507     -2034.136 7        44.447
R10         8.000    19509072.452 7 103994319.71107     -1464.209 7        46.288
E31         9.000    27552232.734 6 144787920.92706     -2724.797 6        37.308                                                                    27552237.652 6 108120859.10406     -2034.840 6        41.352    27552237.150 6 110941402.98806     -2087.917 6        41.173
G18        10.000    25330336.278 6 133111808.07406      1195.943 6        37.822                                    25330333.997 3 103723471.00403       931.900 3        21.595    25330333.923 6 103723479.00306       931.574 6        38.228
E09        11.000    28610387.433 6 150348428.53206     -2891.127 6        37.062                                                                    28610403.322 6 112273128.91506     -2158.816 6        40.965    28610401.379 6 115201999.99106     -2215.224 6        41.375
S27        12.000    39077838.595 6 205355320.45906      -416.649 6        36.681
G15        13.000    24959161.568 6 131161279.70206      3315.810 6        37.338                                    24959157.691 4 102203578.36504      2583.746 4        25.579    24959158.051 5 102203570.34305      2583.866 5        32.856
S36        14.000    38183609.208 7 200656706.21307      -391.162 7        44.166
G20        15.000    20893227.841 8 109794631.83208     -1716.858 8        48.556                                    20893225.121 6  85554232.63106     -1337.807 6        38.766
R11        16.000    20384046.903 8 108926167.24908      2758.054 8        51.587                                                                    20384047.747 7  84720350.24607      2145.109 7        46.663
S45        17.000    63365474.945 6 332989084.88106      -434.970 6        36.333
E13        18.000    26852532.700 6 141111023.92106      -245.917 6        39.372                                                                    26852533.643 7 105375104.69707      -183.696 7        43.687    26852533.014 7 108124021.30507      -188.519 7        44.051
E24        19.000    25053304.271 7 131655961.62607      -355.263 7        45.749                                                                    25053305.685 8  98314519.70308      -265.369 8        48.592    25053305.080 8 100879243.86608      -272.234 8        49.010
R18        20.000    24112830.250 6 128715923.10106      1712.073 6        40.198                                                                    24112833.405 6 100112377.05106      1331.684 6        39.162
G30        21.000    20378794.422 8 107091290.21108      -503.480 8        50.984                                    20378793.808 8  83447761.38608      -392.320 8        52.559    20378794.260 7  83447765.38607      -392.354 7        45.431
I06        22.000    37956528.952 7 148949721.95507      -328.604 7        43.570
S28        23.000    40847183.669 5 214653227.25505      -395.929 5        34.819
G14        24.000    22385180.342 7 117634908.87507      2690.742 7        45.023                                    22385180.709 5  91663565.01705      2096.681 5        33.210    22385180.983 7  91663567.01307      2096.633 7        43.636
S23        25.000    38117896.894 7 200310838.61907      -388.746 7        44.391
E08        26.000    27219971.435 6 143041911.49106      2045.883 6        39.550                                                                    27219970.709 6 106817008.91906      1527.769 6        41.819    27219970.411 7 109603537.37707      1567.542 7        42.754
C07        27.000                                                                                                                                    39986269.354 6 208218977.38406       976.276 6        38.649    39986269.353 7 161008130.03707       755.084 7        42.817    39986266.184 6 169194970.94106       793.312 6        38.988
G13        28.000    21830388.993 7 114719465.37007      2303.320 7        44.680                                    21830385.234 5  89391769.39705      1794.794 5        30.672
R09        29.000    22139775.117 7 118225125.79707     -4157.649 7        45.547                                                                    22139775.865 7  91952868.18007     -3233.682 7        43.570
C22        30.000                                                                                                                                    21942577.445 8 114260747.32408     -1911.740 8        51.948                                                                    21942572.687 8  92846195.73108     -1553.457 8        50.213
I01        31.000   345119465.718 6  51181952.17806     -3035.412 6        41.030
E03        32.000    23614582.831 8 124095470.93508       589.868 8        48.290                                                                    23614584.014 8  92668709.78208       440.411 8        50.962    23614583.639 8  95086148.83608       451.918 8        51.470
G05        33.000    21221383.271 7 111519130.42407       822.508 7        47.101                                    21221379.985 7  86898018.36507       640.922 7        46.870    21221380.409 7  86898021.37007       640.930 7        43.799
R24        34.000    24077089.388 6 128751021.61906     -3676.632 6        41.752                                                                    24077089.372 6 100139682.64006     -2859.352 6        36.068
C36        35.000                                                                                                                                    22129826.515 8 115235795.25008     -1555.258 8        50.382                                                                    22129832.831 8  93638539.73408     -1263.764 8        50.141
G11        36.000    24997129.905 6 131360766.75806     -3619.804 6        39.363                                    24997130.655 3 102359021.66503     -2820.615 3        21.595    24997130.841 6 102359021.65606     -2820.776 6        38.727
I09        38.000    39026573.011 7 153148519.84107      -886.884 7        42.684
R08        39.000    19395213.084 8 103860469.62308     -1275.448 8        50.407                                                                    19395213.265 7  80780358.67207      -992.091 7        47.360
E25        40.000    25253852.363 7 132709892.56307      2188.978 7        45.097                                                                    25253857.295 7  99101546.35407      1634.618 7        47.811    25253856.222 7 101686796.13207      1677.218 7        47.687
G27        41.000    24884369.697 6 130768259.84906      -328.168 6        37.164                                    24884372.183 4 101897358.91304      -255.716 4        28.654    24884372.799 5 101897362.92405      -255.823 5        35.457
S44        42.000    40841852.699 6 214625402.29106      -426.146 6        36.144
C09        43.000                                                                                                                                    40135521.568 6 208996120.51106     -1139.607 6        36.915    40135524.085 7 161609024.54907      -881.084 7        42.576    40135520.483 6 169826429.06006      -925.880 6        38.937
C05        44.000                                                                                                                                    39261563.658 6 204445192.53906      -451.359 6        39.009    39261564.076 7 158089988.81307      -349.090 7        42.817    39261564.670 6 166128547.48506      -366.822 6        39.946
C40        45.000                                                                                                                                    40162771.909 6 209138086.43806      1227.068 6        41.280                                                                    40162775.758 6 169941840.27806       997.015 6        40.682
C21        46.000                                                                                                                                    22484074.712 8 117080462.74408      1192.696 8        51.023                                                                    22484070.010 8  95137435.68908       969.176 8        49.874
R17        47.000    23200248.836 7 124149225.05307     -1093.993 7        45.585                                                                    23200247.610 7  96560514.20707      -850.932 7        42.047
C06        49.000                                                                                                                                    41035880.340 6 213684446.83506     -1317.418 6        36.484    41035885.823 6 165234307.59606     -1018.633 6        38.453    41035882.638 6 173636059.88306     -1070.416 6        36.730
C16        50.000                                                                                                                                    41557829.914 4 216402360.93204     -1251.987 4        28.209    41557843.963 5 167335992.87005      -967.922 5        30.543    41557837.283 4 175844603.91004     -1016.722 4        25.549
S48        51.000    77138596.715 6 405364774.01006      -376.229 6        38.036
C19        52.000                                                                                                                                    26201974.201 6 136440448.37106     -3588.046 6        41.621                                                                    26201977.892 7 110869008.82707     -2915.524 7        43.318
C60        54.000                                                                                                                                    40841855.850 6 212674280.07606      -422.384 6        40.238                                                                    40841848.380 6 172815204.74006      -343.119 6        38.198
C45        55.000                                                                                                                                    22296597.016 8 116104219.96208      1511.722 8        50.604                                                                    22296590.895 8  94344159.78308      1228.398 8        50.032
C02        57.000                                                                                                                                    40838412.486 5 212656189.14005      -460.911 5        33.623    40838419.044 6 164439198.81606      -356.048 6        39.871    40838419.477 5 172800536.18305      -374.365 5        35.310
I03        58.000   126403094.979 6 420247402.54006       916.434 6        41.836
R07        59.000    22405855.469 7 119940210.49207     -3896.389 7        46.090                                                                    22405860.807 7  93286803.18207     -3030.524 7        43.158
G07        60.000    21813115.037 7 114628687.08207     -2375.145 7        47.352                                    21813113.093 7  89321040.22107     -1850.760 7        45.360    21813113.021 7  89321041.21807     -1850.786 7        43.039
> 2025 01 01 07 00 50.0000000  0 56
G08         1.000    24515884.115 6 128831867.25706      1088.565 6        36.658                                    24515892.340 4 100388515.83504       848.216 4        28.806    24515893.294 6 100388525.87806       848.181 6        36.639
R01         2.000    20646927.705 7 110369641.02007      2562.787 7        47.945                                                                    20646928.803 6  85843119.18106      1993.275 6        40.329
G09         3.000    23879055.579 6 125485178.10706     -3614.646 6        37.263                                    23879063.420 5  97780630.48305     -2816.587 5        33.629    23879063.176 6  97780631.46206     -2816.768 6        38.700
E34         4.000    28472620.897 5 149624546.25605     -3480.329 5        35.652                                                                    28472628.854 6 111732594.37906     -2598.976 6        38.925    28472627.787 6 114647360.42806     -2666.771 6        39.715
S21         5.000    38415248.566 7 201873258.60707      -390.796 7        43.276
E05         6.000    22666619.357 7 119113889.70707     -1773.416 7        47.009                                                                    22666622.140 8  88948700.99208     -1324.318 8        50.106    22666621.690 8  91269095.40908     -1358.872 8        50.817
E15         7.000    26548402.646 6 139512781.53706     -2656.582 6        40.703                                                                    26548405.889 7 104181635.49907     -1983.776 7        44.214    26548405.310 7 106899416.28707     -2035.437 7        44.558
R10         8.000    19510447.948 7 104001651.17307     -1468.506 7        46.457
E31         9.000    27554826.186 6 144801548.67906     -2726.404 6        36.722                                                                    27554830.881 6 108131035.64706     -2036.046 6        41.178    27554830.458 6 110951845.00406     -2089.104 6        41.311
G18        10.000    25329200.205 6 133105836.49806      1192.629 6        37.429                                    25329197.695 3 103718817.80903       929.316 3        20.786    25329198.260 6 103718825.79606       929.361 6        38.471
E09        11.000    28613138.569 6 150362884.46906     -2891.533 6        36.979                                                                    28613154.078 6 112283923.86706     -2159.179 6        40.880    28613152.056 6 115213076.55806     -2215.439 6        41.356
S27        12.000    39078236.395 6 205357404.50606      -417.036 6        36.476
G15        13.000    24956006.624 6 131144700.62706      3315.868 6        36.265                                    24956002.795 4 102190659.59804      2583.791 4        25.684    24956004.504 5 102190651.64205      2583.210 5        32.527
S36        14.000    38183983.550 7 200658663.11107      -391.467 7        44.188
G20        15.000    20894863.036 8 109803224.48808     -1720.231 8        48.291                                    20894860.259 6  85560928.19106     -1340.441 6        38.760
R11        16.000    20381468.180 8 108912385.00408      2754.725 8        51.167                                                                    20381468.744 7  84709630.72407      2142.545 7        47.133
S45        17.000    63365841.453 6 332991261.07406      -435.334 6        36.287
E13        18.000    26852767.861 6 141112260.41906      -248.732 6        39.886                                                                    26852768.931 7 105376028.05007      -185.706 7        43.685    26852768.315 7 108124968.75207      -190.606 7        44.113
E24        19.000    25053643.243 7 131657744.53207      -357.896 7        45.681                                                                    25053644.975 8  98315851.08508      -267.298 8        48.571    25053644.319 8 100880609.98008      -274.282 8        49.007
R18        20.000    24111229.033 6 128707371.33906      1708.511 6        40.114                                                                    24111230.580 6 100105725.68906      1328.801 6        39.631
G30        21.000    20379274.667 8 107093813.44208      -505.968 8        50.786                                    20379273.957 8  83449727.53208      -394.259 8        52.506    20379274.526 7  83449731.54307      -394.268 7        45.553
I06        22.000    37956947.747 7 148951365.18507      -328.753 7        43.302
S28        23.000    40847560.761 5 214655207.22705      -396.293 5        34.724
G14        24.000    22382620.955 7 117621459.52107      2688.912 7        45.634                                    22382621.210 5  91653085.00305      2095.258 5        33.275    22382621.366 7  91653086.99307      2095.299 7        43.433
S23        25.000    38118267.265 7 200312782.98407      -388.980 7        44.476
E08        26.000    27218024.764 6 143031683.06706      2045.418 6        39.592                                                                    27218024.333 6 106809370.79306      1527.503 6        41.707    27218024.009 7 109595699.99207      1567.357 7        42.804
C07        27.000                                                                                                                                    39985331.901 6 208214097.43806       975.439 6        38.775    39985332.256 7 161004356.57907       754.355 7        42.893    39985329.196 6 169191005.63006       792.627 6        38.823
G13        28.000    21828198.077 7 114707951.56907      2302.001 7        44.537                                    21828194.264 5  89382797.59505      1793.767 5        30.702
R09        29.000    22143668.549 7 118245918.77507     -4159.612 7        45.025                                                                    22143670.051 7  91969040.45907     -3235.218 7        43.642
C22        30.000                                                                                                                                    21944413.861 8 114270311.68708     -1914.059 8        51.949                                                                    21944409.373 8  92853967.58208     -1555.497 8        50.235
I01        31.000   345123333.851 6  51197129.69506     -3035.600 6        41.008
E03        32.000    23614022.356 8 124092524.48108       588.597 8        48.179                                                                    23614023.320 8  92666509.49108       439.581 8        50.898    23614022.988 8  95083891.14808       451.013 8        51.548
G05        33.000    21220602.364 7 111515026.57707       818.963 7        47.155                                    21220599.048 7  86894820.54907       638.153 7        46.937    21220599.556 7  86894823.54707       638.171 7        44.144
R24        34.000    24080528.162 6 128769409.13206     -3678.600 6        41.395                                                                    24080527.956 5 100153984.00105     -2860.900 5        35.038
C36        35.000                                                                                                                                    22131321.057 8 115243577.72808     -1557.787 8        50.359                                                                    22131327.360 8  93644863.66508     -1266.038 8        50.118
G11        36.000    25000574.502 6 131378867.39206     -3620.327 6        38.829                                    25000575.106 3 102373126.02203     -2821.031 3        21.524    25000575.409 6 102373125.99706     -2821.054 6        38.961
I09        38.000    39027703.111 7 153152954.41707      -887.070 7        42.385
R08        39.000    19396405.529 8 103866855.08308     -1278.760 8        50.461                                                                    19396405.349 7  80785325.12607      -994.586 7        47.395
E25        40.000    25251770.458 7 132698951.26407      2187.446 7        45.014                                                                    25251775.285 7  99093375.90407      1633.471 7        47.775    25251774.127 7 101678412.54107      1676.073 7        47.883
G27        41.000    24884684.554 6 130769909.13306      -331.448 6        36.333                                    24884685.961 4 101898644.08104      -258.274 4        28.701    24884686.799 5 101898648.07205      -258.291 5        35.705
S44        42.000    40842258.329 6 214627533.49706      -426.422 6        36.117
C09        43.000                                                                                                                                    40136615.109 6 209001817.96706     -1139.440 6        36.843    40136618.510 7 161613430.15007      -881.230 7        42.635    40136614.602 6 169831058.72206      -926.191 6        38.850
C05        44.000                                                                                                                                    39261997.043 6 204447450.32906      -451.749 6        39.294    39261997.510 7 158091734.65007      -349.337 7        42.891    39261998.382 6 166130382.14206      -367.319 6        39.757
C40        45.000                                                                                                                                    40161593.822 6 209131953.53606      1226.090 6        41.154                                                                    40161597.949 6 169936856.83406       996.235 6        40.682
C21        46.000                                                                                                                                    22482930.383 8 117074504.12908      1190.642 8        51.054                                                                    22482925.715 8  95132593.85508       967.375 8        49.829
R17        47.000    23201272.269 7 124154705.49907     -1098.349 7        45.526                                                                    23201271.323 6  96564776.74506      -854.290 6        40.849
C06        49.000                                                                                                                                    41037145.141 6 213691033.67506     -1317.354 6        36.397    41037150.806 6 165239400.93806     -1018.878 6        38.760    41037147.666 6 173641412.25806     -1070.778 6        36.484
C16        50.000                                                                                                                                    41559032.344 4 216408617.47104     -1251.248 4        29.213    41559044.178 5 167340830.75505      -967.552 5        30.996    41559037.451 4 175849687.89204     -1016.866 4        25.083
S48        51.000    77138957.937 6 405366655.30906      -376.440 6        38.165
C19        52.000                                                                                                                                    26205419.985 6 136458390.45306     -3588.879 6        41.342                                                                    26205423.627 7 110883588.19807     -2916.401 7        43.297
C60        54.000                                                                                                                                    40842261.484 6 212676391.89606      -422.487 6        40.181                                                                    40842254.117 6 172816920.78206      -343.537 6        38.171
C45        55.000                                                                                                                                    22295146.747 8 116096667.27708      1509.296 8        50.637                                                                    22295140.493 8  94338022.64408      1226.223 8        49.920
C02        57.000                                                                                                                                    40838853.965 5 212658492.15805      -460.372 5        33.569    40838861.462 6 164440979.66106      -356.236 6        39.922    40838861.774 5 172802407.62205      -374.715 5        35.300
I03        58.000   126401927.452 6 420242820.14106       916.394 6        41.709
R07        59.000    22409495.797 7 119959696.15707     -3898.042 7        46.104                                                                    22409501.005 7  93301958.63107     -3031.690 7        42.660
G07        60.000    21815375.619 7 114640566.19107     -2376.649 7        47.120                                    21815373.605 7  89330296.65207     -1851.931 7        45.369    21815373.843 7  89330297.65007     -1851.847 7        43.532
> 2025 01 01 07 00 55.0000000  0 56
G08         1.000    24514849.657 6 128826429.75306      1086.323 6        36.945                                    24514857.642 4 100384278.87304       846.483 4        29.005    24514858.686 6 100384288.89406       846.441 6        36.427
R01         2.000    20644531.449 7 110356830.13507      2561.392 7        47.749                                                                    20644531.437 6  85833155.12606      1992.214 6        39.913
G09         3.000    23882495.178 6 125503252.44106     -3615.033 6        37.947                                    23882502.996 5  97794714.29405     -2816.892 5        33.725    23882502.988 6  97794715.28906     -2817.148 6        38.622
E34         4.000    28475932.204 5 149641945.91905     -3479.556 5        35.690                                                                    28475939.970 6 111745587.56306     -2598.326 6        39.015    28475938.918 6 114660692.57906     -2666.275 6        39.910
S21         5.000    38415621.178 7 201875211.26707      -390.427 7        43.295
E05         6.000    22668307.230 7 119122758.38007     -1774.106 7        47.072                                                                    22668309.845 8  88955323.68008     -1324.867 8        50.217    22668309.359 8  91275890.86908     -1359.468 8        50.766
E15         7.000    26550930.733 6 139526066.49806     -2657.591 6        41.025                                                                    26550934.008 7 104191556.06507     -1984.619 7        44.284    26550933.279 7 106909595.67107     -2036.454 7        44.534
R10         8.000    19511826.962 7 104009003.12407     -1472.415 7        46.503
E31         9.000    27557420.966 6 144815183.28306     -2727.648 6        36.771                                                                    27557425.551 6 108141217.31906     -2036.776 6        41.194    27557425.043 6 110962292.29006     -2090.147 6        41.318
G18        10.000    25328066.351 6 133099878.47806      1190.464 6        37.667                                    25328063.750 3 103714175.21603       927.628 3        20.810    25328064.254 6 103714183.22506       927.457 6        38.661
E09        11.000    28615889.508 6 150377341.13806     -2891.461 6        36.960                                                                    28615905.255 6 112294719.36106     -2159.145 6        40.865    28615902.999 6 115224153.68506     -2215.428 6        41.051
S27        12.000    39078630.072 6 205359488.46506      -416.688 6        36.336
G15        13.000    24952851.931 6 131128121.21906      3315.875 6        36.631                                    24952847.891 4 102177740.60404      2583.785 4        25.639    24952848.660 5 102177732.55205      2583.896 5        30.423
S36        14.000    38184355.200 7 200660619.79107      -391.236 7        44.167
G20        15.000    20896500.854 8 109811832.56108     -1723.099 8        48.092                                    20896498.326 6  85567635.76606     -1342.671 6        38.781
R11        16.000    20378891.519 8 108898617.63608      2752.047 8        51.024                                                                    20378892.356 7  84698922.77507      2140.395 7        47.315
S45        17.000    63366215.576 6 332991736.84916      -435.031 6        36.208
E13        18.000    26853005.355 6 141113509.25506      -250.923 6        39.420                                                                    26853006.594 7 105376960.61607      -187.504 7        43.738    26853005.997 7 108125925.64207      -192.387 7        44.099
E24        19.000    25053984.817 7 131659539.41007      -360.121 7        45.482                                                                    25053986.601 8  98317191.41208      -268.904 8        48.603    25053985.893 8 100881985.27408      -275.926 8        49.076
R18        20.000    24109629.676 6 128698836.49806      1705.218 6        40.119                                                                    24109632.351 6 100099087.47706      1326.306 6        40.396
G30        21.000    20379756.746 8 107096347.68508      -507.940 8        50.675                                    20379756.208 8  83451702.25608      -395.795 8        52.522    20379756.889 7  83451706.25507      -395.811 7        45.547
I06        22.000    37957366.403 7 148953008.28407      -328.622 7        43.272
S28        23.000    40847937.254 5 214657187.28205      -395.863 5        34.562
G14        24.000    22380063.039 7 117608017.57907      2687.696 7        45.266                                    22380063.223 5  91642610.76805      2094.310 5        33.341    22380064.089 7  91642612.76007      2094.279 7        43.518
S23        25.000    38118637.788 7 200314726.92007      -388.656 7        44.421
E08        26.000    27216078.597 6 143021454.81506      2045.702 6        39.904                                                                    27216078.051 6 106801732.81006      1527.580 6        41.950    27216077.760 7 109587862.76107      1567.446 7        42.845
C07        27.000                                                                                                                                    39984395.329 6 208209220.21906       975.331 6        38.964    39984395.854 7 161000585.22307       754.030 7        42.834    39984392.692 6 169187042.49306       792.465 6        38.889
G13        28.000    21826007.797 7 114696442.89207      2301.339 7        44.816                                    21826004.269 5  89373829.78905      1793.253 5        30.808
R09        29.000    22147562.670 7 118266719.76307     -4160.981 7        44.370                                                                    22147565.447 7  91985218.99007     -3236.392 7        43.801
C22        30.000                                                                                                                                    21946252.712 8 114279886.10808     -1915.844 8        52.217                                                                    21946248.113 8  92861747.56208     -1556.782 8        50.145
I01        31.000   345127201.834 6  51212307.46606     -3035.545 6        41.163
E03        32.000    23613462.386 8 124089582.69608       587.978 8        48.164                                                                    23613463.525 8  92664312.69908       439.047 8        50.977    23613463.212 8  95081637.04708       450.516 8        51.550
G05        33.000    21219824.477 7 111510938.50407       816.065 7        47.585                                    21219821.102 7  86891635.02807       635.897 7        47.011    21219821.629 7  86891638.03107       635.901 7        44.218
R24        34.000    24083967.460 6 128787804.63406     -3679.822 6        40.627                                                                    24083968.712 5 100168291.62605     -2862.204 5        35.609
C36        35.000                                                                                                                                    22132817.882 8 115251371.33608     -1559.775 8        50.151                                                                    22132824.105 8  93651196.58908     -1267.505 8        50.082
G11        36.000    25004019.189 6 131396968.63306     -3620.248 6        39.601                                    25004019.682 3 102387230.83403     -2820.960 3        21.738    25004019.635 6 102387230.82406     -2821.125 6        38.916
I09        38.000    39028833.459 7 153157389.17507      -886.925 7        42.514
R08        39.000    19397601.064 8 103873255.42108     -1281.556 8        50.530                                                                    19397600.355 7  80790303.14607      -996.771 7        47.119
E25        40.000    25249689.689 7 132688016.51607      2186.222 7        45.055                                                                    25249694.491 7  99085210.33707      1632.625 7        47.804    25249693.264 7 101670033.95507      1675.228 7        47.906
G27        41.000    24885000.570 6 130771574.18606      -334.615 6        36.181                                    24885002.709 4 101899941.52704      -260.745 4        28.626    24885003.032 5 101899945.52705      -260.833 5        35.819
S44        42.000    40842661.830 6 214629664.18606      -426.027 6        36.359
C09        43.000                                                                                                                                    40137708.984 6 209007514.47806     -1139.102 6        36.832    40137712.416 7 161617835.01507      -880.693 7        42.339    40137708.607 6 169835687.55306      -925.514 6        38.498
C05        44.000                                                                                                                                    39262430.567 6 204449707.72406      -451.499 6        39.021    39262431.061 7 158093480.17907      -349.065 7        42.760    39262431.847 6 166132216.42906      -366.845 6        39.790
C40        45.000                                                                                                                                    40160416.882 6 209125823.95906      1225.526 6        41.173                                                                    40160420.806 6 169931876.04506       995.811 6        40.427
C21        46.000                                                                                                                                    22481787.745 8 117068554.23908      1189.181 8        50.995                                                                    22481783.088 8  95127759.06508       966.302 8        49.766
R17        47.000    23202299.295 7 124160206.49607     -1102.220 7        44.670                                                                    23202299.686 6  96569055.29706      -857.432 6        41.106
C06        49.000                                                                                                                                    41038409.982 6 213697619.26806     -1317.004 6        36.423    41038415.850 6 165244493.28506     -1018.297 6        39.105    41038412.372 6 173646763.54306     -1070.151 6        36.363
C16        50.000                                                                                                                                    41560232.691 4 216414872.72604     -1250.891 4        27.856    41560245.822 5 167345667.69205      -967.521 5        30.604    41560240.558 4 175854770.72304     -1016.225 4        25.729
S48        51.000    77139323.609 6 405368536.09206      -375.848 6        37.996
C19        52.000                                                                                                                                    26208865.956 6 136476335.07906     -3589.053 6        41.373                                                                    26208869.697 7 110898169.61307     -2916.515 7        43.166
C60        54.000                                                                                                                                    40842666.698 6 212678503.21306      -422.187 6        40.167                                                                    40842659.483 6 172818636.34606      -343.164 6        38.135
C45        55.000                                                                                                                                    22293698.393 8 116089125.07108      1507.460 8        50.607                                                                    22293692.119 8  94331893.96808      1224.909 8        49.938
C02        57.000                                                                                                                                    40839297.376 5 212660794.79605      -460.738 5        33.581    40839303.437 6 164442760.13806      -355.940 6        39.799    40839304.053 5 172804278.62905      -374.169 5        35.433
I03        58.000   126400759.657 6 420238237.38506       916.580 6        41.621
R07        59.000    22413136.579 7 119979188.93907     -3899.160 7        45.871                                                                    22413142.467 7  93317119.63307     -3032.758 7        42.220
G07        60.000    21817637.283 7 114652451.39907     -2377.610 7        46.955                                    21817635.280 7  89339557.83307     -1852.680 7        45.440    21817635.296 7  89339558.82807     -1852.635 7        43.268
> 2025 01 01 07 01  0.0000000  0 56
G08         1.000    24513817.386 6 128821004.37206      1083.864 6        37.040                                    24513825.301 4 100380051.36404       844.553 4        28.948    24513825.818 5 100380061.39105       844.427 5        35.719
R01         2.000    20642136.249 8 110344026.92208      2559.721 8        48.178                                                                    20642137.245 6  85823197.08306      1990.954 6        40.365
G09         3.000    23885935.646 6 125521329.73906     -3615.777 6        38.751                                    23885943.176 5  97808800.42105     -2817.476 5        34.162    23885943.163 6  97808801.39006     -2817.584 6        39.030
E34         4.000    28479242.823 5 149659342.91805     -3479.131 5        35.062                                                                    28479250.619 6 111758578.76806     -2598.137 6        38.670    28479249.553 6 114674022.67706     -2665.869 6        39.640
S21         5.000    38415989.796 7 201877163.35807      -390.533 7        43.335
E05         6.000    22669995.719 7 119131631.68807     -1775.236 7        47.094                                                                    22669998.392 8  88961949.82808     -1325.654 8        50.061    22669997.942 8  91282689.87208     -1360.279 8        50.767
E15         7.000    26553460.248 6 139539358.67906     -2659.232 6        40.999                                                                    26553463.501 7 104201482.02407     -1985.861 7        44.199    26553462.675 7 106919780.56807     -2037.637 7        44.528
R10         8.000    19513210.147 7 104016375.53807     -1476.636 7        46.491
E31         9.000    27560017.041 6 144828824.66606     -2728.971 6        36.681                                                                    27560021.353 6 108151404.05206     -2037.886 6        40.861    27560020.949 6 110972744.75906     -2091.143 6        41.518
G18        10.000    25326935.317 6 133093933.95806      1187.372 6        37.784                                    25326932.501 3 103709543.13003       925.229 3        21.143    25326933.251 6 103709551.14606       925.212 6        38.718
E09        11.000    28618640.540 6 150391798.42606     -2891.565 6        36.616                                                                    28618656.375 6 112305515.34506     -2159.509 6        40.591    28618654.313 6 115235231.29606     -2215.616 6        40.925
S27        12.000    39079031.973 6 205361571.79106      -416.907 6        36.798
G15        13.000    24949695.922 6 131111541.35306      3315.897 6        37.187                                    24949692.978 4 102164821.22804      2583.823 4        26.036    24949693.315 5 102164813.17605      2584.207 5        32.509
S36        14.000    38184728.473 7 200662576.13207      -391.542 7        44.325
G20        15.000    20898142.228 8 109820455.92508     -1726.333 8        48.552                                    20898139.309 6  85574355.25806     -1345.193 6        38.865
R11        16.000    20376317.587 8 108884865.06908      2748.761 8        50.699                                                                    20376318.903 7  84688226.34207      2138.006 7        47.435
S45        17.000    63366584.435 6 332993912.03606      -435.384 6        36.382
E13        18.000    26853245.019 6 141114770.32506      -253.416 6        39.793                                                                    26853246.661 7 105377902.30507      -189.357 7        43.530    26853246.065 7 108126891.91107      -194.339 7        44.173
E24        19.000    25054328.580 7 131661346.18107      -362.668 7        45.520                                                                    25054330.415 8  98318540.61708      -270.774 8        48.454    25054329.743 8 100883369.67508      -277.819 8        49.058
R18        20.000    24108033.925 6 128690318.56506      1701.603 6        39.679                                                                    24108036.405 6 100092462.42206      1323.540 6        40.391
G30        21.000    20380240.885 8 107098892.87008      -510.265 8        50.480                                    20380240.547 8  83453685.50908      -397.606 8        52.594    20380241.216 7  83453689.50807      -397.606 7        45.365
I06        22.000    37957784.976 7 148954651.20407      -328.729 7        43.617
S28        23.000    40848314.230 5 214659166.44405      -395.864 5        34.581
G14        24.000    22377506.314 7 117594583.00307      2686.017 7        44.566                                    22377506.702 5  91632142.26305      2092.999 5        33.305    22377507.303 7  91632144.26707      2092.990 7        43.824
S23        25.000    38119007.663 7 200316670.19907      -388.924 7        44.530
E08        26.000    27214132.437 6 143011226.68506      2045.406 6        39.604                                                                    27214131.704 6 106794094.90506      1527.372 6        41.678    27214131.268 7 109580025.59907      1567.263 7        42.902
C07        27.000                                                                                                                                    39983459.119 6 208204345.58106       974.555 6        38.838    39983459.600 7 160996815.85207       753.598 7        43.041    39983456.500 6 169183081.46206       791.901 6        38.823
G13        28.000    21823818.928 7 114684939.29307      2300.032 7        45.353                                    21823815.227 5  89364865.94005      1792.237 5        30.808
R09        29.000    22151460.212 7 118287528.82607     -4162.863 7        44.703                                                                    22151462.585 7  92001403.78207     -3237.701 7        44.021
C22        30.000                                                                                                                                    21948093.684 8 114289470.51108     -1918.021 8        52.101                                                                    21948088.700 8  92869535.66608     -1558.555 8        49.926
I01        31.000   345131069.496 6  51227485.35806     -3035.751 6        41.282
E03        32.000    23612903.199 8 124086645.51108       586.773 8        48.241                                                                    23612904.585 8  92662119.33308       438.171 8        50.819    23612904.279 8  95079386.46508       449.648 8        51.554
G05        33.000    21219049.729 7 111506866.30907       812.662 7        47.770                                    21219046.192 7  86888461.87707       633.247 7        47.047    21219046.947 7  86888464.88007       633.222 7        44.450
R24        34.000    24087409.618 6 128806208.16206     -3681.672 6        41.504                                                                    24087410.853 6 100182605.45206     -2863.579 6        36.616
C36        35.000                                                                                                                                    22134316.453 8 115259175.97008     -1562.208 8        49.966                                                                    22134322.876 8  93657538.48008     -1269.371 8        49.847
G11        36.000    25007464.452 6 131415070.40306     -3620.521 6        39.601                                    25007464.275 3 102401336.06903     -2821.169 3        21.500    25007463.548 6 102401336.04006     -2821.187 6        38.414
I09        38.000    39029963.475 7 153161824.03207      -887.079 7        42.736
R08        39.000    19398799.463 8 103879670.69208     -1284.695 8        50.387                                                                    19398798.768 7  80795292.78907      -999.292 7        47.252
E25        40.000    25247610.217 7 132677088.22907      2184.857 7        45.022                                                                    25247614.831 7  99077049.60807      1631.550 7        47.611    25247613.707 7 101661660.34407      1674.016 7        47.817
G27        41.000    24885320.421 6 130773254.93906      -337.969 6        36.011                                    24885322.608 4 101901251.21704      -263.354 4        28.844    24885322.900 6 101901255.21706      -263.193 6        36.140
S44        42.000    40843069.276 6 214631794.25806      -426.175 6        36.189
C09        43.000                                                                                                                                    40138803.130 6 209013209.92906     -1139.266 6        36.620    40138805.667 7 161622239.07107      -880.825 7        42.417    40138802.370 6 169840315.56806      -925.791 6        38.285
C05        44.000                                                                                                                                    39262864.162 6 204451964.60706      -451.449 6        38.763    39262864.647 7 158095225.33107      -349.132 7        42.918    39262865.407 6 166134050.32706      -366.922 6        39.610
C40        45.000                                                                                                                                    40159240.338 6 209119697.58206      1224.792 6        40.920                                                                    40159244.309 6 169926897.87706       995.150 6        40.536
C21        46.000                                                                                                                                    22480646.881 8 117062612.98508      1187.172 8        50.782                                                                    22480642.099 8  95122931.29908       964.703 8        49.556
R17        47.000    23203331.124 7 124165727.84607     -1106.451 7        44.864                                                                    23203331.076 6  96573349.66406      -860.629 6        41.614
C06        49.000                                                                                                                                    41039674.844 6 213704203.49906     -1316.769 6        36.231    41039680.305 6 165249584.59006     -1018.314 6        39.231    41039676.664 6 173652113.74906     -1070.090 6        36.117
C16        50.000                                                                                                                                    41561433.152 4 216421126.47604     -1250.732 4        28.237    41561447.549 5 167350503.42305      -966.856 5        30.257    41561441.274 4 175859852.36404     -1016.184 4        26.168
S48        51.000    77139688.189 6 405370416.42206      -376.422 6        38.012
C19        52.000                                                                                                                                    26212312.728 6 136494282.20506     -3589.786 6        41.280                                                                    26212316.359 7 110912753.04407     -2917.012 7        42.938
C60        54.000                                                                                                                                    40843072.261 6 212680613.89706      -422.186 6        39.991                                                                    40843064.791 6 172820351.42406      -343.111 6        37.943
C45        55.000                                                                                                                                    22292252.299 8 116081593.27708      1505.121 8        50.764                                                                    22292245.680 8  94325773.76308      1223.068 8        49.711
C02        57.000                                                                                                                                    40839739.472 5 212663096.81505      -460.454 5        33.725    40839745.398 6 164444540.19906      -356.168 6        39.736    40839746.212 5 172806149.18605      -374.345 5        34.857
I03        58.000   126399591.699 7 420233654.19307       916.489 7        42.072
R07        59.000    22416779.402 7 119998688.76007     -3900.862 7        45.294                                                                    22416784.995 6  93332286.10706     -3034.116 6        41.917
G07        60.000    21819900.259 7 114664342.54907     -2379.023 7        46.784                                    21819898.109 7  89348823.64907     -1853.780 7        45.422    21819898.195 7  89348824.64307     -1853.699 7        43.452
> 2025 01 01 07 01  5.0000000  0 56
G08         1.000    24512787.014 6 128815591.90406      1081.295 6        36.578                                    24512795.249 4 100375833.90604       842.549 4        28.673    24512796.219 6 100375843.95706       842.391 6        36.121
R01         2.000    20639742.942 8 110331232.03308      2558.113 8        48.470                                                                    20639743.821 6  85813245.49006      1989.655 6        40.567
G09         3.000    23889376.811 6 125539410.74706     -3616.568 6        39.216                                    23889384.036 5  97822889.44205     -2818.088 5        34.562    23889383.935 6  97822890.41606     -2818.045 6        39.138
E34         4.000    28482553.258 5 149676737.97505     -3479.068 5        35.857                                                                    28482560.681 6 111771568.51106     -2597.663 6        38.682    28482559.640 6 114687351.30506     -2665.683 6        39.643
S21         5.000    38416362.206 7 201879115.88407      -390.644 7        43.331
E05         6.000    22671685.057 7 119140510.32907     -1776.355 7        47.435                                                                    22671688.013 8  88968579.95908     -1326.472 8        49.989    22671687.515 8  91289492.96208     -1361.083 8        50.742
E15         7.000    26555991.184 6 139552658.80206     -2660.856 6        41.042                                                                    26555994.432 7 104211413.90807     -1986.983 7        44.059    26555993.480 7 106929971.54107     -2038.815 7        44.459
R10         8.000    19514597.177 7 104023768.84407     -1480.822 7        46.543
E31         9.000    27562614.131 6 144842473.54106     -2730.533 6        37.319                                                                    27562618.729 6 108161596.37406     -2038.920 6        40.987    27562618.256 6 110983202.97306     -2092.154 6        41.528
G18        10.000    25325806.704 6 133088003.62206      1184.462 6        38.676                                    25325803.850 3 103704922.10603       922.959 3        21.619    25325804.529 6 103704930.10406       923.148 6        39.198
E09        11.000    28621391.977 6 150406257.09606     -2891.910 6        37.153                                                                    28621407.834 6 112316312.33506     -2159.492 6        40.541    28621405.675 6 115246309.95906     -2215.907 6        40.474
S27        12.000    39079426.173 6 205363655.37606      -416.760 6        36.567
G15        13.000    24946541.656 6 131094961.69306      3315.698 6        37.974                                    24946538.003 4 102151902.02104      2583.658 4        25.850    24946539.498 5 102151893.99905      2583.805 5        32.814
S36        14.000    38185098.741 7 200664533.29107      -391.443 7        44.071
G20        15.000    20899786.164 8 109829095.31008     -1729.496 8        48.678                                    20899783.341 6  85581087.22706     -1347.656 6        38.898
R11        16.000    20373746.839 8 108871128.04908      2745.813 8        50.570                                                                    20373747.836 7  84677541.97807      2135.604 7        47.549
S45        17.000    63366954.489 6 332996087.41906      -435.184 6        36.431
E13        18.000    26853487.806 6 141116044.34706      -256.268 6        40.010                                                                    26853489.100 7 105378853.67907      -191.263 7        43.395    26853488.517 7 108127868.08907      -196.257 7        44.104
E24        19.000    25054674.923 7 131663165.59507      -365.216 7        45.597                                                                    25054676.679 8  98319899.27108      -272.701 8        48.442    25054675.990 8 100884763.76708      -279.781 8        49.065
R18        20.000    24106441.327 6 128681818.16506      1698.268 6        39.745                                                                    24106443.563 6 100085851.03206      1320.868 6        39.393
G30        21.000    20380727.743 8 107101449.70308      -512.639 8        50.723                                    20380727.105 8  83455677.84008      -399.460 8        52.606    20380727.713 7  83455681.84207      -399.452 7        45.723
I06        22.000    37958203.973 7 148956294.47707      -328.684 7        43.477
S28        23.000    40848689.533 5 214661146.22705      -395.980 5        34.843
G14        24.000    22374951.686 7 117581156.50307      2684.452 7        44.727                                    22374951.671 5  91621680.06205      2091.779 5        33.216    22374952.247 7  91621682.06507      2091.774 7        43.826
S23        25.000    38119376.854 7 200318613.79607      -388.822 7        44.408
E08        26.000    27212185.618 6 143000999.37106      2045.306 6        39.700                                                                    27212185.413 6 106786457.61206      1527.393 6        41.554    27212185.022 7 109572189.06907      1567.259 7        42.933
C07        27.000                                                                                                                                    39982523.598 6 208199474.28606       973.923 6        39.132    39982523.900 7 160993049.06807       753.229 7        43.249    39982521.283 6 169179123.15906       791.363 6        39.141
G13        28.000    21821630.729 7 114673441.46207      2298.906 7        44.944                                    21821627.257 5  89355906.57705      1791.358 5        30.755
R09        29.000    22155358.610 7 118308346.49107     -4164.511 7        44.531                                                                    22155361.427 7  92017595.28407     -3238.977 7        44.357
C22        30.000                                                                                                                                    21949936.160 8 114299065.62208     -1920.136 8        52.036                                                                    21949931.431 8  92877332.47008     -1560.254 8        50.078
I01        31.000   345134937.346 6  51242663.92206     -3035.862 6        41.108
E03        32.000    23612345.323 8 124083713.64208       585.716 8        48.266                                                                    23612346.699 8  92659929.93108       437.486 8        50.731    23612346.413 8  95077139.95708       448.864 8        51.601
G05        33.000    21218277.748 7 111502810.75707       809.412 7        47.895                                    21218274.439 7  86885301.69307       630.715 7        47.082    21218275.140 7  86885304.68807       630.787 7        44.754
R24        34.000    24090854.417 7 128824620.39107     -3683.322 7        42.451                                                                    24090853.205 6 100196926.08006     -2864.750 6        36.469
C36        35.000                                                                                                                                    22135817.604 8 115266992.34108     -1564.519 8        49.969                                                                    22135823.894 8  93663889.91708     -1271.295 8        50.032
G11        36.000    25010909.207 6 131433173.38906     -3620.773 6        39.462                                    25010909.026 3 102415442.23603     -2821.368 3        21.643    25010908.765 6 102415442.21206     -2821.293 6        37.512
I09        38.000    39031093.826 7 153166259.53807      -887.210 7        42.648
R08        39.000    19399999.822 8 103886101.50908     -1287.775 8        50.060                                                                    19399999.771 7  80800294.51907     -1001.598 7        47.372
E25        40.000    25245531.872 7 132666167.13007      2183.433 7        45.162                                                                    25245536.543 7  99068894.23807      1630.499 7        47.522    25245535.596 7 101653292.21807      1673.073 7        47.921
G27        41.000    24885643.678 5 130774952.08805      -341.403 5        35.495                                    24885645.580 4 101902573.66904      -266.032 4        28.616    24885645.632 6 101902577.66906      -265.892 6        36.253
S44        42.000    40843472.974 6 214633924.41106      -426.196 6        36.397
C09        43.000                                                                                                                                    40139895.998 6 209018905.06006     -1139.164 6        36.688    40139899.338 7 161626642.86207      -880.728 7        42.320    40139895.978 6 169844943.29506      -925.608 6        38.336
C05        44.000                                                                                                                                    39263297.310 6 204454221.75106      -451.545 6        38.913    39263298.122 7 158096970.68107      -349.256 7        42.980    39263298.801 6 166135884.42706      -366.944 6        39.955
C40        45.000                                                                                                                                    40158064.518 6 209113575.15206      1224.086 6        40.858                                                                    40158068.680 6 169921922.91706       994.593 6        40.791
C21        46.000                                                                                                                                    22479507.590 8 117056681.09208      1185.353 8        50.877                                                                    22479503.008 8  95118111.14808       963.181 8        49.693
R17        47.000    23204368.147 7 124171270.26007     -1110.626 7        45.687                                                                    23204367.679 6  96577660.40306      -863.883 6        41.981
C06        49.000                                                                                                                                    41040939.028 6 213710787.13606     -1316.751 6        36.200    41040944.567 6 165254675.40906     -1018.035 6        39.423    41040941.175 6 173657463.44006     -1069.929 6        36.155
C16        50.000                                                                                                                                    41562634.855 4 216427379.56804     -1250.810 4        27.413    41562648.571 4 167355338.59304      -966.209 4        28.455
S48        51.000    77140052.590 6 405372297.04706      -376.045 6        37.879
C19        52.000                                                                                                                                    26215759.826 6 136512232.50106     -3590.407 6        41.783                                                                    26215763.544 7 110927339.07807     -2917.549 7        42.955
C60        54.000                                                                                                                                    40843477.708 6 212682724.70906      -422.310 6        40.160                                                                    40843470.318 6 172822066.58006      -343.140 6        38.174
C45        55.000                                                                                                                                    22290807.981 8 116074072.60308      1502.960 8        50.991                                                                    22290801.428 8  94319662.60408      1221.272 8        49.900
C02        57.000                                                                                                                                    40840181.286 5 212665399.02405      -460.635 5        33.671    40840187.866 6 164446320.35106      -356.015 6        39.772    40840188.254 5 172808019.86605      -374.122 5        35.138
I03        58.000   126398423.833 6 420229071.10406       916.702 6        41.897
R07        59.000    22420424.217 7 120018196.44607     -3902.330 7        46.094                                                                    22420430.105 7  93347458.67007     -3035.125 7        42.736
G07        60.000    21822164.242 7 114676240.39707     -2380.289 7        47.021                                    21822162.208 7  89358094.68007     -1854.766 7        45.442    21822162.197 7  89358095.67707     -1854.772 7        43.837
> 2025 01 01 07 01 10.0000000  0 56
G08         1.000    24511759.535 6 128810192.45306      1078.536 6        36.798                                    24511767.711 4 100371626.60304       840.406 4        28.502    24511768.433 6 100371636.64406       840.333 6        36.386
R01         2.000    20637350.916 8 110318445.69808      2556.281 8        48.159                                                                    20637351.905 6  85803300.54206      1988.217 6        40.203
G09         3.000    23892817.747 6 125557495.56106     -3617.361 6        39.294                                    23892825.634 5  97836981.42305     -2818.706 5        34.833    23892825.537 6  97836982.39806     -2818.843 6        38.523
E34         4.000    28485863.058 6 149694131.14306     -3478.435 6        36.386                                                                    28485870.695 6 111784556.85606     -2597.492 6        38.943    28485869.492 6 114700678.47506     -2665.321 6        39.453
S21         5.000    38416734.545 7 201881068.73907      -390.622 7        43.240
E05         6.000    22673375.694 7 119149394.41107     -1777.463 7        47.204                                                                    22673378.635 8  88975214.15008     -1327.287 8        50.063    22673378.114 8  91296300.22308     -1361.891 8        50.805
E15         7.000    26558523.288 6 139565966.95306     -2662.680 6        41.027                                                                    26558526.917 7 104221351.77307     -1988.164 7        44.223    26558526.110 7 106940168.66707     -2040.144 7        44.369
R10         8.000    19515988.108 7 104031183.23107     -1485.102 7        46.329
E31         9.000    27565213.020 6 144856129.99506     -2732.244 6        37.932                                                                    27565217.434 6 108171794.36306     -2040.286 6        41.170    27565216.969 6 110993667.00106     -2093.450 6        41.397
G18        10.000    25324681.184 6 133082087.52506      1181.701 6        38.643                                    25324678.066 3 103700312.17403       920.810 3        22.343    25324679.173 6 103700320.15506       920.785 6        39.862
E09        11.000    28624143.827 6 150420717.21006     -2892.249 6        37.335                                                                    28624159.665 6 112327110.41606     -2159.789 6        40.281    28624157.391 6 115257389.74206     -2216.127 6        40.331
S27        12.000    39079818.156 6 205365739.24106      -416.801 6        36.741
G15        13.000    24943387.384 6 131078382.41306      3315.898 6        37.206                                    24943382.947 4 102138983.10304      2583.816 4        25.865    24943383.936 5 102138975.15905      2583.282 5        33.126
S36        14.000    38185470.378 7 200666490.35307      -391.539 7        44.099
G20        15.000    20901433.181 8 109837750.74908     -1732.732 8        48.516                                    20901430.441 6  85587831.71206     -1350.175 6        38.952
R11        16.000    20371179.725 8 108857406.66008      2742.673 8        50.766                                                                    20371180.313 7  84666869.79807      2133.191 7        47.700
S45        17.000    63367327.995 6 332998263.27806      -435.465 6        36.076
E13        18.000    26853732.847 6 141117331.40206      -258.684 6        40.064                                                                    26853734.008 7 105379814.78907      -193.196 7        43.562    26853733.490 7 108128854.28007      -198.270 7        44.123
E24        19.000    25055023.728 7 131664997.71507      -367.780 7        45.865                                                                    25055025.336 8  98321267.40808      -274.620 8        48.481    25055024.563 8 100886167.60408      -281.834 8        48.938
R18        20.000    24104852.418 6 128673335.53506      1694.643 6        39.234                                                                    24104854.485 6 100079253.41906      1318.024 6        38.508
G30        21.000    20381216.639 8 107104018.28908      -514.987 8        50.847                                    20381215.893 8  83457679.32508      -401.288 8        52.639    20381216.633 7  83457683.32907      -401.358 7        45.792
I06        22.000    37958622.917 7 148957938.17507      -328.852 7        43.361
S28        23.000    40849069.639 5 214663126.41305      -396.311 5        34.700
G14        24.000    22372398.585 7 117567738.21607      2682.792 7        45.433                                    22372398.258 5  91611224.25505      2090.489 5        33.413    22372398.732 7  91611226.25907      2090.378 7        43.755
S23        25.000    38119747.748 7 200320557.93007      -388.902 7        44.470
E08        26.000    27210239.768 6 142990772.97906      2044.979 6        39.946                                                                    27210239.539 6 106778821.00406      1527.248 6        41.766    27210239.029 7 109564353.25607      1567.081 7        42.785
C07        27.000                                                                                                                                    39981588.594 6 208194606.40206       973.116 6        38.988    39981588.969 7 160989284.93707       752.472 7        43.062    39981586.300 6 169175167.62906       790.616 6        39.504
G13        28.000    21819443.203 7 114661949.52207      2297.670 7        44.811                                    21819440.419 5  89346951.80805      1790.390 5        30.755
R09        29.000    22159258.302 7 118329172.98107     -4166.296 7        43.655                                                                    22159261.108 7  92033793.65507     -3240.435 7        43.869
C22        30.000                                                                                                                                    21951780.732 8 114308671.52208     -1922.342 8        51.926                                                                    21951776.229 8  92885138.02908     -1562.095 8        50.233
I01        31.000   345138805.657 6  51257843.23206     -3035.948 6        40.863
E03        32.000    23611788.717 8 124080787.18608       584.610 8        48.285                                                                    23611789.829 8  92657744.58908       436.573 8        50.848    23611789.534 8  95074897.60408       447.977 8        51.531
G05        33.000    21217509.002 7 111498771.92407       806.021 7        47.980                                    21217505.870 7  86882154.54207       628.072 7        47.152    21217506.231 7  86882157.54507       628.036 7        44.236
R24        34.000    24094299.710 7 128843041.44807     -3685.109 7        43.054                                                                    24094298.236 5 100211253.52505     -2866.311 5        35.419
C36        35.000                                                                                                                                    22137321.017 8 115274820.54108     -1566.900 8        50.054                                                                    22137327.281 8  93670250.96608     -1273.273 8        50.137
G11        36.000    25014354.124 6 131451277.70006     -3621.049 6        39.886                                    25014354.044 3 102429549.46103     -2821.590 3        21.905    25014355.180 6 102429549.42906     -2821.359 6        36.144
I09        38.000    39032224.446 7 153170695.75507      -887.360 7        42.734
R08        39.000    19401203.745 8 103892548.14408     -1290.948 8        50.445                                                                    19401203.438 7  80805308.55907     -1004.082 7        46.864
E25        40.000    25243454.976 7 132655253.32107      2182.064 7        44.835                                                                    25243459.885 7  99060744.32107      1629.361 7        47.715    25243458.832 7 101644929.69707      1671.815 7        47.941
G27        41.000    24885969.567 5 130776665.74505      -344.481 5        35.376                                    24885971.848 4 101903908.99504      -268.430 4        28.701    24885972.297 6 101903913.02406      -268.593 6        36.045
S44        42.000    40843878.912 6 214636054.75806      -426.280 6        36.310
C09        43.000                                                                                                                                    40140989.854 6 209024599.92106     -1138.932 6        36.851    40140992.875 6 161631046.48106      -880.756 6        41.990    40140989.585 6 169849570.82306      -925.696 6        38.381
C05        44.000                                                                                                                                    39263730.968 6 204456479.20806      -451.454 6        38.931    39263731.552 7 158098716.27407      -349.208 7        42.722    39263732.343 6 166137718.77806      -367.088 6        39.997
C40        45.000                                                                                                                                    40156889.914 6 209107456.75506      1223.265 6        40.574                                                                    40156893.750 6 169916951.23106       993.865 6        40.906
C21        46.000                                                                                                                                    22478370.340 8 117050758.66308      1183.482 8        50.812                                                                    22478365.727 8  95113298.68708       961.585 8        49.824
R17        47.000    23205407.058 7 124176833.91007     -1114.904 7        45.691                                                                    23205406.564 6  96581987.66206      -867.153 6        41.235
C06        49.000                                                                                                                                    41042202.878 6 213717370.21806     -1316.513 6        36.132    41042208.912 6 165259765.84706     -1018.184 6        39.387    41042205.608 6 173662812.73006     -1070.178 6        36.227
C16        50.000                                                                                                                                                                                                    41563847.682 4 167360173.32504      -966.932 4        27.868    41563844.223 4 175870013.99004     -1016.287 4        25.624
S48        51.000    77140416.813 6 405374178.14706      -376.389 6        37.803
C19        52.000                                                                                                                                    26219207.787 7 136530186.07607     -3591.160 7        42.040                                                                    26219211.313 7 110941927.76007     -2918.270 7        43.107
C60        54.000                                                                                                                                    40843883.132 6 212684835.69906      -422.345 6        40.241                                                                    40843875.693 6 172823781.90506      -343.063 6        38.420
C45        55.000                                                                                                                                    22289365.472 8 116066563.15608      1500.701 8        50.834                                                                    22289359.379 8  94313560.55908      1219.353 8        49.986
C02        57.000                                                                                                                                    40840623.619 5 212667701.51405      -460.565 5        33.826    40840629.979 6 164448100.74606      -356.273 6        39.688    40840630.605 5 172809890.80705      -374.506 5        35.290
I03        58.000   126397256.186 6 420224488.20406       916.574 6        41.852
R07        59.000    22424069.897 7 120037711.84307     -3903.942 7        45.910                                                                    22424075.405 7  93362637.26807     -3036.319 7        42.318
G07        60.000    21824429.981 7 114688145.05507     -2381.725 7        47.314                                    21824427.608 7  89367371.01907     -1855.886 7        45.485    21824427.495 7  89367372.01607     -1855.890 7        43.424
> 2025 01 01 07 01 15.0000000  0 56
G08         1.000    24510734.938 6 128804805.95506      1076.046 6        37.066                                    24510742.667 4 100367429.39804       838.464 4        28.474    24510743.459 6 100367439.42906       838.542 6        36.314
R01         2.000    20634960.216 7 110305667.87607      2554.837 7        47.775                                                                    20634960.836 6  85793362.23806      1987.118 6        40.372
G09         3.000    23896260.026 6 125575584.12306     -3617.961 6        38.697                                    23896267.920 5  97851076.32505     -2819.175 5        34.624    23896267.737 6  97851077.30806     -2819.142 6        38.580
E34         4.000    28489172.623 6 149711522.41906     -3478.087 6        36.594                                                                    28489180.231 6 111797543.76506     -2597.144 6        38.904    28489178.953 6 114714004.19306     -2665.119 6        39.532
S21         5.000    38417104.706 7 201883021.99007      -390.614 7        43.376
E05         6.000    22675067.283 7 119158283.88107     -1778.379 7        46.974                                                                    22675070.276 8  88981852.36708     -1327.963 8        50.132    22675069.747 8  91303111.61508     -1362.616 8        50.868
E15         7.000    26561057.643 6 139579283.04706     -2663.990 6        40.915                                                                    26561060.966 7 104231295.58707     -1989.306 7        44.167    26561060.131 7 106950371.88307     -2041.205 7        44.507
R10         8.000    19517382.737 7 104038618.82007     -1489.151 7        46.548
E31         9.000    27567812.688 6 144869793.96406     -2733.496 6        38.069                                                                    27567817.625 6 108181997.96406     -2041.083 6        41.192    27567817.254 6 111004136.78206     -2094.559 6        41.549
G18        10.000    25323557.568 6 133076185.66706      1179.078 6        38.213                                    25323554.870 3 103695713.29903       918.775 3        22.171    25323555.327 6 103695721.29306       918.702 6        39.880
E09        11.000    28626895.731 6 150435178.73706     -2892.368 6        37.096                                                                    28626911.356 6 112337909.54506     -2159.836 6        40.026    28626909.529 6 115268470.59606     -2216.246 6        40.269
S27        12.000    39080219.050 6 205367823.50406      -416.839 6        36.786
G15        13.000    24940231.350 6 131061803.55906      3315.481 6        36.907                                    24940227.949 4 102126064.51104      2583.484 4        25.459    24940228.830 5 102126056.53205      2583.588 5        32.880
S36        14.000    38185844.867 7 200668448.14407      -391.506 7        44.242
G20        15.000    20903083.097 8 109846422.24508     -1735.823 8        48.078                                    20903080.599 6  85594588.70406     -1352.585 6        38.742
R11        16.000    20368614.581 8 108843700.90908      2739.643 8        51.666                                                                    20368615.744 7  84656209.74907      2130.856 7        47.815
S45        17.000    63367695.965 6 333000439.43206      -435.141 6        36.250
E13        18.000    26853979.964 6 141118631.48906      -261.261 6        40.133                                                                    26853981.340 7 105380785.62007      -195.062 7        43.524    26853980.955 7 108129850.44007      -200.159 7        44.178
E24        19.000    25055374.613 7 131666842.51507      -370.133 7        45.771                                                                    25055376.480 8  98322645.00508      -276.377 8        48.526    25055375.567 8 100887581.13508      -283.613 8        49.111
R18        20.000    24103266.398 6 128664870.57806      1691.371 6        39.556                                                                    24103268.824 6 100072669.56706      1315.264 6        38.180
G30        21.000    20381707.348 8 107106598.58208      -517.171 8        50.806                                    20381706.927 8  83459689.93108      -402.987 8        52.473    20381707.492 7  83459693.92907      -402.985 7        45.836
I06        22.000    37959041.748 7 148959582.25307      -328.762 7        43.335
S28        23.000    40849447.035 5 214665106.66805      -396.123 5        34.995
G14        24.000    22369846.508 7 117554328.09607      2681.278 7        45.354                                    22369846.411 5  91600774.80605      2089.309 5        33.419    22369846.945 7  91600776.80707      2089.329 7        43.812
S23        25.000    38120117.323 7 200322502.16507      -388.710 7        44.534
E08        26.000    27208294.406 6 142980547.46006      2045.084 6        39.922                                                                    27208293.510 6 106771185.04806      1527.186 6        41.921    27208293.257 7 109556518.11807      1567.023 7        43.024
C07        27.000                                                                                                                                    39980654.283 6 208189741.89206       972.803 6        38.607    39980654.964 7 160985523.40707       752.089 7        43.234    39980652.233 6 169171214.81306       790.331 6        39.655
G13        28.000    21817258.015 7 114650463.40307      2296.795 7        44.924                                    21817254.650 5  89338001.57705      1789.714 5        30.762
R09        29.000    22163159.828 7 118350008.25507     -4167.859 7        43.577                                                                    22163162.646 7  92049998.82707     -3241.575 7        43.810
C22        30.000                                                                                                                                    21953627.473 8 114318288.16708     -1924.354 8        51.850                                                                    21953623.020 8  92892952.32108     -1563.694 8        50.235
I01        31.000   345142673.507 6  51273023.23506     -3035.997 6        40.656
E03        32.000    23611232.970 8 124077866.11608       583.715 8        48.344                                                                    23611234.002 8  92655563.25208       435.955 8        50.884    23611233.687 8  95072659.36308       447.312 8        51.731
G05        33.000    21216743.760 7 111494749.82507       802.832 7        47.562                                    21216740.503 7  86879020.42807       625.583 7        46.974    21216741.059 7  86879023.42107       625.657 7        44.334
R24        34.000    24097744.375 7 128861471.17207     -3686.723 7        42.565                                                                    24097744.086 5 100225587.76705     -2867.444 5        35.395
C36        35.000                                                                                                                                    22138826.690 8 115282660.53008     -1569.078 8        50.008                                                                    22138832.887 8  93676621.57808     -1275.012 8        50.164
G11        36.000    25017799.787 6 131469383.26906     -3621.299 6        39.817                                    25017799.420 3 102443657.64503     -2821.811 3        21.976    25017801.150 6 102443657.61806     -2821.539 6        37.819
I09        38.000    39033355.308 7 153175132.63307      -887.328 7        42.844
R08        39.000    19402410.649 8 103899010.38608     -1293.944 8        50.485                                                                    19402410.137 7  80810334.71907     -1006.362 7        47.072
E25        40.000    25241379.470 7 132644346.79007      2180.673 7        44.784                                                                    25241384.565 7  99052599.81507      1628.432 7        47.926    25241383.431 8 101636572.72608      1670.906 8        48.032
G27        41.000    24886298.510 5 130778395.92005      -347.825 5        35.781                                    24886301.111 4 101905257.20604      -271.033 4        28.521    24886302.094 6 101905261.20306      -270.782 6        36.771
S44        42.000    40844284.032 6 214638185.27906      -426.154 6        36.405
C09        43.000                                                                                                                                    40142082.868 6 209030294.54506     -1138.531 6        36.699    40142086.385 6 161635449.88906      -880.553 6        41.781    40142083.357 6 169854198.14306      -925.459 6        38.465
C05        44.000                                                                                                                                    39264164.787 6 204458736.98006      -451.568 6        38.949    39264165.031 7 158100462.08607      -349.073 7        42.737    39264166.023 6 166139553.35006      -366.783 6        39.778
C40        45.000                                                                                                                                    40155715.504 6 209101342.37306      1222.656 6        40.603                                                                    40155719.465 6 169911982.78206       993.442 6        40.999
C21        46.000                                                                                                                                    22477234.780 8 117044845.66908      1181.717 8        50.835                                                                    22477230.168 8  95108493.87308       960.211 8        49.891
R17        47.000    23206450.449 7 124182418.64907     -1118.930 7        44.944                                                                    23206450.101 6  96586331.35406      -870.210 6        40.975
C06        49.000                                                                                                                                    41043466.113 6 213723952.74506     -1316.251 6        36.140    41043472.747 6 165264855.81906     -1017.863 6        39.610    41043469.730 6 173668161.49006     -1069.465 6        36.159
C16        50.000                                                                                                                                    41565035.967 4 216439883.70304     -1250.614 4        27.725    41565048.130 4 167365007.52304      -966.848 4        28.019    41565043.276 4 175875093.99704     -1016.279 4        25.895
S48        51.000    77140783.200 6 405376059.50306      -375.979 6        36.681
C19        52.000                                                                                                                                    26222656.294 6 136548142.85806     -3591.629 6        41.876                                                                    26222659.936 7 110956519.04907     -2918.458 7        43.240
C60        54.000                                                                                                                                    40844288.632 6 212686946.85406      -422.218 6        40.210                                                                    40844281.197 6 172825497.33706      -343.030 6        38.270
C45        55.000                                                                                                                                    22287925.431 8 116059064.89708      1498.590 8        50.736                                                                    22287919.365 8  94307467.59408      1217.749 8        50.063
C02        57.000                                                                                                                                    40841065.303 5 212670004.18705      -460.539 5        33.611    40841072.107 6 164449881.26606      -356.080 6        39.661    40841072.620 5 172811761.88705      -374.186 5        35.410
I03        58.000   126396088.011 6 420219905.46806       916.535 6        41.793
R07        59.000    22427716.425 7 120057235.10207     -3905.364 7        46.016                                                                    22427722.335 7  93377821.94907     -3037.467 7        42.087
G07        60.000    21826696.607 7 114700056.46107     -2382.984 7        47.481                                    21826694.305 7  89376652.61507     -1856.868 7        45.312    21826694.440 7  89376653.60907     -1856.798 7        43.139
> 2025 01 01 07 01 20.0000000  0 56
G08         1.000    24509711.453 6 128799432.12206      1073.425 6        36.635                                    24509719.913 4 100363242.05804       836.422 4        28.948    24509720.156 6 100363252.10506       836.372 6        36.703
R01         2.000    20632570.857 7 110292898.24107      2553.098 7        47.663                                                                    20632573.211 6  85783430.29806      1985.806 6        40.572
G09         3.000    23899702.885 6 125593676.11006     -3618.675 6        38.012                                    23899710.815 5  97865173.90205     -2819.736 5        34.576    23899710.791 6  97865174.88506     -2819.751 6        38.201
E34         4.000    28492481.661 6 149728911.44306     -3477.685 6        36.628                                                                    28492489.210 6 111810529.00106     -2596.630 6        38.895    28492488.018 6 114727328.17906     -2664.585 6        39.426
S21         5.000    38417475.050 7 201884975.31807      -390.642 7        43.611
E05         6.000    22676759.917 7 119167178.44507     -1779.370 7        46.940                                                                    22676762.853 8  88988494.38908     -1328.783 8        50.197    22676762.270 8  91309926.90908     -1363.440 8        50.963
E15         7.000    26563592.982 6 139592606.78806     -2665.416 6        40.961                                                                    26563596.342 7 104241245.11307     -1990.422 7        44.163    26563595.669 7 106960580.95807     -2042.395 7        44.643
R10         8.000    19518781.740 7 104046075.05407     -1493.291 7        46.363
E31         9.000    27570414.279 6 144883465.17106     -2735.008 6        38.009                                                                    27570419.180 6 108192206.94206     -2042.255 6        41.347    27570418.859 6 111014612.09306     -2095.737 6        41.774
G18        10.000    25322437.193 6 133070297.79206      1176.158 6        38.459                                    25322434.639 3 103691125.31903       916.499 3        22.210    25322435.069 6 103691133.31606       916.574 6        40.005
E09        11.000    28629647.987 6 150449641.37806     -2892.762 6        37.017                                                                    28629663.482 6 112348709.50006     -2160.122 6        40.036    28629661.705 6 115279552.30706     -2216.475 6        40.355
S27        12.000    39080613.344 6 205369907.58706      -416.764 6        36.586
G15        13.000    24937077.131 5 131045224.66305      3315.808 5        35.857                                    24937072.933 4 102113145.89004      2583.753 4        25.774    24937074.938 5 102113137.90405      2584.010 5        32.731
S36        14.000    38186218.498 7 200670406.14107      -391.608 7        44.372
G20        15.000    20904736.457 8 109855109.47608     -1738.986 8        48.116                                    20904733.745 6  85601357.95706     -1355.050 6        39.012
R11        16.000    20366052.993 8 108830010.47108      2736.649 8        51.915                                                                    20366053.373 8  84645561.63208      2128.471 8        48.174
S45        17.000    63368068.750 6 333002615.39006      -435.163 6        36.567
E13        18.000    26854229.743 6 141119944.28506      -263.998 6        39.682                                                                    26854231.228 7 105381765.93507      -196.992 7        43.719    26854230.622 7 108130856.32407      -202.165 7        44.388
E24        19.000    25055728.163 7 131668699.67307      -372.656 7        45.881                                                                    25055729.850 8  98324031.84608      -278.328 8        48.632    25055729.074 8 100889004.15508      -285.550 8        49.209
R18        20.000    24101683.924 6 128656423.02306      1687.723 6        39.658                                                                    24101687.080 6 100066099.23606      1312.725 6        38.553
G30        21.000    20382200.709 8 107109190.25508      -519.434 8        50.914                                    20382200.115 8  83461709.40908      -404.753 8        52.699    20382200.418 7  83461713.41107      -404.778 7        45.949
I06        22.000    37959460.614 7 148961226.49607      -328.830 7        43.257
S28        23.000    40849823.626 5 214667086.65405      -395.836 5        35.100
G14        24.000    22367295.475 7 117540925.83707      2679.663 7        44.837                                    22367296.195 5  91590331.49205      2088.049 5        33.623    22367296.504 7  91590333.48507      2088.099 7        44.360
S23        25.000    38120487.046 7 200324446.24507      -388.758 7        44.716
E08        26.000    27206348.400 6 142970322.52006      2044.993 6        39.589                                                                    27206347.789 7 106763549.54607      1526.919 7        42.025    27206347.445 7 109548683.41507      1566.792 7        43.022
C07        27.000                                                                                                                                    39979720.591 6 208184880.45506       972.080 6        38.450    39979721.851 7 160981764.24307       751.570 7        43.361    39979718.535 6 169167264.49706       789.841 6        39.718
G13        28.000    21815073.619 7 114638982.84607      2295.586 7        45.326                                    21815070.003 5  89329055.67905      1788.775 5        30.958
R09        29.000    22167064.149 7 118370851.82507     -4169.487 7        44.080                                                                    22167066.594 7  92066210.47707     -3242.958 7        44.268
C22        30.000                                                                                                                                    21955476.337 8 114327915.23708     -1926.438 8        51.960                                                                    21955471.762 8  92900775.08908     -1565.430 8        50.285
I01        31.000   345146542.012 6  51288203.74006     -3036.113 6        40.672
E03        32.000    23610678.015 8 124074950.10508       582.759 8        48.088                                                                    23610679.113 8  92653385.70708       435.137 8        51.007    23610678.810 8  95070425.01308       446.472 8        51.801
G05        33.000    21215981.426 7 111490744.10907       799.560 7        47.423                                    21215978.252 7  86875899.07707       623.036 7        47.231    21215978.621 7  86875902.07807       623.057 7        44.369
R24        34.000    24101191.525 7 128879909.33607     -3688.560 7        42.483                                                                    24101191.585 6 100239928.49306     -2868.849 6        36.102
C36        35.000                                                                                                                                    22140334.401 8 115290511.98808     -1571.380 8        49.892                                                                    22140340.710 8  93683001.51508     -1276.915 8        50.210
G11        36.000    25021245.345 6 131487489.73906     -3621.351 6        39.129                                    25021244.913 3 102457766.55103     -2821.820 3        22.057    25021246.617 6 102457766.51906     -2821.723 6        38.889
I09        38.000    39034486.249 7 153179569.98207      -887.432 7        42.815
R08        39.000    19403620.490 8 103905487.92608     -1296.967 8        50.674                                                                    19403619.874 7  80815372.80107     -1008.825 7        46.922
E25        40.000    25239305.774 7 132633447.19507      2179.260 7        45.138                                                                    25239310.430 8  99044460.51008      1627.339 8        48.129    25239309.277 8 101628221.09008      1669.847 8        48.163
G27        41.000    24886631.653 6 130780142.24506      -350.888 6        36.276                                    24886633.496 4 101906617.98604      -273.424 4        29.118    24886633.910 6 101906621.97506      -273.501 6        36.333
S44        42.000    40844690.422 6 214640315.63506      -425.987 6        36.423
C09        43.000                                                                                                                                    40143176.555 6 209035988.56406     -1138.931 6        36.771    40143179.937 7 161639852.81307      -880.580 7        42.091    40143177.032 6 169858824.95706      -925.387 6        38.607
C05        44.000                                                                                                                                    39264598.423 6 204460994.69806      -451.488 6        38.946    39264598.711 7 158102207.88207      -349.164 7        42.825    39264599.551 6 166141387.92906      -366.910 6        40.100
C40        45.000                                                                                                                                    40154542.470 6 209095231.68106      1221.791 6        40.563                                                                    40154545.930 6 169907017.35606       992.754 6        41.008
C21        46.000                                                                                                                                    22476100.969 8 117038941.79308      1179.912 8        50.766                                                                    22476096.371 8  95103696.48208       958.756 8        49.946
R17        47.000    23207497.525 7 124188024.29307     -1123.205 7        45.096                                                                    23207499.145 7  96590691.27707      -873.597 7        42.021
C06        49.000                                                                                                                                    41044731.144 6 213730534.36406     -1316.190 6        36.079    41044736.559 6 165269945.11806     -1017.742 6        39.529    41044733.529 6 173673509.57706     -1069.572 6        36.087
C16        50.000                                                                                                                                    41566238.382 4 216446134.41904     -1249.906 4        27.245    41566250.324 4 167369840.93104      -966.277 4        26.000    41566245.583 4 175880173.24704     -1016.491 4        26.084
S48        51.000    77141146.640 6 405377940.87706      -376.326 6        37.558
C19        52.000                                                                                                                                    26226105.300 6 136566102.57606     -3592.337 6        41.688                                                                    26226108.927 7 110971112.71207     -2918.990 7        43.264
C60        54.000                                                                                                                                    40844694.043 6 212689057.81906      -422.134 6        40.122                                                                    40844686.554 6 172827212.64506      -342.987 6        38.279
C45        55.000                                                                                                                                    22286487.747 8 116051577.52308      1496.418 8        50.687                                                                    22286481.528 8  94301383.48408      1215.912 8        50.114
C02        57.000                                                                                                                                    40841507.399 5 212672306.77105      -460.341 5        33.449    40841514.413 6 164451661.74206      -356.105 6        39.510    40841514.868 5 172813632.87705      -374.207 5        35.367
I03        58.000   126394920.798 6 420215322.63806       916.492 6        41.607
R07        59.000    22431365.182 7 120076765.78907     -3906.772 7        46.014                                                                    22431371.035 7  93393012.42707     -3038.631 7        42.133
G07        60.000    21828964.536 7 114711974.23007     -2384.161 7        47.345                                    21828962.204 7  89385939.17207     -1857.783 7        45.543    21828962.365 7  89385940.17007     -1857.763 7        43.022
> 2025 01 01 07 01 25.0000000  0 56
G08         1.000    24508691.727 6 128794070.89706      1070.986 6        37.127                                    24508699.552 4 100359064.54004       834.520 4        29.128    24508700.163 6 100359074.56206       834.391 6        36.295
R01         2.000    20630184.084 8 110280136.76608      2551.419 8        48.027                                                                    20630184.951 6  85773504.67806      1984.530 6        40.696
G09         3.000    23903146.295 6 125611771.47506     -3619.577 6        37.580                                    23903154.340 5  97879274.10505     -2820.432 5        34.162    23903153.986 6  97879275.07806     -2820.282 6        38.468
E34         4.000    28495790.435 6 149746298.14006     -3477.291 6        36.639                                                                    28495797.866 6 111823512.52306     -2596.559 6        38.802    28495796.598 6 114740650.40106     -2664.166 6        39.348
S21         5.000    38417848.417 7 201886928.59607      -390.723 7        43.534
E05         6.000    22678453.459 7 119176078.02007     -1780.499 7        47.079                                                                    22678456.422 8  88995140.15108     -1329.590 8        50.293    22678455.802 8  91316746.04008     -1364.234 8        50.837
E15         7.000    26566129.782 6 139605938.08906     -2667.067 6        41.263                                                                    26566133.233 7 104251200.27907     -1991.658 7        44.361    26566132.585 7 106970795.83807     -2043.563 7        44.530
R10         8.000    19520184.100 7 104053551.86307     -1497.543 7        46.024
E31         9.000    27573017.315 6 144897143.46506     -2736.443 6        38.024                                                                    27573022.119 6 108202421.25406     -2043.479 6        41.356    27573021.643 6 111025092.83806     -2096.747 6        41.647
G18        10.000    25321318.850 6 133064423.82706      1173.297 6        38.610                                    25321317.261 3 103686548.21303       914.264 3        21.405    25321317.068 6 103686556.21006       914.333 6        38.880
E09        11.000    28632400.290 6 150464105.01906     -2892.798 6        37.180                                                                    28632415.825 6 112359510.23306     -2160.250 6        39.808    28632414.009 6 115290634.79506     -2216.685 6        40.141
S27        12.000    39081012.347 6 205371991.93006      -417.094 6        36.423
G15        13.000    24933922.600 6 131028645.75206      3315.741 6        36.870                                    24933917.912 4 102100227.26304      2583.691 4        25.744    24933918.203 5 102100219.26005      2584.167 5        31.457
S36        14.000    38186589.258 7 200672363.85007      -391.585 7        44.232
G20        15.000    20906392.883 8 109863812.35208     -1742.176 8        48.064                                    20906389.837 6  85608139.40806     -1357.535 6        38.853
R11        16.000    20363494.115 8 108816335.35208      2733.383 8        51.887                                                                    20363494.642 8  84634925.42808      2125.935 8        48.481
S45        17.000    63368438.889 6 333004791.28606      -435.498 6        36.268
E13        18.000    26854481.518 6 141121269.66706      -266.466 6        39.895                                                                    26854483.456 7 105382755.66207      -198.978 7        43.706    26854482.997 7 108131871.87607      -204.191 7        44.149
E24        19.000    25056083.862 7 131670569.12707      -375.176 7        45.995                                                                    25056085.641 8  98325427.86108      -280.177 8        48.616    25056084.850 8 100890436.59408      -287.533 8        49.028
R18        20.000    24100104.359 6 128647992.79106      1684.195 6        39.420                                                                    24100107.736 6 100059542.38806      1310.094 6        38.697
G30        21.000    20382696.272 8 107111793.24008      -521.794 8        50.868                                    20382695.455 8  83463737.70008      -406.589 8        52.550    20382696.158 7  83463741.69707      -406.636 7        45.920
I06        22.000    37959879.762 7 148962870.87107      -328.955 7        43.335
S28        23.000    40850196.979 5 214669066.50405      -396.041 5        34.814
G14        24.000    22364747.020 7 117527531.38007      2678.061 7        44.447                                    22364747.545 5  91579894.25505      2086.800 5        33.401    22364747.707 7  91579896.26607      2086.706 7        44.825
S23        25.000    38120857.609 7 200326390.33107      -388.965 7        44.521
E08        26.000    27204403.088 6 142960098.09006      2044.750 6        39.853                                                                    27204402.235 7 106755914.40207      1526.971 7        42.152    27204401.852 7 109540849.09407      1566.759 7        42.764
C07        27.000                                                                                                                                    39978787.598 6 208180022.04606       971.253 6        38.141    39978788.568 7 160978007.42407       751.105 7        43.242    39978785.384 6 169163316.65306       789.209 6        39.532
G13        28.000    21812889.917 7 114627507.75607      2294.482 7        45.186                                    21812886.317 5  89320114.03705      1787.907 5        30.853
R09        29.000    22170969.704 7 118391703.74507     -4171.301 7        44.102                                                                    22170971.104 7  92082428.60807     -3244.330 7        44.623
C22        30.000                                                                                                                                    21957327.260 8 114337552.67908     -1928.612 8        52.011                                                                    21957322.554 8  92908606.27808     -1567.120 8        50.146
I01        31.000   345150410.670 6  51303384.68506     -3036.369 6        40.725
E03        32.000    23610124.067 8 124072039.10008       581.577 8        48.182                                                                    23610125.167 8  92651211.89108       434.298 8        51.105    23610124.864 8  95068194.49008       445.662 8        51.604
G05        33.000    21215222.348 7 111486754.67807       796.173 7        47.109                                    21215219.109 7  86872790.42007       620.397 7        47.126    21215219.579 7  86872793.41907       620.444 7        44.295
R24        34.000    24104641.224 7 128898355.78507     -3690.139 7        42.995                                                                    24104641.215 5 100254275.78005     -2870.260 5        34.967
C36        35.000                                                                                                                                    22141844.508 8 115298374.84108     -1573.829 8        50.011                                                                    22141850.687 8  93689390.70908     -1278.783 8        50.057
G11        36.000    25024690.919 6 131505597.08706     -3621.540 6        38.670                                    25024690.508 3 102471876.12503     -2821.974 3        21.929    25024691.764 6 102471876.09106     -2821.902 6        38.141
I09        38.000    39035616.853 7 153184007.73207      -887.633 7        42.870
R08        39.000    19404832.464 8 103911980.82008     -1300.219 8        50.760                                                                    19404832.920 7  80820422.80407     -1011.240 7        47.466
E25        40.000    25237232.888 7 132622554.50907      2177.805 7        45.633                                                                    25237237.524 8  99036326.34608      1626.268 8        48.195    25237236.431 7 101619874.74307      1668.652 7        47.994
G27        41.000    24886966.768 6 130781904.65006      -354.120 6        36.193                                    24886968.827 4 101907991.29604      -275.942 4        29.043    24886968.729 5 101907995.31705      -275.794 5        35.914
S44        42.000    40845096.486 6 214642445.76206      -426.158 6        36.510
C09        43.000                                                                                                                                    40144270.594 6 209041681.91206     -1138.607 6        36.885    40144273.456 7 161644255.24607      -880.509 7        42.087    40144270.398 6 169863451.23606      -925.116 6        38.459
C05        44.000                                                                                                                                    39265031.728 6 204463252.33906      -451.700 6        38.814    39265032.239 7 158103953.59907      -349.150 7        42.720    39265033.236 6 166143222.41906      -367.025 6        39.754
C40        45.000                                                                                                                                    40153369.704 6 209089124.60206      1220.961 6        40.617                                                                    40153373.227 6 169902054.87006       992.081 6        40.825
C21        46.000                                                                                                                                    22474968.832 8 117033046.99808      1177.933 8        50.666                                                                    22474964.346 8  95098906.46008       957.248 8        49.740
R17        47.000    23208549.194 7 124193650.67507     -1127.441 7        45.231                                                                    23208549.720 6  96595067.36206      -876.798 6        41.285
C06        49.000                                                                                                                                    41045995.198 5 213737115.03505     -1315.939 5        35.762    41046000.360 6 165275033.65406     -1017.727 6        39.486    41045997.365 6 173678856.89106     -1069.300 6        36.008
C16        50.000                                                                                                                                    41567436.233 4 216452384.10204     -1249.652 4        27.425    41567449.903 4 167374673.52804      -966.817 4        26.731    41567444.879 4                     -1016.817 4        25.459
S48        51.000    77141510.536 6 405379822.10806      -376.355 6        37.096
C19        52.000                                                                                                                                    26229554.656 6 136584065.11206     -3592.904 6        41.676                                                                    26229558.575 7 110985708.68307     -2919.448 7        43.126
C60        54.000                                                                                                                                    40845099.042 6 212691168.58706      -422.153 6        40.124                                                                    40845092.041 6 172828927.77106      -342.942 6        38.222
C45        55.000                                                                                                                                    22285051.888 8 116044100.96408      1494.163 8        50.667                                                                    22285045.788 8  94295308.15308      1214.167 8        50.010
C02        57.000                                                                                                                                    40841950.117 5 212674609.18605      -460.801 5        33.521    40841956.441 6 164453442.06706      -356.154 6        39.601    40841957.125 5 172815503.72405      -374.113 5        35.395
I03        58.000   126393752.984 6 420210739.66406       916.503 6        41.740
R07        59.000    22435014.497 7 120096303.86307     -3908.521 7        45.065                                                                    22435021.177 7  93408208.64107     -3039.786 7        42.013
G07        60.000    21831233.577 7 114723898.32207     -2385.465 7        47.155                                    21831231.311 7  89395230.65607     -1858.801 7        45.401    21831231.629 7  89395231.64607     -1858.779 7        43.308
> 2025 01 01 07 01 30.0000000  0 56
G08         1.000    24507674.027 6 128788722.50406      1068.469 6        37.667                                    24507681.681 4 100354897.02004       832.563 4        29.498    24507682.709 6 100354907.04706       832.727 6        36.435
R01         2.000    20627798.249 7 110267383.75407      2549.897 7        47.626                                                                    20627799.244 6  85763585.66606      1983.311 6        40.698
G09         3.000    23906590.931 6 125629870.37006     -3620.123 6        37.244                                    23906598.486 5  97893377.07105     -2820.854 5        34.024    23906598.028 6  97893378.03906     -2820.640 6        38.465
E34         4.000    28499098.545 6 149763682.69506     -3476.372 6        36.722                                                                    28499106.015 6 111836494.44406     -2596.056 6        39.126    28499104.832 6 114753970.98406     -2663.772 6        39.351
S21         5.000    38418220.644 7 201888881.83307      -390.509 7        43.357
E05         6.000    22680148.023 7 119184982.80307     -1781.431 7        47.097                                                                    22680150.920 8  89001789.80008     -1330.256 8        50.209    22680150.329 8  91323569.16308     -1364.921 8        50.756
E15         7.000    26568667.997 6 139619277.17506     -2668.442 6        41.323                                                                    26568671.578 7 104261161.24507     -1992.671 7        44.415    26568671.131 7 106981016.65307     -2044.660 7        44.339
R10         8.000    19521590.717 7 104061049.67007     -1501.578 7        46.472
E31         9.000    27575621.844 6 144910829.08606     -2737.722 6        38.123                                                                    27575626.449 6 108212641.00406     -2044.399 6        41.220    27575625.960 6 111035579.21206     -2097.756 6        41.459
G18        10.000    25320204.039 6 133058563.99306      1170.651 6        38.853                                    25320202.025 3 103681982.10903       912.187 3        21.667    25320201.220 6 103681990.12506       912.154 6        38.751
E09        11.000    28635152.810 6 150478569.91706     -2892.898 6        37.267                                                                    28635168.548 6 112370311.88506     -2160.256 6        39.691    28635166.819 6 115301718.22406     -2216.765 6        39.943
S27        12.000    39081411.529 6 205374076.57106      -416.896 6        36.684
G15        13.000    24930768.151 6 131012067.06806      3315.802 6        37.104                                    24930763.151 4 102087308.81104      2583.755 4        26.204    24930763.599 5 102087300.78405      2583.850 5        31.909
S36        14.000    38186961.346 7 200674321.79507      -391.263 7        44.116
G20        15.000    20908051.866 8 109872531.06808     -1745.264 8        48.005                                    20908048.983 6  85614933.19406     -1359.942 6        38.901
R11        16.000    20360937.327 8 108802675.68608      2730.527 8        51.326                                                                    20360937.826 7  84624301.25007      2123.751 7        47.963
S45        17.000    63368807.149 6 333005367.39216      -435.216 6        36.393
E13        18.000    26854736.757 6 141122607.88806      -268.785 6        39.943                                                                    26854738.211 7 105383754.98407      -200.690 7        43.687    26854737.622 7 108132897.26107      -205.954 7        44.059
E24        19.000    25056441.922 7 131672451.07207      -377.506 7        45.917                                                                    25056443.720 8  98326833.20508      -281.901 8        48.717    25056442.929 8 100891878.59508      -289.243 8        48.990
R18        20.000    24098529.056 6 128639580.06406      1680.886 6        40.169                                                                    24098531.298 6 100052999.17706      1307.238 6        38.694
G30        21.000    20383193.530 8 107114407.74008      -524.011 8        50.653                                    20383192.981 8  83465774.96408      -408.319 8        52.593    20383193.510 7  83465778.96307      -408.273 7        45.601
I06        22.000    37960299.025 7 148964515.45407      -328.883 7        43.414
S28        23.000    40850579.348 5 214671046.59105      -395.861 5        34.671
G14        24.000    22362199.930 7 117514144.94307      2676.573 7        44.483                                    22362200.271 5  91569463.27405      2085.642 5        33.287    22362200.066 7  91569465.27807      2085.608 7        44.343
S23        25.000    38121226.160 7 200328334.52907      -388.710 7        44.336
E08        26.000    27202457.456 6 142949874.36306      2044.774 6        40.024                                                                    27202456.776 7 106748279.77907      1526.939 7        42.006    27202456.339 7 109533015.30607      1566.841 7        42.853
C07        27.000                                                                                                                                    39977854.352 6 208175166.80406       970.808 6        37.713    39977856.256 7 160974253.04707       750.725 7        43.579    39977852.969 6 169159371.36706       788.895 6        39.504
G13        28.000    21810706.918 7 114616038.15207      2293.463 7        44.865                                    21810703.669 5  89311176.67205      1787.114 5        30.898
R09        29.000    22174875.813 7 118412564.06807     -4172.735 7        43.939                                                                    22174877.493 7  92098653.27607     -3245.397 7        44.620
C22        30.000                                                                                                                                    21959179.931 8 114347200.68408     -1930.605 8        52.005                                                                    21959175.304 8  92916446.05708     -1568.819 8        50.147
I01        31.000   345154279.386 6  51318566.21406     -3036.249 6        40.853
E03        32.000    23609571.104 8 124069133.29508       580.785 8        48.351                                                                    23609572.230 8  92649041.95208       433.664 8        51.037    23609571.881 8  95065967.95008       444.983 8        51.536
G05        33.000    21214466.472 7 111482781.83407       792.988 7        47.059                                    21214463.114 7  86869694.68507       617.916 7        47.170    21214463.750 7  86869697.68207       617.964 7        44.664
R24        34.000    24108093.703 7 128916810.57207     -3691.651 7        42.955                                                                    24108093.319 6 100268629.44406     -2871.196 6        36.170
C36        35.000                                                                                                                                    22143356.790 8 115306249.27108     -1575.979 8        50.084                                                                    22143362.876 8  93695789.32208     -1280.639 8        50.126
G11        36.000    25028137.581 6 131523705.45206     -3621.703 6        39.048                                    25028136.448 3 102485986.49903     -2822.103 3        21.738    25028136.675 6 102485986.47106     -2822.015 6        37.554
I09        38.000    39036748.096 7 153188446.01807      -887.557 7        42.834
R08        39.000    19406048.283 8 103918489.24608     -1303.195 8        50.602                                                                    19406048.160 7  80825484.89107     -1013.541 7        47.423
E25        40.000    25235161.252 7 132611668.92507      2176.490 7        45.457                                                                    25235165.853 8  99028197.49208      1625.276 8        48.142    25235164.992 7 101611533.82907      1667.685 7        47.946
G27        41.000    24887304.883 6 130783683.37906      -357.191 6        36.401                                    24887307.280 4 101909377.32104      -278.334 4        29.450    24887307.608 5 101909381.32005      -278.522 5        35.910
S44        42.000    40845503.547 6 214644575.86906      -425.846 6        36.480
C09        43.000                                                                                                                                    40145364.453 6 209047374.81906     -1138.468 6        37.319    40145366.797 7 161648657.33007      -880.331 7        42.301    40145363.863 6 169868077.15106      -924.899 6        38.724
C05        44.000                                                                                                                                    39265465.546 6 204465510.06806      -451.449 6        38.832    39265465.955 7 158105699.39507      -348.930 7        42.931    39265466.742 6 166145056.99806      -367.049 6        39.919
C40        45.000                                                                                                                                    40152197.412 6 209083021.36106      1220.404 6        40.863                                                                    40152201.135 6 169897095.48106       991.475 6        41.025
C21        46.000                                                                                                                                    22473838.620 8 117027161.46808      1176.299 8        50.605                                                                    22473834.125 8  95094123.97208       955.783 8        49.845
R17        47.000    23209605.004 7 124199298.00407     -1131.473 7        46.224                                                                    23209604.783 6  96599459.72506      -879.976 6        41.306
C06        49.000                                                                                                                                    41047258.821 5 213743694.96505     -1315.699 5        35.443    41047264.057 6 165280121.63606     -1017.528 6        39.357    41047260.985 6 173684203.57206     -1069.210 6        36.030
C16        50.000                                                                                                                                    41568637.909 4 216458632.93204     -1249.638 4        28.066    41568649.302 4 167379505.49104      -966.356 4        26.862    41568645.690 4                     -1015.953 4        24.977
S48        51.000    77141876.055 6 405381703.53506      -376.152 6        37.274
C19        52.000                                                                                                                                    26233005.298 6 136602030.69206     -3593.423 6        41.435                                                                    26233008.854 7 111000307.11507     -2919.974 7        43.211
C60        54.000                                                                                                                                    40845504.721 6 212693279.31906      -421.891 6        40.195                                                                    40845497.295 6 172830642.89106      -342.958 6        38.198
C45        55.000                                                                                                                                    22283618.255 8 116036635.42508      1492.103 8        50.733                                                                    22283612.107 8  94289241.78708      1212.414 8        50.026
C02        57.000                                                                                                                                    40842391.908 5 212676911.64405      -460.376 5        33.695    40842398.716 6 164455222.41606      -355.930 6        39.856    40842399.346 5 172817374.63705      -374.234 5        35.224
I03        58.000   126392584.997 6 420206156.71006       916.755 6        41.700
R07        59.000    22438665.352 7 120115849.44707     -3909.798 7        45.023                                                                    22438672.895 7  93423410.69307     -3040.942 7        42.180
G07        60.000    21833503.781 7 114735828.94207     -2386.752 7        47.020                                    21833501.630 7  89404527.22407     -1859.804 7        45.401    21833501.686 7  89404528.21907     -1859.749 7        43.105
> 2025 01 01 07 01 35.0000000  0 56
G08         1.000    24506657.868 6 128783386.58806      1065.885 6        37.127                                    24506666.157 5 100350739.21605       830.549 5        30.045    24506666.974 6 100350749.24306       830.599 6        36.794
R01         2.000    20625414.489 7 110254638.70007      2548.179 7        47.457                                                                    20625414.897 6  85753672.83106      1982.012 6        40.341
G09         3.000    23910035.732 6 125647972.49006     -3620.983 6        37.694                                    23910043.259 5  97907482.53905     -2821.531 5        34.067    23910043.108 6  97907483.51506     -2821.483 6        38.012
E34         4.000    28502406.223 6 149781064.79106     -3476.285 6        36.620                                                                    28502413.899 6 111849474.50706     -2595.812 6        39.051    28502412.693 6 114767289.67206     -2663.626 6        39.219
S21         5.000    38418592.186 7 201890834.71907      -390.561 7        43.283
E05         6.000    22681843.631 7 119193892.46707     -1782.521 7        47.054                                                                    22681846.350 8  89008443.09408     -1331.089 8        50.115    22681845.765 8  91330396.02408     -1365.802 8        50.711
E15         7.000    26571207.825 6 139632623.63506     -2670.041 6        41.201                                                                    26571211.307 7 104271127.73607     -1993.883 7        44.134    26571210.736 7 106991243.13507     -2045.873 7        44.432
R10         8.000    19523001.525 7 104068568.06107     -1505.750 7        46.781
E31         9.000    27578227.644 6 144924521.66606     -2739.278 6        37.966                                                                    27578232.019 6 108222865.97406     -2045.549 6        41.001    27578231.427 6 111046070.91806     -2098.889 6        41.299
G18        10.000    25319091.687 6 133052717.90806      1167.740 6        38.396                                    25319089.557 3 103677426.74303       909.915 3        21.452    25319089.470 6 103677434.74506       910.032 6        38.844
E09        11.000    28637905.723 6 150493035.67306     -2893.227 6        36.900                                                                    28637921.457 6 112381114.18006     -2160.698 6        39.492    28637919.568 6 115312802.33906     -2217.063 6        40.021
S27        12.000    39081803.569 6 205376160.79006      -416.815 6        36.586
G15        13.000    24927612.852 6 130995488.16306      3315.738 6        38.093                                    24927608.359 4 102074390.19004      2583.688 4        26.455    24927609.032 5 102074382.18805      2584.116 5        34.109
S36        14.000    38187334.145 7 200676279.12607      -391.344 7        44.208
G20        15.000    20909714.090 7 109881265.27607     -1748.431 7        47.910                                    20909711.041 6  85621739.05506     -1362.411 6        38.946
R11        16.000    20358383.754 8 108789031.16808      2727.323 8        51.590                                                                    20358384.580 8  84613688.84108      2121.287 8        48.122
S45        17.000    63369181.196 6 333007543.26806      -435.284 6        36.344
E13        18.000    26854993.716 6 141123958.59406      -271.490 6        40.064                                                                    26854995.175 7 105384763.62407      -202.696 7        43.630    26854994.540 7 108133932.21607      -207.954 7        44.173
E24        19.000    25056802.129 7 131674345.16807      -380.146 7        45.998                                                                    25056804.145 8  98328247.61708      -283.876 8        48.556    25056803.332 8 100893329.90508      -291.263 8        48.993
R18        20.000    24096955.436 6 128631184.54806      1677.392 6        40.276                                                                    24096958.679 6 100046469.29706      1304.704 6        38.228
G30        21.000    20383693.115 8 107117033.39108      -526.355 8        50.540                                    20383692.640 8  83467820.91708      -410.144 8        52.627    20383693.073 7  83467824.91407      -410.131 7        45.670
I06        22.000    37960718.069 7 148966160.06607      -329.082 7        43.336
S28        23.000    40850950.233 5 214673026.89405      -396.023 5        34.619
G14        24.000    22359654.094 7 117500766.19507      2674.938 7        44.749                                    22359654.215 5  91559038.27705      2084.369 5        33.234    22359653.971 7  91559040.27807      2084.377 7        43.082
S23        25.000    38121596.254 7 200330278.45807      -388.800 7        44.421
E08        26.000    27200511.936 6 142939650.98906      2044.590 6        39.607                                                                    27200511.284 6 106740645.42606      1526.851 6        41.945    27200510.901 7 109525181.80107      1566.667 7        42.838
C07        27.000                                                                                                                                    39976921.648 6 208170314.41606       970.151 6        37.474    39976924.480 7 160970500.89407       750.168 7        43.554    39976921.180 6 169155428.41706       788.372 6        39.577
G13        28.000    21808525.486 7 114604573.90907      2292.254 7        45.186                                    21808522.220 5  89302243.48905      1786.174 5        30.808
R09        29.000    22178783.625 7 118433432.47707     -4174.542 7        44.351                                                                    22178785.673 7  92114884.23807     -3246.846 7        44.438
C22        30.000                                                                                                                                    21961034.698 8 114356858.90208     -1932.741 8        52.001                                                                    21961030.070 8  92924294.13008     -1570.460 8        50.252
I01        31.000   345158148.545 6  51333748.05906     -3036.462 6        40.806
E03        32.000    23609019.044 8 124066232.34508       579.692 8        48.384                                                                    23609020.186 8  92646875.65408       432.817 8        50.907    23609019.853 8  95063745.13408       444.130 8        51.547
G05        33.000    21213713.352 7 111478825.13907       789.691 7        47.492                                    21213710.178 7  86866611.53307       615.345 7        47.223    21213710.468 7  86866614.53207       615.393 7        44.131
R24        34.000    24111546.522 7 128935273.47207     -3693.358 7        43.295                                                                    24111545.963 5 100282989.48405     -2872.802 5        35.343
C36        35.000                                                                                                                                    22144871.047 8 115314134.92808     -1578.310 8        50.011                                                                    22144877.283 8  93702197.05008     -1282.517 8        50.159
G11        36.000    25031583.478 6 131541814.44806     -3621.923 6        40.098                                    25031582.544 3 102500097.35103     -2822.289 3        22.133    25031582.495 6 102500097.37006     -2822.185 6        37.633
I09        38.000    39037879.042 7 153192884.59907      -887.793 7        42.802
R08        39.000    19407266.194 8 103925012.77008     -1306.270 8        50.716                                                                    19407265.915 7  80830558.73707     -1016.007 7        46.900
E25        40.000    25233090.845 7 132600790.09407      2174.970 7        45.267                                                                    25233095.571 7  99020073.68407      1624.150 7        47.934    25233094.829 7 101603198.09307      1666.575 7        47.939
G27        41.000    24887646.423 6 130785478.02006      -360.509 6        36.779                                    24887648.832 4 101910775.73104      -280.916 4        29.640    24887649.425 5 101910779.73105      -280.832 5        35.729
S44        42.000    40845908.635 6 214646705.57906      -425.987 6        36.491
C09        43.000                                                                                                                                    40146457.331 6 209053066.89906     -1138.565 6        37.788    40146460.238 7 161653058.76507      -880.179 7        42.372    40146456.936 6 169872702.41206      -925.128 6        38.859
C05        44.000                                                                                                                                    39265899.142 6 204467767.56306      -451.761 6        38.799    39265899.434 7 158107445.01107      -349.140 7        42.950    39265900.199 6 166146891.35506      -366.833 6        39.955
C40        45.000                                                                                                                                    40151026.102 6 209076921.58706      1219.543 6        40.877                                                                    40151029.543 6 169892138.92406       991.005 6        40.861
C21        46.000                                                                                                                                    22472710.302 8 117021284.87008      1174.391 8        50.703                                                                    22472705.601 8  95089348.74308       954.271 8        49.934
R17        47.000    23210665.187 7 124204965.94707     -1135.651 7        46.236                                                                    23210664.280 6  96603868.12606      -883.264 6        41.251
C06        49.000                                                                                                                                    41048521.460 5 213750273.80505     -1315.615 5        35.271    41048527.897 6 165285208.74206     -1017.357 6        39.529    41048524.668 6 173689549.36906     -1069.144 6        36.163
C16        50.000                                                                                                                                    41569838.560 4 216464880.57004     -1249.869 4        26.419    41569848.694 4 167384336.42104      -965.254 4        26.036    41569843.070 3                     -1015.859 3        22.514
S48        51.000    77142239.366 6 405385184.81816      -376.258 6        37.448
C19        52.000                                                                                                                                    26236455.852 6 136619998.95406     -3593.903 6        41.166                                                                    26236459.420 7 111014907.72107     -2920.360 7        43.335
C60        54.000                                                                                                                                    40845910.261 6 212695389.67606      -422.045 6        40.215                                                                    40845902.800 6 172832357.68606      -342.863 6        38.459
C45        55.000                                                                                                                                    22282186.665 8 116029180.56208      1489.852 8        50.653                                                                    22282180.454 8  94283184.08908      1210.658 8        50.045
C02        57.000                                                                                                                                    40842834.465 5 212679213.78405      -460.591 5        33.725    40842840.848 6 164457002.51206      -355.988 6        39.868    40842841.380 5 172819245.26205      -374.241 5        35.605
I03        58.000   126391417.227 6 420201573.52006       916.648 6        41.743
R07        59.000    22442319.216 7 120135402.17907     -3911.365 7        45.105                                                                    22442325.044 7  93438618.32607     -3042.079 7        42.595
G07        60.000    21835775.482 7 114747765.71907     -2387.999 7        46.696                                    21835773.130 7  89413828.59207     -1860.775 7        45.403    21835773.240 7  89413829.59007     -1860.726 7        43.145
> 2025 01 01 07 01 40.0000000  0 56
G08         1.000    24505645.779 6 128778063.18306      1063.494 6        37.006                                    24505653.102 5 100346591.16905       828.686 5        30.219    24505653.841 6 100346601.19306       828.919 6        37.062
R01         2.000    20623031.332 7 110241901.65907      2546.774 7        47.499                                                                    20623032.488 6  85743766.24406      1980.799 6        40.739
G09         3.000    23913481.024 6 125666077.81506     -3621.062 6        38.009                                    23913488.640 5  97921590.50705     -2821.593 5        34.167    23913487.946 6  97921591.48806     -2821.710 6        37.887
E34         4.000    28505713.726 6 149798444.39806     -3475.363 6        36.499                                                                    28505721.232 6 111862452.73006     -2595.354 6        38.661    28505719.912 6 114780606.46306     -2662.979 6        39.321
S21         5.000    38418962.365 7 201892787.19507      -390.301 7        43.128
E05         6.000    22683539.885 7 119202807.00407     -1783.260 7        47.052                                                                    22683542.832 8  89015100.03808     -1331.682 8        50.050    22683542.219 8  91337226.63508     -1366.460 8        50.791
E15         7.000    26573749.118 6 139645977.52206     -2671.353 6        40.772                                                                    26573752.519 7 104281099.75507     -1994.873 7        44.202    26573751.791 7 107001475.30407     -2046.910 7        44.436
R10         8.000    19524415.841 7 104076106.99607     -1509.677 7        46.398
E31         9.000    27580834.946 6 144938221.24506     -2740.712 6        38.306                                                                    27580838.986 6 108233096.15806     -2046.520 6        40.765    27580838.288 6 111056567.97506     -2099.876 6        41.366
G18        10.000    25317981.168 6 133046885.63206      1165.080 6        37.709                                    25317979.705 3 103672882.13503       907.845 3        21.238    25317980.022 6 103672890.15306       907.963 6        40.493
E09        11.000    28640658.747 6 150507502.33606     -2893.504 6        37.093                                                                    28640674.250 6 112391917.15906     -2160.525 6        39.616    28640672.383 6 115323887.13106     -2216.965 6        39.868
S27        12.000    39082204.052 6 205378244.31506      -416.651 6        36.450
G15        13.000    24924457.861 6 130978909.09206      3315.914 6        38.159                                    24924453.544 4 102061471.43304      2583.815 4        26.323    24924454.636 5 102061463.47705      2583.681 5        35.124
S36        14.000    38187705.420 7 200678235.71907      -391.188 7        43.958
G20        15.000    20911378.923 7 109890014.99107     -1751.333 7        47.842                                    20911376.067 6  85628557.00006     -1364.669 6        38.820
R11        16.000    20355833.207 8 108775401.76608      2724.441 8        51.348                                                                    20355833.983 7  84603088.19207      2119.053 7        47.020
S45        17.000    63369550.382 6 333009718.83606      -434.725 6        36.261
E13        18.000    26855252.750 6 141125321.81106      -273.612 6        40.181                                                                    26855254.615 7 105385781.60307      -204.518 7        43.443    26855254.013 7 108134976.75507      -209.802 7        44.072
E24        19.000    25057164.978 7 131676251.41607      -382.312 7        45.529                                                                    25057166.871 8  98329671.11308      -285.497 8        48.501    25057166.137 8 100894790.53708      -292.951 8        49.028
R18        20.000    24095386.591 6 128622806.27306      1674.080 6        40.119                                                                    24095389.159 6 100039952.84406      1302.119 6        38.363
G30        21.000    20384194.952 8 107119670.21308      -528.421 8        50.468                                    20384194.423 8  83469875.57608      -411.754 8        52.588    20384195.021 7  83469879.57107      -411.695 7        46.004
I06        22.000    37961137.197 7 148967804.68107      -328.849 7        43.164
S28        23.000    40851327.155 5 214675006.86205      -395.906 5        34.890
G14        24.000    22357109.499 7 117487395.16607      2673.512 7        44.482                                    22357109.584 5  91548619.29205      2083.254 5        33.245    22357109.776 7  91548621.28807      2083.264 7        43.384
S23        25.000    38121966.469 7 200332222.06807      -388.610 7        44.328
E08        26.000    27198566.835 6 142929427.98806      2044.918 6        39.859                                                                    27198565.873 6 106733011.36106      1526.925 6        41.840    27198565.623 7 109517348.60607      1566.613 7        42.878
C07        27.000                                                                                                                                    39975989.941 6 208165464.91306       969.717 6        37.611    39975993.312 7 160966750.95907       749.922 7        43.672    39975989.891 6 169151487.82706       787.943 6        39.450
G13        28.000    21806345.238 7 114593115.10107      2291.375 7        44.786                                    21806341.740 5  89293314.54205      1785.490 5        30.770
R09        29.000    22182693.149 7 118454308.96607     -4175.959 7        44.402                                                                    22182695.108 7  92131121.48707     -3248.043 7        44.163
C22        30.000                                                                                                                                    21962891.445 8 114366527.34908     -1934.602 8        52.123                                                                    21962886.849 8  92932150.53108     -1572.107 8        50.252
I01        31.000   345162017.219 6  51348930.27306     -3036.360 6        41.135
E03        32.000    23608467.935 8 124063336.27708       578.812 8        48.361                                                                    23608469.104 8  92644712.99108       432.288 8        50.871    23608468.787 8  95061526.06008       443.538 8        51.567
G05        33.000    21212963.890 7 111474884.65907       786.588 7        47.338                                    21212960.332 7  86863541.01807       612.927 7        47.181    21212960.650 7  86863544.01007       612.949 7        44.181
R24        34.000    24114999.014 7 128953744.47007     -3694.812 7        42.167                                                                    24114999.507 5 100297355.86105     -2873.625 5        35.357
C36        35.000                                                                                                                                    22146387.430 8 115322031.83008     -1580.422 8        50.174                                                                    22146393.751 8  93708613.92908     -1284.275 8        50.209
G11        36.000    25035029.343 6 131559924.15506     -3621.866 6        39.889                                    25035028.900 3 102514208.76603     -2822.227 3        22.210    25035030.200 6 102514208.80406     -2822.468 6        37.845
I09        38.000    39039010.035 7 153197323.48807      -887.729 7        42.654
R08        39.000    19408487.159 8 103931551.32708     -1309.113 8        50.641                                                                    19408487.013 7  80835644.27007     -1018.274 7        46.912
E25        40.000    25231022.166 7 132589918.05007      2173.906 7        45.031                                                                    25231026.725 7  99011954.94607      1623.397 7        47.800    25231025.965 7 101594867.56807      1665.632 7        47.989
G27        41.000    24887991.434 5 130787288.63105      -363.618 5        35.443                                    24887993.370 4 101912186.58704      -283.336 4        29.507    24887993.869 5 101912190.58305      -283.169 5        35.762
S44        42.000    40846312.378 6 214648834.96506      -425.806 6        36.234
C09        43.000                                                                                                                                    40147550.176 6 209058758.22106     -1138.261 6        38.135    40147553.054 7 161657459.62307      -880.084 7        42.358    40147549.973 6 169877327.05106      -924.924 6        38.952
C05        44.000                                                                                                                                    39266332.218 6 204470024.83206      -451.410 6        39.003    39266332.981 7 158109190.45907      -348.932 7        43.041    39266333.790 6 166148725.57806      -366.865 6        39.871
C40        45.000                                                                                                                                    40149855.057 6 209070825.33306      1218.962 6        40.899                                                                    40149858.864 6 169887185.22706       990.529 6        40.939
C21        46.000                                                                                                                                    22471583.492 8 117015417.22908      1172.758 8        50.760                                                                    22471578.819 8  95084580.81208       952.824 8        49.929
R17        47.000    23211727.719 7 124210654.44407     -1139.583 7        45.434                                                                    23211728.063 6  96608292.53706      -886.434 6        41.590
C06        49.000                                                                                                                                    41049783.951 5 213756851.55305     -1315.379 5        35.195    41049791.174 6 165290295.04006     -1016.970 6        39.898    41049787.870 6 173694894.31906     -1068.988 6        36.095
C16        50.000                                                                                                                                    41571036.563 4 216471126.88404     -1249.293 4        25.774    41571047.447 4 167389166.53404      -965.493 4        26.970    41571043.977 3                     -1015.704 3        23.733
S48        51.000    77142601.925 6 405387065.81006      -376.013 6        37.051
C19        52.000                                                                                                                                    26239906.734 6 136637969.91206     -3594.244 6        40.975                                                                    26239910.683 7 111029510.54207     -2920.760 7        43.295
C60        54.000                                                                                                                                    40846315.440 6 212697499.69106      -421.903 6        40.315                                                                    40846307.871 6 172834072.22606      -342.740 6        38.162
C45        55.000                                                                                                                                    22280756.903 8 116021736.39808      1487.897 8        50.656                                                                    22280750.848 8  94277135.10108      1208.984 8        50.041
C02        57.000                                                                                                                                    40843276.042 5 212681515.61605      -460.002 5        33.838    40843283.181 6 164458782.41006      -355.900 6        39.820    40843283.498 5 172821115.66905      -374.127 5        35.505
I03        58.000   126390249.128 6 420196990.09706       916.806 6        41.733
R07        59.000    22445973.226 7 120154962.35607     -3912.659 7        45.016                                                                    22445979.457 7  93453831.73807     -3043.077 7        42.281
G07        60.000    21838048.165 7 114759708.68207     -2389.073 7        46.862                                    21838045.818 7  89423134.77807     -1861.613 7        45.317    21838045.937 7  89423135.77807     -1861.665 7        43.761
> 2025 01 01 07 01 45.0000000  0 56
G08         1.000    24504634.824 6 128772752.51806      1060.745 6        37.516                                    24504642.627 5 100342453.04205       826.543 5        30.325    24504644.199 6 100342463.07706       826.621 6        37.036
R01         2.000    20620650.464 7 110229172.84807      2544.791 7        47.986                                                                    20620651.061 6  85733866.04806      1979.248 6        40.908
G09         3.000    23916926.831 6 125684186.59706     -3622.248 6        38.051                                    23916934.575 5  97935701.16505     -2822.515 5        34.286    23916934.536 6  97935702.14006     -2822.562 6        38.249
E34         4.000    28509020.497 6 149815821.76006     -3475.615 6        36.730                                                                    28509027.857 6 111875429.26006     -2595.167 6        38.721    28509026.806 6 114793921.51206     -2662.827 6        39.084
S21         5.000    38419335.066 7 201894739.43807      -390.542 7        43.037
E05         6.000    22685237.434 7 119211726.65907     -1784.500 7        47.289                                                                    22685240.166 8  89021760.79408     -1332.550 8        50.020    22685239.611 8  91344061.15008     -1367.343 8        50.773
E15         7.000    26576291.841 6 139659339.01706     -2673.226 6        40.918                                                                    26576295.158 7 104291077.46407     -1996.200 7        44.080    26576294.438 7 107011713.30807     -2048.242 7        44.427
R10         8.000    19525833.475 7 104083666.56807     -1514.031 7        46.353
E31         9.000    27583443.017 6 144951927.97606     -2742.192 6        38.363                                                                    27583447.147 6 108243331.68406     -2047.690 6        40.684    27583446.725 6 111067070.52306     -2101.081 6        41.256
G18        10.000    25316874.016 6 133041067.34506      1162.124 6        37.664                                    25316872.558 3 103668348.43603       905.554 3        21.619    25316872.519 6 103668356.43706       905.579 6        40.064
E09        11.000    28643411.915 6 150521970.13906     -2893.808 6        37.607                                                                    28643427.616 6 112402720.95706     -2160.868 6        39.234    28643425.531 6 115334972.78306     -2217.203 6        39.808
S27        12.000    39082593.616 6 205380328.21206      -416.724 6        36.386
G15        13.000    24921302.487 6 130962330.12206      3315.680 6        36.957                                    24921298.940 4 102048552.75404      2583.653 4        26.719    24921299.639 5 102048544.78305      2583.454 5        34.133
S36        14.000    38188079.162 7 200680192.13707      -391.252 7        43.947
G20        15.000    20913047.024 7 109898780.39507     -1754.770 7        47.741                                    20913044.081 6  85635387.17306     -1367.352 6        38.904
R11        16.000    20353285.837 8 108761787.81108      2721.188 8        51.460                                                                    20353286.265 7  84592499.56207      2116.438 7        47.331
S45        17.000    63369921.643 6 333011894.43506      -435.276 6        36.306
E13        18.000    26855514.948 6 141126697.75506      -276.549 6        40.136                                                                    26855516.478 7 105386809.07307      -206.470 7        43.475    26855515.946 7 108136031.02807      -211.918 7        44.116
E24        19.000    25057530.165 7 131678170.04307      -385.004 7        45.585                                                                    25057531.970 8  98331103.84808      -287.499 8        48.410    25057531.306 8 100896260.65208      -295.078 8        48.991
R18        20.000    24093820.449 6 128614445.48806      1670.248 6        40.300                                                                    24093822.695 6 100033450.01206      1299.021 6        39.069
G30        21.000    20384698.791 8 107122318.43308      -530.885 8        50.698                                    20384698.371 8  83471939.11408      -413.676 8        52.654    20384699.031 7  83471943.11207      -413.673 7        46.043
I06        22.000    37961556.149 7 148969449.46707      -329.003 7        43.281
S28        23.000    40851708.585 5 214676986.46305      -396.003 5        34.510
G14        24.000    22354566.703 7 117474032.07907      2671.756 7        44.363                                    22354566.519 5  91538206.49405      2081.884 5        33.245    22354567.416 7  91538208.49207      2081.877 7        43.420
S23        25.000    38122337.256 7 200334165.73707      -388.925 7        44.197
E08        26.000    27196621.267 6 142919205.62306      2044.421 6        39.703                                                                    27196620.622 6 106725377.75006      1526.686 6        41.909    27196620.299 7 109509515.83407      1566.558 7        42.973
C07        27.000                                                                                                                                    39975059.851 6 208160618.53206       968.911 6        37.418    39975062.488 7 160963003.45207       749.238 7        43.464    39975059.109 6 169147549.75406       787.405 6        39.535
G13        28.000    21804165.476 7 114581661.94207      2289.962 7        44.936                                    21804162.280 5  89284389.98505      1784.382 5        30.898
R09        29.000    22186603.517 7 118475193.79307     -4177.884 7        44.218                                                                    22186605.977 7  92147365.21707     -3249.438 7        44.020
C22        30.000                                                                                                                                    21964750.208 8 114376206.24908     -1936.948 8        52.292                                                                    21964745.592 8  92940015.41608     -1573.942 8        50.279
I01        31.000   345165886.284 6  51364112.98506     -3036.611 6        41.106
E03        32.000    23607917.783 8 124060445.30408       577.585 8        48.497                                                                    23607918.988 8  92642554.13508       431.369 8        50.778    23607918.663 8  95059310.88908       442.627 8        51.592
G05        33.000    21212216.758 7 111470960.58507       783.073 7        47.296                                    21212213.633 7  86860483.28607       610.190 7        47.222    21212214.259 7  86860486.28907       610.235 7        44.208
R24        34.000    24118454.857 6 128972223.76006     -3696.852 6        41.161                                                                    24118457.156 6 100311728.61906     -2875.339 6        36.870
C36        35.000                                                                                                                                    22147906.306 8 115329940.19408     -1582.885 8        50.229                                                                    22147912.493 8  93715040.11608     -1286.306 8        50.180
G11        36.000    25038475.400 6 131578034.74906     -3622.317 6        39.508                                    25038475.599 3 102528320.89503     -2822.566 3        21.857    25038476.399 6 102528320.86906     -2822.572 6        38.252
I09        38.000    39040141.470 7 153201762.83507      -888.005 7        42.559
R08        39.000    19409711.112 8 103938105.37108     -1312.418 8        50.543                                                                    19409711.191 7  80840741.83707     -1020.741 7        46.765
E25        40.000    25228954.554 7 132579053.02507      2172.250 7        45.171                                                                    25228959.399 7  99003841.45107      1622.134 7        47.792    25228958.355 7 101586542.41007      1664.476 7        47.873
G27        41.000    24888338.242 5 130789115.48605      -367.103 5        35.552                                    24888340.972 4 101913610.10804      -286.057 4        29.043    24888340.969 5 101913614.08805      -286.018 5        35.733
S44        42.000    40846715.459 5 214650964.20805      -426.018 5        35.876
C09        43.000                                                                                                                                    40148643.393 6 209064448.95606     -1138.190 6        38.213    40148645.974 7 161661860.03707      -880.027 7        42.493    40148642.813 6 169881951.22506      -924.936 6        39.072
C05        44.000                                                                                                                                    39266766.216 6 204472282.12106      -451.524 6        38.976    39266766.384 7 158110935.91407      -349.247 7        43.014    39266767.331 6 166150559.78206      -366.847 6        39.868
C40        45.000                                                                                                                                    40148684.858 6 209064732.79506      1218.032 6        40.837                                                                    40148688.922 6 169882234.54206       989.939 6        40.870
C21        46.000                                                                                                                                    22470458.484 8 117009558.77708      1170.732 8        50.720                                                                    22470453.730 8  95079820.32508       951.250 8        49.870
R17        47.000    23212793.582 7 124216363.68907     -1143.997 7        45.317                                                                    23212794.378 7  96612733.09107      -889.698 7        42.290
C06        49.000                                                                                                                                    41051047.815 5 213763428.43805     -1315.448 5        35.214    41051054.077 6 165295380.65706     -1017.180 6        39.658    41051050.710 6 173700238.53106     -1068.846 6        36.159
C16        50.000                                                                                                                                    41572234.043 4 216477372.34404     -1248.858 4        26.287    41572250.836 4 167393995.89804      -965.668 4        24.586    41572242.453 3                     -1016.593 3        22.000
S48        51.000    77142967.252 6 405388947.06506      -376.197 6        37.459
C19        52.000                                                                                                                                    26243358.070 6 136655943.77406     -3595.187 6        41.335                                                                    26243362.480 7 111044115.70207     -2921.281 7        43.238
C60        54.000                                                                                                                                    40846720.273 6 212699609.56706      -421.968 6        40.298                                                                    40846713.116 6 172835786.63106      -342.888 6        38.345
C45        55.000                                                                                                                                    22279329.493 8 116014303.16308      1485.445 8        50.702                                                                    22279323.410 8  94271094.98808      1206.959 8        50.052
C02        57.000                                                                                                                                    40843718.308 5 212683817.34805      -460.459 5        34.057    40843725.384 6 164460562.20406      -355.990 6        39.829    40843725.746 5 172822985.95905      -374.114 5        35.400
I03        58.000   126389081.240 6 420192406.60106       916.668 6        41.783
R07        59.000    22449629.081 7 120174529.91907     -3914.362 7        45.443                                                                    22449634.558 7  93469050.88307     -3044.443 7        42.508
G07        60.000    21840321.845 7 114771658.03107     -2390.568 7        46.423                                    21840319.714 7  89432445.94107     -1862.779 7        45.351    21840319.861 7  89432446.93107     -1862.688 7        43.617
> 2025 01 01 07 01 50.0000000  0 56
G08         1.000    24503626.531 6 128767454.62506      1058.312 6        37.777                                    24503634.523 5 100338324.87205       824.648 5        30.317    24503635.312 6 100338334.91206       824.599 6        37.104
R01         2.000    20618271.478 8 110216452.42408      2543.192 8        48.207                                                                    20618272.429 6  85723972.37806      1978.050 6        41.049
G09         3.000    23920373.780 6 125702298.79806     -3622.910 6        38.048                                    23920381.217 5  97949814.49205     -2823.026 5        34.114    23920381.336 6  97949815.46606     -2822.970 6        38.895
E34         4.000    28512326.880 6 149833196.81906     -3474.767 6        36.972                                                                    28512334.387 6 111888404.09406     -2594.804 6        39.000    28512333.360 6 114807234.82706     -2662.390 6        39.309
S21         5.000    38419706.998 7 201896691.68607      -390.478 7        43.048
E05         6.000    22686935.601 7 119220651.42007     -1785.485 7        47.424                                                                    22686938.542 8  89028425.36208     -1333.303 8        50.045    22686938.004 8  91350899.57308     -1368.065 8        50.791
E15         7.000    26578835.960 6 139672708.10906     -2674.661 6        41.671                                                                    26578839.136 7 104301060.85907     -1997.228 7        44.137    26578838.662 7 107021957.14507     -2049.394 7        44.373
R10         8.000    19527255.280 7 104091246.93707     -1518.204 7        45.756
E31         9.000    27586052.619 6 144965641.90106     -2743.400 6        38.228                                                                    27586056.883 6 108253572.59406     -2048.749 6        40.939    27586056.516 6 111077578.58206     -2102.128 6        41.342
G18        10.000    25315770.173 6 133035263.06006      1159.292 6        38.577                                    25315768.335 3 103663825.63603       903.347 3        22.324    25315767.894 6 103663833.62006       903.368 6        39.931
E09        11.000    28646165.387 6 150536439.01206     -2893.837 6        37.985                                                                    28646181.177 6 112413525.61906     -2161.177 6        39.402    28646178.869 6 115346059.28806     -2217.445 6        40.005
S27        12.000    39082993.200 6 205382411.91806      -416.928 6        36.129
G15        13.000    24918147.637 6 130945751.17906      3315.774 6        37.584                                    24918144.286 4 102035634.10404      2583.723 4        27.162    24918143.743 5 102035626.06805      2583.882 5        32.695
S36        14.000    38188449.918 7 200682148.38707      -391.314 7        43.882
G20        15.000    20914717.745 7 109907561.52607     -1757.790 7        47.993                                    20914715.068 6  85642229.59506     -1369.707 6        38.754
R11        16.000    20350740.968 8 108748189.26908      2718.116 8        51.233                                                                    20350741.705 7  84581922.90907      2114.081 7        47.610
S45        17.000    63370295.050 5 333014069.98305      -435.141 5        35.957
E13        18.000    26855778.926 6 141128086.42506      -279.020 6        40.377                                                                    26855780.728 7 105387846.04807      -208.435 7        43.515    26855780.090 7 108137095.05207      -213.763 7        44.175
E24        19.000    25057897.572 7 131680101.05507      -387.408 7        45.926                                                                    25057899.431 8  98332545.83608      -289.363 8        48.457    25057898.740 8 100897740.25408      -296.942 8        49.009
R18        20.000    24092257.231 6 128606102.19606      1666.774 6        40.002                                                                    24092259.455 6 100026960.78506      1296.425 6        39.456
G30        21.000    20385205.274 8 107124978.03608      -533.034 8        50.945                                    20385204.478 8  83474011.52508      -415.351 8        52.534    20385204.715 7  83474015.52407      -415.277 7        45.856
I06        22.000    37961975.400 7 148971094.42807      -329.001 7        43.452
S28        23.000    40852089.361 5 214678965.95705      -396.043 5        34.048
G14        24.000    22352025.420 7 117460676.95307      2670.119 7        44.632                                    22352025.144 5  91527799.90705      2080.611 5        33.293    22352026.163 7  91527801.90607      2080.718 7        43.778
S23        25.000    38122707.291 7 200336109.53407      -388.779 7        44.242
E08        26.000    27194676.081 6 142908983.84706      2044.250 6        39.736                                                                    27194675.535 6 106717744.59106      1526.434 6        41.816    27194675.232 7 109501683.56407      1566.354 7        42.887
C07        27.000                                                                                                                                    39974129.928 6 208155775.21806       968.302 6        37.580    39974132.263 7 160959258.30407       748.780 7        43.206    39974128.859 6 169143614.17606       786.935 6        39.411
G13        28.000    21801986.913 7 114570214.40407      2288.893 7        45.243                                    21801983.929 5  89275469.81605      1783.556 5        30.943
R09        29.000    22190517.267 7 118496086.93807     -4179.490 7        44.477                                                                    22190519.088 7  92163615.41307     -3250.783 7        44.143
C22        30.000                                                                                                                                    21966611.202 8 114385895.59108     -1938.961 8        52.194                                                                    21966606.305 8  92947888.78508     -1575.527 8        50.301
I01        31.000   345169755.733 6  51379296.17806     -3036.718 6        41.433
E03        32.000    23607368.743 8 124057559.42708       576.666 8        48.627                                                                    23607369.806 8  92640399.09408       430.589 8        50.865    23607369.523 8  95057099.62908       441.845 8        51.547
G05        33.000    21211473.490 7 111467052.89107       779.870 7        47.715                                    21211470.038 7  86857438.31907       607.694 7        47.163    21211470.523 7  86857441.31507       607.766 7        44.438
R24        34.000    24121913.340 7 128990711.31107     -3698.320 7        42.368                                                                    24121912.820 5 100326107.81905     -2876.674 5        35.667
C36        35.000                                                                                                                                    22149427.302 8 115337859.99608     -1585.117 8        50.288                                                                    22149433.436 8  93721475.59608     -1288.072 8        50.225
G11        36.000    25041922.081 6 131596146.21206     -3622.518 6        39.138                                    25041922.322 3 102542433.66903     -2822.742 3        21.762    25041922.844 6 102542433.64706     -2822.804 6        38.559
I09        38.000    39041272.466 7 153206202.64907      -888.016 7        42.557
R08        39.000    19410937.952 8 103944674.89208     -1315.486 8        50.806                                                                    19410938.083 7  80845851.44307     -1023.161 7        47.025
E25        40.000    25226888.399 7 132568195.02907      2170.823 7        45.529                                                                    25226893.274 7  98995733.20307      1621.126 7        47.770    25226892.053 7 101578222.64507      1663.371 7        47.851
G27        41.000    24888689.310 5 130790958.52005      -370.119 5        35.686                                    24888691.699 4 101915046.24304      -288.405 4        28.559    24888692.868 5 101915050.25405      -288.343 5        35.724
S44        42.000    40847122.185 6 214653093.29106      -425.764 6        36.060
C09        43.000                                                                                                                                    40149736.698 6 209070139.12006     -1137.966 6        38.300    40149738.626 7 161666260.00207      -879.908 7        42.299    40149735.574 6 169886574.92406      -924.811 6        39.102
C05        44.000                                                                                                                                    39267199.548 6 204474539.39206      -451.501 6        38.889    39267199.925 7 158112681.36207      -349.223 7        42.868    39267200.815 6 166152394.00006      -367.013 6        40.045
C40        45.000                                                                                                                                    40147515.992 6 209058643.98806      1217.365 6        40.779                                                                    40147519.467 6 169877286.91806       989.113 6        40.980
C21        46.000                                                                                                                                    22469335.274 8 117003709.51308      1168.924 8        50.647                                                                    22469330.464 8  95075067.31608       949.788 8        49.964
R17        47.000    23213864.343 7 124222093.82107     -1148.089 7        44.266                                                                    23213864.707 6  96617189.86806      -892.948 6        41.116
C06        49.000                                                                                                                                    41052311.529 5 213770004.45105     -1315.207 5        34.976    41052316.847 6 165300465.62406     -1017.010 6        39.523    41052313.511 6 173705582.06706     -1068.788 6        36.204
C16        50.000                                                                                                                                    41573437.804 4 216483616.83304     -1247.852 4        27.413    41573448.248 4                      -966.177 4        26.024    41573438.715 3                     -1014.999 3        20.762
S48        51.000    77143333.599 6 405390828.13806      -376.273 6        37.448
C19        52.000                                                                                                                                    26246810.373 6 136673920.52306     -3595.548 6        41.437                                                                    26246814.778 7 111058723.23007     -2921.832 7        43.181
C60        54.000                                                                                                                                    40847125.371 6 212701719.30106      -421.833 6        40.324                                                                    40847118.393 6 172837500.93806      -342.841 6        38.264
C45        55.000                                                                                                                                    22277904.379 8 116006880.85408      1483.325 8        50.830                                                                    22277898.024 8  94265063.75308      1205.228 8        50.157
C02        57.000                                                                                                                                    40844160.618 5 212686119.01605      -460.427 5        33.826    40844167.158 6 164462341.95606      -355.971 6        39.697    40844167.448 5 172824856.23505      -374.155 5        35.310
I03        58.000   126387913.453 6 420187823.03006       916.669 6        41.869
R07        59.000    22453285.552 7 120194104.93607     -3915.863 7        45.199                                                                    22453291.750 7  93484275.84107     -3045.670 7        42.584
G07        60.000    21842596.805 7 114783613.76207     -2391.794 7        46.626                                    21842594.809 7  89441762.07507     -1863.730 7        45.207    21842594.666 7  89441763.07607     -1863.812 7        43.196
