     3.04           OBSERVATION DATA    M                   RINEX VERSION / TYPE
ssrcrin-15.6.1x                         20250101 044500 UTC PGM / RUN BY / DATE 
(00000000023479385599111004) Septentrio proprietary         COMMENT             
rref                                                        MARKER NAME         
01                                                          MARKER NUMBER       
geodetic                                                    MARKER TYPE         
NFB                 CLIMERS@TUW                             OBSERVER / AGENCY   
3297213             SEPT ASTERX SB3 PROB4.14.4              REC # / TYPE / VERS 
Unknown             Unknown                                 ANT # / TYPE        
  4127831.4885  1207193.1595  4695247.3300                  APPROX POSITION XYZ 
        0.0000        0.0000        0.0000                  ANTENNA: DELTA H/E/N
G   23 X1  C1C L1C D1C S1C C1W S1W C2W L2W D2W S2W C2L L2L  SYS / # / OBS TYPES 
       D2L S2L C5Q L5Q D5Q S5Q C1L L1L D1L S1L              SYS / # / OBS TYPES 
E   21 X1  C1C L1C D1C S1C C6C L6C D6C S6C C5Q L5Q D5Q S5Q  SYS / # / OBS TYPES 
       C7Q L7Q D7Q S7Q C8Q L8Q D8Q S8Q                      SYS / # / OBS TYPES 
S    9 X1  C1C L1C D1C S1C C5I L5I D5I S5I                  SYS / # / OBS TYPES 
R   17 X1  C1C L1C D1C S1C C2P L2P D2P S2P C2C L2C D2C S2C  SYS / # / OBS TYPES 
       C3Q L3Q D3Q S3Q                                      SYS / # / OBS TYPES 
C   25 X1  C1P L1P D1P S1P C5P L5P D5P S5P C2I L2I D2I S2I  SYS / # / OBS TYPES 
       C7I L7I D7I S7I C6I L6I D6I S6I C7D L7D D7D S7D      SYS / # / OBS TYPES 
J   17 X1  C1C L1C D1C S1C C2L L2L D2L S2L C5Q L5Q D5Q S5Q  SYS / # / OBS TYPES 
       C1L L1L D1L S1L                                      SYS / # / OBS TYPES 
I    5 X1  C5A L5A D5A S5A                                  SYS / # / OBS TYPES 
SEPTENTRIO RECEIVERS OUTPUT ALIGNED CARRIER PHASES.         COMMENT             
NO FURTHER PHASE SHIFT APPLIED IN THE RINEX ENCODER.        COMMENT             
G L1C                                                       SYS / PHASE SHIFT   
G L2W                                                       SYS / PHASE SHIFT   
G L2L  0.00000                                              SYS / PHASE SHIFT   
G L5Q  0.00000                                              SYS / PHASE SHIFT   
G L1L  0.00000                                              SYS / PHASE SHIFT   
E L1C  0.00000                                              SYS / PHASE SHIFT   
E L6C  0.00000                                              SYS / PHASE SHIFT   
E L5Q  0.00000                                              SYS / PHASE SHIFT   
E L7Q  0.00000                                              SYS / PHASE SHIFT   
E L8Q  0.00000                                              SYS / PHASE SHIFT   
S L1C                                                       SYS / PHASE SHIFT   
S L5I                                                       SYS / PHASE SHIFT   
R L1C                                                       SYS / PHASE SHIFT   
R L2P  0.00000                                              SYS / PHASE SHIFT   
R L2C                                                       SYS / PHASE SHIFT   
R L3Q  0.00000                                              SYS / PHASE SHIFT   
C L1P  0.00000                                              SYS / PHASE SHIFT   
C L5P  0.00000                                              SYS / PHASE SHIFT   
C L2I                                                       SYS / PHASE SHIFT   
C L7I                                                       SYS / PHASE SHIFT   
C L6I                                                       SYS / PHASE SHIFT   
C L7D                                                       SYS / PHASE SHIFT   
J L1C                                                       SYS / PHASE SHIFT   
J L2L  0.00000                                              SYS / PHASE SHIFT   
J L5Q  0.00000                                              SYS / PHASE SHIFT   
J L1L  0.00000                                              SYS / PHASE SHIFT   
I L5A                                                       SYS / PHASE SHIFT   
  2025     1     1     4    45    0.0000000     GPS         TIME OF FIRST OBS   
 C1C    0.000 C2C    0.000 C2P    0.000                     GLONASS COD/PHS/BIS 
DBHZ                                                        SIGNAL STRENGTH UNIT
    18                                                      LEAP SECONDS        
 24 R01  1 R02 -4 R03  5 R04  6 R05  1 R06 -4 R07  5 R08  6 GLONASS SLOT / FRQ #
    R09 -2 R10 -7 R11  0 R12 -1 R13 -2 R14 -7 R15  0 R16 -1 GLONASS SLOT / FRQ #
    R17  4 R18 -3 R19  3 R20  2 R21  4 R22 -3 R23  3 R24  2 GLONASS SLOT / FRQ #
                                                            END OF HEADER       
> 2025 01 01 04 45  0.0000000  0 57
G16         1.000    23462399.526 6 123295762.52806      -223.739 6        40.098                                    23462394.826 3  96074605.00003      -174.350 3        22.838
G29         2.000    25668554.546 6 134889149.01806        47.533 6        37.172                                    25668551.887 4 105108411.43204        37.011 4        28.104    25668552.470 5 105108413.47305        36.967 5        34.548
G09         3.000    20229024.833 8 106304289.67508     -1523.649 8        49.921                                    20229022.181 8  82834523.02408     -1187.259 8        52.429    20229022.695 7  82834524.02607     -1187.224 7        46.184
E34         4.000    24385065.204 7 128144392.39007     -1750.970 7        47.608                                                                    24385064.995 8  95692249.24508     -1307.513 8        49.309    24385064.736 8  98188568.06908     -1341.608 8        50.689
S21         5.000    38392417.087 7 201753348.05707      -383.382 7        43.594
E05         6.000    21813416.082 8 114630322.20808       -26.575 8        48.872                                                                    21813415.424 8  85600595.98708       -19.879 8        50.614    21813415.391 8  87833646.95608       -20.411 8        52.149
E15         7.000    25789522.585 7 135524877.60307      1110.728 7        43.162                                                                    25789523.011 7 101203666.47107       829.484 7        45.971    25789522.675 7 103843759.82507       851.040 7        47.357
R10         8.000    22848270.952 6 121794144.61006      4067.222 6        38.246
E31         9.000    26518292.160 6 139354576.55106       848.560 6        41.959                                                                    26518292.747 7 104063506.97907       633.744 7        43.958    26518292.229 7 106778205.09407       650.272 7        45.068
G04        10.000    21846594.931 7 114804673.45607     -2872.930 7        45.436                                    21846591.726 5  89458195.70905     -2238.643 5        33.162    21846592.343 7  89458190.71007     -2238.674 7        44.277
E09        11.000    25099599.872 7 131899335.32107     -2293.050 7        46.024                                                                    25099599.432 7  98496273.47907     -1712.344 7        47.843    25099599.011 8 101065740.78608     -1757.018 8        49.123
S27        12.000    39025848.989 5 205082215.78005      -394.336 5        35.195
G06        13.000    21818788.309 7 114658532.69807     -2497.990 7        46.646                                    21818786.983 7  89344315.21907     -1946.485 7        46.742    21818787.737 7  89344326.21107     -1946.567 7        44.406
S36        14.000    38160234.704 7 200533889.22007      -383.917 7        45.077
G20        15.000    22644988.134 7 119000226.40707      2644.904 7        43.556                                    22644983.523 4  92727431.09204      2060.963 4        29.081
E36        16.000    26707405.537 6 140348377.37806     -3609.589 6        41.049                                                                    26707406.733 7 104805619.52807     -2695.476 7        44.011    26707406.718 7 107539674.38207     -2765.814 7        45.633
S45        17.000    63346795.927 6 332890563.17406      -423.500 6        37.248
G03        18.000    24472471.940 6 128603738.92706     -3980.342 6        39.739                                    24472471.386 5 100210718.65705     -3101.558 5        32.503    24472471.776 6 100210727.66206     -3101.571 6        36.801
E24        19.000    27724408.465 6 145692739.18606      2461.412 6        40.074                                                                    27724407.832 7 108796538.05307      1838.000 7        42.455    27724406.772 7 111634705.13007      1885.966 7        43.336
R23        20.000    21145549.651 7 113114433.88407     -1675.325 7        47.405
G30        21.000    23063082.128 7 121197335.06207      2916.307 7        44.462                                    23063080.883 6  94439488.55406      2272.446 6        40.839    23063081.758 6  94439492.54706      2272.577 6        39.934
I06        22.000    37920793.984 7 148809569.22007      -262.182 7        43.431
S28        23.000    40821188.620 5 214516791.53005      -382.508 5        34.938
S23        25.000    38099913.459 7 200216390.81507      -379.483 7        45.168
E06        26.000    26854178.125 6 141119708.47706     -2804.588 6        40.586                                                                    26854178.570 7 105381596.68507     -2094.364 7        42.724    26854178.212 7 108130680.70807     -2149.002 7        44.299
C34        27.000                                                                                                                                    25514432.528 6 132860342.41906       -20.326 6        40.675                                                                    25514432.330 6 107959915.56006       -16.572 6        41.745
G26        28.000    24791055.851 6 130277873.53206     -2459.834 6        36.491                                    24791055.678 4 101515225.63704     -1916.744 4        27.593    24791055.896 5 101515226.63105     -1916.690 5        35.400
R09        29.000    20481395.998 8 109369518.00608      1892.548 8        50.372                                                                    20481394.876 7  85065184.05807      1471.974 7        47.629
C22        30.000                                                                                                                                    22056156.146 8 114852222.33808      1061.625 8        51.597                                                                    22056149.339 8  93326826.26308       862.801 8        49.909
I01        31.000   339616464.601 7  29587137.52607     -2814.988 7        42.171
E03        32.000    26155097.144 7 137445976.09307      1841.476 7        42.808                                                                    26155096.999 7 102638246.79007      1375.213 7        44.355    26155096.767 7 105315760.26307      1411.034 7        45.953
R24        34.000    23200757.860 7 124064888.23807      2271.278 7        44.184                                                                    23200757.739 6  96494913.31006      1766.468 6        41.328
C36        35.000                                                                                                                                    23526445.463 7 122508384.45207      2388.673 7        47.529                                                                    23526450.221 7  99548120.13007      1941.112 7        47.341
G11        36.000    22089337.325 7 116080280.99307        61.878 7        46.317                                    22089332.857 5  90452167.63205        48.214 5        35.157    22089333.089 7  90452167.63007        48.258 7        44.873
C35        37.000                                                                                                                                    26402901.149 6 137486828.26306     -3411.507 6        40.827                                                                    26402900.289 6 111719304.86506     -2772.146 6        39.580
I09        38.000    37952150.477 7 148932378.66407      -699.927 7        43.314
R08        39.000    21090017.824 8 112936102.17308      2146.710 8        49.594                                                                    21090015.992 7  87839192.21807      1669.609 7        45.397
R22        40.000    22367037.972 7 119396790.84207     -4291.833 7        45.533                                                                    22367036.234 7  92864182.67807     -3338.194 7        42.590
S44        42.000    40736741.689 6 214073216.97406      -451.039 6        37.936
C09        43.000                                                                                                                                    38907318.700 7 202600640.45207     -1061.062 7        42.006    38907314.307 7 156663658.64007      -820.494 7        44.921    38907312.604 6 164629597.72406      -862.036 6        41.833
C05        44.000                                                                                                                                    39145986.148 6 203843454.79706      -431.096 6        38.504    39145981.987 7 157624713.08007      -333.407 7        43.882    39145983.427 6 165639607.21606      -350.183 6        40.257
R06        45.000    21679401.546 6 115685484.40306     -3157.848 6        38.916
C44        46.000                                                                                                                                    24931255.108 7 129823617.10507     -2445.239 7        43.845                                                                    24931253.753 7 105492326.04407     -1986.865 7        42.250
C39        47.000                                                                                                                                    40878675.893 6 212866000.65006     -1573.050 6        39.207                                                                    40878672.668 6 172971050.26106     -1278.136 6        38.039
C20        48.000                                                                                                                                    26052998.045 7 135664814.61707     -3156.588 7        42.555                                                                    26052993.923 6 110238760.32406     -2564.806 6        41.979
C06        49.000                                                                                                                                    39413081.221 6 205234281.25506     -1409.591 6        38.396    39413075.537 6 158700148.72806     -1090.112 6        41.690    39413075.206 6 166769644.51106     -1145.304 6        38.889
C16        50.000                                                                                                                                    39994552.967 6 208262150.56206     -1409.321 6        40.586    39994552.586 6 161041514.75906     -1089.788 6        40.603    39994550.574 6 169230055.58506     -1145.075 6        37.062
S48        51.000    77128776.880 6 405314224.16206      -369.805 6        38.330
C19        52.000                                                                                                                                    22456923.530 8 116939152.50808     -1720.474 8        51.054                                                                    22456918.669 8  95022643.42508     -1397.896 8        50.372
C12        53.000                                                                                                                                    24878084.521 6 129546716.91206     -1254.353 6        40.446    24878079.790 7 100173721.64007      -970.068 7        45.840    24878079.614 7 105267296.96207     -1019.209 7        43.600
C60        54.000                                                                                                                                    40736745.568 6 212127116.14606      -447.071 6        40.143                                                                    40736730.921 6 172370624.68806      -363.068 6        39.724
R16        55.000    21383785.227 8 114228363.36008     -2253.329 8        48.807                                                                    21383784.424 7  88844304.66707     -1752.603 7        46.141
C37        56.000                                                                                                                                    26169804.454 6 136273049.17506     -3002.686 6        40.253                                                                    26169807.031 6 110733033.15406     -2439.795 6        40.374
C02        57.000                                                                                                                                    40690072.279 5 211883914.57905      -462.962 5        35.238    40690066.115 6 163842072.68506      -357.957 6        38.480    40690069.236 5 172173036.44105      -375.794 5        35.590
I03        58.000   128880527.087 6 429969611.14406       920.393 6        41.650
R07        59.000    19450409.804 8 104119597.49208      -619.579 8        51.427                                                                    19450408.098 7  80981912.23907      -481.921 7        47.849
G07        60.000    21141169.953 8 111097626.99108      1108.559 8        49.574                                    21141165.251 8  86569574.13308       863.811 8        48.359    21141165.449 7  86569575.14207       863.864 7        44.260
> 2025 01 01 04 45  5.0000000  0 57
G16         1.000    23462614.161 6 123296890.00506      -227.365 6        39.757                                    23462609.621 3  96075483.55603      -177.162 3        23.029
G29         2.000    25668511.094 6 134888919.09006        44.372 6        37.047                                    25668508.253 4 105108232.35404        34.556 4        28.152    25668508.339 5 105108234.39205        34.454 5        34.219
G09         3.000    20230475.284 8 106311912.18408     -1525.536 8        50.091                                    20230472.699 8  82840462.64008     -1188.731 8        52.487    20230472.863 7  82840463.64207     -1188.738 7        46.399
E34         4.000    24386732.014 7 128153152.67207     -1753.319 7        47.457                                                                    24386731.985 8  95698791.00908     -1309.245 8        49.398    24386731.783 8  98195280.49108     -1343.405 8        50.755
S21         5.000    38392781.346 7 201755263.86407      -383.125 7        43.536
E05         6.000    21813442.038 8 114630458.01608       -27.781 8        48.781                                                                    21813441.296 8  85600697.40008       -20.753 8        50.634    21813441.223 8  87833751.01108       -21.260 8        52.289
E15         7.000    25788466.584 7 135519328.99107      1108.530 7        42.840                                                                    25788467.178 7 101199523.03207       827.795 7        46.012    25788466.825 7 103839508.28507       849.445 7        47.535
R10         8.000    22844456.784 6 121773810.43506      4066.413 6        38.835
E31         9.000    26517485.563 6 139350338.29606       846.578 6        41.499                                                                    26517486.211 7 104060342.04907       632.176 7        43.791    26517485.883 7 106774957.60207       648.645 7        45.141
G04        10.000    21849329.270 7 114819040.91607     -2874.036 7        44.989                                    21849325.855 5  89469391.12505     -2239.506 5        33.228    21849326.162 7  89469386.12907     -2239.593 7        44.376
E09        11.000    25101781.989 7 131910801.67607     -2293.744 7        45.874                                                                    25101781.410 7  98504836.01607     -1712.786 7        47.876    25101780.997 8 101074526.68908     -1757.438 8        49.191
S27        12.000    39026229.037 5 205084186.61405      -394.230 5        35.995
G06        13.000    21821166.168 7 114671029.11807     -2500.737 7        46.756                                    21821165.006 7  89354052.68407     -1948.626 7        46.782    21821165.297 7  89354063.68507     -1948.587 7        44.242
S36        14.000    38160599.691 7 200535808.01807      -383.981 7        45.144
G20        15.000    22642472.454 7 118987004.78307      2643.645 7        43.115                                    22642467.497 4  92717128.52204      2059.981 4        29.109
E36        16.000    26710840.194 6 140366426.45206     -3610.090 6        41.070                                                                    26710841.507 7 104819097.72907     -2695.862 7        44.063    26710841.179 7 107553504.20207     -2766.249 7        45.831
S45        17.000    63347158.938 6 332892680.15506      -423.415 6        37.573
G03        18.000    24476259.374 6 128623641.49306     -3980.849 6        39.925                                    24476258.796 5 100226227.14005     -3101.956 5        32.754    24476259.683 6 100226236.13506     -3102.140 6        37.104
E24        19.000    27722066.236 6 145680433.03806      2461.001 6        39.775                                                                    27722065.921 7 108787348.40107      1837.790 7        42.663    27722065.063 7 111625275.74207      1885.678 7        43.352
R23        20.000    21147117.399 7 113122821.49507     -1679.781 7        47.255
G30        21.000    23060308.518 7 121182756.07907      2915.154 7        44.465                                    23060306.541 6  94428128.31306      2271.552 6        40.899    23060307.009 6  94428132.30906      2271.560 6        40.102
I06        22.000    37921127.797 7 148810879.45207      -262.142 7        43.208
S28        23.000    40821550.974 5 214518703.10205      -382.560 5        34.552
S23        25.000    38100274.959 7 200218288.17807      -379.625 7        45.094
E06        26.000    26856846.765 6 141133731.96006     -2804.757 6        40.491                                                                    26856847.225 7 105392068.76007     -2094.557 7        42.684    26856846.885 7 108141425.95707     -2149.010 7        44.411
C34        27.000                                                                                                                                    25514453.784 6 132860450.92106       -23.131 6        41.437                                                                    25514453.199 6 107960003.72506       -18.743 6        41.728
G26        28.000    24793396.739 6 130290178.74806     -2462.530 6        36.250                                    24793397.297 4 101524814.09404     -1918.857 4        27.545    24793396.670 5 101524815.09905     -1918.973 5        35.095
R09        29.000    20479625.447 8 109360064.76008      1888.713 8        50.455                                                                    20479624.375 7  85057831.53907      1468.993 7        47.583
C22        30.000                                                                                                                                    22055137.173 8 114846917.23808      1060.306 8        51.694                                                                    22055130.574 8  93322515.43908       861.621 8        50.029
I01        31.000   339620051.321 7  29601212.38207     -2815.168 7        42.049
E03        32.000    26153345.578 7 137436769.90307      1840.855 7        42.912                                                                    26153345.053 7 102631372.05007      1374.704 7        44.242    26153344.885 7 105308706.17707      1410.630 7        46.017
R24        34.000    23198635.297 7 124053540.35607      2267.750 7        44.889                                                                    23198635.391 6  96486087.23106      1763.830 6        41.201
C36        35.000                                                                                                                                    23524152.353 7 122496444.68207      2387.108 7        47.613                                                                    23524157.452 7  99538418.09607      1939.708 7        47.482
G11        36.000    22089279.614 7 116079979.77607        58.544 7        45.970                                    22089275.495 5  90451932.91805        45.617 5        35.181    22089275.900 7  90451932.92207        45.565 7        44.808
C35        37.000                                                                                                                                    26406176.716 6 137503885.32606     -3411.409 6        40.903                                                                    26406175.821 6 111733165.10606     -2772.064 6        39.114
I09        38.000    37953042.314 7 148935878.08407      -699.874 7        43.257
R08        39.000    21088014.377 8 112925371.32708      2145.519 8        49.848                                                                    21088011.248 7  87830845.99707      1668.771 7        45.321
R22        40.000    22371058.161 7 119418253.93907     -4293.588 7        45.747                                                                    22371058.124 7  92880876.20007     -3339.465 7        42.430
S44        42.000    40737169.444 6 214075472.12206      -451.034 6        37.989
C09        43.000                                                                                                                                    38908337.475 7 202605946.02607     -1061.435 7        42.303    38908333.066 7 156667761.24307      -820.637 7        44.913    38908331.508 6 164633908.93606      -862.299 6        41.900
C05        44.000                                                                                                                                    39146399.992 6 203845610.42906      -431.224 6        38.658    39146396.010 7 157626379.95307      -333.488 7        43.989    39146397.226 6 165641358.84406      -350.367 6        40.255
R06        45.000    21682360.210 6 115701276.94606     -3159.135 6        38.628
C44        46.000                                                                                                                                    24933603.735 7 129835847.24707     -2446.912 7        44.101                                                                    24933602.425 7 105502264.02307     -1988.228 7        42.438
C39        47.000                                                                                                                                    40880186.501 6 212873866.02206     -1572.987 6        39.661                                                                    40880183.008 6 172977441.51806     -1278.260 6        38.081
C20        48.000                                                                                                                                    26056028.995 7 135680598.38407     -3157.155 7        42.686                                                                    26056025.109 7 110251585.91007     -2565.345 7        42.083
C06        49.000                                                                                                                                    39414435.144 6 205241329.55306     -1409.759 6        38.655    39414428.972 6 158705598.91306     -1090.118 6        41.845    39414428.927 6 166775371.83106     -1145.558 6        38.919
C16        50.000                                                                                                                                    39995905.899 6 208269197.04606     -1409.363 6        40.679    39995905.626 6 161046963.54806     -1089.793 6        40.830    39995903.713 6 169235781.41706     -1145.259 6        37.074
S48        51.000    77129135.383 6 405316073.50406      -370.134 6        38.312
C19        52.000                                                                                                                                    22458576.136 8 116947758.07808     -1721.913 8        51.406                                                                    22458571.246 8  95029636.15408     -1399.186 8        50.456
C12        53.000                                                                                                                                    24879289.483 6 129552995.50506     -1257.091 6        40.617    24879286.105 7 100178576.63807      -972.106 7        46.134    24879285.393 7 105272398.83107     -1021.560 7        43.695
C60        54.000                                                                                                                                    40737174.817 6 212129350.78006      -446.857 6        40.246                                                                    40737160.072 6 172372440.52406      -363.267 6        39.814
R16        55.000    21385895.266 8 114239639.93508     -2257.430 8        48.084                                                                    21385895.270 7  88853075.33207     -1755.818 7        45.752
C37        56.000                                                                                                                                    26172688.045 6 136288066.37106     -3004.218 6        40.482                                                                    26172690.730 6 110745235.85606     -2441.124 6        40.341
C02        57.000                                                                                                                                    40690517.353 5 211886228.44905      -462.660 5        35.590    40690510.683 6 163843861.90406      -357.825 6        38.520    40690513.831 5 172174916.66205      -376.170 5        35.900
I03        58.000   128879354.345 6 429965008.52406       920.448 6        41.554
R07        59.000    19450989.859 8 104122700.39608      -621.649 8        51.270                                                                    19450988.076 7  80984325.60007      -483.526 7        47.931
G07        60.000    21140116.249 8 111092089.88308      1106.130 8        49.503                                    21140111.607 8  86565259.50508       861.919 8        48.399    21140111.663 7  86565260.50807       861.906 7        44.524
> 2025 01 01 04 45 10.0000000  0 57
G16         1.000    23462832.522 6 123298034.83606      -231.000 6        39.985                                    23462827.782 3  96076375.63503      -180.001 3        22.476
G29         2.000    25668470.370 6 134888704.20606        41.293 6        36.219                                    25668467.392 4 105108065.01404        32.135 4        27.784    25668467.913 5 105108067.09405        32.276 5        34.157
G09         3.000    20231927.612 8 106319543.93008     -1527.453 8        49.905                                    20231924.966 8  82846409.45608     -1190.223 8        52.365    20231925.187 7  82846410.46107     -1190.216 7        46.322
E34         4.000    24388401.261 7 128161924.49407     -1755.664 7        47.659                                                                    24388401.226 8  95705341.40108     -1311.047 8        49.382    24388400.969 8  98202001.75708     -1345.253 8        50.650
S21         5.000    38393147.205 7 201757179.15607      -383.129 7        43.528
E05         6.000    21813469.013 8 114630599.70708       -29.075 8        48.708                                                                    21813468.264 8  85600803.21108       -21.764 8        50.678    21813468.194 8  87833859.58308       -22.319 8        52.120
E15         7.000    25787412.936 7 135513791.12707      1106.261 7        42.986                                                                    25787413.312 7 101195387.61307       826.224 7        46.017    25787412.984 7 103835264.98607       847.756 7        47.417
R10         8.000    22840642.740 6 121753480.48806      4065.351 6        39.883
E31         9.000    26516681.071 6 139346110.61306       844.320 6        41.611                                                                    26516681.697 7 104057185.01907       630.553 7        43.712    26516681.471 7 106771718.21107       647.028 7        44.950
G04        10.000    21852064.249 7 114833413.56007     -2875.159 7        44.772                                    21852060.950 5  89480590.58605     -2240.381 5        33.126    21852061.038 7  89480585.58007     -2240.425 7        44.101
E09        11.000    25103964.752 7 131922270.92407     -2294.304 7        45.798                                                                    25103963.929 7  98513400.71607     -1713.297 7        47.774    25103963.539 8 101083314.81608     -1757.956 8        49.046
S27        12.000    39026601.425 6 205086157.53506      -394.392 6        36.113
G06        13.000    21823547.039 7 114683539.00407     -2503.479 7        46.563                                    21823545.559 7  89363800.64207     -1950.762 7        46.661    21823546.235 7  89363811.64107     -1950.779 7        44.206
S36        14.000    38160965.707 7 200537726.58107      -383.747 7        45.028
G20        15.000    22639957.800 7 118973789.33007      2642.342 7        43.558                                    22639952.697 4  92706830.77104      2058.969 4        29.024
E36        16.000    26714275.369 6 140384478.22206     -3610.720 6        40.522                                                                    26714276.535 7 104832577.94407     -2696.304 7        43.960    26714276.184 7 107567336.07007     -2766.710 7        45.615
S45        17.000    63347516.918 6 332894796.87106      -423.434 6        37.285
G03        18.000    24480047.154 6 128643546.86406     -3981.483 6        39.447                                    24480046.775 5 100241737.80405     -3102.453 5        32.707    24480047.068 6 100241746.79106     -3102.502 6        37.021
E24        19.000    27719724.828 6 145668128.85806      2460.377 6        39.405                                                                    27719724.622 7 108778160.21607      1837.393 7        42.546    27719723.538 7 111615847.87007      1885.270 7        43.359
R23        20.000    21148689.917 7 113131231.07107     -1684.265 7        47.585
G30        21.000    23057535.130 7 121168182.98007      2913.839 7        43.458                                    23057533.290 6  94416772.65206      2270.525 6        40.708    23057533.820 6  94416776.66306      2270.404 6        39.538
I06        22.000    37921461.383 7 148812189.78807      -262.082 7        43.336
S28        23.000    40821914.387 5 214520614.90105      -382.484 5        34.738
S23        25.000    38100633.775 7 200220185.54807      -379.656 7        45.014
E06        26.000    26859515.581 6 141147756.21306     -2805.100 6        40.772                                                                    26859515.884 7 105402541.40807     -2094.632 7        42.665    26859515.626 7 108152171.81507     -2149.324 7        44.122
C34        27.000                                                                                                                                    25514477.335 7 132860572.89307       -25.906 7        42.044                                                                    25514476.635 6 107960102.84306       -20.913 6        41.812
G26        28.000    24795740.495 6 130302496.93306     -2465.168 6        36.193                                    24795741.473 4 101534412.65604     -1920.904 4        27.222    24795741.380 5 101534413.64305     -1920.772 5        35.138
R09        29.000    20477858.832 8 109350630.30208      1884.830 8        50.360                                                                    20477858.057 7  85050493.62607      1466.008 7        47.671
C22        30.000                                                                                                                                    22054119.469 8 114841618.31308      1059.016 8        51.520                                                                    22054112.944 8  93318209.61808       860.676 8        49.971
I01        31.000   339623638.071 7  29615287.82607     -2815.251 7        42.140
E03        32.000    26151593.966 7 137427566.72107      1840.132 7        42.785                                                                    26151593.772 7 102624499.54507      1374.170 7        44.298    26151593.597 7 105301654.39307      1410.090 7        45.883
R24        34.000    23196517.530 7 124042209.12407      2264.495 7        45.351                                                                    23196516.792 6  96477274.09906      1761.289 6        41.104
C36        35.000                                                                                                                                    23521861.124 7 122484512.59007      2385.446 7        47.458                                                                    23521865.996 7  99528722.27707      1938.582 7        47.531
G11        36.000    22089225.452 7 116079695.44507        55.054 7        46.317                                    22089221.424 5  90451711.36005        42.900 5        35.052    22089221.227 7  90451711.35407        42.881 7        44.453
C35        37.000                                                                                                                                    26409451.586 6 137520941.34006     -3411.234 6        41.266                                                                    26409451.030 6 111747024.51306     -2771.767 6        39.018
I09        38.000    37953934.064 7 148939378.02907      -700.227 7        43.338
R08        39.000    21086011.178 8 112914645.71708      2144.395 8        49.510                                                                    21086008.154 7  87822503.85707      1667.877 7        44.834
R22        40.000    22375080.803 7 119439725.24507     -4295.321 7        45.497                                                                    22375080.167 7  92897576.07507     -3340.755 7        42.918
S44        42.000    40737596.100 6 214077727.13106      -451.280 6        37.845
C09        43.000                                                                                                                                    38909356.681 7 202611252.92507     -1061.614 7        42.245    38909352.202 7 156671864.87807      -820.947 7        44.855    38909350.626 6 164638221.22106      -862.483 6        41.986
C05        44.000                                                                                                                                    39146814.042 6 203847766.02506      -431.273 6        38.736    39146809.854 7 157628046.78707      -333.468 7        43.987    39146811.267 6 165643110.42306      -350.171 6        40.167
R06        45.000    21685320.611 6 115717075.34206     -3160.545 6        38.177
C44        46.000                                                                                                                                    24935954.176 7 129848085.97807     -2448.591 7        43.907                                                                    24935952.836 7 105512208.99707     -1989.766 7        42.282
C39        47.000                                                                                                                                    40881696.426 6 212881731.11206     -1573.148 6        39.625                                                                    40881693.242 6 172983832.51706     -1278.190 6        37.792
C20        48.000                                                                                                                                    26059060.873 7 135696384.30107     -3157.573 7        42.883                                                                    26059056.545 7 110264413.25207     -2565.576 7        42.025
C06        49.000                                                                                                                                    39415789.156 6 205248378.46606     -1409.908 6        38.387    39415782.728 7 158711049.57007     -1090.250 7        42.047    39415782.475 6 166781099.63206     -1145.617 6        38.643
C16        50.000                                                                                                                                    39997259.718 6 208276243.90206     -1409.440 6        40.436    39997258.946 6 161052412.60406     -1090.016 6        40.853    39997256.879 6 169241507.52406     -1145.338 6        36.836
S48        51.000    77129491.651 6 405317922.84006      -370.013 6        38.162
C19        52.000                                                                                                                                    22460230.127 8 116956370.60908     -1723.360 8        51.642                                                                    22460225.219 8  95036634.53008     -1400.156 8        50.381
C12        53.000                                                                                                                                    24880497.684 6 129559287.24906     -1259.804 6        40.744    24880494.584 7 100183441.82907      -974.169 7        45.809    24880493.774 7 105277511.36307     -1023.601 7        43.645
C60        54.000                                                                                                                                    40737603.785 6 212131585.28706      -446.905 6        40.288                                                                    40737589.231 6 172374256.21406      -363.184 6        39.916
R16        55.000    21388010.100 8 114250937.10408     -2261.663 8        48.273                                                                    21388009.678 7  88861862.02407     -1759.076 7        44.704
C37        56.000                                                                                                                                    26175573.154 6 136303091.43706     -3005.990 6        40.431                                                                    26175576.228 6 110757444.93506     -2442.472 6        40.186
C02        57.000                                                                                                                                    40690961.542 5 211888542.25305      -463.001 5        35.710    40690955.207 6 163845651.06806      -357.938 6        38.577    40690958.060 5 172176796.77505      -375.874 5        35.390
I03        58.000   128878181.930 6 429960405.87906       920.462 6        41.652
R07        59.000    19451571.019 8 104125813.33408      -623.767 8        51.083                                                                    19451569.276 7  80986746.77507      -485.136 7        47.626
G07        60.000    21139064.781 8 111086564.80008      1103.651 8        49.556                                    21139060.252 8  86560954.24708       859.989 8        48.292    21139060.393 7  86560955.25307       860.014 7        44.581
> 2025 01 01 04 45 15.0000000  0 57
G16         1.000    23463053.598 6 123299197.89506      -234.703 6        40.112                                    23463049.266 3  96077281.92003      -182.895 3        23.048
G29         2.000    25668431.103 6 134888504.92506        38.172 6        36.541                                    25668429.436 4 105107909.87304        29.738 4        27.581    25668429.626 5 105107911.88405        29.466 5        34.319
G09         3.000    20233381.439 8 106327185.73308     -1529.720 8        49.719                                    20233379.156 8  82852364.10708     -1191.991 8        52.379    20233379.381 7  82852365.10607     -1191.922 7        46.439
E34         4.000    24390072.793 7 128170708.67707     -1758.461 7        47.397                                                                    24390072.813 8  95711901.01508     -1313.077 8        49.629    24390072.531 8  98208732.49608     -1347.352 8        50.702
S21         5.000    38393513.985 7 201759095.01007      -383.661 7        43.573
E05         6.000    21813497.074 8 114630748.09908       -30.630 8        48.749                                                                    21813496.467 8  85600914.02608       -22.890 8        50.882    21813496.478 8  87833973.28908       -23.514 8        52.156
E15         7.000    25786361.553 7 135508264.83907      1103.780 7        43.132                                                                    25786361.681 7 101191260.85507       824.296 7        46.237    25786361.317 7 103831030.57407       845.724 7        47.402
R10         8.000    22836830.159 6 121733155.61406      4064.185 6        40.122
E31         9.000    26515878.867 6 139341894.34806       841.815 6        41.251                                                                    26515879.465 7 104054036.50907       628.616 7        44.003    26515879.185 7 106768487.56507       645.025 7        45.162
G04        10.000    21854800.471 7 114847792.21007     -2876.633 7        45.058                                    21854797.221 5  89491794.72605     -2241.530 5        33.186    21854797.327 7  89491789.72007     -2241.494 7        44.557
E09        11.000    25106147.852 7 131933743.91207     -2295.267 7        45.819                                                                    25106147.170 8  98521968.19708     -1713.993 8        48.054    25106146.699 8 101092105.80408     -1758.763 8        49.056
S27        12.000    39026972.922 5 205088129.36705      -394.587 5        35.857
G06        13.000    21825930.262 7 114696063.18707     -2506.469 7        46.744                                    21825928.799 7  89373559.74407     -1953.092 7        46.653    21825929.472 7  89373570.74307     -1953.150 7        44.129
S36        14.000    38161328.593 7 200539645.59707      -384.142 7        45.150
G20        15.000    22637444.109 7 118960580.85507      2640.773 7        43.056                                    22637439.274 4  92696538.46104      2057.745 4        29.166
E36        16.000    26717710.813 6 140402533.50606     -3611.747 6        40.088                                                                    26717712.449 7 104846060.77207     -2697.046 7        44.060    26717711.837 7 107581170.62307     -2767.443 7        45.460
S45        17.000    63347878.780 6 332896914.42806      -423.963 6        37.388
G03        18.000    24483835.479 6 128663455.82506     -3982.531 6        39.042                                    24483835.491 5 100257251.27105     -3103.269 5        32.569    24483835.898 6 100257260.27406     -3103.124 6        37.327
E24        19.000    27717384.323 6 145655827.47406      2459.626 6        39.006                                                                    27717383.763 7 108768974.12507      1836.817 7        42.963    27717382.697 7 111606422.14007      1884.683 7        43.287
R23        20.000    21150266.124 7 113139663.50807     -1689.113 7        47.646
G30        21.000    23054763.142 7 121153616.62007      2912.311 7        43.266                                    23054761.363 6  94405422.24006      2269.329 6        40.660    23054762.350 6  94405426.24006      2269.304 6        39.820
I06        22.000    37921795.530 7 148813500.85507      -262.367 7        43.113
S28        23.000    40822277.523 5 214522527.48005      -383.002 5        34.724
S23        25.000    38100995.990 7 200222083.70607      -380.006 7        45.007
E06        26.000    26862184.604 6 141161782.07706     -2805.499 6        40.770                                                                    26862184.991 7 105413015.25507     -2095.196 7        42.885    26862184.719 7 108162918.89707     -2149.778 7        44.202
C34        27.000                                                                                                                                    25514503.341 7 132860709.17207       -28.994 7        42.360                                                                    25514502.926 7 107960213.59607       -23.361 7        42.136
G26        28.000    24798088.081 5 130314828.86305     -2467.835 5        35.629                                    24798088.087 4 101544021.94104     -1922.985 4        26.934    24798088.260 5 101544022.94005     -1923.062 5        34.657
R09        29.000    20476095.896 8 109341215.44008      1880.611 8        50.264                                                                    20476094.800 8  85043170.95908      1462.723 8        48.052
C22        30.000                                                                                                                                    22053103.292 8 114836326.36408      1057.407 8        51.276                                                                    22053096.683 8  93313909.47608       859.298 8        50.142
I01        31.000   339627225.045 7  29629364.53807     -2815.632 7        42.267
E03        32.000    26149843.333 7 137418367.34207      1839.197 7        42.815                                                                    26149843.136 7 102617629.89007      1373.407 7        44.438    26149843.103 7 105294605.53707      1409.245 7        45.834
R24        34.000    23194401.733 7 124030895.40107      2260.768 7        44.981                                                                    23194400.811 6  96468474.58506      1758.384 6        41.468
C36        35.000                                                                                                                                    23519571.572 7 122472589.01107      2383.607 7        47.744                                                                    23519576.197 7  99519033.40607      1936.881 7        47.745
G11        36.000    22089174.706 7 116079428.82207        51.257 7        46.191                                    22089170.711 5  90451503.60405        39.942 5        34.986    22089171.096 7  90451503.60407        39.930 7        44.944
C35        37.000                                                                                                                                    26412727.601 6 137537997.13406     -3411.454 6        40.868                                                                    26412726.603 6 111760883.75106     -2772.108 6        39.033
I09        38.000    37954826.182 7 148942879.08207      -700.631 7        43.304
R08        39.000    21084009.053 8 112903926.20508      2142.979 8        49.451                                                                    21084007.053 7  87814166.46707      1666.837 7        45.273
R22        40.000    22379106.105 7 119461205.54007     -4297.258 7        46.460                                                                    22379103.514 7  92914282.98507     -3342.300 7        42.910
S44        42.000    40738026.359 6 214079982.78206      -451.459 6        37.970
C09        43.000                                                                                                                                    38910376.251 7 202616561.98107     -1062.357 7        42.129    38910371.891 7 156675970.17807      -821.507 7        44.740    38910370.158 7 164642535.27207      -863.148 7        42.000
C05        44.000                                                                                                                                    39147228.088 6 203849922.42506      -431.639 6        38.420    39147223.962 7 157629714.25607      -333.713 7        43.930    39147225.339 6 165644862.69306      -350.742 6        40.517
R06        45.000    21688283.781 6 115732880.30706     -3161.895 6        38.934
C44        46.000                                                                                                                                    24938305.834 7 129860334.13807     -2450.880 7        44.134                                                                    24938304.996 7 105522161.62407     -1991.489 7        42.373
C39        47.000                                                                                                                                    40883207.032 6 212889596.70106     -1573.338 6        39.715                                                                    40883203.931 6 172990223.96206     -1278.493 6        38.132
C20        48.000                                                                                                                                    26062093.351 7 135712173.17407     -3158.292 7        42.825                                                                    26062088.613 7 110277242.99107     -2566.327 7        42.161
C06        49.000                                                                                                                                    39417142.652 6 205255428.82906     -1410.495 6        38.204    39417136.854 7 158716501.36107     -1090.740 7        42.133    39417136.405 6 166786828.62606     -1146.036 6        39.165
C16        50.000                                                                                                                                    39998613.193 6 208283291.89706     -1409.919 6        40.303    39998612.572 6 161057862.56706     -1090.300 6        40.796    39998610.437 6 169247234.62706     -1145.816 6        37.289
S48        51.000    77129847.221 6 405319772.89406      -370.470 6        38.369
C19        52.000                                                                                                                                    22461885.617 8 116964990.94108     -1725.160 8        51.343                                                                    22461880.728 8  95043639.26108     -1401.722 8        50.677
C12        53.000                                                                                                                                    24881708.394 6 129565592.99106     -1262.913 6        40.424    24881704.987 7 100188317.82507      -976.483 7        45.387    24881704.653 7 105282635.30407     -1026.081 7        43.731
C60        54.000                                                                                                                                    40738033.409 6 212133820.45306      -447.381 6        40.072                                                                    40738018.426 6 172376072.45306      -363.295 6        40.093
R16        55.000    21390129.435 8 114262255.59608     -2266.205 8        48.582                                                                    21390128.867 7  88870665.29507     -1762.623 7        45.192
C37        56.000                                                                                                                                    26178460.501 6 136318125.13006     -3007.917 6        40.257                                                                    26178463.316 6 110769661.05206     -2444.030 6        40.448
C02        57.000                                                                                                                                    40691405.422 5 211890856.72405      -463.244 5        35.324    40691399.432 6 163847440.77706      -358.246 6        38.766    40691402.450 5 172178677.48405      -376.190 5        35.852
I03        58.000   128877008.740 6 429955803.84006       920.022 6        41.392
R07        59.000    19452154.495 8 104128937.28708      -626.204 8        51.202                                                                    19452152.995 7  80989176.52207      -487.087 7        47.858
G07        60.000    21138015.791 8 111081052.56308      1100.807 8        49.467                                    21138011.339 8  86556659.00008       857.772 8        48.276    21138011.525 7  86556660.00807       857.853 7        44.671
> 2025 01 01 04 45 20.0000000  0 57
G16         1.000    23463278.319 6 123300379.05406      -238.228 6        40.338                                    23463274.082 3  96078202.31103      -185.630 3        23.581
G29         2.000    25668397.147 6 134888321.48706        35.066 6        37.992                                    25668394.451 4 105107767.05804        27.298 4        27.713    25668394.895 5 105107769.11505        27.322 5        34.267
G09         3.000    20234837.626 8 106334837.43808     -1531.503 8        49.871                                    20234835.223 8  82858326.47208     -1193.377 8        52.458    20234835.130 7  82858327.47807     -1193.409 7        45.952
E34         4.000    24391746.595 7 128179505.08107     -1760.617 7        47.521                                                                    24391746.726 8  95718469.75708     -1314.732 8        49.654    24391746.506 8  98215472.59708     -1349.001 8        50.544
S21         5.000    38393877.779 7 201761011.44407      -383.479 7        43.429
E05         6.000    21813526.470 8 114630903.06208       -31.768 8        48.775                                                                    21813525.964 8  85601029.74508       -23.709 8        50.844    21813525.936 8  87834092.02608       -24.363 8        52.055
E15         7.000    25785311.830 7 135502750.02407      1101.744 7        43.094                                                                    25785312.162 7 101187142.64907       822.744 7        46.299    25785311.925 7 103826804.94007       844.196 7        47.345
R10         8.000    22833018.732 6 121712835.58606      4063.459 6        39.772
E31         9.000    26515078.518 6 139337689.35606       839.662 6        41.421                                                                    26515079.419 7 104050896.42007       627.084 7        44.179    26515078.915 7 106765265.57007       643.445 7        45.186
G04        10.000    21857537.508 7 114862176.72107     -2877.617 7        45.791                                    21857534.552 5  89503003.43405     -2242.298 5        33.407    21857534.309 7  89502998.42507     -2242.233 7        44.564
E09        11.000    25108331.699 7 131945220.48607     -2295.843 7        45.810                                                                    25108331.084 8  98530538.35908     -1714.329 8        48.009    25108330.642 8 101100899.53808     -1759.088 8        48.925
S27        12.000    39027346.799 5 205090101.80105      -394.619 5        35.371
G06        13.000    21828316.220 7 114708601.53207     -2509.174 7        46.968                                    21828314.737 7  89383329.87607     -1955.196 7        46.727    21828315.545 7  89383340.88007     -1955.206 7        43.852
S36        14.000    38161696.697 7 200541564.49807      -384.079 7        44.953
G20        15.000    22634931.866 7 118947379.25407      2639.493 7        43.363                                    22634927.013 4  92686251.50104      2056.757 4        29.166
E36        16.000    26721147.381 6 140420592.13706     -3612.100 6        40.117                                                                    26721148.640 7 104859546.11307     -2697.449 7        43.854    26721148.235 7 107595007.75107     -2767.769 7        45.257
S45        17.000    63348239.090 6 332897432.59716      -423.927 6        37.316
G03        18.000    24487624.859 6 128683368.25706     -3982.879 6        39.252                                    24487624.820 5 100272767.43605     -3103.540 5        32.228    24487624.748 6 100272776.44506     -3103.673 6        36.907
E24        19.000    27715043.632 6 145643528.76806      2459.528 6        38.976                                                                    27715043.520 7 108759790.04507      1836.520 7        43.094    27715042.302 7 111596998.46807      1884.388 7        43.388
R23        20.000    21151846.544 7 113148118.69707     -1693.396 7        47.693
G30        21.000    23051993.007 7 121139056.84907      2911.168 7        44.283                                    23051990.803 6  94394076.97006      2268.441 6        40.760    23051991.670 6  94394080.96906      2268.508 6        40.060
I06        22.000    37922129.873 7 148814812.56607      -262.474 7        43.264
S28        23.000    40822646.083 5 214524440.60105      -382.584 5        34.805
S23        25.000    38101356.640 7 200223982.32907      -379.847 7        44.951
E06        26.000    26864853.998 6 141175809.40906     -2805.793 6        40.706                                                                    26864854.355 7 105423490.18407     -2095.195 7        42.876    26864854.293 7 108173667.09307     -2149.858 7        44.200
C34        27.000                                                                                                                                    25514531.620 7 132860859.57707       -31.585 7        42.392                                                                    25514531.647 6 107960335.84406       -25.743 6        41.990
G26        28.000    24800437.550 5 130327174.44305     -2470.490 5        35.514                                    24800437.442 4 101553641.85804     -1925.045 4        26.515    24800437.011 5 101553642.83305     -1925.272 5        34.733
R09        29.000    20474336.562 8 109331820.27508      1876.999 8        50.628                                                                    20474335.594 7  85035863.61407      1459.898 7        47.849
C22        30.000                                                                                                                                    22052088.321 8 114831041.27508      1056.223 8        51.282                                                                    22052081.715 8  93309614.91408       858.254 8        50.037
I01        31.000   339630812.710 7  29643442.36207     -2815.656 7        42.409
E03        32.000    26148093.138 7 137409171.65607      1838.725 7        43.082                                                                    26148093.371 7 102610762.99607      1372.920 7        44.442    26148093.159 7 105287559.49007      1408.937 7        45.934
R24        34.000    23192288.386 7 124019599.16807      2257.538 7        44.643                                                                    23192288.796 6  96459688.63406      1755.771 6        41.073
C36        35.000                                                                                                                                    23517283.614 8 122460673.82708      2382.083 8        48.014                                                                    23517287.934 7  99509351.34907      1935.643 7        47.622
G11        36.000    22089127.185 7 116079179.78807        47.922 7        46.274                                    22089123.330 5  90451309.55105        37.342 5        35.143    22089123.710 7  90451309.55107        37.350 7        44.561
C35        37.000                                                                                                                                    26416002.753 6 137555052.60106     -3411.265 6        40.236                                                                    26416001.867 6 111774742.69206     -2771.966 6        38.985
I09        38.000    37955718.769 7 148946381.15807      -700.556 7        43.181
R08        39.000    21082008.513 8 112893212.65508      2142.066 8        49.594                                                                    21082006.604 7  87805833.71607      1666.020 7        45.201
R22        40.000    22383131.044 7 119482694.71607     -4298.739 7        46.378                                                                    22383130.049 7  92930996.79807     -3343.513 7        42.895
S44        42.000    40738458.868 6 214082239.00106      -451.375 6        37.558
C09        43.000                                                                                                                                    38911396.329 7 202621872.99607     -1062.531 7        42.063    38911391.954 7 156680076.97607      -821.596 7        44.852    38911390.072 7 164646850.90107      -863.439 7        42.006
C05        44.000                                                                                                                                    39147642.598 6 203852079.51906      -431.651 6        38.679    39147638.200 7 157631382.25807      -333.725 7        44.027    39147639.550 6 165646615.50806      -350.726 6        40.386
R06        45.000    21691246.909 6 115748691.72506     -3162.944 6        39.219
C44        46.000                                                                                                                                    24940660.083 7 129872591.56207     -2452.621 7        43.325                                                                    24940658.967 7 105532121.77507     -1992.874 7        42.438
C39        47.000                                                                                                                                    40884718.187 6 212897462.69406     -1573.501 6        40.005                                                                    40884714.580 6 172996615.72706     -1278.543 6        38.078
C20        48.000                                                                                                                                    26065125.863 7 135727964.89707     -3158.629 7        42.722                                                                    26065121.233 7 110290075.05307     -2566.633 7        42.000
C06        49.000                                                                                                                                    39418496.568 6 205262480.51606     -1410.449 6        38.327    39418491.252 7 158721954.16207     -1090.710 7        42.114    39418490.468 6 166792558.70306     -1146.320 6        38.847
C16        50.000                                                                                                                                    39999966.528 6 208290340.93506     -1410.082 6        40.110    39999966.274 6 161063313.31906     -1090.244 6        40.906    39999963.954 6 169252962.52506     -1145.834 6        37.066
S48        51.000    77130205.188 6 405321623.63206      -370.396 6        38.072
C19        52.000                                                                                                                                    22463542.368 8 116973618.93808     -1726.514 8        51.141                                                                    22463537.643 8  95050650.21208     -1402.913 8        50.552
C12        53.000                                                                                                                                    24882922.482 6 129571912.57106     -1265.458 6        41.132    24882918.769 7 100193204.51207      -978.486 7        45.682    24882918.352 7 105287770.47207     -1028.226 7        43.627
C60        54.000                                                                                                                                    40738462.738 6 212136056.14806      -447.373 6        40.017                                                                    40738447.894 6 172377889.14706      -363.455 6        40.105
R16        55.000    21392252.179 8 114273595.08308     -2270.154 8        48.190                                                                    21392251.966 7  88879484.88707     -1765.604 7        44.935
C37        56.000                                                                                                                                    26181348.814 6 136333167.35906     -3009.458 6        40.019                                                                    26181352.091 6 110781884.08106     -2445.339 6        40.384
C02        57.000                                                                                                                                    40691850.558 5 211893171.87905      -463.043 5        35.490    40691844.309 6 163849231.00606      -358.333 6        38.477    40691847.180 5 172180558.73105      -376.195 5        35.876
I03        58.000   128875836.265 6 429951202.31506       920.014 6        41.471
R07        59.000    19452740.445 8 104132072.19008      -628.115 8        51.307                                                                    19452738.286 7  80991614.78007      -488.550 7        47.631
G07        60.000    21136969.203 8 111075553.03008      1098.520 8        49.337                                    21136964.827 8  86552373.65108       855.989 8        48.405    21136964.812 7  86552374.65307       856.015 7        44.199
> 2025 01 01 04 45 25.0000000  0 57
G16         1.000    23463506.523 6 123301577.15106      -241.173 6        40.517                                    23463502.228 3  96079135.89503      -187.925 3        23.333
G29         2.000    25668365.066 6 134888152.20306        32.757 6        37.183                                    25668362.045 4 105107635.23304        25.529 4        27.856    25668362.056 5 105107637.21105        25.290 5        34.124
G09         3.000    20236295.441 8 106342497.88708     -1532.883 8        49.618                                    20236292.954 8  82864295.65508     -1194.452 8        52.469    20236293.167 7  82864296.65607     -1194.374 7        46.049
E34         4.000    24393422.682 7 128188312.54507     -1762.487 7        47.264                                                                    24393422.712 8  95725046.76008     -1316.137 8        49.689    24393422.527 8  98222221.17508     -1350.420 8        50.510
S21         5.000    38394238.755 7 201762927.20107      -382.991 7        43.264
E05         6.000    21813556.844 8 114631063.43008       -32.544 8        48.543                                                                    21813556.511 8  85601149.49708       -24.269 8        50.913    21813556.411 8  87834214.90208       -24.891 8        52.013
E15         7.000    25784264.470 7 135497245.50107      1099.977 7        42.743                                                                    25784264.737 7 101183032.14007       821.424 7        46.200    25784264.450 7 103822587.19807       842.879 7        47.321
R10         8.000    22829207.415 6 121692519.37606      4062.959 6        39.135
E31         9.000    26514280.280 6 139333494.47206       838.022 6        41.399                                                                    26514281.278 7 104047763.87507       625.902 7        44.330    26514280.663 7 106762051.30107       642.231 7        45.166
G04        10.000    21860275.665 7 114876565.94307     -2878.263 7        46.147                                    21860272.709 5  89514215.80805     -2242.803 5        33.485    21860272.280 7  89514210.80207     -2242.796 7        44.457
E09        11.000    25110516.214 7 131956699.46907     -2295.894 7        45.794                                                                    25110515.445 8  98539110.33208     -1714.482 8        48.050    25110515.044 8 101109695.11908     -1759.216 8        48.892
S27        12.000    39027726.087 5 205092073.47505      -394.223 5        35.990
G06        13.000    21830704.688 7 114721152.82407     -2511.425 7        47.596                                    21830703.142 7  89393110.09807     -1956.954 7        46.760    21830704.115 7  89393121.10507     -1956.919 7        43.888
S36        14.000    38162062.279 7 200543483.45507      -383.686 7        44.919
G20        15.000    22632421.169 7 118934183.35807      2638.648 7        43.090                                    22632415.933 4  92675968.98304      2056.088 4        29.299
E36        16.000    26724584.389 6 140438652.95706     -3612.324 6        40.596                                                                    26724585.495 7 104873033.08207     -2697.454 7        43.841    26724584.844 7 107608846.55007     -2767.912 7        44.996
S45        17.000    63348601.224 6 332899550.27606      -423.359 6        37.565
G03        18.000    24491414.193 6 128703283.00506     -3983.019 6        38.865                                    24491414.480 5 100288285.40205     -3103.645 5        32.018    24491414.498 6 100288294.38906     -3103.657 6        36.321
E24        19.000    27712703.376 6 145631231.59706      2459.510 6        38.778                                                                    27712703.430 7 108750607.09207      1836.523 7        43.003    27712702.373 7 111587575.95607      1884.466 7        43.414
R23        20.000    21153430.389 7 113156595.32707     -1697.365 7        47.064
G30        21.000    23049223.391 7 121124502.52907      2910.489 7        44.575                                    23049221.380 6  94382735.94406      2267.916 6        40.925    23049221.795 6  94382739.95906      2267.889 6        40.501
I06        22.000    37922463.887 7 148816124.03107      -262.202 7        43.158
S28        23.000    40823008.468 5 214526352.90605      -382.710 5        34.624
S23        25.000    38101717.280 7 200225880.32607      -379.464 7        44.938
E06        26.000    26867523.152 6 141189837.00906     -2805.447 6        40.467                                                                    26867523.569 7 105433965.34507     -2094.929 7        42.899    26867523.750 7 108184415.51807     -2149.588 7        44.381
C34        27.000                                                                                                                                    25514562.752 6 132861023.00206       -33.909 6        41.931                                                                    25514562.977 7 107960468.66107       -27.495 7        42.038
G26        28.000    24802789.444 6 130339532.47706     -2472.948 6        36.423                                    24802789.077 4 101563271.47504     -1926.975 4        26.742    24802788.848 5 101563272.45805     -1926.698 5        34.814
R09        29.000    20472580.636 8 109322443.37808      1873.683 8        50.083                                                                    20472579.309 7  85028570.47507      1457.256 7        47.837
C22        30.000                                                                                                                                    22051074.551 8 114825761.89108      1055.443 8        51.407                                                                    22051067.887 8  93305324.98208       857.653 8        49.990
I01        31.000   339634400.208 7  29657520.45307     -2815.662 7        42.588
E03        32.000    26146344.105 7 137399978.48807      1838.379 7        42.878                                                                    26146343.868 7 102603897.97307      1372.850 7        44.447    26146343.748 7 105280515.39107      1408.666 7        45.795
R24        34.000    23190178.669 7 124008319.19407      2254.544 7        44.775                                                                    23190179.299 6  96450915.34606      1753.534 6        41.812
C36        35.000                                                                                                                                    23514995.923 7 122448765.89707      2380.927 7        47.558                                                                    23515001.033 7  99499675.18007      1934.771 7        47.543
G11        36.000    22089082.939 7 116078947.15907        44.946 7        45.833                                    22089079.119 5  90451128.28205        35.018 5        35.186    22089079.256 7  90451128.27907        35.077 7        44.718
C35        37.000                                                                                                                                    26419277.450 6 137572106.48606     -3410.586 6        41.149                                                                    26419276.880 6 111788600.38006     -2771.425 6        38.889
I09        38.000    37956610.994 7 148949883.39207      -700.261 7        43.096
R08        39.000    21080008.580 8 112882503.91308      2141.414 8        49.705                                                                    21080006.457 7  87797504.68507      1665.614 7        45.494
R22        40.000    22387158.262 7 119504191.56107     -4300.039 7        46.307                                                                    22387156.651 7  92947716.55107     -3344.461 7        43.154
S44        42.000    40738883.153 6 214084494.57806      -450.861 6        37.750
C09        43.000                                                                                                                                    38912415.831 6 202627184.82006     -1062.333 6        41.931    38912412.065 7 156684184.42407      -821.501 7        44.813    38912410.236 6 164651167.18606      -863.233 6        41.766
C05        44.000                                                                                                                                    39148056.483 6 203854236.07806      -431.195 6        38.456    39148052.344 7 157633049.84707      -333.466 7        44.029    39148053.752 6 165648367.88206      -350.257 6        40.336
R06        45.000    21694209.615 6 115764508.45906     -3163.769 6        38.495
C44        46.000                                                                                                                                    24943015.078 7 129884857.07507     -2453.903 7        43.139                                                                    24943014.326 7 105542088.49307     -1993.886 7        42.292
C39        47.000                                                                                                                                    40886228.374 6 212905327.89006     -1572.832 6        40.017                                                                    40886225.037 6 173003006.83306     -1278.104 6        37.871
C20        48.000                                                                                                                                    26068158.662 7 135743758.30007     -3158.786 7        42.377                                                                    26068154.112 6 110302908.47006     -2566.765 6        41.795
C06        49.000                                                                                                                                    39419851.338 6 205269532.32606     -1410.102 6        38.225    39419845.396 7 158727407.08207     -1090.506 7        42.330    39419844.878 6 166798288.88706     -1146.057 6        39.027
C16        50.000                                                                                                                                    40001320.052 6 208297389.84006     -1409.649 6        40.045    40001319.484 6 161068763.97906     -1090.039 6        40.894    40001317.500 6 169258690.33506     -1145.464 6        36.733
S48        51.000    77130562.958 6 405323474.04806      -369.878 6        38.252
C19        52.000                                                                                                                                    22465200.510 8 116982253.43508     -1727.428 8        51.080                                                                    22465195.813 8  95057666.43908     -1403.645 8        50.395
C12        53.000                                                                                                                                    24884139.452 6 129578244.80506     -1267.753 6        41.106    24884135.233 7 100198101.00207      -980.194 7        45.759    24884134.428 7 105292915.93907     -1029.942 7        43.676
C60        54.000                                                                                                                                    40738891.665 6 212138291.21506      -446.916 6        40.336                                                                    40738877.045 6 172379705.30206      -363.027 6        39.787
R16        55.000    21394378.565 8 114284954.69808     -2273.802 8        48.706                                                                    21394378.858 7  88888320.15007     -1768.524 7        45.321
C37        56.000                                                                                                                                    26184238.859 6 136348216.90606     -3010.428 6        40.174                                                                    26184242.135 6 110794113.07106     -2446.423 6        40.334
C02        57.000                                                                                                                                    40692294.340 5 211895486.52905      -463.089 5        35.871    40692288.502 6 163851020.79506      -357.969 6        38.877    40692291.659 5 172182439.54305      -376.105 5        35.781
I03        58.000   128874663.689 6 429946600.37906       920.629 6        41.576
R07        59.000    19453327.379 8 104135216.64008      -629.779 8        51.183                                                                    19453325.794 8  80994060.45608      -489.840 8        48.007
G07        60.000    21135924.905 8 111070065.09008      1096.567 8        49.329                                    21135920.520 8  86548097.33508       854.466 8        48.461    21135920.656 7  86548098.34507       854.516 7        44.286
> 2025 01 01 04 45 30.0000000  0 57
G16         1.000    23463737.565 6 123302792.83606      -244.854 6        40.930                                    23463733.765 3  96080083.18303      -190.787 3        23.371
G29         2.000    25668334.744 6 134887998.09606        29.429 6        36.442                                    25668332.568 4 105107515.14104        22.913 4        27.545    25668333.340 5 105107517.19605        22.693 5        34.557
G09         3.000    20237754.862 8 106350167.72008     -1534.818 8        50.027                                    20237752.470 8  82870272.14408     -1195.962 8        52.597    20237752.807 7  82870273.14607     -1195.999 7        46.325
E34         4.000    24395101.151 7 128197131.71007     -1764.957 7        47.142                                                                    24395100.953 8  95731632.49808     -1317.983 8        49.601    24395100.739 8  98228978.71408     -1352.357 8        50.684
S21         5.000    38394607.159 7 201764843.13607      -383.015 7        43.431
E05         6.000    21813588.543 8 114631229.83008       -33.817 8        48.431                                                                    21813588.144 8  85601273.76108       -25.303 8        50.889    21813588.095 8  87834342.40808       -25.952 8        52.181
E15         7.000    25783219.088 7 135491751.92007      1097.752 7        42.679                                                                    25783219.364 7 101178929.79007       819.630 7        46.197    25783219.092 7 103818377.82407       841.087 7        47.389
R10         8.000    22825395.705 6 121672207.64706      4061.993 6        39.234
E31         9.000    26513483.965 6 139329310.34306       835.748 6        41.054                                                                    26513485.180 7 104044639.36907       624.103 7        44.325    26513484.386 7 106758845.29307       640.341 7        45.306
G04        10.000    21863014.677 7 114890960.49607     -2879.313 7        45.842                                    21863011.949 5  89525432.33905     -2243.620 5        33.695    21863011.324 7  89525427.33707     -2243.659 7        44.315
E09        11.000    25112701.268 7 131968181.53107     -2296.572 7        45.862                                                                    25112700.467 8  98547684.59108     -1715.022 8        48.010    25112700.074 8 101118493.05908     -1759.788 8        49.019
S27        12.000    39028101.636 6 205094045.48306      -394.496 6        36.057
G06        13.000    21833095.812 7 114733717.73707     -2514.369 7        47.210                                    21833094.141 7  89402900.94007     -1959.249 7        46.915    21833095.074 7  89402911.93407     -1959.194 7        44.063
S36        14.000    38162426.488 7 200545402.86707      -383.747 7        45.049
G20        15.000    22629911.111 7 118920993.83507      2637.299 7        43.346                                    22629906.047 4  92665691.43304      2055.044 4        29.374
E36        16.000    26728022.109 6 140456716.57606     -3612.903 6        41.032                                                                    26728022.992 7 104886522.15007     -2697.898 7        43.945    26728022.249 7 107622687.51407     -2768.384 7        44.924
S45        17.000    63348963.797 6 332901668.04006      -423.396 6        37.493
G03        18.000    24495204.394 6 128723200.66806     -3983.684 6        38.793                                    24495204.650 5 100303805.64105     -3104.163 5        31.887    24495204.320 6 100303814.66706     -3104.407 6        36.359
E24        19.000    27710363.855 6 145618936.61306      2458.917 6        38.748                                                                    27710363.651 7 108741425.77207      1836.096 7        42.870    27710362.745 7 111578155.12407      1884.033 7        43.532
R23        20.000    21155019.642 7 113165094.07207     -1701.834 7        47.395
G30        21.000    23046454.273 7 121109954.31207      2909.090 7        44.286                                    23046453.088 6  94371399.67406      2266.821 6        41.125    23046453.403 6  94371403.66906      2266.994 6        40.057
I06        22.000    37922798.427 7 148817435.74607      -262.282 7        43.357
S28        23.000    40823376.657 5 214528265.53505      -382.580 5        34.695
S23        25.000    38102080.059 7 200227778.65607      -379.608 7        45.020
E06        26.000    26870192.410 6 141203865.57506     -2805.832 6        40.153                                                                    26870193.150 7 105444441.20107     -2095.205 7        43.105    26870193.182 7 108195164.65407     -2149.828 7        44.576
C34        27.000                                                                                                                                    25514596.517 6 132861199.99706       -36.703 6        41.645                                                                    25514596.817 6 107960612.47606       -29.829 6        41.681
G26        28.000    24805143.108 6 130351903.58406     -2475.349 6        37.017                                    24805143.279 4 101572911.28404     -1928.836 4        27.245    24805143.421 5 101572912.29505     -1929.038 5        35.167
R09        29.000    20470827.753 8 109313085.61108      1869.742 8        50.156                                                                    20470826.779 8  85021292.23108      1454.183 8        48.209
C22        30.000                                                                                                                                    22050062.175 8 114820488.85708      1054.044 8        51.315                                                                    22050055.262 8  93301040.20908       856.507 8        49.916
I01        31.000   339637988.003 7  29671599.27707     -2815.797 7        42.610
E03        32.000    26144595.029 7 137390788.49107      1837.740 7        42.870                                                                    26144595.137 7 102597035.31607      1372.422 7        44.501    26144595.061 7 105273473.71507      1408.069 7        45.991
R24        34.000    23188073.014 7 123997056.00507      2251.022 7        43.268                                                                    23188073.337 6  96442155.07606      1750.753 6        41.993
C36        35.000                                                                                                                                    23512711.110 7 122436865.85607      2379.218 7        47.700                                                                    23512715.718 7  99490005.41807      1933.360 7        47.530
G11        36.000    22089042.209 7 116078731.59907        41.498 7        46.057                                    22089038.097 5  90450960.31505        32.337 5        35.333    22089037.969 7  90450960.30707        32.436 7        44.846
C35        37.000                                                                                                                                    26422552.407 6 137589159.47006     -3410.323 6        41.321                                                                    26422552.010 6 111802457.33406     -2771.249 6        38.988
I09        38.000    37957503.437 7 148953386.27607      -700.621 7        43.084
R08        39.000    21078010.008 8 112871800.55308      2140.156 8        49.919                                                                    21078007.272 7  87789179.85307      1664.585 7        45.266
R22        40.000    22391186.041 7 119525696.71307     -4301.772 7        45.231                                                                    22391185.478 7  92964442.77607     -3345.792 7        43.225
S44        42.000    40739318.135 6 214086750.17606      -451.246 6        37.868
C09        43.000                                                                                                                                    38913436.165 6 202632498.11806     -1062.698 6        41.468    38913432.548 7 156688293.00707      -821.841 7        45.013    38913430.430 6 164655484.69306      -863.595 6        41.838
C05        44.000                                                                                                                                    39148470.519 6 203856392.81406      -431.322 6        38.459    39148466.573 7 157634717.57207      -333.486 7        44.101    39148467.905 6 165650120.40406      -350.468 6        40.327
R06        45.000    21697175.317 6 115780331.13906     -3165.100 6        38.261
C44        46.000                                                                                                                                    24945372.800 7 129897131.30607     -2455.672 7        43.515                                                                    24945371.427 7 105552062.31807     -1995.402 7        42.184
C39        47.000                                                                                                                                    40887738.834 6 212913192.96806     -1572.962 6        40.184                                                                    40887735.493 6 173009397.84606     -1278.260 6        38.021
C20        48.000                                                                                                                                    26071191.711 7 135759554.00607     -3159.248 7        42.279                                                                    26071187.682 6 110315743.76206     -2567.214 6        41.957
C06        49.000                                                                                                                                    39421205.231 6 205276584.95006     -1410.420 6        38.027    39421199.521 7 158732860.60607     -1090.589 7        42.447    39421199.209 6 166804019.70506     -1146.093 6        39.012
C16        50.000                                                                                                                                    40002673.503 6 208304439.24306     -1409.813 6        39.694    40002673.683 6 161074215.02106     -1090.193 6        40.953    40002671.152 6 169264418.54406     -1145.448 6        36.575
S48        51.000    77130918.890 6 405325324.56306      -370.044 6        38.288
C19        52.000                                                                                                                                    22466860.213 8 116990895.06808     -1728.997 8        50.935                                                                    22466855.355 8  95064688.46808     -1404.908 8        50.399
C12        53.000                                                                                                                                    24885358.189 6 129584590.36606     -1270.286 6        41.030    24885353.566 7 100203007.80107      -982.410 7        46.010    24885352.828 7 105298072.23807     -1032.224 7        43.596
C60        54.000                                                                                                                                    40739320.999 6 212140526.29506      -446.951 6        40.002                                                                    40739306.263 6 172381521.48606      -363.163 6        39.805
R16        55.000    21396509.289 8 114296334.91408     -2277.992 8        48.215                                                                    21396508.408 7  88897171.42307     -1771.820 7        44.713
C37        56.000                                                                                                                                    26187130.853 6 136363274.44706     -3012.153 6        40.193                                                                    26187133.930 6 110806348.54206     -2447.755 6        40.453
C02        57.000                                                                                                                                    40692739.504 5 211897801.18405      -462.924 5        35.633    40692733.093 6 163852810.63606      -357.916 6        38.895    40692736.160 5 172184320.42705      -376.378 5        35.705
I03        58.000   128873491.109 6 429941998.59006       920.431 6        41.645
R07        59.000    19453916.736 8 104138371.39708      -631.911 8        50.983                                                                    19453915.263 7  80996514.16007      -491.465 7        47.866
G07        60.000    21134883.143 8 111064589.36108      1094.013 8        49.300                                    21134878.516 8  86543830.53708       852.479 8        48.599    21134878.753 7  86543831.54007       852.395 7        44.582
> 2025 01 01 04 45 35.0000000  0 57
G16         1.000    23463972.263 6 123304026.60006      -248.598 6        40.477                                    23463968.310 3  96081044.55703      -193.705 3        23.143
G29         2.000    25668308.243 6 134887859.75006        25.973 6        36.817                                    25668306.167 4 105107407.47104        20.208 4        27.701    25668306.776 5 105107409.51405        20.471 5        34.533
G09         3.000    20239216.624 8 106357847.39708     -1536.910 8        50.191                                    20239213.854 8  82876256.31008     -1197.592 8        52.606    20239214.094 7  82876257.31307     -1197.587 7        46.142
E34         4.000    24396781.457 7 128205963.03807     -1767.423 7        47.424                                                                    24396781.509 8  95738227.31708     -1319.869 8        49.553    24396781.281 8  98235745.57108     -1354.285 8        50.471
S21         5.000    38394970.889 7 201766759.76607      -383.543 7        43.253
E05         6.000    21813621.622 8 114631402.74408       -35.258 8        48.457                                                                    21813621.055 8  85601402.88108       -26.253 8        50.887    21813621.004 8  87834474.89908       -26.977 8        52.039
E15         7.000    25782175.933 7 135486269.78307      1095.247 7        42.798                                                                    25782176.137 7 101174835.97107       817.916 7        46.277    25782175.812 7 103814177.21707       839.230 7        47.258
R10         8.000    22821587.005 6 121651900.89806      4060.966 6        39.501
E31         9.000    26512689.844 6 139325137.46106       833.623 6        41.046                                                                    26512691.175 7 104041523.26907       622.379 7        44.510    26512690.240 7 106755647.89307       638.649 7        45.147
G04        10.000    21865755.150 7 114905360.86407     -2880.669 7        45.394                                    21865752.263 5  89536653.40305     -2244.673 5        33.557    21865751.987 7  89536648.39907     -2244.741 7        44.069
E09        11.000    25114886.879 7 131979667.11807     -2297.473 7        45.865                                                                    25114886.150 7  98556261.48207     -1715.531 7        47.965    25114885.810 8 101127293.70008     -1760.393 8        48.955
S27        12.000    39028474.462 5 205096018.30405      -394.532 5        35.895
G06        13.000    21835489.150 7 114746296.71207     -2517.240 7        47.100                                    21835487.823 7  89412702.73407     -1961.485 7        46.906    21835488.816 7  89412713.73107     -1961.466 7        44.281
S36        14.000    38162792.173 7 200547322.90707      -384.014 7        44.986
G20        15.000    22627402.526 7 118907811.13407      2635.877 7        43.551                                    22627397.467 4  92655419.20404      2053.930 4        29.431
E36        16.000    26731459.975 6 140474783.51706     -3613.891 6        41.082                                                                    26731461.026 7 104900013.68107     -2698.530 7        43.968    26731460.498 7 107636530.99907     -2769.004 7        44.853
S45        17.000    63349321.884 6 332903786.35406      -423.791 6        37.531
G03        18.000    24498995.225 6 128743121.74106     -3984.621 6        39.114                                    24498995.405 5 100319328.53605     -3104.896 5        31.411    24498995.724 6 100319337.54406     -3104.944 6        36.117
E24        19.000    27708024.711 6 145606644.26806      2458.253 6        38.508                                                                    27708024.325 7 108732246.44007      1835.735 7        42.840    27708023.600 7 111568736.32407      1883.531 7        43.354
R23        20.000    21156612.993 7 113173615.45707     -1706.584 7        46.983
G30        21.000    23043686.863 7 121095412.67807      2907.706 7        44.430                                    23043685.896 6  94360068.53206      2265.743 6        41.147    23043686.066 6  94360072.53306      2265.722 6        39.868
I06        22.000    37923132.779 7 148818748.04507      -262.387 7        43.367
S28        23.000    40823738.822 5 214530178.90305      -382.853 5        35.052
S23        25.000    38102441.142 7 200229677.48507      -379.621 7        44.963
E06        26.000    26872862.327 6 141217895.53506     -2806.189 6        40.238                                                                    26872863.070 7 105454918.10507     -2095.488 7        43.249    26872862.955 7 108205914.86707     -2150.126 7        44.483
C34        27.000                                                                                                                                    25514634.224 6 132861391.12706       -39.660 6        41.957                                                                    25514633.754 6 107960767.80306       -32.222 6        41.497
G26        28.000    24807499.898 6 130364288.25906     -2478.306 6        36.892                                    24807499.940 4 101582561.65604     -1931.146 4        27.497    24807500.136 5 101582562.65805     -1931.021 5        35.043
R09        29.000    20469078.869 8 109303747.43908      1865.714 8        50.337                                                                    20469078.424 7  85014029.20107      1451.116 7        47.553
C22        30.000                                                                                                                                    22049050.722 8 114815222.64608      1052.556 8        51.336                                                                    22049043.939 8  93296760.99408       855.308 8        49.882
I01        31.000   339641576.351 7  29685679.21207     -2816.040 7        42.597
E03        32.000    26142847.006 7 137381602.14407      1836.954 7        43.027                                                                    26142847.117 7 102590175.38907      1371.738 7        44.501    26142846.928 7 105266434.82507      1407.466 7        45.809
R24        34.000    23185969.586 7 123985810.37707      2247.425 7        44.211                                                                    23185969.835 6  96433408.48706      1747.912 6        41.652
C36        35.000                                                                                                                                    23510427.697 7 122424974.18907      2377.526 7        47.895                                                                    23510432.258 7  99480342.48507      1931.966 7        47.607
G11        36.000    22089004.617 7 116078533.57807        37.888 7        46.534                                    22089000.419 5  90450806.01305        29.524 5        35.305    22089000.453 7  90450806.01507        29.513 7        44.992
C35        37.000                                                                                                                                    26425827.422 6 137606212.03106     -3410.634 6        41.104                                                                    26425826.620 6 111816313.94706     -2771.300 6        38.910
I09        38.000    37958396.208 7 148956890.13207      -700.785 7        42.944
R08        39.000    21076012.445 8 112861103.07308      2138.907 8        49.712                                                                    21076009.631 7  87780859.58607      1663.586 7        44.647
R22        40.000    22395216.287 7 119547210.63307     -4303.654 7        45.737                                                                    22395215.151 7  92981175.80907     -3347.233 7        42.493
S44        42.000    40739746.123 6 214089006.23206      -451.237 6        37.577
C09        43.000                                                                                                                                    38914456.503 6 202637813.37606     -1063.249 6        41.359    38914453.545 7 156692403.08607      -822.110 7        45.079    38914451.273 6 164659803.77106      -864.006 6        41.897
C05        44.000                                                                                                                                    39148885.007 6 203858550.18106      -431.629 6        38.363    39148880.877 7 157636385.77007      -333.701 7        44.182    39148882.147 6 165651873.44806      -350.689 6        40.153
R06        45.000    21700141.942 6 115796160.28306     -3166.387 6        38.775
C44        46.000                                                                                                                                    24947731.790 7 129909414.74607     -2457.590 7        43.340                                                                    24947730.312 7 105562043.63007     -1996.975 7        42.066
C39        47.000                                                                                                                                    40889249.661 6 212921058.35106     -1573.068 6        40.052                                                                    40889246.033 6 173015789.14706     -1278.389 6        37.834
C20        48.000                                                                                                                                    26074225.897 7 135775352.49707     -3159.979 7        42.235                                                                    26074221.752 6 110328581.32606     -2567.763 6        41.862
C06        49.000                                                                                                                                    39422559.333 6 205283638.83006     -1410.737 6        38.237    39422554.243 7 158738315.11607     -1091.065 7        42.440    39422554.128 6 166809751.57006     -1146.377 6        39.048
C16        50.000                                                                                                                                    40004027.485 6 208311489.64106     -1410.181 6        39.535    40004027.034 6 161079666.84406     -1090.432 6        40.887    40004025.036 6 169270147.57906     -1145.995 6        36.370
S48        51.000    77131273.673 6 405327175.65306      -370.278 6        38.249
C19        52.000                                                                                                                                    22468521.121 8 116999544.30608     -1730.614 8        50.871                                                                    22468516.366 8  95071716.69408     -1406.227 8        50.382
C12        53.000                                                                                                                                    24886579.042 6 129590949.73906     -1273.180 6        40.841    24886574.734 7 100207925.25907      -984.543 7        45.914    24886574.110 7 105303239.74707     -1034.651 7        43.492
C60        54.000                                                                                                                                    40739750.195 6 212142761.85606      -447.091 6        39.874                                                                    40739735.601 6 172383338.06906      -363.331 6        39.718
R16        55.000    21398643.351 8 114307736.13108     -2282.355 8        48.183                                                                    21398643.177 7  88906039.04407     -1775.191 7        45.309
C37        56.000                                                                                                                                    26190023.774 6 136378340.41506     -3014.111 6        40.374                                                                    26190027.192 6 110818590.87506     -2449.121 6        40.443
C02        57.000                                                                                                                                    40693184.511 5 211900116.41505      -462.977 5        35.667    40693177.841 6 163854600.90906      -358.121 6        38.811    40693180.684 5 172186201.73005      -376.412 5        35.433
I03        58.000   128872318.243 6 429937397.26406       920.212 6        41.647
R07        59.000    19454508.045 8 104141537.12608      -634.164 8        51.031                                                                    19454506.888 8  80998976.39408      -493.256 8        48.096
G07        60.000    21133843.406 8 111059126.29708      1091.361 8        49.469                                    21133838.917 8  86539573.60308       850.411 8        48.588    21133839.078 7  86539574.60507       850.393 7        44.468
> 2025 01 01 04 45 40.0000000  0 57
G16         1.000    23464210.096 6 123305278.24606      -251.984 6        40.231                                    23464205.999 3  96082019.87603      -196.353 3        22.838
G29         2.000    25668285.232 6 134887736.65206        23.224 6        37.289                                    25668282.700 4 105107311.62604        18.095 4        27.760    25668283.136 5 105107313.64405        18.193 5        35.343
G09         3.000    20240679.741 8 106365536.78908     -1538.616 8        49.884                                    20240677.081 8  82882248.04208     -1198.924 8        52.733    20240677.153 7  82882249.04807     -1199.041 7        46.018
E34         4.000    24398464.401 7 128214806.37107     -1769.699 7        47.450                                                                    24398464.339 8  95744831.10408     -1321.481 8        49.499    24398464.172 8  98242521.63508     -1356.022 8        50.518
S21         5.000    38395338.841 7 201768676.74107      -383.271 7        43.672
E05         6.000    21813655.749 8 114631582.03108       -36.240 8        48.607                                                                    21813655.212 8  85601536.77008       -27.104 8        50.828    21813655.109 8  87834612.27708       -27.814 8        52.008
E15         7.000    25781134.233 7 135480798.91407      1093.230 7        42.978                                                                    25781135.096 7 101170750.58307       816.365 7        46.160    25781134.691 7 103809985.25307       837.642 7        47.316
R10         8.000    22817778.951 6 121631599.13906      4060.007 6        39.745
E31         9.000    26511898.000 6 139320975.69106       831.538 6        41.066                                                                    26511899.090 7 104038415.45007       620.930 7        44.471    26511898.257 7 106752459.01007       637.025 7        45.085
G04        10.000    21868496.434 7 114919766.88007     -2881.557 7        45.366                                    21868493.644 5  89547878.86505     -2245.367 5        33.647    21868493.649 7  89547873.85307     -2245.350 7        43.951
E09        11.000    25117073.056 7 131991156.09807     -2297.963 7        45.694                                                                    25117072.475 7  98564840.91507     -1715.965 7        47.871    25117072.028 8 101136096.93908     -1760.785 8        48.900
S27        12.000    39028850.709 5 205097991.27105      -394.398 5        35.619
G06        13.000    21837885.503 7 114758889.60407     -2519.798 7        46.647                                    21837884.170 7  89422515.37207     -1963.479 7        47.026    21837885.107 7  89422526.37407     -1963.521 7        44.247
S36        14.000    38163156.207 7 200549243.54807      -384.031 7        45.120
G20        15.000    22624895.219 7 118894635.16207      2634.751 7        44.044                                    22624890.081 4  92645152.21604      2053.058 4        29.583
E36        16.000    26734898.367 6 140492853.56806     -3614.306 6        41.104                                                                    26734899.722 7 104913507.55007     -2698.874 7        43.816    26734899.263 7 107650376.87407     -2769.236 7        44.864
S45        17.000    63349686.903 6 332905905.05006      -423.511 6        37.210
G03        18.000    24502786.638 6 128763046.06706     -3984.969 6        38.498                                    24502786.715 5 100334853.97505     -3105.168 5        31.396    24502787.374 5 100334862.97305     -3105.306 5        35.905
E24        19.000    27705685.971 6 145594354.45506      2458.053 6        38.676                                                                    27705685.630 7 108723068.98707      1835.359 7        42.648    27705684.861 7 111559319.46407      1883.254 7        43.310
R23        20.000    21158209.515 7 113182159.27007     -1710.861 7        46.683
G30        21.000    23040921.370 7 121080877.48107      2906.501 7        44.460                                    23040919.866 6  94348742.41106      2264.805 6        41.325    23040920.496 6  94348746.41306      2264.723 6        40.167
I06        22.000    37923467.294 7 148820060.86107      -262.499 7        43.359
S28        23.000    40824099.490 5 214532092.54605      -382.845 5        34.867
S23        25.000    38102801.631 7 200231576.57907      -379.600 7        44.983
E06        26.000    26875532.677 6 141231926.75606     -2806.067 6        39.862                                                                    26875533.276 7 105465395.95807     -2095.430 7        43.391    26875532.783 7 108216666.05807     -2150.181 7        44.384
C34        27.000                                                                                                                                    25514673.480 7 132861596.20007       -42.311 7        42.078                                                                    25514673.175 6 107960934.44106       -34.383 6        41.745
G26        28.000    24809858.525 6 130376686.34606     -2481.020 6        36.590                                    24809859.226 4 101592222.49504     -1933.267 4        27.701    24809859.179 5 101592223.48305     -1932.982 5        35.524
R09        29.000    20467333.924 8 109294428.61108      1862.020 8        50.365                                                                    20467332.926 7  85006781.21707      1448.275 7        47.625
C22        30.000                                                                                                                                    22048040.770 8 114809963.12408      1051.425 8        51.269                                                                    22048033.928 8  93292487.19908       854.316 8        50.020
I01        31.000   339645164.124 7  29699760.12207     -2816.125 7        42.413
E03        32.000    26141099.488 7 137372419.29307      1836.450 7        43.084                                                                    26141099.684 7 102583318.06707      1371.368 7        44.406    26141099.448 7 105259398.61307      1407.078 7        45.895
R24        34.000    23183871.181 7 123974582.10307      2244.124 7        44.938                                                                    23183869.808 6  96424675.35406      1745.454 6        41.492
C36        35.000                                                                                                                                    23508145.198 7 122413090.75907      2376.139 7        47.503                                                                    23508150.331 7  99470686.23007      1930.659 7        47.876
G11        36.000    22088970.106 7 116078352.96507        34.576 7        46.259                                    22088966.068 5  90450665.27005        26.942 5        35.419    22088966.051 7  90450665.25807        26.918 7        45.368
C35        37.000                                                                                                                                    26429102.206 6 137623264.00406     -3410.171 6        40.703                                                                    26429101.329 6 111830170.05006     -2771.085 6        39.270
I09        38.000    37959289.530 7 148960394.88007      -700.876 7        42.864
R08        39.000    21074015.271 8 112850411.40708      2137.934 8        49.382                                                                    21074013.470 7  87772543.85907      1662.765 7        45.056
R22        40.000    22399248.720 7 119568733.13507     -4305.163 7        45.728                                                                    22399246.621 7  92997915.53207     -3348.500 7        42.049
S44        42.000    40740175.841 6 214091262.64906      -451.275 6        37.664
C09        43.000                                                                                                                                    38915477.316 6 202643130.42406     -1063.383 6        41.135    38915474.578 7 156696514.56107      -822.274 7        45.130    38915472.413 6 164664124.30506      -864.236 6        41.900
C05        44.000                                                                                                                                    39149299.732 6 203860708.03206      -431.466 6        38.243    39149295.164 7 157638054.35207      -333.563 7        44.140    39149296.550 6 165653626.87406      -350.631 6        40.517
R06        45.000    21703110.390 6 115811995.63706     -3167.375 6        38.510
C44        46.000                                                                                                                                    24950092.449 7 129921707.20807     -2459.259 7        43.778                                                                    24950091.015 7 105572032.25907     -1998.359 7        42.320
C39        47.000                                                                                                                                    40890760.261 6 212928923.93206     -1572.997 6        40.157                                                                    40890756.548 6 173022180.56606     -1278.095 6        38.093
C20        48.000                                                                                                                                    26077260.513 7 135791153.63007     -3160.220 7        42.169                                                                    26077256.359 7 110341421.02707     -2568.074 7        42.036
C06        49.000                                                                                                                                    39423914.271 6 205290693.84306     -1411.035 6        38.141    39423908.931 7 158743770.48207     -1090.930 7        42.472    39423908.998 6 166815484.33406     -1146.529 6        39.045
C16        50.000                                                                                                                                    40005381.230 6 208318540.86006     -1409.948 6        39.342    40005381.604 6 161085119.29206     -1090.381 6        40.796    40005379.196 6 169275877.28006     -1145.734 6        36.287
S48        51.000    77131632.436 6 405329027.20706      -370.208 6        38.252
C19        52.000                                                                                                                                    22470183.484 8 117008201.00508     -1731.918 8        51.134                                                                    22470178.787 8  95078750.97208     -1407.361 8        50.508
C12        53.000                                                                                                                                    24887802.720 6 129597322.75406     -1275.742 6        40.741    24887798.847 7 100212853.27807      -986.616 7        45.953    24887797.862 7 105308418.33807     -1036.817 7        43.611
C60        54.000                                                                                                                                    40740179.596 6 212144997.76006      -446.881 6        39.814                                                                    40740165.056 6 172385154.91506      -363.242 6        39.778
R16        55.000    21400781.713 7 114319158.33407     -2286.318 7        47.818                                                                    21400781.210 7  88914922.98607     -1778.291 7        45.014
C37        56.000                                                                                                                                    26192919.107 6 136393414.65006     -3015.449 6        40.701                                                                    26192922.092 6 110830839.92106     -2450.387 6        40.698
C02        57.000                                                                                                                                    40693629.289 5 211902432.03905      -462.895 5        35.414    40693622.593 6 163856391.47606      -357.881 6        38.847    40693625.794 5 172188083.34805      -376.249 5        35.752
I03        58.000   128871146.008 6 429932796.28006       920.262 6        41.642
R07        59.000    19455101.783 8 104144713.37708      -636.179 8        51.539                                                                    19455100.102 8  81001446.79808      -494.711 8        48.179
G07        60.000    21132806.262 8 111053675.78208      1089.011 8        49.593                                    21132801.702 8  86535326.45108       848.578 8        48.653    21132801.955 7  86535327.44707       848.615 7        44.524
> 2025 01 01 04 45 45.0000000  0 57
G16         1.000    23464451.831 6 123306547.32806      -255.377 6        40.095                                    23464447.145 3  96083008.77203      -198.992 3        22.457
G29         2.000    25668265.019 6 134887628.41606        20.302 6        37.527                                    25668262.019 4 105107227.31504        15.821 4        27.772    25668262.536 5 105107229.32105        15.954 5        35.067
G09         3.000    20242144.450 8 106373235.38108     -1540.620 8        49.651                                    20242142.065 8  82888246.94408     -1200.483 8        52.523    20242142.287 7  82888247.94907     -1200.427 7        46.111
E34         4.000    24400149.652 7 128223661.22407     -1772.029 7        47.329                                                                    24400149.388 8  95751443.49608     -1323.252 8        49.521    24400149.180 8  98249306.52308     -1357.812 8        50.565
S21         5.000    38395699.478 7 201770593.45807      -383.386 7        43.325
E05         6.000    21813691.046 8 114631767.20908       -37.651 8        48.551                                                                    21813690.427 8  85601675.05008       -28.122 8        50.836    21813690.311 8  87834754.16608       -28.841 8        52.044
E15         7.000    25780095.670 7 135475338.84507      1090.974 7        43.082                                                                    25780096.108 7 101166673.25407       814.691 7        46.204    25780095.664 7 103805801.55607       835.955 7        47.389
R10         8.000    22813972.048 6 121611301.50706      4059.196 6        40.322
E31         9.000    26511108.438 6 139316824.54106       829.258 6        41.378                                                                    26511109.144 7 104035315.56207       619.288 7        44.581    26511108.252 7 106749278.24407       635.420 7        45.097
G04        10.000    21871239.018 7 114934178.06007     -2882.690 7        45.541                                    21871235.916 5  89559108.34805     -2246.249 5        33.431    21871235.855 7  89559103.34307     -2246.332 7        43.446
E09        11.000    25119259.855 7 132002647.96407     -2298.543 7        45.446                                                                    25119259.303 7  98573422.50707     -1716.527 7        47.831    25119258.862 8 101144902.39408     -1761.238 8        48.942
S27        12.000    39029224.809 5 205099964.15105      -394.476 5        35.838
G06        13.000    21840284.490 7 114771495.88707     -2522.467 7        46.338                                    21840283.084 7  89432338.44207     -1965.558 7        46.822    21840284.080 7  89432349.44507     -1965.588 7        44.167
S36        14.000    38163522.903 7 200551163.81907      -383.792 7        44.999
G20        15.000    22622388.913 7 118881465.42207      2633.305 7        44.129                                    22622383.960 4  92634890.08204      2051.929 4        29.469
E36        16.000    26738337.323 6 140510926.24006     -3614.665 6        40.765                                                                    26738338.710 7 104927003.38407     -2699.282 7        43.767    26738338.478 7 107664224.78007     -2769.805 7        44.951
S45        17.000    63350047.476 6 332908023.66406      -423.676 6        37.214
G03        18.000    24506578.934 6 128782973.11106     -3985.385 6        38.294                                    24506578.624 5 100350381.53105     -3105.493 5        31.004    24506579.355 5 100350390.54105     -3105.912 5        35.852
E24        19.000    27703347.459 6 145582066.67606      2457.501 6        38.679                                                                    27703347.359 7 108713893.04707      1835.178 7        42.656    27703346.558 7 111549904.16307      1882.882 7        43.202
R23        20.000    21159810.913 7 113190724.98107     -1715.224 7        46.903
G30        21.000    23038156.551 7 121066348.24007      2905.351 7        44.605                                    23038154.883 6  94337420.92606      2263.914 6        41.125    23038155.756 6  94337424.93006      2263.925 6        39.808
I06        22.000    37923801.880 7 148821373.77907      -262.510 7        43.232
S28        23.000    40824466.986 5 214534006.17505      -382.795 5        34.609
S23        25.000    38103162.455 7 200233475.54207      -379.736 7        45.011
E06        26.000    26878202.954 6 141245958.75506     -2806.508 6        39.847                                                                    26878203.581 7 105475874.38407     -2095.727 7        43.706    26878202.921 7 108227417.83107     -2150.375 7        44.254
C34        27.000                                                                                                                                    25514714.850 6 132861814.76406       -44.943 6        41.647                                                                    25514715.234 7 107961112.07507       -36.700 7        42.044
G26        28.000    24812220.684 6 130389097.31106     -2483.283 6        36.457                                    24812220.900 4 101601893.35304     -1935.026 4        27.437    24812221.602 5 101601894.34605     -1935.174 5        35.724
R09        29.000    20465593.141 8 109285128.63508      1858.158 8        50.378                                                                    20465591.544 7  84999547.90407      1445.276 7        47.978
C22        30.000                                                                                                                                    22047031.841 8 114804709.79508      1050.154 8        51.264                                                                    22047025.054 8  93288218.44608       853.347 8        50.008
I01        31.000   339648752.118 7  29713841.62407     -2816.376 7        42.275
E03        32.000    26139352.728 7 137363239.43907      1835.722 7        43.136                                                                    26139352.852 7 102576462.98007      1370.865 7        44.400    26139352.539 7 105252364.70307      1406.622 7        45.887
R24        34.000    23181774.816 7 123963370.72907      2240.635 7        45.011                                                                    23181773.863 6  96415955.45206      1742.670 6        41.759
C36        35.000                                                                                                                                    23505864.780 7 122401215.10407      2374.410 7        47.949                                                                    23505869.700 7  99461036.29407      1929.418 7        47.778
G11        36.000    22088938.868 7 116078189.23007        31.137 7        46.521                                    22088934.874 5  90450537.68505        24.264 5        35.195    22088935.062 7  90450537.69107        24.233 7        45.583
C35        37.000                                                                                                                                    26432376.275 6 137640314.85806     -3410.058 6        40.136                                                                    26432375.927 6 111844025.26606     -2770.847 6        39.435
I09        38.000    37960182.697 7 148963900.12807      -701.065 7        42.827
R08        39.000    21072020.464 8 112839724.92808      2136.797 8        49.989                                                                    21072017.832 7  87764232.15507      1661.905 7        45.583
R22        40.000    22403282.529 7 119590263.69407     -4306.838 7        46.616                                                                    22403281.687 7  93014661.52907     -3349.720 7        43.490
S44        42.000    40740602.599 6 214093518.91406      -451.177 6        37.720
C09        43.000                                                                                                                                    38916499.134 6 202648448.76406     -1063.897 6        41.142    38916495.804 7 156700627.03307      -822.646 7        45.378    38916493.610 6 164668445.88906      -864.441 6        41.988
C05        44.000                                                                                                                                    39149713.424 6 203862865.84706      -431.483 6        38.354    39149709.554 7 157639722.91807      -333.693 7        44.235    39149710.976 6 165655380.28006      -350.575 6        40.391
R06        45.000    21706077.492 6 115827836.73606     -3168.641 6        38.610
C44        46.000                                                                                                                                    24952455.043 7 129934008.18607     -2460.978 7        43.926                                                                    24952453.332 7 105582027.83107     -1999.720 7        42.354
C39        47.000                                                                                                                                    40892270.388 6 212936789.21406     -1572.946 6        39.922                                                                    40892267.043 6 173028571.75306     -1278.106 6        37.955
C20        48.000                                                                                                                                    26080295.519 6 135806956.89706     -3160.776 6        41.897                                                                    26080290.972 6 110354262.47206     -2568.386 6        41.905
C06        49.000                                                                                                                                    39425269.629 6 205297749.45106     -1411.172 6        38.195    39425263.819 7 158749226.33007     -1091.213 7        42.430    39425263.713 6 166821217.61206     -1146.686 6        39.159
C16        50.000                                                                                                                                    40006735.557 6 208325592.42706     -1410.203 6        39.333    40006735.496 6 161090572.01606     -1090.537 6        40.892    40006733.409 6 169281607.27506     -1145.973 6        36.015
S48        51.000    77131988.341 6 405330878.59206      -370.231 6        38.390
C19        52.000                                                                                                                                    22471847.641 8 117016864.68508     -1733.409 8        51.095                                                                    22471842.527 8  95085790.93308     -1408.503 8        50.465
C12        53.000                                                                                                                                    24889028.561 6 129603708.88806     -1278.471 6        40.455    24889025.118 7 100217791.43507      -988.587 7        45.672    24889024.291 7 105313607.61307     -1038.877 7        43.678
C60        54.000                                                                                                                                    40740608.925 6 212147233.50706      -447.115 6        39.826                                                                    40740594.278 6 172386971.65106      -363.290 6        39.817
R16        55.000    21402924.026 8 114330601.06708     -2290.459 8        48.537                                                                    21402923.747 7  88923822.87507     -1781.441 7        45.341
C37        56.000                                                                                                                                    26195815.681 6 136408496.66506     -3017.107 6        40.889                                                                    26195818.313 6 110843095.29706     -2451.607 6        40.701
C02        57.000                                                                                                                                    40694073.697 5 211904747.62905      -462.884 5        35.286    40694067.063 6 163858182.04406      -358.134 6        38.787    40694070.157 5 172189964.95405      -376.345 5        35.286
I03        58.000   128869973.698 6 429928195.26706       920.271 6        41.678
R07        59.000    19455697.142 8 104147899.93808      -638.274 8        51.364                                                                    19455695.059 7  81003925.24107      -496.408 7        47.533
G07        60.000    21131771.494 8 111048237.28608      1086.509 8        49.390                                    21131766.772 8  86531088.66408       846.633 8        48.551    21131766.889 7  86531089.66307       846.744 7        44.792
> 2025 01 01 04 45 50.0000000  0 57
G16         1.000    23464696.584 6 123307833.93906      -259.224 6        40.543                                    23464691.693 3  96084011.31603      -201.982 3        22.210
G29         2.000    25668246.795 6 134887535.30506        17.081 6        36.257                                    25668244.226 4 105107154.80304        13.293 4        27.737    25668245.415 5 105107156.85205        13.347 5        35.733
G09         3.000    20243611.391 8 106380943.23408     -1542.538 8        49.581                                    20243608.815 8  82894253.06308     -1201.979 8        52.470    20243609.160 7  82894254.06307     -1202.030 7        46.161
E34         4.000    24401836.601 7 128232527.65207     -1774.455 7        47.695                                                                    24401836.569 8  95758064.52608     -1325.075 8        49.488    24401836.377 8  98256100.27508     -1359.667 8        50.479
S21         5.000    38396066.155 7 201772510.32707      -383.509 7        43.517
E05         6.000    21813727.317 8 114631958.30308       -38.743 8        48.991                                                                    21813726.780 8  85601817.74708       -28.952 8        50.805    21813726.665 8  87834900.58708       -29.758 8        51.937
E15         7.000    25779058.669 7 135469889.64707      1088.770 7        43.338                                                                    25779059.115 7 101162604.05107       813.084 7        46.184    25779058.750 7 103801626.21007       834.217 7        47.136
R10         8.000    22810164.637 6 121591008.25806      4058.230 6        39.952
E31         9.000    26510320.556 6 139312684.06406       826.956 6        41.924                                                                    26510321.124 7 104032223.65307       617.562 7        44.411    26510320.545 7 106746105.67507       633.695 7        44.983
G04        10.000    21873982.468 7 114948594.43507     -2883.823 7        45.521                                    21873979.140 5  89570341.88205     -2247.135 5        33.359    21873979.270 7  89570336.88207     -2247.179 7        43.600
E09        11.000    25121447.060 7 132014142.77207     -2299.212 7        45.679                                                                    25121446.618 7  98582006.28907     -1717.000 7        47.900    25121446.227 8 101153710.09908     -1761.722 8        48.903
S27        12.000    39029606.297 6 205101937.20506      -394.622 6        36.140
G06        13.000    21842685.890 7 114784115.64207     -2525.323 7        46.368                                    21842684.591 7  89442172.01407     -1967.780 7        46.748    21842685.482 7  89442183.00907     -1967.701 7        44.664
S36        14.000    38163886.549 7 200553083.05107      -383.833 7        45.090
G20        15.000    22619884.007 7 118868301.96107      2632.131 7        43.744                                    22619879.042 4  92624632.84204      2051.013 4        29.318
E36        16.000    26741777.330 6 140529001.60406     -3615.397 6        41.261                                                                    26741778.304 7 104940501.21007     -2699.809 7        43.683    26741778.255 7 107678074.72507     -2770.283 7        45.046
S45        17.000    63350406.311 6 332910142.24206      -423.595 6        37.580
G03        18.000    24510371.601 6 128802903.00006     -3986.341 6        38.447                                    24510371.030 5 100365911.29205     -3106.237 5        30.913    24510371.731 5 100365920.29805     -3106.177 5        35.762
E24        19.000    27701009.873 6 145569780.99606      2456.913 6        39.054                                                                    27701009.505 7 108704718.67907      1834.652 7        42.631    27701008.740 7 111540490.45407      1882.596 7        43.037
R23        20.000    21161416.216 7 113199312.69907     -1719.777 7        46.618
G30        21.000    23035392.550 7 121051825.05307      2903.947 7        44.302                                    23035391.058 6  94326104.15306      2262.815 6        41.111    23035391.809 6  94326108.13406      2262.961 6        40.024
I06        22.000    37924136.578 7 148822686.86907      -262.616 7        43.276
S28        23.000    40824829.160 5 214535919.65305      -382.734 5        35.400
S23        25.000    38103525.775 7 200235374.57107      -379.869 7        45.102
E06        26.000    26880873.474 6 141259991.55806     -2806.686 6        40.081                                                                    26880874.046 7 105486353.41007     -2095.919 7        43.835    26880873.214 7 108238170.23107     -2150.630 7        44.047
C34        27.000                                                                                                                                    25514759.378 6 132862046.87406       -47.922 6        41.845                                                                    25514759.630 6 107961300.66906       -38.726 6        41.766
G26        28.000    24814585.385 6 130401521.24806     -2486.186 6        36.828                                    24814585.172 4 101611574.32404     -1937.279 4        27.245    24814585.663 6 101611575.29306     -1937.140 6        36.234
R09        29.000    20463854.384 8 109275847.70308      1854.303 8        50.069                                                                    20463853.542 8  84992329.41408      1442.207 8        48.120
C22        30.000                                                                                                                                    22046024.070 8 114799462.70808      1048.842 8        51.238                                                                    22046017.429 8  93283954.75308       852.193 8        50.029
I01        31.000   339652340.692 7  29727923.76007     -2816.420 7        42.076
E03        32.000    26137606.371 7 137354062.64407      1835.089 7        43.418                                                                    26137606.506 7 102569610.18307      1370.354 7        44.441    26137606.335 7 105245333.13307      1406.055 7        45.866
R24        34.000    23179680.463 7 123952176.17807      2237.201 7        44.492                                                                    23179679.979 7  96407248.59507      1740.070 7        42.036
C36        35.000                                                                                                                                    23503585.859 8 122389347.26908      2372.746 8        48.171                                                                    23503590.262 7  99451392.69007      1928.098 7        47.701
G11        36.000    22088911.066 7 116078042.47307        27.679 7        46.020                                    22088906.966 5  90450423.32805        21.568 5        35.076    22088906.742 7  90450423.31807        21.610 7        45.324
C35        37.000                                                                                                                                    26435650.029 6 137657364.64706     -3409.762 6        40.272                                                                    26435650.183 6 111857879.60306     -2770.795 6        39.604
I09        38.000    37961076.321 7 148967405.93707      -701.197 7        42.809
R08        39.000    21070026.311 8 112829043.87308      2135.688 8        49.783                                                                    21070023.359 7  87755924.65707      1661.144 7        45.731
R22        40.000    22407317.192 7 119611802.36107     -4308.454 7        45.177                                                                    22407316.464 7  93031413.81207     -3351.093 7        43.606
S44        42.000    40741032.367 6 214095775.07006      -451.156 6        37.879
C09        43.000                                                                                                                                    38917520.604 6 202653768.45206     -1064.045 6        40.999    38917517.432 7 156704740.55907      -822.852 7        45.523    38917515.274 6 164672768.56206      -864.721 6        41.955
C05        44.000                                                                                                                                    39150128.297 6 203865023.67606      -431.599 6        38.165    39150124.140 7 157641391.48607      -333.714 7        44.251    39150125.379 6 165657133.68006      -350.881 6        40.412
R06        45.000    21709046.904 6 115843683.69506     -3169.962 6        38.222
C44        46.000                                                                                                                                    24954818.258 7 129946317.76407     -2462.665 7        43.511                                                                    24954817.374 7 105592030.34607     -2001.119 7        42.404
C39        47.000                                                                                                                                    40893780.555 6 212944654.24206     -1573.015 6        39.793                                                                    40893777.466 6 173034962.72306     -1278.305 6        38.132
C20        48.000                                                                                                                                    26083330.730 6 135822762.37106     -3161.317 6        41.645                                                                    26083326.274 6 110367105.67806     -2568.833 6        41.750
C06        49.000                                                                                                                                    39426624.551 6 205304805.74206     -1411.194 6        38.225    39426618.794 7 158754682.69807     -1091.372 7        42.354    39426618.865 6 166826951.40906     -1146.714 6        39.093
C16        50.000                                                                                                                                    40008090.447 6 208332644.40606     -1410.455 6        39.246    40008089.845 6 161096025.03706     -1090.648 6        40.887    40008087.556 5 169287337.56305     -1146.013 5        35.867
S48        51.000    77132346.263 6 405332730.08006      -370.297 6        38.207
C19        52.000                                                                                                                                    22473512.516 8 117025535.40008     -1734.839 8        50.898                                                                    22473507.577 8  95092836.58108     -1409.729 8        50.496
C12        53.000                                                                                                                                    24890256.970 6 129610108.19706     -1281.164 6        40.460    24890253.543 7 100222739.78207      -990.728 7        45.673    24890253.256 7 105318807.56007     -1041.077 7        43.628
C60        54.000                                                                                                                                    40741038.313 6 212149469.16206      -447.033 6        39.793                                                                    40741023.701 6 172388788.28306      -363.279 6        39.781
R16        55.000    21405069.922 7 114342064.27707     -2294.705 7        47.800                                                                    21405069.453 7  88932738.69407     -1784.735 7        45.472
C37        56.000                                                                                                                                    26198713.331 6 136423586.49506     -3018.686 6        40.751                                                                    26198716.146 6 110855357.00906     -2452.927 6        40.479
C02        57.000                                                                                                                                    40694518.351 5 211907063.20105      -463.115 5        35.343    40694512.039 6 163859972.57906      -358.129 6        38.988    40694515.008 5 172191846.52705      -376.454 5        35.671
I03        58.000   128868801.060 6 429923594.28506       920.173 6        41.630
R07        59.000    19456294.166 8 104151096.66608      -640.374 8        50.881                                                                    19456292.027 7  81006411.58707      -498.087 7        47.492
G07        60.000    21130738.509 8 111042810.89208      1084.075 8        49.150                                    21130734.149 8  86526860.29108       844.739 8        48.483    21130734.346 7  86526861.27707       844.703 7        44.634
> 2025 01 01 04 45 55.0000000  0 57
G16         1.000    23464945.078 6 123309138.81506      -262.674 6        40.012                                    23464939.667 3  96085028.10203      -204.686 3        22.457
G29         2.000    25668231.377 6 134887458.33406        13.744 6        36.197                                    25668229.452 4 105107095.01904        10.658 4        27.569    25668230.399 5 105107097.10205        10.666 5        35.400
G09         3.000    20245080.014 8 106388661.14208     -1544.527 8        49.598                                    20245077.479 8  82900267.01508     -1203.527 8        52.636    20245077.697 7  82900268.01607     -1203.503 7        46.039
E34         4.000    24403526.173 7 128241406.43707     -1776.856 7        47.674                                                                    24403526.205 8  95764694.79008     -1326.906 8        49.392    24403525.926 8  98262903.50408     -1361.532 8        50.413
S21         5.000    38396430.033 7 201774427.98407      -383.529 7        43.672
E05         6.000    21813764.892 8 114632156.13408       -40.185 8        48.611                                                                    21813764.424 8  85601965.48308       -30.018 8        50.783    21813764.311 8  87835052.17208       -30.787 8        51.899
E15         7.000    25778023.695 7 135464452.12807      1086.295 7        43.132                                                                    25778024.414 7 101158543.57307       811.293 7        46.096    25778024.046 7 103797459.79907       832.430 7        47.276
R10         8.000    22806358.010 6 121570720.18806      4057.306 6        38.904
E31         9.000    26509534.837 6 139308555.06106       824.801 6        41.974                                                                    26509535.227 7 104029140.31907       615.943 7        44.357    26509534.795 7 106742941.91207       631.985 7        44.766
G04        10.000    21876726.871 7 114963016.82807     -2885.013 7        45.320                                    21876723.509 5  89581580.10905     -2248.061 5        33.449    21876724.127 7  89581575.11207     -2248.105 7        43.306
E09        11.000    25123635.449 7 132025641.33707     -2300.082 7        45.538                                                                    25123634.726 7  98590592.87007     -1717.530 7        47.883    25123634.261 8 101162520.68408     -1762.302 8        48.817
S27        12.000    39029974.186 5 205103911.32005      -394.822 5        35.829
G06        13.000    21845090.376 7 114796749.61607     -2528.129 7        47.021                                    21845088.790 7  89452016.66407     -1969.970 7        46.938    21845089.674 7  89452027.67207     -1969.970 7        44.427
S36        14.000    38164253.360 7 200555003.28907      -384.176 7        45.193
G20        15.000    22617380.193 7 118855145.63907      2630.589 7        43.462                                    22617375.470 4  92614381.16604      2049.806 4        29.621
E36        16.000    26745217.520 6 140547080.41706     -3615.975 6        40.987                                                                    26745218.625 7 104954001.63307     -2700.232 7        43.807    26745218.582 7 107691927.33807     -2770.769 7        45.154
S45        17.000    63350768.606 6 332910561.58016      -423.761 6        37.539
G03        18.000    24514164.624 6 128822836.45506     -3986.891 6        38.532                                    24514164.177 5 100381443.84405     -3106.666 5        31.245    24514164.682 6 100381452.82306     -3106.645 6        36.144
E24        19.000    27698672.305 6 145557498.26906      2456.293 6        38.994                                                                    27698672.344 7 108695546.51807      1834.305 7        42.682    27698671.309 7 111531079.01907      1882.180 7        42.694
R23        20.000    21163026.091 7 113207923.33207     -1724.343 7        46.869
G30        21.000    23032630.001 7 121037308.66207      2902.688 7        44.328                                    23032628.637 6  94314792.68406      2261.833 6        41.240    23032629.859 6  94314796.67906      2261.845 6        40.443
I06        22.000    37924471.376 7 148824000.71507      -262.753 7        43.304
S28        23.000    40825193.343 5 214537834.07905      -382.976 5        35.014
S23        25.000    38103887.046 7 200237274.35607      -380.033 7        45.105
E06        26.000    26883544.008 6 141274025.99706     -2807.051 6        40.131                                                                    26883544.739 7 105496833.64807     -2096.013 7        43.594    26883543.971 7 108248923.87807     -2150.755 7        43.873
C34        27.000                                                                                                                                    25514807.185 7 132862293.27107       -50.622 7        42.083                                                                    25514806.941 6 107961500.90806       -40.969 6        41.738
G26        28.000    24816951.970 6 130413958.91006     -2488.838 6        36.484                                    24816952.119 4 101621265.98304     -1939.352 4        27.892    24816951.387 6 101621266.97506     -1939.293 6        36.121
R09        29.000    20462119.825 8 109266586.62508      1850.353 8        50.325                                                                    20462118.691 7  84985126.35507      1439.145 7        47.158
C22        30.000                                                                                                                                    22045017.858 8 114794222.68608      1047.402 8        51.207                                                                    22045011.129 8  93279696.80908       851.169 8        50.072
I01        31.000   339655929.583 7  29742007.17307     -2816.798 7        42.157
E03        32.000    26135861.055 7 137344889.70007      1834.340 7        42.823                                                                    26135860.975 7 102562760.26607      1369.709 7        44.400    26135860.805 7 105238304.52507      1405.429 7        45.731
R24        34.000    23177589.768 7 123940999.28807      2233.653 7        45.041                                                                    23177589.914 7  96398555.47507      1737.393 7        42.032
C36        35.000                                                                                                                                    23501307.782 7 122377488.07007      2371.082 7        47.529                                                                    23501312.740 7  99441756.12607      1926.754 7        47.548
G11        36.000    22088886.214 7 116077913.47607        24.137 7        46.375                                    22088882.422 5  90450322.81105        18.804 5        35.367    22088882.523 7  90450322.81107        18.747 7        45.163
C35        37.000                                                                                                                                    26438924.422 6 137674414.18506     -3409.826 6        40.477                                                                    26438924.307 6 111871733.74706     -2770.621 6        39.898
I09        38.000    37961969.956 7 148970912.89607      -701.550 7        42.918
R08        39.000    21068032.037 8 112818368.95008      2134.411 8        49.768                                                                    21068029.870 7  87747621.95007      1660.203 7        46.041
R22        40.000    22411353.156 7 119633349.90507     -4310.381 7        46.025                                                                    22411351.920 7  93048173.02407     -3352.463 7        43.418
S44        42.000    40741463.977 6 214098031.95706      -451.413 6        38.030
C09        43.000                                                                                                                                    38918542.157 6 202659090.29706     -1064.487 6        40.932    38918539.323 7 156708855.75207      -823.163 7        45.618    38918537.241 6 164677093.00106      -864.903 6        41.948
C05        44.000                                                                                                                                    39150542.593 6 203867182.35306      -431.824 6        38.084    39150538.557 7 157643060.72007      -333.826 7        44.206    39150539.916 6 165658887.79806      -350.842 6        40.439
R06        45.000    21712018.356 6 115859537.33406     -3171.311 6        37.868
C44        46.000                                                                                                                                    24957183.925 7 129958636.70007     -2464.563 7        43.278                                                                    24957183.017 7 105602040.48707     -2002.552 7        42.375
C39        47.000                                                                                                                                    40895291.369 6 212952519.82406     -1573.094 6        39.586                                                                    40895288.001 6 173041354.17006     -1278.279 6        38.273
C20        48.000                                                                                                                                    26086366.505 6 135838570.83506     -3161.877 6        41.707                                                                    26086362.003 6 110379951.34306     -2569.200 6        41.619
C06        49.000                                                                                                                                    39427980.200 6 205311863.50806     -1411.729 6        38.228    39427974.294 7 158760140.20307     -1091.549 7        42.315    39427974.252 6 166832686.40306     -1146.944 6        39.135
C16        50.000                                                                                                                                    40009444.196 6 208339697.56706     -1410.694 6        39.123    40009444.591 6 161101478.97706     -1090.751 6        40.779    40009441.970 6 169293068.82006     -1146.290 6        36.019
S48        51.000    77132701.891 6 405334582.56706      -370.519 6        38.336
C19        52.000                                                                                                                                    22475179.024 8 117034213.93708     -1736.429 8        50.799                                                                    22475174.217 8  95099888.60508     -1410.909 8        50.542
C12        53.000                                                                                                                                    24891489.310 6 129616521.49406     -1284.012 6        40.765    24891485.313 7 100227698.94507      -992.899 7        45.413    24891484.794 7 105324018.88107     -1043.231 7        43.721
C60        54.000                                                                                                                                    40741467.883 6 212151705.51306      -447.029 6        39.796                                                                    40741453.205 6 172390605.50706      -363.406 6        39.913
R16        55.000    21407220.026 8 114353548.71408     -2298.915 8        48.677                                                                    21407219.454 7  88941671.04907     -1788.049 7        45.219
C37        56.000                                                                                                                                    26201612.889 6 136438684.96806     -3020.540 6        40.355                                                                    26201615.615 6 110867625.73506     -2454.254 6        40.596
C02        57.000                                                                                                                                    40694963.317 5 211909379.56305      -463.451 5        35.471    40694956.648 6 163861763.71706      -358.273 6        38.769    40694959.711 5 172193728.75305      -376.450 5        35.762
I03        58.000   128867629.058 6 429918993.94006       920.117 6        41.695
R07        59.000    19456892.996 8 104154304.40008      -642.584 8        50.819                                                                    19456891.809 7  81008906.49507      -499.786 7        47.641
G07        60.000    21129708.380 8 111037397.39108      1081.542 8        49.296                                    21129703.981 8  86522641.98708       842.755 8        48.613    21129704.181 7  86522642.99407       842.728 7        44.307
> 2025 01 01 04 46  0.0000000  0 57
G16         1.000    23465196.284 6 123310461.43006      -266.184 6        40.522                                    23465191.379 3  96086058.70703      -207.409 3        22.381
G29         2.000    25668220.026 6 134887396.54406        10.754 6        36.658                                    25668217.522 4 105107047.08804         8.346 4        27.629    25668218.542 5 105107049.15305         8.486 5        35.395
G09         3.000    20246550.713 8 106396388.52008     -1546.367 8        49.502                                    20246547.959 8  82906288.34908     -1204.961 8        52.503    20246548.346 7  82906289.34907     -1204.913 7        45.843
E34         4.000    24405218.034 7 128250296.99407     -1779.227 7        47.519                                                                    24405217.991 8  95771333.84108     -1328.620 8        49.412    24405217.745 8  98269715.74708     -1363.291 8        50.425
S21         5.000    38396794.301 7 201776345.93807      -383.550 7        43.628
E05         6.000    21813803.641 8 114632360.09808       -41.316 8        48.426                                                                    21813803.236 8  85602117.78808       -30.810 8        50.738    21813803.147 8  87835208.45508       -31.664 8        51.914
E15         7.000    25776991.074 7 135459025.68107      1084.311 7        42.918                                                                    25776991.749 7 101154491.35207       809.713 7        46.146    25776991.450 7 103793301.87307       830.808 7        47.189
R10         8.000    22802551.934 6 121550436.88006      4056.144 6        38.661
E31         9.000    26508750.833 6 139304436.98306       822.688 6        41.936                                                                    26508751.551 7 104026065.12807       614.277 7        44.193    26508751.218 7 106739786.49307       630.296 7        44.802
G04        10.000    21879472.404 7 114977444.63207     -2886.048 7        45.112                                    21879469.014 5  89592822.55205     -2248.863 5        33.425    21879469.636 7  89592817.55307     -2248.905 7        43.367
E09        11.000    25125824.150 7 132037143.03107     -2300.630 7        45.245                                                                    25125823.440 7  98599181.79407     -1717.961 7        47.931    25125822.956 8 101171333.67208     -1762.835 8        48.892
S27        12.000    39030352.034 6 205105885.23206      -394.648 6        36.008
G06        13.000    21847497.118 7 114809397.24907     -2530.828 7        46.649                                    21847495.605 7  89461871.95907     -1972.075 7        46.830    21847496.481 7  89461882.94807     -1971.979 7        44.918
S36        14.000    38164619.523 7 200556923.97507      -384.216 7        45.290
G20        15.000    22614878.249 7 118841995.85007      2629.397 7        43.486                                    22614873.128 4  92604134.57904      2048.876 4        29.564
E36        16.000    26748658.483 6 140565162.13206     -3616.463 6        40.422                                                                    26748659.552 7 104967504.19907     -2700.543 7        44.105    26748659.398 7 107705782.14307     -2771.113 7        45.245
S45        17.000    63351129.578 6 332912681.02206      -423.824 6        37.399
G03        18.000    24517958.695 6 128842772.89606     -3987.372 6        38.411                                    24517957.911 5 100396978.71205     -3107.045 5        31.117    24517958.984 5 100396987.71105     -3107.413 5        35.905
E24        19.000    27696335.543 6 145545217.82906      2455.962 6        38.829                                                                    27696335.567 7 108686376.06807      1834.016 7        42.770    27696334.375 7 111521669.33807      1881.868 7        42.751
R23        20.000    21164640.406 7 113216556.03607     -1728.651 7        46.610
G30        21.000    23029869.215 7 121022798.55407      2901.377 7        44.451                                    23029867.536 6  94303486.11306      2260.815 6        41.099    23029868.544 6  94303490.11806      2260.854 6        40.584
I06        22.000    37924806.131 7 148825314.86707      -262.868 7        43.217
S28        23.000    40825557.798 5 214539748.56605      -383.200 5        35.357
S23        25.000    38104248.751 7 200239174.08607      -380.024 7        45.252
E06        26.000    26886214.984 6 141288061.46006     -2807.192 6        40.093                                                                    26886215.570 7 105507314.65907     -2096.156 7        43.460    26886214.874 7 108259678.31207     -2150.986 7        43.894
C34        27.000                                                                                                                                    25514857.249 7 132862553.40307       -53.300 7        42.444                                                                    25514856.878 7 107961712.31507       -43.213 7        42.091
G26        28.000    24819320.326 6 130426409.71506     -2491.260 6        36.276                                    24819321.493 4 101630967.88504     -1941.240 4        27.796    24819321.680 5 101630968.88105     -1941.428 5        35.109
R09        29.000    20460389.620 8 109257344.70708      1846.525 8        50.284                                                                    20460388.434 7  84977938.19207      1436.239 7        47.503
C22        30.000                                                                                                                                    22044012.965 8 114788989.13308      1046.133 8        51.404                                                                    22044006.073 8  93275444.13008       850.192 8        50.132
I01        31.000   339659518.853 7  29756091.38707     -2816.841 7        42.222
E03        32.000    26134115.790 7 137335720.05707      1833.596 7        42.421                                                                    26134116.019 7 102555912.80207      1369.251 7        44.403    26134115.912 7 105231278.42307      1405.024 7        45.679
R24        34.000    23175503.663 7 123929839.58607      2230.177 7        44.393                                                                    23175503.693 6  96389875.72506      1734.549 6        41.900
C36        35.000                                                                                                                                    23499031.844 7 122365636.92807      2369.479 7        47.340                                                                    23499036.968 7  99432126.11207      1925.514 7        47.533
G11        36.000    22088865.055 7 116077801.65107        20.724 7        46.351                                    22088861.105 5  90450235.67505        16.149 5        35.190    22088861.254 7  90450235.66907        16.157 7        45.199
C35        37.000                                                                                                                                    26442198.958 6 137691462.84606     -3409.572 6        40.779                                                                    26442198.383 6 111885587.18306     -2770.349 6        39.673
I09        38.000    37962863.971 7 148974420.55507      -701.474 7        42.957
R08        39.000    21066039.894 8 112807699.55408      2133.383 8        49.654                                                                    21066037.315 7  87739323.54107      1659.308 7        45.585
R22        40.000    22415392.145 7 119654905.73907     -4311.963 7        45.287                                                                    22415390.313 7  93064938.66107     -3353.790 7        43.244
S44        42.000    40741893.870 6 214100288.94006      -451.314 6        38.084
C09        43.000                                                                                                                                    38919564.933 6 202664413.70906     -1064.760 6        41.108    38919561.759 7 156712972.15607      -823.417 7        45.639    38919559.531 6 164681418.72906      -865.247 6        41.981
C05        44.000                                                                                                                                    39150957.358 6 203869341.27606      -431.779 6        38.072    39150953.237 7 157644730.13507      -333.835 7        44.001    39150954.628 6 165660642.10506      -350.702 6        40.355
R06        45.000    21714990.492 6 115875396.93006     -3172.530 6        38.369
C44        46.000                                                                                                                                    24959551.313 7 129970964.39207     -2466.334 7        43.439                                                                    24959550.398 7 105612057.75907     -2003.944 7        42.389
C39        47.000                                                                                                                                    40896801.625 6 212960385.36606     -1573.112 6        39.360                                                                    40896798.428 6 173047745.56706     -1278.047 6        38.264
C20        48.000                                                                                                                                    26089402.823 7 135854381.67307     -3162.290 7        42.100                                                                    26089398.241 6 110392798.95006     -2569.451 6        41.526
C06        49.000                                                                                                                                    39429335.841 6 205318922.12306     -1411.634 6        38.258    39429329.805 7 158765598.37307     -1091.535 7        42.246    39429329.818 6 166838422.13106     -1146.930 6        39.285
C16        50.000                                                                                                                                    40010798.918 6 208346751.29706     -1410.707 6        39.231    40010799.120 6 161106933.37806     -1090.868 6        40.887    40010796.570 5 169298800.59405     -1146.389 5        35.867
S48        51.000    77133061.893 6 405336434.93106      -370.428 6        38.468
C19        52.000                                                                                                                                    22476847.273 8 117042899.70308     -1737.811 8        51.015                                                                    22476842.244 8  95106946.51308     -1412.068 8        50.561
C12        53.000                                                                                                                                    24892724.153 6 129622948.11406     -1286.608 6        40.596    24892719.338 7 100232668.41707      -994.860 7        45.287    24892719.063 7 105329241.04607     -1045.345 7        43.693
C60        54.000                                                                                                                                    40741897.597 6 212153941.99406      -447.165 6        39.823                                                                    40741882.673 6 172392422.81906      -363.347 6        39.877
R16        55.000    21409373.423 8 114365053.79908     -2303.025 8        48.162                                                                    21409373.048 7  88950619.43707     -1791.232 7        45.222
C37        56.000                                                                                                                                    26204514.057 6 136453791.42706     -3022.058 6        40.188                                                                    26204516.634 6 110879900.99206     -2455.628 6        40.555
C02        57.000                                                                                                                                    40695407.828 5 211911696.08205      -463.332 5        35.205    40695401.355 6 163863554.99406      -358.209 6        38.889    40695404.650 5 172195611.10705      -376.156 5        35.924
I03        58.000   128866456.508 6 429914393.77906       919.995 6        41.611
R07        59.000    19457494.256 8 104157522.73208      -644.680 8        50.745                                                                    19457493.249 7  81011409.64907      -501.369 7        47.672
G07        60.000    21128680.463 8 111031996.24208      1079.035 8        49.098                                    21128676.161 8  86518433.30708       840.808 8        48.518    21128676.431 7  86518434.31407       840.819 7        44.286
> 2025 01 01 04 46  5.0000000  0 57
G16         1.000    23465451.704 6 123311801.32406      -269.824 6        40.129                                    23465446.432 3  96087102.78103      -210.256 3        22.476
G29         2.000    25668210.968 6 134887349.41606         7.594 6        36.370                                    25668208.351 4 105107010.53004         5.895 4        27.521    25668208.458 5 105107012.54205         6.186 5        34.614
G09         3.000    20248022.833 8 106404124.93108     -1548.300 8        49.726                                    20248020.147 8  82912316.72008     -1206.467 8        52.500    20248020.475 7  82912317.72207     -1206.510 7        45.926
E34         4.000    24406912.146 7 128259198.91207     -1781.730 7        47.236                                                                    24406911.960 8  95777981.36808     -1330.436 8        49.396    24406911.722 8  98276536.68908     -1365.143 8        50.484
S21         5.000    38397162.861 7 201778263.72907      -383.798 7        43.611
E05         6.000    21813843.697 8 114632569.78508       -42.675 8        48.392                                                                    21813843.148 8  85602274.37808       -31.867 8        50.730    21813843.062 8  87835369.12908       -32.736 8        51.940
E15         7.000    25775960.377 7 135453609.93907      1081.964 7        42.550                                                                    25775961.203 7 101150447.12407       807.983 7        46.066    25775960.812 7 103789152.14107       829.013 7        47.237
R10         8.000    22798748.416 6 121530157.90806      4055.204 6        38.568
E31         9.000    26507969.242 6 139300329.38406       820.335 6        41.268                                                                    26507969.659 7 104022997.77107       612.606 7        44.090    26507969.585 7 106736639.11507       628.604 7        44.760
G04        10.000    21882218.813 7 114991877.42507     -2887.243 7        45.526                                    21882215.458 5  89604068.88105     -2249.797 5        33.383    21882215.807 7  89604063.87807     -2249.638 7        43.636
E09        11.000    25128013.506 7 132048647.46907     -2301.303 7        45.300                                                                    25128012.643 7  98607772.76907     -1718.518 7        47.923    25128012.159 8 101180148.75408     -1763.321 8        48.879
S27        12.000    39030731.156 6 205107858.78606      -394.961 6        36.019
G06        13.000    21849906.293 7 114822058.09307     -2533.681 7        46.183                                    21849904.911 7  89471737.54807     -1974.294 7        46.815    21849905.477 7  89471748.54807     -1974.276 7        44.337
S36        14.000    38164983.934 7 200558844.37807      -384.351 7        45.312
G20        15.000    22612377.102 7 118828852.18207      2627.883 7        43.647                                    22612371.961 4  92593892.76004      2047.698 4        29.630
E36        16.000    26752099.513 6 140583246.28806     -3617.061 6        40.164                                                                    26752100.968 7 104981008.59107     -2701.128 7        44.144    26752100.840 7 107719638.82907     -2771.662 7        45.527
S45        17.000    63351491.073 6 332914800.28006      -423.924 6        37.501
G03        18.000    24521753.007 6 128862711.92306     -3988.094 6        38.306                                    24521752.306 5 100412515.60505     -3107.600 5        31.079    24521752.858 5 100412524.59505     -3107.714 5        35.990
E24        19.000    27693999.145 6 145532939.35406      2455.475 6        38.928                                                                    27693999.074 7 108677207.08707      1833.649 7        42.902    27693997.789 7 111512261.15707      1881.460 7        42.711
R23        20.000    21166258.170 7 113225210.49507     -1733.206 7        47.023
G30        21.000    23027109.024 7 121008294.28307      2900.056 7        44.122                                    23027107.565 6  94292184.08506      2259.783 6        41.106    23027107.995 6  94292188.10206      2259.714 6        40.625
I06        22.000    37925141.049 7 148826629.03607      -262.920 7        43.528
S28        23.000    40825921.748 5 214541662.59305      -382.975 5        34.819
S23        25.000    38104609.682 7 200241073.66807      -380.011 7        45.067
E06        26.000    26888886.102 6 141302097.52206     -2807.539 6        40.098                                                                    26888886.272 7 105517796.13107     -2096.397 7        43.062    26888885.911 7 108270433.20107     -2151.089 7        44.066
C34        27.000                                                                                                                                    25514909.323 7 132862826.88707       -56.190 7        42.563                                                                    25514909.412 7 107961934.51907       -45.401 7        42.055
G26        28.000    24821693.421 6 130438873.24606     -2494.337 6        36.450                                    24821693.076 4 101640679.71304     -1943.637 4        27.569    24821693.096 5 101640680.70605     -1943.417 5        34.457
R09        29.000    20458662.490 8 109248121.67108      1842.561 8        50.205                                                                    20458661.340 7  84970764.72707      1433.086 7        47.492
C22        30.000                                                                                                                                    22043009.175 8 114783761.65008      1044.733 8        51.415                                                                    22043002.196 8  93271196.34508       849.079 8        50.038
I01        31.000   339663108.130 7  29770176.10907     -2817.103 7        42.216
E03        32.000    26132371.853 7 137326553.25707      1832.885 7        42.531                                                                    26132371.592 7 102549067.46807      1368.729 7        44.509    26132371.482 7 105224254.52007      1404.456 7        45.741
R24        34.000    23173419.400 7 123918696.68507      2226.761 7        44.503                                                                    23173418.934 6  96381209.06006      1731.933 6        41.766
C36        35.000                                                                                                                                    23496757.808 7 122353793.43807      2367.805 7        47.634                                                                    23496762.595 7  99422502.28107      1924.209 7        47.556
G11        36.000    22088847.078 7 116077706.59607        17.226 7        46.542                                    22088842.982 5  90450161.60405        13.424 5        35.176    22088843.428 7  90450161.60107        13.415 7        45.112
C35        37.000                                                                                                                                    26445472.644 6 137708510.23106     -3409.552 6        40.889                                                                    26445472.250 6 111899439.54806     -2770.233 6        39.447
I09        38.000    37963757.826 7 148977928.62507      -701.822 7        43.202
R08        39.000    21064048.378 8 112797035.23108      2132.140 8        49.781                                                                    21064045.376 7  87731029.06007      1658.319 7        45.335
R22        40.000    22419431.531 7 119676469.40007     -4313.715 7        46.184                                                                    22419429.659 7  93081710.38607     -3354.982 7        42.375
S44        42.000    40742324.129 6 214102545.62906      -451.474 6        37.796
C09        43.000                                                                                                                                    38920587.618 6 202669738.28206     -1065.202 6        41.194    38920584.102 7 156717089.43807      -823.731 7        45.694    38920582.073 7 164685745.33607      -865.462 7        42.000
C05        44.000                                                                                                                                    39151371.632 6 203871500.03506      -431.793 6        38.207    39151367.828 7 157646399.42807      -333.964 7        43.979    39151369.178 6 165662396.24906      -350.704 6        40.365
R06        45.000    21717964.541 6 115891262.20806     -3173.737 6        39.000
C44        46.000                                                                                                                                    24961920.579 7 129983300.41607     -2468.140 7        43.570                                                                    24961919.362 7 105622081.76707     -2005.441 7        42.434
C39        47.000                                                                                                                                    40898312.650 6 212968250.44906     -1573.019 6        39.261                                                                    40898308.835 6 173054136.56406     -1278.052 6        38.036
C20        48.000                                                                                                                                    26092439.545 7 135870194.54107     -3162.869 7        42.032                                                                    26092434.974 6 110405648.15806     -2569.939 6        41.344
C06        49.000                                                                                                                                    39430691.172 6 205325981.21706     -1412.110 6        38.207    39430685.421 7 158771056.90607     -1091.808 7        42.044    39430685.474 6 166844158.18306     -1147.116 6        39.117
C16        50.000                                                                                                                                    40012153.423 6 208353805.25706     -1411.081 6        39.138    40012153.316 6 161112387.92506     -1091.040 6        40.877    40012150.933 5 169304532.45705     -1146.390 5        35.962
S48        51.000    77133418.066 6 405338287.01406      -370.421 6        38.426
C19        52.000                                                                                                                                    22478516.583 8 117051592.30608     -1739.314 8        51.027                                                                    22478511.577 8  95114009.93508     -1413.211 8        50.411
C12        53.000                                                                                                                                    24893960.004 6 129629387.75406     -1289.326 6        40.484    24893956.488 7 100237647.94907      -997.030 7        45.570    24893955.743 7 105334473.75807     -1047.573 7        43.627
C60        54.000                                                                                                                                    40742326.556 6 212156178.16306      -447.145 6        39.850                                                                    40742312.145 6 172394239.86106      -363.362 6        39.841
R16        55.000    21411530.791 7 114376579.08107     -2307.258 7        47.982                                                                    21411530.445 7  88959583.55707     -1794.510 7        45.892
C37        56.000                                                                                                                                    26207416.286 6 136468905.51206     -3023.891 6        39.958                                                                    26207419.111 6 110892182.37006     -2456.896 6        40.489
C02        57.000                                                                                                                                    40695852.875 5 211914012.38205      -463.255 5        35.271    40695846.492 6 163865346.10006      -358.300 6        38.682    40695849.532 5 172197493.26405      -376.369 5        35.581
I03        58.000   128865284.049 6 429909793.48106       919.994 6        41.592
R07        59.000    19458097.659 8 104160750.91808      -646.819 8        51.310                                                                    19458095.976 7  81013920.45307      -503.027 7        47.205
G07        60.000    21127655.095 8 111026607.01208      1076.526 8        49.136                                    21127650.608 8  86514233.90808       838.853 8        48.533    21127650.811 7  86514234.91107       838.841 7        44.673
> 2025 01 01 04 46 10.0000000  0 57
G16         1.000    23465709.714 6 123313158.83406      -273.375 6        40.181                                    23465704.632 3  96088160.58803      -213.027 3        22.705
G29         2.000    25668204.645 6 134887317.12106         4.859 6        36.000                                    25668201.894 4 105106985.39904         3.793 4        27.102    25668202.301 5 105106987.39305         3.753 5        34.114
G09         3.000    20249496.874 8 106411870.67808     -1550.159 8        49.735                                    20249494.114 8  82918352.36408     -1207.917 8        52.449    20249494.425 7  82918353.37307     -1207.894 7        45.552
E34         4.000    24408607.879 7 128268112.45207     -1783.873 7        47.197                                                                    24408608.192 8  95784637.59208     -1332.144 8        49.562    24408607.885 8  98283366.55008     -1366.935 8        50.479
S21         5.000    38397527.294 7 201780181.88507      -383.742 7        43.625
E05         6.000    21813884.767 8 114632785.47608       -43.750 8        48.254                                                                    21813884.189 8  85602435.45408       -32.732 8        50.887    21813884.087 8  87835534.40608       -33.572 8        51.978
E15         7.000    25774932.209 7 135448205.15607      1079.807 7        42.646                                                                    25774932.686 7 101146411.08907       806.357 7        46.185    25774932.332 7 103785010.81907       827.356 7        47.262
R10         8.000    22794945.189 6 121509883.53606      4054.377 6        38.508
E31         9.000    26507189.384 6 139296232.58706       818.164 6        40.696                                                                    26507190.021 7 104019938.46407       611.058 7        44.069    26507190.076 7 106733500.00007       627.021 7        44.846
G04        10.000    21884966.322 7 115006315.49707     -2888.201 7        45.472                                    21884962.997 5  89615319.31605     -2250.548 5        33.473    21884963.484 7  89615314.31307     -2250.468 7        43.750
E09        11.000    25130203.176 7 132060154.92807     -2301.867 7        45.260                                                                    25130202.484 8  98616365.99508     -1718.889 8        48.097    25130201.963 8 101188966.15408     -1763.742 8        48.902
S27        12.000    39031106.638 6 205109832.93806      -394.985 6        36.019
G06        13.000    21852318.127 7 114834732.43407     -2536.236 7        46.476                                    21852316.761 7  89481613.64907     -1976.288 7        46.762    21852317.363 7  89481624.64707     -1976.315 7        44.369
S36        14.000    38165349.708 7 200560764.64207      -384.138 7        45.211
G20        15.000    22609876.944 7 118815714.95807      2626.785 7        43.774                                    22609872.034 4  92583655.95904      2046.849 4        29.498
E36        16.000    26755541.587 6 140601333.18606     -3617.854 6        40.446                                                                    26755542.815 7 104994515.03207     -2701.521 7        44.325    26755542.460 7 107733497.60307     -2771.950 7        45.481
S45        17.000    63351855.939 6 332916919.64006      -424.030 6        37.588
G03        18.000    24525547.376 6 128882653.82306     -3988.847 6        38.414                                    24525547.126 5 100428054.73105     -3108.195 5        31.260    24525547.685 6 100428063.72106     -3108.115 6        36.450
E24        19.000    27691663.384 6 145520663.11706      2454.838 6        39.276                                                                    27691662.891 7 108668039.76307      1833.258 7        42.868    27691661.784 7 111502854.68707      1881.058 7        42.574
R23        20.000    21167879.655 7 113233887.00807     -1737.526 7        46.928
G30        21.000    23024350.103 7 120993796.12907      2899.024 7        43.536                                    23024348.775 6  94280886.82606      2258.979 6        41.042    23024349.015 6  94280890.82506      2259.004 6        40.217
I06        22.000    37925476.068 7 148827943.42807      -262.900 7        43.503
S28        23.000    40826288.072 5 214543577.03305      -382.749 5        35.238
S23        25.000    38104969.800 7 200242973.47207      -380.016 7        44.995
E06        26.000    26891557.047 6 141316134.49506     -2807.549 6        40.064                                                                    26891557.461 7 105528278.28307     -2096.527 7        43.007    26891557.130 7 108281188.80207     -2151.214 7        43.951
C34        27.000                                                                                                                                    25514964.291 7 132863113.94607       -58.773 7        42.753                                                                    25514964.450 7 107962167.81007       -47.814 7        42.006
G26        28.000    24824067.412 5 130451349.73605     -2496.582 5        35.805                                    24824067.266 4 101650401.62704     -1945.392 4        27.234    24824067.768 5 101650402.64705     -1945.531 5        34.633
R09        29.000    20456938.633 8 109238917.88608      1838.778 8        49.669                                                                    20456937.698 7  84963606.23307      1430.145 7        47.411
C22        30.000                                                                                                                                    22042006.241 8 114778540.51908      1043.552 8        51.415                                                                    22041999.576 8  93266953.76908       847.951 8        49.981
I01        31.000   339666697.377 7  29784261.58007     -2817.241 7        42.180
E03        32.000    26130627.901 7 137317389.60607      1832.352 7        42.428                                                                    26130627.692 7 102542224.48707      1368.287 7        44.524    26130627.675 7 105217233.02707      1404.019 7        45.756
R24        34.000    23171338.635 7 123907570.80207      2223.484 7        44.447                                                                    23171338.933 6  96372555.59606      1729.292 6        41.311
C36        35.000                                                                                                                                    23494484.858 7 122341957.90407      2366.304 7        47.666                                                                    23494489.697 7  99412884.95707      1922.787 7        47.476
G11        36.000    22088832.527 7 116077628.60607        13.868 7        46.210                                    22088828.141 5  90450100.83405        10.806 5        35.300    22088828.343 7  90450100.82707        10.826 7        44.945
C35        37.000                                                                                                                                    26448746.494 6 137725556.59606     -3409.205 6        40.963                                                                    26448745.517 6 111913291.13206     -2770.219 6        38.961
I09        38.000    37964652.081 7 148981437.33307      -701.915 7        43.338
R08        39.000    21062057.524 8 112786376.44208      2131.206 8        49.964                                                                    21062055.057 7  87722738.88407      1657.556 7        44.808
R22        40.000    22423473.107 7 119698041.18007     -4315.194 7        46.096                                                                    22423471.327 7  93098488.44307     -3356.300 7        42.298
S44        42.000    40742749.367 6 214104802.29806      -451.259 6        37.955
C09        43.000                                                                                                                                    38921610.451 6 202675064.26106     -1065.337 6        41.316    38921607.031 7 156721207.82207      -823.730 7        45.899    38921604.897 6 164690073.15206      -865.817 6        41.931
C05        44.000                                                                                                                                    39151786.111 6 203873658.91906      -431.737 6        38.165    39151782.147 7 157648068.80907      -333.948 7        44.078    39151783.631 6 165664150.53006      -350.871 6        40.439
R06        45.000    21720938.808 6 115907133.36506     -3174.798 6        38.261
C44        46.000                                                                                                                                    24964291.236 7 129995645.07807     -2469.873 7        42.961                                                                    24964290.081 7 105632112.82407     -2006.985 7        42.246
C39        47.000                                                                                                                                    40899822.692 6 212976115.35806     -1573.021 6        39.132                                                                    40899819.356 6 173060527.47306     -1278.246 6        37.913
C20        48.000                                                                                                                                    26095476.560 7 135886009.66507     -3163.274 7        42.027                                                                    26095472.101 6 110418499.24606     -2570.327 6        41.232
C06        49.000                                                                                                                                    39432047.094 6 205333041.09006     -1412.046 6        38.027    39432041.019 6 158776516.05106     -1092.023 6        41.952    39432041.237 6 166849894.92906     -1147.536 6        39.207
C16        50.000                                                                                                                                    40013508.333 6 208360859.68106     -1411.062 6        39.162    40013508.294 6 161117842.84906     -1091.091 6        40.863    40013505.747 5 169310264.74405     -1146.365 5        35.648
S48        51.000    77133774.160 6 405340139.23006      -370.501 6        38.420
C19        52.000                                                                                                                                    22480187.268 8 117060292.03208     -1740.707 8        50.718                                                                    22480182.328 8  95121079.18708     -1414.471 8        50.355
C12        53.000                                                                                                                                    24895198.612 6 129635840.63006     -1291.901 6        40.689    24895196.238 7 100242637.72307      -998.970 7        46.166    24895195.023 7 105339717.26107     -1049.847 7        43.681
C60        54.000                                                                                                                                    40742756.364 6 212158414.32506      -447.292 6        39.787                                                                    40742741.698 6 172396056.92606      -363.386 6        39.826
R16        55.000    21413692.191 8 114388124.83208     -2311.276 8        48.211                                                                    21413691.780 7  88968563.58207     -1797.669 7        45.270
C37        56.000                                                                                                                                    26210320.301 6 136484027.43206     -3025.179 6        39.883                                                                    26210323.041 6 110904470.19506     -2458.135 6        40.112
C02        57.000                                                                                                                                    40696298.039 5 211916328.74905      -463.407 5        35.038    40696290.819 6 163867137.24206      -358.423 6        38.787    40696294.311 5 172199375.51405      -376.705 5        35.867
I03        58.000   128864112.013 6 429905193.29906       919.961 6        41.609
R07        59.000    19458702.798 8 104163989.55608      -648.745 8        51.015                                                                    19458700.832 7  81016439.39107      -504.576 7        47.155
G07        60.000    21126631.903 8 111021229.99108      1074.121 8        49.050                                    21126627.384 8  86510044.02308       836.977 8        48.555    21126627.810 7  86510045.03207       836.908 7        44.536
> 2025 01 01 04 46 15.0000000  0 57
G16         1.000    23465971.268 6 123314534.36706      -276.720 6        40.489                                    23465966.365 3  96089232.44303      -215.619 3        22.609
G29         2.000    25668201.895 6 134887300.47706         2.104 6        36.692                                    25668198.576 4 105106972.49004         1.621 4        27.186    25668199.153 5 105106974.53505         1.531 5        34.724
G09         3.000    20250972.529 8 106419626.15808     -1551.889 8        49.606                                    20250969.929 8  82924395.59608     -1209.263 8        52.504    20250969.979 7  82924396.59007     -1209.190 7        45.770
E34         4.000    24410306.631 7 128277038.05607     -1786.186 7        47.083                                                                    24410306.618 8  95791302.80608     -1333.800 8        49.556    24410306.388 8  98290205.64108     -1368.604 8        50.433
S21         5.000    38397891.239 7 201782100.96507      -383.738 7        43.520
E05         6.000    21813927.180 8 114633007.62308       -44.963 8        48.362                                                                    21813926.415 8  85602601.33508       -33.535 8        50.883    21813926.341 8  87835704.61208       -34.403 8        51.932
E15         7.000    25773906.215 7 135442811.79307      1077.716 7        42.855                                                                    25773906.285 7 101142383.58307       804.767 7        46.287    25773906.059 7 103780878.24507       825.749 7        47.215
R10         8.000    22791142.238 6 121489614.15206      4053.546 6        39.051
E31         9.000    26506411.890 6 139292146.99306       816.046 6        40.477                                                                    26506412.425 7 104016887.53707       609.411 7        43.996    26506412.456 7 106730369.48507       625.378 7        44.698
G04        10.000    21887714.655 7 115020759.27707     -2889.137 7        45.234                                    21887711.721 5  89626574.20805     -2251.274 5        33.533    21887711.948 7  89626569.20007     -2251.379 7        44.448
E09        11.000    25132393.531 7 132071665.82307     -2302.340 7        45.546                                                                    25132392.855 8  98624961.79108     -1719.319 8        48.016    25132392.503 8 101197786.18208     -1764.100 8        48.854
S27        12.000    39031479.406 6 205111807.85606      -394.740 6        36.166
G06        13.000    21854732.995 7 114847420.67007     -2538.897 7        46.503                                    21854731.232 7  89491500.58407     -1978.361 7        46.812    21854731.947 7  89491511.58907     -1978.313 7        44.011
S36        14.000    38165713.162 7 200562684.86307      -384.023 7        45.243
G20        15.000    22607378.528 7 118802584.58407      2625.563 7        43.871                                    22607373.385 4  92573424.50704      2045.894 4        29.573
E36        16.000    26758984.041 6 140619423.21206     -3618.263 6        40.915                                                                    26758985.107 7 105008023.80607     -2701.765 7        44.251    26758984.775 7 107747358.78807     -2772.417 7        45.344
S45        17.000    63352216.079 6 332919039.50106      -423.813 6        37.573
G03        18.000    24529343.232 6 128902598.99606     -3989.396 6        38.081                                    24529342.577 5 100443596.39705     -3108.614 5        31.396    24529342.959 6 100443605.39106     -3108.708 6        36.552
E24        19.000    27689327.691 6 145508389.51406      2454.662 6        39.649                                                                    27689327.120 7 108658874.41907      1832.910 7        42.889    27689326.109 7 111493450.23607      1880.800 7        42.567
R23        20.000    21169505.951 7 113242585.94507     -1741.814 7        47.021
G30        21.000    23021592.794 7 120979304.59007      2897.802 7        43.308                                    23021591.188 6  94269594.71906      2258.026 6        41.056    23021591.238 6  94269598.73106      2258.028 6        40.160
I06        22.000    37925811.085 7 148829258.37207      -262.882 7        43.500
S28        23.000    40826650.882 5 214545492.14605      -382.993 5        35.095
S23        25.000    38105333.477 7 200244873.57607      -379.928 7        45.159
E06        26.000    26894228.432 6 141330172.80406     -2807.531 6        39.913                                                                    26894228.868 7 105538761.41807     -2096.566 7        42.718    26894228.506 7 108291945.41507     -2151.318 7        43.884
C34        27.000                                                                                                                                    25515021.893 7 132863415.07007       -61.539 7        42.694                                                                    25515022.217 7 107962412.46807       -49.951 7        42.138
G26        28.000    24826444.487 5 130463839.64105     -2499.332 5        35.109                                    24826444.041 4 101660133.99204     -1947.516 4        27.006    24826444.364 5 101660134.97305     -1947.264 5        34.662
R09        29.000    20455218.452 8 109229733.65208      1835.012 8        49.847                                                                    20455218.101 8  84956462.93808      1427.258 8        48.001
C22        30.000                                                                                                                                    22041004.864 8 114773326.17908      1042.382 8        51.390                                                                    22040998.163 8  93262716.66508       847.036 8        50.100
I01        31.000   339670286.916 7  29798348.03507     -2817.301 7        42.070
E03        32.000    26128884.665 7 137308229.54307      1831.803 7        42.347                                                                    26128884.536 7 102535384.18307      1367.951 7        44.473    26128884.549 7 105210214.27807      1403.554 7        45.699
R24        34.000    23169261.574 7 123896462.41207      2220.046 7        44.445                                                                    23169261.357 6  96363915.74206      1726.689 6        41.385
C36        35.000                                                                                                                                    23492213.380 7 122330130.75507      2364.733 7        47.297                                                                    23492218.456 7  99403274.41807      1921.580 7        47.759
G11        36.000    22088820.659 7 116077568.08107        10.556 7        46.077                                    22088816.635 5  90450053.67005         8.226 5        35.352    22088817.105 7  90450053.67307         8.188 7        45.150
C35        37.000                                                                                                                                    26452019.876 6 137742602.35006     -3409.023 6        41.390                                                                    26452018.826 6 111927142.18706     -2770.190 6        39.189
I09        38.000    37965546.345 7 148984946.95707      -701.911 7        43.340
R08        39.000    21060068.181 8 112775723.54608      2130.144 8        50.031                                                                    21060065.744 7  87714453.29507      1656.814 7        44.665
R22        40.000    22427515.173 7 119719621.46807     -4316.747 7        46.001                                                                    22427513.921 7  93115273.10907     -3357.467 7        42.540
S44        42.000    40743179.953 6 214107059.39806      -451.349 6        37.985
C09        43.000                                                                                                                                    38922633.770 6 202680392.11406     -1065.658 6        41.173    38922630.040 7 156725327.66007      -823.991 7        45.765    38922628.023 7 164694402.44507      -865.858 7        42.028
C05        44.000                                                                                                                                    39152200.858 6 203875818.37606      -431.922 6        38.141    39152196.881 7 157649738.61907      -333.788 7        43.954    39152198.392 6 165665905.24106      -350.870 6        40.510
R06        45.000    21723913.401 6 115923010.82906     -3175.813 6        38.751
C44        46.000                                                                                                                                    24966663.511 7 130007998.75007     -2471.413 7        43.678                                                                    24966662.426 7 105642151.18807     -2008.311 7        42.464
C39        47.000                                                                                                                                    40901333.415 6 212983980.50806     -1572.912 6        39.174                                                                    40901329.506 6 173066918.53906     -1278.049 6        38.000
C20        48.000                                                                                                                                    26098514.093 6 135901827.49006     -3163.643 6        41.981                                                                    26098509.857 6 110431352.50106     -2570.674 6        41.464
C06        49.000                                                                                                                                    39433403.464 6 205340102.09906     -1412.177 6        38.096    39433396.924 6 158781976.07006     -1091.960 6        41.802    39433397.123 6 166855632.57006     -1147.616 6        39.342
C16        50.000                                                                                                                                    40014863.084 6 208367914.96706     -1411.059 6        39.294    40014863.798 6 161123298.46406     -1091.135 6        40.832    40014860.510 5 169315997.76405     -1146.736 5        35.476
S48        51.000    77134135.730 6 405341992.15306      -370.435 6        38.517
C19        52.000                                                                                                                                    22481859.190 8 117068999.28108     -1742.073 8        50.579                                                                    22481854.440 8  95128154.51608     -1415.557 8        50.539
C12        53.000                                                                                                                                    24896441.699 6 129642307.09306     -1294.365 6        40.429    24896438.271 7 100247638.02007     -1000.994 7        46.148    24896436.820 7 105344971.78907     -1051.927 7        43.683
C60        54.000                                                                                                                                    40743185.546 6 212160650.90206      -447.183 6        39.634                                                                    40743171.050 6 172397874.31206      -363.432 6        39.811
R16        55.000    21415858.048 8 114399691.56508     -2315.304 8        48.336                                                                    21415857.581 7  88977559.93007     -1800.763 7        45.655
C37        56.000                                                                                                                                    26213225.971 6 136499157.66006     -3026.733 6        39.967                                                                    26213228.753 6 110916764.72406     -2459.536 6        40.167
C02        57.000                                                                                                                                    40696742.920 5 211918645.61705      -463.333 5        35.481    40696736.206 6 163868928.77506      -358.164 6        38.727    40696738.996 5 172201258.14205      -376.479 5        35.952
I03        58.000   128862939.942 6 429900593.51406       920.002 6        41.611
R07        59.000    19459309.458 8 104167238.76008      -650.761 8        51.253                                                                    19459308.310 7  81018966.54707      -506.111 7        47.800
G07        60.000    21125611.240 8 111015865.63008      1071.745 8        48.962                                    21125606.584 8  86505864.00008       835.126 8        48.570    21125606.796 7  86505864.99707       835.145 7        44.524
> 2025 01 01 04 46 20.0000000  0 57
G16         1.000    23466236.843 6 123315927.61106      -280.564 6        40.355                                    23466231.787 3  96090318.08303      -218.626 3        22.609
G29         2.000    25668201.381 6 134887299.06606        -1.438 6        36.518                                    25668198.312 4 105106971.47604        -1.134 4        27.341    25668198.562 5 105106973.50305        -1.038 5        35.114
G09         3.000    20252449.884 8 106427391.09408     -1554.002 8        49.703                                    20252447.541 8  82930446.19408     -1210.914 8        52.486    20252448.147 7  82930447.20007     -1210.931 7        46.115
E34         4.000    24412007.457 7 128285975.38507     -1788.673 7        47.345                                                                    24412007.334 8  95797976.78708     -1335.699 8        49.681    24412007.104 8  98297053.72808     -1370.578 8        50.486
S21         5.000    38398255.667 7 201784020.38407      -383.889 7        43.460
E05         6.000    21813970.518 8 114633235.86408       -46.317 8        48.530                                                                    21813969.870 8  85602771.77808       -34.619 8        50.997    21813969.773 8  87835879.50108       -35.494 8        51.988
E15         7.000    25772881.886 7 135437429.50507      1075.298 7        42.813                                                                    25772882.149 7 101138364.34807       802.987 7        46.405    25772881.831 7 103776754.15807       823.936 7        47.299
R10         8.000    22787341.142 6 121469349.56006      4052.381 6        38.880
E31         9.000    26505636.437 6 139288072.29006       813.770 6        40.434                                                                    26505637.275 7 104013844.74207       607.808 7        43.985    26505637.057 7 106727247.31807       623.482 7        44.742
G04        10.000    21890464.181 7 115035208.41907     -2890.417 7        45.342                                    21890461.411 5  89637833.27605     -2252.277 5        33.479    21890461.303 7  89637828.27207     -2252.198 7        44.462
E09        11.000    25134584.548 7 132083179.84107     -2303.146 7        45.710                                                                    25134583.905 8  98633559.91808     -1719.927 8        48.046    25134583.585 8 101206608.61708     -1764.792 8        48.912
S27        12.000    39031857.482 6 205113782.58206      -394.621 6        36.223
G06        13.000    21857149.751 7 114860122.51207     -2541.735 7        45.991                                    21857148.309 7  89501398.12007     -1980.573 7        46.824    21857149.033 7  89501409.11707     -1980.577 7        43.973
S36        14.000    38166081.713 7 200564605.74807      -384.246 7        45.228
G20        15.000    22604881.167 7 118789460.74207      2624.047 7        43.736                                    22604876.028 4  92563198.13604      2044.710 4        29.517
E36        16.000    26762427.015 6 140637516.05106     -3618.956 6        41.092                                                                    26762427.958 7 105021534.70207     -2702.387 7        44.059    26762427.531 7 107761222.13507     -2772.934 7        45.300
S45        17.000    63352575.065 6 332921159.45206      -424.092 6        37.236
G03        18.000    24533138.924 6 128922547.12306     -3990.041 6        37.943                                    24533138.618 5 100459140.36805     -3109.125 5        31.472    24533139.307 6 100459149.35706     -3109.162 6        36.650
E24        19.000    27686992.301 6 145496118.30506      2453.949 6        40.043                                                                    27686991.903 7 108649710.85507      1832.410 7        42.728    27686990.891 7 111484047.62007      1880.186 7        42.487
R23        20.000    21171136.735 7 113251306.93007     -1746.512 7        46.974
G30        21.000    23018836.385 7 120964819.32807      2896.386 7        43.695                                    23018834.728 6  94258307.50606      2256.923 6        41.025    23018835.070 6  94258311.50306      2256.970 6        39.778
I06        22.000    37926146.279 7 148830573.59507      -263.073 7        43.477
S28        23.000    40827013.517 5 214547407.41105      -383.046 5        35.357
S23        25.000    38105694.297 7 200246773.75707      -380.119 7        45.118
E06        26.000    26896900.042 6 141344212.10106     -2808.040 6        40.296                                                                    26896900.422 7 105549245.29707     -2096.896 7        42.749    26896900.008 7 108302702.78807     -2151.519 7        43.907
C34        27.000                                                                                                                                    25515082.316 7 132863729.87507       -64.383 7        42.392                                                                    25515082.679 7 107962668.30007       -52.386 7        42.123
G26        28.000    24828822.768 5 130476342.60805     -2501.833 5        35.048                                    24828823.230 4 101669876.54404     -1949.471 4        26.599    24828823.276 5 101669877.53005     -1949.651 5        34.662
R09        29.000    20453502.512 8 109220568.68608      1830.976 8        49.980                                                                    20453501.686 8  84949334.64008      1424.121 8        48.328
C22        30.000                                                                                                                                    22040004.626 8 114768118.30108      1040.829 8        51.261                                                                    22039998.042 8  93258484.85008       845.814 8        50.081
I01        31.000   339673876.899 7  29812435.30607     -2817.486 7        42.074
E03        32.000    26127142.395 7 137299072.72907      1830.878 7        42.686                                                                    26127142.101 7 102528546.31107      1367.259 7        44.576    26127142.004 7 105203198.02507      1402.945 7        45.774
R24        34.000    23167187.300 7 123885371.27107      2216.443 7        44.606                                                                    23167186.941 6  96355289.31806      1724.019 6        41.497
C36        35.000                                                                                                                                    23489943.716 7 122318311.69407      2362.916 7        46.956                                                                    23489948.820 7  99393670.46607      1920.148 7        47.763
G11        36.000    22088811.991 7 116077524.74207         6.865 7        45.801                                    22088808.430 5  90450019.90005         5.350 5        35.286    22088808.707 7  90450019.89807         5.340 7        44.972
C35        37.000                                                                                                                                    26455293.274 6 137759647.17906     -3409.021 6        41.473                                                                    26455292.314 6 111940992.51906     -2770.120 6        38.961
I09        38.000    37966440.899 7 148988457.28707      -702.142 7        43.416
R08        39.000    21058079.662 8 112765076.17008      2128.819 8        49.498                                                                    21058077.370 7  87706172.00007      1655.758 7        44.333
R22        40.000    22431559.748 7 119741209.92907     -4318.624 7        45.761                                                                    22431558.391 7  93132064.13507     -3358.851 7        42.150
S44        42.000    40743614.488 6 214109316.59506      -451.534 6        37.777
C09        43.000                                                                                                                                    38923657.020 6 202685721.51206     -1066.009 6        41.159    38923653.323 7 156729448.68007      -824.337 7        45.711    38923651.554 7 164698733.01907      -866.192 7        42.006
C05        44.000                                                                                                                                    39152615.253 6 203877978.01506      -432.044 6        37.902    39152611.695 7 157651408.59907      -334.090 7        43.941    39152613.059 6 165667660.14006      -351.059 6        40.343
R06        45.000    21726890.677 6 115938894.24506     -3177.358 6        39.090
C44        46.000                                                                                                                                    24969037.893 7 130020361.12707     -2473.459 7        44.187                                                                    24969036.419 7 105652196.64007     -2009.787 7        42.362
C39        47.000                                                                                                                                    40902843.736 6 212991845.60806     -1573.260 6        39.189                                                                    40902839.933 6 173073309.57806     -1278.259 6        38.045
C20        48.000                                                                                                                                    26101551.979 6 135917647.70006     -3164.405 6        41.921                                                                    26101548.078 6 110444207.70206     -2571.283 6        41.478
C06        49.000                                                                                                                                    39434759.529 6 205347164.01606     -1412.564 6        37.958    39434753.087 6 158787436.78406     -1092.291 6        41.721    39434753.531 6 166861370.94906     -1147.839 6        39.210
C16        50.000                                                                                                                                    40016218.536 6 208374970.85106     -1411.303 6        39.438    40016218.626 6 161128754.51606     -1091.319 6        40.720    40016215.564 5 169321731.23205     -1146.562 5        35.633
S48        51.000    77134494.484 6 405343845.01506      -370.805 6        38.483
C19        52.000                                                                                                                                    22483533.041 8 117077713.74508     -1743.712 8        50.776                                                                    22483527.922 8  95135235.73608     -1416.831 8        50.557
C12        53.000                                                                                                                                    24897686.230 6 129648786.97606     -1297.310 6        40.615    24897682.165 7 100252648.67307     -1003.219 7        45.953    24897681.234 7 105350237.21007     -1054.115 7        43.585
C60        54.000                                                                                                                                    40743615.255 6 212162887.57406      -447.442 6        39.595                                                                    40743600.617 6 172399691.79106      -363.595 6        39.811
R16        55.000    21418026.498 8 114411278.83308     -2319.601 8        48.509                                                                    21418026.341 7  88986572.24807     -1804.137 7        45.406
C37        56.000                                                                                                                                    26216133.082 6 136514295.82706     -3028.480 6        39.513                                                                    26216135.910 6 110929065.72006     -2460.937 6        40.257
C02        57.000                                                                                                                                    40697187.404 5 211920962.65605      -463.641 5        35.395    40697181.115 6 163870720.45406      -358.536 6        38.622    40697183.998 5 172203140.92105      -376.764 5        35.614
I03        58.000   128861767.798 6 429895993.91406       919.798 6        41.735
R07        59.000    19459918.366 8 104170498.57708      -652.994 8        51.018                                                                    19459917.081 7  81021501.96707      -507.925 7        47.578
G07        60.000    21124592.838 8 111010513.54508      1069.152 8        48.944                                    21124588.110 8  86501693.54808       833.107 8        48.588    21124588.055 7  86501694.54807       833.181 7        44.501
> 2025 01 01 04 46 25.0000000  0 57
G16         1.000    23466505.322 6 123317338.38106      -283.710 6        39.375                                    23466500.277 3  96091417.39003      -221.087 3        22.667
G29         2.000    25668203.094 6 134887312.76606        -4.010 6        36.284                                    25668200.905 4 105106982.21504        -3.146 4        27.401    25668200.870 5 105106984.28805        -3.347 5        34.552
G09         3.000    20253929.501 8 106435165.29008     -1555.584 8        49.636                                    20253926.923 8  82936504.00808     -1212.144 8        52.494    20253927.304 7  82936505.01207     -1212.134 7        46.238
E34         4.000    24413710.434 7 128294924.29407     -1790.724 7        47.173                                                                    24413710.272 8  95804659.41408     -1337.203 8        49.498    24413710.041 8  98303910.68408     -1372.139 8        50.571
S21         5.000    38398622.640 7 201785939.73807      -383.671 7        43.422
E05         6.000    21814014.973 8 114633470.07508       -47.269 8        48.461                                                                    21814014.451 8  85602946.68008       -35.275 8        50.861    21814014.381 8  87836058.96608       -36.236 8        52.063
E15         7.000    25771859.561 7 135432058.16207      1073.349 7        43.018                                                                    25771859.957 7 101134353.28507       801.534 7        46.210    25771859.646 7 103772638.45507       822.483 7        47.415
R10         8.000    22783540.317 6 121449089.55006      4051.816 6        38.715
E31         9.000    26504863.667 6 139284008.35306       811.913 6        40.503                                                                    26504864.080 7 104010810.00107       606.244 7        43.917    26504863.692 7 106724133.39507       622.162 7        44.864
G04        10.000    21893215.078 7 115049662.79307     -2891.235 7        45.543                                    21893212.027 5  89649096.42205     -2252.911 5        33.443    21893211.579 7  89649091.42207     -2252.849 7        44.385
E09        11.000    25136776.138 7 132094696.83207     -2303.452 7        45.770                                                                    25136775.491 7  98642160.27007     -1720.198 7        47.910    25136775.269 8 101215433.31608     -1764.975 8        49.026
S27        12.000    39032235.168 6 205115757.23906      -394.793 6        36.166
G06        13.000    21859569.105 7 114872837.74907     -2544.139 7        46.643                                    21859567.931 7  89511306.08907     -1982.447 7        46.811    21859568.761 7  89511317.09707     -1982.526 7        44.400
S36        14.000    38166444.795 7 200566526.51907      -384.009 7        45.299
G20        15.000    22602384.825 7 118776343.33607      2623.033 7        43.551                                    22602379.799 4  92552976.78504      2043.922 4        29.545
E36        16.000    26765870.328 6 140655611.55006     -3619.127 6        40.872                                                                    26765871.410 7 105035047.58007     -2702.644 7        43.846    26765870.908 7 107775087.51707     -2773.182 7        45.369
S45        17.000    63352938.148 6 332923279.35406      -423.854 6        37.414
G03        18.000    24536936.212 6 128942498.00406     -3990.182 6        38.309                                    24536935.218 5 100474686.49705     -3109.226 5        31.562    24536936.256 6 100474695.48606     -3109.267 6        36.953
E24        19.000    27684657.675 6 145483849.30106      2453.555 6        40.040                                                                    27684657.158 7 108640548.92307      1832.358 7        42.434    27684656.103 7 111474646.68307      1880.152 7        42.584
R23        20.000    21172771.179 7 113260049.93207     -1750.660 7        47.250
G30        21.000    23016080.960 7 120950340.17507      2895.542 7        43.998                                    23016079.431 6  94247025.05506      2256.270 6        41.077    23016079.732 6  94247029.05606      2256.165 6        40.091
I06        22.000    37926481.367 7 148831889.04007      -262.934 7        43.518
S28        23.000    40827378.137 5 214549322.58805      -382.659 5        35.238
S23        25.000    38106056.588 7 200248674.09307      -379.895 7        45.213
E06        26.000    26899571.821 6 141358252.23106     -2808.011 6        40.276                                                                    26899572.178 7 105559729.81007     -2096.818 7        42.605    26899571.657 7 108313460.81207     -2151.488 7        44.008
C34        27.000                                                                                                                                    25515145.611 6 132864058.28206       -66.834 6        41.924                                                                    25515145.788 7 107962935.16807       -54.296 7        42.129
G26        28.000    24831205.281 5 130488858.51605     -2504.142 5        35.405                                    24831204.875 4 101679629.16504     -1951.268 4        26.958    24831204.924 5 101679630.17605     -1951.381 5        34.686
R09        29.000    20451789.921 8 109211422.90308      1827.437 8        49.870                                                                    20451788.778 8  84942221.26508      1421.355 8        48.267
C22        30.000                                                                                                                                    22039005.837 8 114762916.75408      1039.806 8        51.219                                                                    22038999.141 8  93254258.17208       844.920 8        50.091
I01        31.000   339677466.825 7  29826523.28507     -2817.527 7        42.116
E03        32.000    26125400.420 7 137289919.01407      1830.668 7        42.918                                                                    26125400.269 7 102521710.75607      1367.057 7        44.474    26125400.156 7 105196184.14607      1402.733 7        45.806
R24        34.000    23165116.704 7 123874297.21607      2213.367 7        44.679                                                                    23165116.679 7  96346676.20707      1721.508 7        42.163
C36        35.000                                                                                                                                    23487675.878 7 122306500.55007      2361.649 7        47.182                                                                    23487680.769 7  99384072.96107      1918.978 7        47.742
G11        36.000    22088807.027 7 116077498.41607         3.721 7        45.911                                    22088803.354 5  90449999.38405         2.898 5        35.286    22088803.591 7  90449999.37607         2.959 7        45.229
C35        37.000                                                                                                                                    26458566.415 6 137776690.92406     -3408.503 6        41.352                                                                    26458565.359 6 111954841.95106     -2769.668 6        39.210
I09        38.000    37967335.465 7 148991968.18707      -702.068 7        43.488
R08        39.000    21056092.565 8 112754434.14708      2128.039 8        49.211                                                                    21056090.224 7  87697894.88507      1655.148 7        44.700
R22        40.000    22435604.875 7 119762806.38307     -4319.882 7        45.242                                                                    22435604.256 7  93148861.37307     -3359.938 7        42.766
S44        42.000    40744037.915 6 214111573.71506      -451.374 6        37.822
C09        43.000                                                                                                                                    38924680.977 6 202691052.26306     -1066.093 6        40.934    38924677.142 7 156733570.75107      -824.366 7        45.610    38924675.280 6 164703064.69106      -866.330 6        41.862
C05        44.000                                                                                                                                    39153030.917 6 203880137.76406      -431.822 6        38.111    39153026.608 7 157653078.65607      -333.910 7        43.901    39153027.878 6 165669415.10606      -350.801 6        40.307
R06        45.000    21729867.404 6 115954783.53206     -3177.990 6        38.796
C44        46.000                                                                                                                                    24971413.684 7 130032732.04707     -2474.850 7        44.411                                                                    24971412.182 7 105662249.04307     -2011.102 7        42.303
C39        47.000                                                                                                                                    40904353.891 6 212999710.44906     -1572.827 6        39.114                                                                    40904350.165 6 173079700.41606     -1278.021 6        38.120
C20        48.000                                                                                                                                    26104590.724 7 135933470.12607     -3164.519 7        42.267                                                                    26104586.605 6 110457064.72406     -2571.430 6        41.676
C06        49.000                                                                                                                                    39436115.409 6 205354226.59206     -1412.386 6        37.837    39436109.460 6 158792898.02006     -1092.186 6        41.490    39436109.598 6 166867109.88306     -1147.678 6        39.066
C16        50.000                                                                                                                                    40017573.931 6 208382027.16106     -1411.079 6        39.592    40017573.320 6 161134210.88706     -1091.099 6        40.651    40017570.628 5 169327465.08305     -1146.837 5        35.962
S48        51.000    77134846.803 6 405345698.04606      -370.420 6        38.408
C19        52.000                                                                                                                                    22485207.978 8 117086435.28508     -1744.839 8        50.750                                                                    22485202.847 8  95142322.70808     -1417.825 8        50.533
C12        53.000                                                                                                                                    24898932.643 6 129655279.98806     -1299.762 6        40.615    24898929.011 7 100257669.48507     -1005.002 7        46.014    24898928.201 7 105355513.33807     -1056.236 7        43.674
C60        54.000                                                                                                                                    40744044.710 6 212165124.18006      -447.226 6        39.718                                                                    40744030.201 6 172401509.21706      -363.332 6        39.802
R16        55.000    21420199.608 8 114422886.59308     -2323.374 8        48.199                                                                    21420199.257 7  88995600.50707     -1807.083 7        44.832
C37        56.000                                                                                                                                    26219041.819 6 136529441.79906     -3029.812 6        39.093                                                                    26219044.524 6 110941373.06506     -2462.068 6        40.329
C02        57.000                                                                                                                                    40697632.764 5 211923279.70105      -463.152 5        35.514    40697626.260 6 163872512.14306      -358.133 6        38.544    40697629.113 5 172205023.70405      -376.412 5        35.695
I03        58.000   128860595.501 6 429891394.36106       920.080 6        41.700
R07        59.000    19460528.778 8 104173768.50208      -654.850 8        50.732                                                                    19460527.417 7  81024045.23707      -509.359 7        47.097
G07        60.000    21123576.663 8 111005173.67708      1066.950 8        48.876                                    21123571.960 8  86497532.61008       831.388 8        48.560    21123572.056 7  86497533.61407       831.401 7        45.180
> 2025 01 01 04 46 30.0000000  0 57
G16         1.000    23466777.307 6 123318766.67706      -287.486 6        39.574                                    23466772.098 3  96092530.33903      -224.021 3        22.590
G29         2.000    25668208.312 5 134887341.40205        -7.567 5        35.890                                    25668206.343 4 105107004.62904        -5.903 4        27.425    25668206.406 5 105107006.63605        -5.923 5        34.548
G09         3.000    20255410.672 8 106442948.70708     -1557.879 8        49.600                                    20255408.054 8  82942569.00908     -1213.931 8        52.571    20255408.174 7  82942570.01507     -1213.920 7        46.177
E34         4.000    24415415.587 7 128303884.73707     -1793.457 7        47.353                                                                    24415415.405 8  95811350.64608     -1339.277 8        49.657    24415415.190 8  98310776.47008     -1374.206 8        50.600
S21         5.000    38398986.549 7 201787859.04607      -383.974 7        43.492
E05         6.000    21814060.643 8 114633710.21508       -48.930 8        48.513                                                                    21814060.129 8  85603126.00108       -36.514 8        50.942    21814060.064 8  87836242.96408       -37.454 8        52.065
E15         7.000    25770839.265 7 135426697.74407      1070.780 7        42.823                                                                    25770839.964 7 101130350.37107       799.630 7        46.296    25770839.593 7 103768531.12007       820.537 7        47.439
R10         8.000    22779738.589 6 121428834.08206      4050.406 6        37.860
E31         9.000    26504092.714 6 139279955.13206       809.353 6        41.149                                                                    26504092.884 7 104007783.24907       604.373 7        44.059    26504092.309 7 106721027.69407       620.163 7        44.892
G04        10.000    21895966.488 7 115064122.33907     -2892.632 7        45.332                                    21895963.519 5  89660363.59405     -2254.001 5        33.647    21895963.349 7  89660358.58907     -2254.046 7        43.833
E09        11.000    25138968.250 7 132106216.74607     -2304.515 7        45.722                                                                    25138967.686 7  98650762.79307     -1720.881 7        47.885    25138967.391 8 101224260.26508     -1765.814 8        48.996
S27        12.000    39032608.486 5 205117732.25005      -394.984 5        35.562
G06        13.000    21861991.890 7 114885566.36507     -2547.196 7        46.789                                    21861990.101 7  89521224.49007     -1984.823 7        46.925    21861991.038 7  89521235.49307     -1984.873 7        44.518
S36        14.000    38166812.049 7 200568447.67107      -384.637 7        45.120
G20        15.000    22599889.697 7 118763232.33207      2621.412 7        43.752                                    22599884.844 4  92542760.41804      2042.659 4        29.621
E36        16.000    26769314.174 6 140673709.67506     -3620.124 6        40.634                                                                    26769315.222 7 105048562.39807     -2703.291 7        43.769    26769314.919 7 107788954.90007     -2773.917 7        45.223
S45        17.000    63353298.176 6 332925399.35306      -424.383 6        37.406
G03        18.000    24540733.183 6 128962451.68406     -3991.177 6        38.336                                    24540732.314 5 100490234.79705     -3110.001 5        31.879    24540733.085 6 100490243.78206     -3110.078 6        36.972
E24        19.000    27682323.400 6 145471582.45206      2452.951 6        39.715                                                                    27682322.853 7 108631388.62707      1831.700 7        42.609    27682321.786 7 111465247.40507      1879.601 7        42.643
R23        20.000    21174410.180 7 113268814.83107     -1755.425 7        47.347
G30        21.000    23013326.784 7 120935867.11407      2893.852 7        44.281                                    23013325.309 6  94235747.34906      2254.948 6        41.323    23013326.515 6  94235751.34706      2255.089 6        40.186
I06        22.000    37926816.883 7 148833204.62907      -263.286 7        43.572
S28        23.000    40827743.639 5 214551237.63505      -383.268 5        34.929
S23        25.000    38106418.270 7 200250574.41007      -380.299 7        45.201
E06        26.000    26902243.730 6 141372293.17606     -2808.470 6        40.346                                                                    26902244.238 7 105570214.92207     -2097.300 7        42.813    26902243.787 7 108324219.44407     -2151.874 7        44.140
C34        27.000                                                                                                                                    25515211.210 6 132864400.23106       -69.984 6        41.590                                                                    25515211.342 6 107963213.05206       -56.914 6        41.859
G26        28.000    24833589.235 6 130501387.31006     -2507.305 6        36.091                                    24833588.978 4 101689391.85104     -1953.737 4        27.090    24833589.815 5 101689392.84105     -1953.648 5        35.100
R09        29.000    20450080.747 8 109202296.14508      1823.154 8        50.532                                                                    20450079.410 7  84935122.66707      1418.098 7        47.818
C22        30.000                                                                                                                                    22038008.249 8 114757721.48608      1038.193 8        51.115                                                                    22038001.434 8  93250036.60108       843.539 8        49.927
I01        31.000   339681057.331 6  29840611.89206     -2817.918 6        41.919
E03        32.000    26123659.231 7 137280768.37307      1829.624 7        42.845                                                                    26123658.971 7 102514877.49107      1366.248 7        44.539    26123658.789 7 105189172.62607      1401.918 7        45.866
R24        34.000    23163048.848 7 123863240.05807      2209.553 7        44.715                                                                    23163048.278 6  96338076.21506      1718.481 6        41.209
C36        35.000                                                                                                                                    23485409.415 7 122294697.32607      2359.674 7        47.189                                                                    23485414.006 7  99374481.88607      1917.293 7        47.582
G11        36.000    22088805.520 7 116077489.06307        -0.036 7        46.090                                    22088801.588 5  90449992.09905        -0.025 5        35.381    22088801.320 7  90449992.09407         0.009 7        44.837
C35        37.000                                                                                                                                    26461839.024 6 137793733.50906     -3408.693 6        41.385                                                                    26461838.239 6 111968690.47906     -2769.977 6        39.195
I09        38.000    37968230.444 7 148995479.65607      -702.555 7        43.498
R08        39.000    21054106.608 8 112743797.56308      2126.594 8        49.483                                                                    21054104.274 7  87689621.98507      1654.070 7        45.087
R22        40.000    22439652.357 7 119784410.77407     -4321.949 7        45.827                                                                    22439651.660 7  93165664.77707     -3361.462 7        42.732
S44        42.000    40744469.471 6 214113830.75006      -451.555 6        37.849
C09        43.000                                                                                                                                    38925704.448 6 202696384.36106     -1066.781 6        40.787    38925701.158 7 156737693.87307      -824.852 7        45.645    38925699.192 6 164707397.48106      -866.994 6        41.688
C05        44.000                                                                                                                                    39153445.195 6 203882297.57306      -432.097 6        38.135    39153441.338 7 157654748.75007      -334.143 7        43.932    39153442.562 6 165671170.15206      -351.419 6        40.200
R06        45.000    21732846.742 6 115970678.56706     -3179.808 6        38.646
C44        46.000                                                                                                                                    24973790.884 7 130045111.49607     -2476.907 7        43.507                                                                    24973789.464 7 105672308.34807     -2012.800 7        42.093
C39        47.000                                                                                                                                    40905864.554 6 213007575.02006     -1573.064 6        38.952                                                                    40905860.737 6 173086091.05206     -1278.398 6        37.974
C20        48.000                                                                                                                                    26107629.903 7 135949294.74107     -3165.386 7        42.197                                                                    26107625.590 6 110469923.51306     -2572.275 6        41.311
C06        49.000                                                                                                                                    39437471.790 6 205361289.85406     -1413.082 6        37.433    39437465.940 6 158798359.77006     -1092.596 6        41.220    39437466.112 6 166872849.36606     -1148.201 6        38.952
C16        50.000                                                                                                                                    40018928.785 6 208389083.85306     -1411.723 6        39.769    40018928.559 6 161139667.56306     -1091.455 6        40.601    40018926.046 5 169333199.22705     -1147.313 5        35.871
S48        51.000    77135206.139 6 405347550.97406      -370.762 6        38.333
C19        52.000                                                                                                                                    22486883.937 8 117095163.85408     -1746.665 8        50.870                                                                    22486879.063 8  95149415.39108     -1419.388 8        50.377
C12        53.000                                                                                                                                    24900181.424 6 129661786.18906     -1302.721 6        40.420    24900177.976 7 100262700.48107     -1007.336 7        45.807    24900177.611 7 105360800.15807     -1058.704 7        43.581
C60        54.000                                                                                                                                    40744474.276 6 212167360.70906      -447.540 6        39.841                                                                    40744459.517 6 172403326.57806      -363.711 6        39.628
R16        55.000    21422376.729 8 114434514.63108     -2327.858 8        48.671                                                                    21422375.922 7  89004644.52607     -1810.552 7        44.554
C37        56.000                                                                                                                                    26221952.214 6 136544595.51906     -3031.596 6        38.712                                                                    26221954.622 6 110953686.71606     -2463.654 6        40.467
C02        57.000                                                                                                                                    40698078.451 5 211925596.73405      -463.649 5        35.609    40698071.298 6 163874303.81006      -358.482 6        38.432    40698074.030 5 172206906.48505      -376.750 5        35.367
I03        58.000   128859423.619 6 429886794.84906       919.701 6        41.750
R07        59.000    19461142.143 8 104177048.65608      -657.279 8        50.832                                                                    19461140.499 7  81026596.47107      -511.150 7        47.542
G07        60.000    21122562.940 8 110999845.93908      1064.138 8        49.155                                    21122558.109 8  86493381.13208       829.200 8        48.680    21122558.293 7  86493382.14007       829.132 7        45.097
> 2025 01 01 04 46 35.0000000  0 57
G16         1.000    23467053.143 6 123320212.89406      -291.120 6        40.589                                    23467047.286 3  96093657.28003      -226.842 3        22.971
G29         2.000    25668217.361 6 134887385.42406       -10.669 6        36.949                                    25668214.692 4 105107038.94004        -8.332 4        27.665    25668216.301 5 105107040.96705        -8.455 5        35.590
G09         3.000    20256893.461 8 106450741.77408     -1559.673 8        49.713                                    20256891.028 8  82948641.52808     -1215.331 8        52.572    20256891.465 7  82948642.53307     -1215.378 7        46.402
E34         4.000    24417122.948 7 128312857.11007     -1795.817 7        47.491                                                                    24417122.803 8  95818050.80608     -1341.124 8        49.612    24417122.574 8  98317651.40708     -1376.076 8        50.614
S21         5.000    38399351.836 7 201789779.01107      -384.185 7        43.441
E05         6.000    21814107.625 8 114633956.66908       -50.102 8        48.651                                                                    21814107.050 8  85603310.04908       -37.453 8        50.951    21814106.975 8  87836431.81208       -38.394 8        52.104
E15         7.000    25769821.425 7 135421348.63707      1068.455 7        43.018                                                                    25769822.080 7 101126355.91607       797.895 7        46.275    25769821.729 7 103764432.46007       818.645 7        47.436
R10         8.000    22775939.698 6 121408583.58206      4049.335 6        38.153
E31         9.000    26503323.242 6 139275913.08606       807.098 6        41.678                                                                    26503323.751 7 104004764.82607       602.743 7        44.155    26503323.077 7 106717930.53507       618.409 7        44.959
G04        10.000    21898719.424 7 115078587.46107     -2893.826 7        45.231                                    21898716.138 5  89671635.11305     -2254.929 5        33.778    21898715.864 7  89671630.10807     -2254.862 7        43.653
E09        11.000    25141160.948 7 132117739.99007     -2305.200 7        45.573                                                                    25141160.514 7  98659367.81207     -1721.422 7        47.825    25141160.098 8 101233089.75708     -1766.261 8        49.029
S27        12.000    39032981.916 5 205119707.46005      -395.349 5        35.805
G06        13.000    21864416.514 7 114898308.73607     -2549.996 7        46.179                                    21864414.910 7  89531153.60807     -1987.012 7        46.905    21864415.532 7  89531164.61007     -1987.030 7        44.330
S36        14.000    38167177.099 7 200570370.02607      -384.900 7        45.174
G20        15.000    22597396.246 7 118750128.11007      2619.833 7        43.996                                    22597391.158 4  92532549.33604      2041.425 4        29.687
E36        16.000    26772758.463 6 140691810.80406     -3620.758 6        40.844                                                                    26772759.823 7 105062079.47707     -2703.867 7        43.699    26772759.478 7 107802824.59207     -2774.360 7        45.178
S45        17.000    63353659.148 6 332925919.70216      -424.234 6        37.399
G03        18.000    24544530.073 6 128982408.49906     -3991.931 6        38.351                                    24544530.041 5 100505785.53205     -3110.590 5        31.811    24544531.069 6 100505794.52006     -3110.421 6        36.488
E24        19.000    27679989.463 6 145459318.21306      2452.477 6        39.378                                                                    27679989.052 7 108622230.27007      1831.288 7        42.370    27679988.089 7 111455850.15107      1879.035 7        42.790
R23        20.000    21176052.242 7 113277602.06507     -1759.914 7        46.993
G30        21.000    23010573.671 7 120921400.59407      2892.513 7        44.436                                    23010572.489 6  94224474.73506      2253.906 6        41.435    23010573.072 6  94224478.73106      2253.967 6        40.420
I06        22.000    37927152.098 7 148834520.71807      -263.405 7        43.600
S28        23.000    40828105.737 5 214553153.36005      -383.311 5        35.171
S23        25.000    38106780.655 7 200252475.00307      -380.328 7        45.083
E06        26.000    26904915.852 6 141386335.33706     -2808.547 6        40.172                                                                    26904916.239 7 105580700.94707     -2097.436 7        42.844    26904916.018 7 108334979.02807     -2152.182 7        44.301
C34        27.000                                                                                                                                    25515280.061 6 132864756.11806       -72.735 6        41.495                                                                    25515279.598 6 107963502.24306       -59.047 6        41.671
G26        28.000    24835975.867 6 130513929.38906     -2510.051 6        36.015                                    24835975.541 4 101699164.87404     -1955.880 4        27.198    24835976.155 5 101699165.86605     -1955.803 5        35.471
R09        29.000    20448375.620 8 109193188.96408      1819.257 8        50.190                                                                    20448374.041 7  84928039.30607      1414.972 7        47.878
C22        30.000                                                                                                                                    22037011.829 8 114752532.91108      1036.855 8        51.075                                                                    22037005.019 8  93245820.45308       842.629 8        49.783
I01        31.000   339684647.426 6  29854701.46206     -2818.046 6        41.778
E03        32.000    26121918.463 7 137271621.21507      1828.908 7        42.927                                                                    26121918.353 7 102508046.82707      1365.757 7        44.560    26121918.174 7 105182163.77407      1401.321 7        45.947
R24        34.000    23160984.437 7 123852200.35307      2206.015 7        45.779                                                                    23160984.226 6  96329489.77406      1715.744 6        41.318
C36        35.000                                                                                                                                    23483144.392 7 122282902.42907      2357.918 7        47.500                                                                    23483148.880 7  99364897.54907      1916.202 7        47.473
G11        36.000    22088807.161 7 116077497.10507        -3.561 7        46.121                                    22088803.158 5  90449998.36105        -2.773 5        35.338    22088803.520 7  90449998.36007        -2.722 7        45.213
C35        37.000                                                                                                                                    26465111.673 6 137810775.35606     -3408.460 6        40.963                                                                    26465111.144 6 111982538.35106     -2769.552 6        39.219
I09        38.000    37969125.376 7 148998991.97107      -702.681 7        43.467
R08        39.000    21052121.556 8 112733166.75408      2125.407 8        49.902                                                                    21052118.479 7  87681353.57707      1653.096 7        44.713
R22        40.000    22443701.547 7 119806023.48807     -4323.652 7        45.371                                                                    22443699.941 7  93182474.65307     -3362.771 7        42.855
S44        42.000    40744900.763 6 214116088.10306      -451.708 6        37.641
C09        43.000                                                                                                                                    38926728.536 6 202701718.19006     -1067.048 6        40.679    38926725.339 7 156741818.32507      -825.111 7        45.664    38926723.475 6 164711731.64506      -867.063 6        41.559
C05        44.000                                                                                                                                    39153860.045 6 203884457.81006      -432.253 6        37.834    39153856.166 7 157656419.18107      -334.241 7        44.156    39153857.583 6 165672925.49906      -351.144 6        40.150
R06        45.000    21735826.263 6 115986579.88106     -3180.862 6        37.724
C44        46.000                                                                                                                                    24976169.316 7 130057499.81207     -2478.805 7        43.189                                                                    24976168.707 6 105682374.85406     -2014.127 6        41.909
C39        47.000                                                                                                                                    40907374.530 6 213015439.76506     -1573.148 6        39.162                                                                    40907370.865 6 173092481.78606     -1278.355 6        37.773
C20        48.000                                                                                                                                    26110669.285 6 135965121.95406     -3165.870 6        41.781                                                                    26110664.863 6 110482784.39606     -2572.344 6        41.149
C06        49.000                                                                                                                                    39438828.095 6 205368354.19406     -1413.039 6        37.214    39438822.652 6 158803822.36106     -1092.719 6        41.409    39438822.773 6 166878589.70506     -1148.232 6        38.862
C16        50.000                                                                                                                                    40020284.385 6 208396141.31106     -1411.818 6        39.769    40020283.769 6 161145124.84606     -1091.675 6        40.443    40020281.402 5 169338933.97805     -1147.143 5        35.671
S48        51.000    77135563.171 6 405349404.05106      -370.827 6        38.501
C19        52.000                                                                                                                                    22488561.685 8 117103899.85308     -1748.123 8        50.903                                                                    22488556.717 8  95156514.09908     -1420.402 8        50.272
C12        53.000                                                                                                                                    24901433.196 6 129668305.89606     -1305.516 6        40.153    24901429.995 7 100267741.93207     -1009.520 7        45.866    24901429.548 7 105366097.94407     -1060.694 7        43.414
C60        54.000                                                                                                                                    40744903.762 6 212169597.53006      -447.507 6        39.733                                                                    40744889.173 6 172405144.15906      -363.541 6        39.718
R16        55.000    21424557.251 8 114446163.48708     -2332.103 8        48.318                                                                    21424557.210 7  89013704.75607     -1813.780 7        44.975
C37        56.000                                                                                                                                    26224863.768 6 136559757.39306     -3033.415 6        38.495                                                                    26224866.508 6 110966006.95406     -2464.869 6        40.338
C02        57.000                                                                                                                                    40698522.367 5 211927914.19205      -463.609 5        35.271    40698516.211 6 163876095.80006      -358.518 6        38.607    40698519.015 5 172208789.60805      -376.865 5        35.433
I03        58.000   128858251.622 6 429882195.66606       919.762 6        41.654
R07        59.000    19461757.499 8 104180339.58008      -659.402 8        51.211                                                                    19461755.307 7  81029156.07007      -512.902 7        47.560
G07        60.000    21121551.314 8 110994530.75408      1061.583 8        49.405                                    21121546.664 8  86489239.42808       827.207 8        48.668    21121546.700 7  86489240.43507       827.140 7        44.828
> 2025 01 01 04 46 40.0000000  0 57
G16         1.000    23467331.547 6 123321677.33406      -294.640 6        41.054                                    23467325.842 3  96094798.40103      -229.589 3        23.962
G29         2.000    25668229.043 6 134887445.36006       -13.507 6        37.221                                    25668226.161 4 105107085.72404       -10.550 4        28.209    25668226.708 5 105107087.78105       -10.603 5        34.976
G09         3.000    20258378.495 8 106458544.74908     -1561.535 8        49.661                                    20258375.884 8  82954721.76508     -1216.779 8        52.653    20258376.188 7  82954722.76907     -1216.835 7        46.258
E34         4.000    24418832.687 7 128321841.71307     -1798.124 7        47.517                                                                    24418832.514 8  95824760.07108     -1342.750 8        49.538    24418832.226 8  98324535.70508     -1377.816 8        50.542
S21         5.000    38399718.514 7 201791699.75907      -384.196 7        43.513
E05         6.000    21814155.786 8 114634209.75508       -51.274 8        48.906                                                                    21814155.215 8  85603499.04208       -38.314 8        50.848    21814155.155 8  87836625.73808       -39.327 8        52.032
E15         7.000    25768805.816 7 135416011.16307      1066.377 7        43.424                                                                    25768806.375 7 101122370.13507       796.252 7        46.236    25768806.064 7 103760342.70407       817.060 7        47.455
R10         8.000    22772143.068 6 121388338.38706      4048.467 6        39.333
E31         9.000    26502556.343 7 139271882.44707       804.932 7        42.178                                                                    26502556.750 7 104001754.94507       601.071 7        44.129    26502555.933 7 106714842.12107       616.913 7        44.831
G04        10.000    21901473.154 7 115093058.42607     -2894.754 7        45.464                                    21901469.898 5  89682911.18405     -2255.647 5        33.754    21901470.004 7  89682906.18007     -2255.688 7        44.111
E09        11.000    25143354.533 7 132129266.84907     -2305.686 7        45.541                                                                    25143354.065 7  98667975.53007     -1721.842 7        47.780    25143353.528 8 101241922.02408     -1766.693 8        48.948
S27        12.000    39033358.408 5 205121683.60405      -395.329 5        35.681
G06        13.000    21866843.557 7 114911065.15507     -2552.565 7        46.354                                    21866842.398 7  89541093.66607     -1989.013 7        46.996    21866843.287 7  89541104.66607     -1989.038 7        44.506
S36        14.000    38167543.093 7 200572292.93907      -384.486 7        45.133
G20        15.000    22594903.951 7 118737031.01207      2618.680 7        44.182                                    22594898.828 4  92522343.80504      2040.529 4        29.858
E36        16.000    26776203.668 6 140709915.21806     -3621.250 6        41.192                                                                    26776205.021 7 105075599.00007     -2704.124 7        43.740    26776204.492 7 107816696.79707     -2774.633 7        45.077
S45        17.000    63354024.998 6 332928040.82306      -424.302 6        37.369
G03        18.000    24548329.148 6 129002368.73906     -3992.458 6        38.745                                    24548328.389 5 100521338.94305     -3111.005 5        31.826    24548328.447 6 100521347.94806     -3110.686 6        36.329
E24        19.000    27677656.337 6 145447056.89406      2452.008 6        39.195                                                                    27677655.773 7 108613074.08007      1831.028 7        42.391    27677654.943 7 111446455.10307      1878.796 7        42.950
R23        20.000    21177698.452 7 113286411.96907     -1764.195 7        46.721
G30        21.000    23007822.394 7 120906940.87707      2891.307 7        44.451                                    23007820.885 6  94213207.42606      2252.967 6        41.530    23007821.327 6  94213211.43106      2252.903 6        40.324
I06        22.000    37927487.493 7 148835837.45307      -263.326 7        43.570
S28        23.000    40828470.125 5 214555069.48005      -382.885 5        35.081
S23        25.000    38107141.247 7 200254376.26907      -380.293 7        45.100
E06        26.000    26907588.109 6 141400379.01806     -2808.750 6        39.874                                                                    26907588.765 7 105591188.08407     -2097.498 7        42.921    26907588.587 7 108345739.74107     -2152.200 7        44.311
C34        27.000                                                                                                                                    25515350.801 6 132865126.21806       -75.458 6        41.726                                                                    25515350.753 6 107963802.98706       -61.237 6        41.802
G26        28.000    24838365.221 6 130526484.98206     -2512.347 6        36.189                                    24838364.747 4 101708948.44804     -1957.671 4        27.245    24838365.241 5 101708949.45905     -1957.688 5        34.495
R09        29.000    20446673.309 8 109184101.66908      1815.524 8        49.898                                                                    20446672.454 8  84920971.42708      1412.125 8        48.257
C22        30.000                                                                                                                                    22036016.938 8 114747351.32708      1035.662 8        51.347                                                                    22036009.997 8  93241609.98208       841.623 8        49.938
I01        31.000   339688238.091 6  29868792.19306     -2818.207 6        41.731
E03        32.000    26120178.390 7 137262477.83207      1828.308 7        43.050                                                                    26120178.556 7 102501218.96607      1365.373 7        44.543    26120178.158 7 105175157.79407      1400.949 7        45.953
R24        34.000    23158923.729 7 123841178.59007      2202.690 7        45.172                                                                    23158923.123 6  96320917.30106      1713.230 6        41.707
C36        35.000                                                                                                                                    23480880.553 7 122271116.14207      2356.365 7        47.452                                                                    23480885.481 7  99355320.23407      1914.831 7        47.564
G11        36.000    22088812.147 7 116077522.81607        -6.781 7        46.195                                    22088807.992 5  90450018.39105        -5.282 5        35.486    22088808.264 7  90450018.39907        -5.398 7        44.901
C35        37.000                                                                                                                                    26468384.108 6 137827816.76406     -3408.261 6        40.899                                                                    26468383.705 6 111996385.88206     -2769.332 6        39.465
I09        38.000    37970020.575 7 149002505.37607      -702.768 7        43.473
R08        39.000    21050137.201 8 112722542.06608      2124.350 8        50.499                                                                    21050134.294 7  87673089.92907      1652.316 7        45.079
R22        40.000    22447751.553 7 119827644.80907     -4325.125 7        45.461                                                                    22447750.316 7  93199291.23907     -3363.987 7        42.504
S44        42.000    40745330.017 6 214118346.06006      -451.606 6        37.841
C09        43.000                                                                                                                                    38927753.154 6 202707054.07106     -1067.454 6        40.920    38927750.039 7 156745944.35907      -825.346 7        45.755    38927748.282 6 164716067.46806      -867.277 6        41.619
C05        44.000                                                                                                                                    39154275.065 6 203886618.76906      -432.225 6        38.183    39154271.222 7 157658090.17607      -334.250 7        44.086    39154272.594 6 165674681.45506      -351.203 6        40.172
R06        45.000    21738807.385 6 116002487.72506     -3182.195 6        37.921
C44        46.000                                                                                                                                    24978550.647 7 130069897.27407     -2480.354 7        43.272                                                                    24978549.553 7 105692448.80507     -2015.512 7        42.140
C39        47.000                                                                                                                                    40908884.754 6 213023304.92206     -1573.018 6        39.459                                                                    40908881.391 6 173098872.87906     -1278.344 6        37.800
C20        48.000                                                                                                                                    26113709.108 6 135980952.02606     -3166.275 6        41.659                                                                    26113704.803 6 110495647.61706     -2572.733 6        40.994
C06        49.000                                                                                                                                    39440184.967 6 205375419.87006     -1413.188 6        37.380    39440179.445 6 158809285.98906     -1092.833 6        41.433    39440179.596 6 166884331.13806     -1148.280 6        38.841
C16        50.000                                                                                                                                    40021640.123 6 208403199.85606     -1411.819 6        40.114    40021639.487 6 161150582.94806     -1091.658 6        40.651    40021637.337 5 169344669.60305     -1146.991 5        35.814
S48        51.000    77135920.440 6 405351258.03506      -370.889 6        38.498
C19        52.000                                                                                                                                    22490240.873 8 117112643.57208     -1749.467 8        50.902                                                                    22490235.881 8  95163619.07808     -1421.511 8        50.367
C12        53.000                                                                                                                                    24902688.425 6 129674839.44806     -1308.021 6        40.648    24902684.694 7 100272794.08007     -1011.444 7        45.735    24902684.311 7 105371406.97507     -1062.874 7        43.498
C60        54.000                                                                                                                                    40745333.472 6 212171834.96306      -447.476 6        39.853                                                                    40745318.882 6 172406962.25306      -363.525 6        39.607
R16        55.000    21426741.202 7 114457833.52107     -2336.081 7        47.487                                                                    21426742.027 7  89022781.45407     -1816.942 7        45.270
C37        56.000                                                                                                                                    26227776.929 6 136574927.66406     -3034.809 6        38.646                                                                    26227779.793 6 110978334.02306     -2465.928 6        40.620
C02        57.000                                                                                                                                    40698968.206 5 211930232.32405      -463.698 5        35.471    40698961.147 6 163877888.31506      -358.508 6        38.748    40698964.321 5 172210673.24705      -376.506 5        35.167
I03        58.000   128857079.869 6 429877597.03706       919.672 6        41.881
R07        59.000    19462374.106 8 104183641.38008      -661.431 8        51.182                                                                    19462372.147 7  81031724.13707      -514.418 7        47.907
G07        60.000    21120542.264 8 110989228.39708      1059.231 8        49.157                                    21120537.665 8  86485107.72408       825.376 8        48.764    21120537.794 7  86485108.72707       825.362 7        44.634
> 2025 01 01 04 46 45.0000000  0 57
G16         1.000    23467613.311 6 123323159.74606      -298.302 6        41.766                                    23467607.996 3  96095953.52403      -232.444 3        23.619
G29         2.000    25668243.619 6 134887520.90806       -16.662 6        36.907                                    25668240.529 4 105107144.79204       -13.017 4        28.085    25668240.511 5 105107146.86705       -13.274 5        33.790
G09         3.000    20259865.176 8 106466357.36308     -1563.411 8        49.414                                    20259862.578 8  82960809.51608     -1218.241 8        52.488    20259862.504 7  82960810.52207     -1218.323 7        46.075
E34         4.000    24420544.533 7 128330838.23707     -1800.427 7        47.469                                                                    24420544.476 8  95831478.25508     -1344.453 8        49.638    24420544.250 8  98331429.14908     -1379.565 8        50.357
S21         5.000    38400082.522 7 201793621.04107      -384.172 7        43.501
E05         6.000    21814205.119 8 114634469.15908       -52.389 8        48.751                                                                    21814204.604 8  85603692.75308       -39.177 8        50.935    21814204.465 8  87836824.49908       -40.166 8        51.867
E15         7.000    25767792.331 7 135410685.01107      1064.146 7        43.206                                                                    25767792.817 7 101118392.81307       794.682 7        46.286    25767792.561 7 103756261.63307       815.318 7        47.120
R10         8.000    22768345.693 6 121368098.17506      4047.568 6        39.471
E31         9.000    26501791.038 7 139267862.96107       802.710 7        42.123                                                                    26501791.781 7 103998753.38107       599.509 7        44.307    26501791.037 7 106711762.26307       615.178 7        44.635
G04        10.000    21904227.712 7 115107534.96107     -2895.787 7        45.636                                    21904224.663 5  89694191.59705     -2256.455 5        33.593    21904224.866 7  89694186.58807     -2256.392 7        44.256
E09        11.000    25145548.580 7 132140797.03707     -2306.239 7        45.183                                                                    25145548.169 7  98676585.72507     -1722.212 7        47.879    25145547.603 8 101250756.83708     -1767.127 8        48.699
S27        12.000    39033736.972 6 205123660.29306      -395.259 6        36.185
G06        13.000    21869274.305 7 114923835.31707     -2555.348 7        46.227                                    21869272.488 7  89551044.43607     -1991.179 7        46.819    21869272.950 7  89551055.42107     -1991.041 7        44.479
S36        14.000    38167908.840 7 200574216.10107      -384.806 7        45.114
G20        15.000    22592412.962 7 118723940.72707      2617.299 7        43.945                                    22592407.888 4  92512143.58904      2039.450 4        29.583
E36        16.000    26779649.527 6 140728022.61906     -3621.581 6        40.665                                                                    26779650.909 7 105089120.75907     -2704.550 7        43.966    26779650.252 7 107830571.30307     -2775.084 7        44.655
S45        17.000    63354383.349 6 332930162.17106      -424.217 6        37.437
G03        18.000    24552128.140 6 129022332.11706     -3992.963 6        38.664                                    24552127.368 5 100536894.80505     -3111.396 5        31.660    24552127.734 6 100536903.80206     -3111.383 6        36.272
E24        19.000    27675323.424 6 145434798.15606      2451.278 6        38.871                                                                    27675323.126 7 108603919.83407      1830.650 7        42.404    27675322.005 7 111437062.05007      1878.351 7        42.775
R23        20.000    21179349.667 7 113295244.10207     -1768.609 7        46.663
G30        21.000    23005071.684 7 120892487.68607      2890.105 7        43.740                                    23005070.479 6  94201945.20006      2252.027 6        41.244    23005070.876 6  94201949.19606      2252.021 6        40.079
I06        22.000    37927823.489 7 148837154.68207      -263.418 7        43.729
S28        23.000    40828835.806 5 214556986.09105      -383.357 5        35.129
S23        25.000    38107505.429 7 200256278.15507      -380.434 7        45.183
E06        26.000    26910260.630 6 141414423.88806     -2809.062 6        39.532                                                                    26910261.536 7 105601676.13807     -2097.668 7        43.219    26910261.148 7 108356501.39007     -2152.431 7        44.075
C34        27.000                                                                                                                                    25515424.530 6 132865510.24006       -78.075 6        41.373                                                                    25515424.585 6 107964115.04906       -63.496 6        41.518
G26        28.000    24840757.354 6 130539053.86506     -2515.176 6        36.253                                    24840756.471 4 101718742.36204     -1959.870 4        26.946    24840756.442 5 101718743.35705     -1959.946 5        33.485
R09        29.000    20444974.819 8 109175033.91908      1811.655 8        50.367                                                                    20444974.242 8  84913918.71808      1409.100 8        48.308
C22        30.000                                                                                                                                    22035023.113 8 114742176.43708      1034.354 8        51.448                                                                    22035016.195 8  93237404.96908       840.588 8        49.760
I01        31.000   339691829.287 6  29882883.90906     -2818.472 6        41.778
E03        32.000    26118439.438 7 137253337.91407      1827.734 7        43.113                                                                    26118439.300 7 102494393.72007      1364.789 7        44.709    26118438.907 7 105168154.49307      1400.410 7        45.676
R24        34.000    23156865.874 7 123830174.21707      2199.070 7        44.906                                                                    23156865.628 6  96312358.39106      1710.512 6        41.554
C36        35.000                                                                                                                                    23478618.889 7 122259338.20007      2354.844 7        47.962                                                                    23478623.755 7  99345749.69607      1913.570 7        47.533
G11        36.000    22088820.066 7 116077565.92607       -10.287 7        46.133                                    22088816.179 5  90450051.98905        -8.013 5        35.252    22088815.508 7  90450051.98607        -8.041 7        44.307
C35        37.000                                                                                                                                    26471656.067 6 137844857.39706     -3407.958 6        40.377                                                                    26471656.257 6 112010232.78806     -2769.194 6        38.820
I09        38.000    37970916.140 7 149006019.63407      -702.881 7        43.414
R08        39.000    21048154.507 8 112711923.10008      2123.313 8        50.058                                                                    21048151.533 7  87664830.74007      1651.368 7        44.665
R22        40.000    22451803.720 7 119849274.43007     -4326.714 7        45.425                                                                    22451801.964 7  93216114.27707     -3365.245 7        42.282
S44        42.000    40745762.212 6 214120604.32906      -451.729 6        37.758
C09        43.000                                                                                                                                    38928778.063 6 202712391.71506     -1067.612 6        41.008    38928775.217 7 156750071.76807      -825.584 7        45.753    38928773.178 6 164720404.74206      -867.404 6        41.445
C05        44.000                                                                                                                                    39154690.130 6 203888780.19306      -432.179 6        38.060    39154686.219 7 157659761.51607      -334.258 7        44.191    39154687.561 6 165676437.78606      -351.176 6        40.060
R06        45.000    21741790.037 6 116018401.67106     -3183.246 6        39.030
C44        46.000                                                                                                                                    24980933.026 7 130082303.63107     -2482.054 7        43.094                                                                    24980931.951 7 105702529.98007     -2016.828 7        42.089
C39        47.000                                                                                                                                    40910395.312 6 213031170.22406     -1572.953 6        39.778                                                                    40910391.836 6 173105264.08406     -1278.116 6        37.724
C20        48.000                                                                                                                                    26116749.524 7 135996784.68007     -3166.751 7        42.409                                                                    26116745.184 6 110508512.94606     -2573.199 6        40.841
C06        49.000                                                                                                                                    39441542.155 6 205382486.63006     -1413.387 6        37.361    39441536.745 6 158814750.45206     -1092.999 6        41.318    39441536.609 6 166890073.45306     -1148.240 6        38.712
C16        50.000                                                                                                                                    40022995.685 6 208410259.17206     -1411.941 6        40.114    40022995.244 6 161156041.65306     -1091.797 6        40.484    40022992.769 5 169350405.89605     -1147.278 5        35.881
S48        51.000    77136279.932 6 405353112.62806      -370.618 6        38.330
C19        52.000                                                                                                                                    22491921.141 8 117121394.73008     -1750.923 8        50.832                                                                    22491916.507 8  95170730.11208     -1422.674 8        50.217
C12        53.000                                                                                                                                    24903947.007 6 129681386.49806     -1310.738 6        40.541    24903941.771 7 100277856.67407     -1013.563 7        45.791    24903941.522 7 105376726.99807     -1065.086 7        43.333
C60        54.000                                                                                                                                    40745763.507 6 212174072.69606      -447.464 6        39.658                                                                    40745748.654 6 172408780.59706      -363.606 6        39.523
R16        55.000    21428930.155 8 114469524.06208     -2340.177 8        48.357                                                                    21428930.175 7  89031874.09807     -1820.225 7        44.757
C37        56.000                                                                                                                                    26230692.107 6 136590106.07206     -3036.323 6        38.886                                                                    26230694.695 6 110990667.72206     -2467.181 6        40.434
C02        57.000                                                                                                                                    40699413.047 5 211932550.81005      -463.473 5        35.705    40699406.677 6 163879681.10806      -358.540 6        38.670    40699409.449 5 172212557.21805      -376.741 5        35.171
I03        58.000   128855907.968 6 429872998.74806       919.656 6        41.738
R07        59.000    19462992.338 8 104186953.95708      -663.471 8        51.012                                                                    19462990.849 7  81034300.58707      -516.069 7        47.701
G07        60.000    21119535.604 8 110983938.61308      1056.759 8        49.072                                    21119531.053 8  86480985.81208       823.445 8        48.624    21119531.001 7  86480986.81407       823.407 7        44.394
