     3.04           OBSERVATION DATA    M                   RINEX VERSION / TYPE
ssrcrin-15.6.1x                         20250101 174500 UTC PGM / RUN BY / DATE 
(00000000023479385599111004) Septentrio proprietary         COMMENT             
rref                                                        MARKER NAME         
01                                                          MARKER NUMBER       
geodetic                                                    MARKER TYPE         
NFB                 CLIMERS@TUW                             OBSERVER / AGENCY   
3297213             SEPT ASTERX SB3 PROB4.14.4              REC # / TYPE / VERS 
Unknown             Unknown                                 ANT # / TYPE        
  4127831.9311  1207193.4290  4695247.2268                  APPROX POSITION XYZ 
        0.0000        0.0000        0.0000                  ANTENNA: DELTA H/E/N
G   23 X1  C1C L1C D1C S1C C1W S1W C2W L2W D2W S2W C2L L2L  SYS / # / OBS TYPES 
       D2L S2L C5Q L5Q D5Q S5Q C1L L1L D1L S1L              SYS / # / OBS TYPES 
E   21 X1  C1C L1C D1C S1C C6C L6C D6C S6C C5Q L5Q D5Q S5Q  SYS / # / OBS TYPES 
       C7Q L7Q D7Q S7Q C8Q L8Q D8Q S8Q                      SYS / # / OBS TYPES 
S    9 X1  C1C L1C D1C S1C C5I L5I D5I S5I                  SYS / # / OBS TYPES 
R   17 X1  C1C L1C D1C S1C C2P L2P D2P S2P C2C L2C D2C S2C  SYS / # / OBS TYPES 
       C3Q L3Q D3Q S3Q                                      SYS / # / OBS TYPES 
C   25 X1  C1P L1P D1P S1P C5P L5P D5P S5P C2I L2I D2I S2I  SYS / # / OBS TYPES 
       C7I L7I D7I S7I C6I L6I D6I S6I C7D L7D D7D S7D      SYS / # / OBS TYPES 
J   17 X1  C1C L1C D1C S1C C2L L2L D2L S2L C5Q L5Q D5Q S5Q  SYS / # / OBS TYPES 
       C1L L1L D1L S1L                                      SYS / # / OBS TYPES 
I    5 X1  C5A L5A D5A S5A                                  SYS / # / OBS TYPES 
SEPTENTRIO RECEIVERS OUTPUT ALIGNED CARRIER PHASES.         COMMENT             
NO FURTHER PHASE SHIFT APPLIED IN THE RINEX ENCODER.        COMMENT             
G L1C                                                       SYS / PHASE SHIFT   
G L2W                                                       SYS / PHASE SHIFT   
G L2L  0.00000                                              SYS / PHASE SHIFT   
G L5Q  0.00000                                              SYS / PHASE SHIFT   
G L1L  0.00000                                              SYS / PHASE SHIFT   
E L1C  0.00000                                              SYS / PHASE SHIFT   
E L6C  0.00000                                              SYS / PHASE SHIFT   
E L5Q  0.00000                                              SYS / PHASE SHIFT   
E L7Q  0.00000                                              SYS / PHASE SHIFT   
E L8Q  0.00000                                              SYS / PHASE SHIFT   
S L1C                                                       SYS / PHASE SHIFT   
S L5I                                                       SYS / PHASE SHIFT   
R L1C                                                       SYS / PHASE SHIFT   
R L2P  0.00000                                              SYS / PHASE SHIFT   
R L2C                                                       SYS / PHASE SHIFT   
R L3Q  0.00000                                              SYS / PHASE SHIFT   
C L1P  0.00000                                              SYS / PHASE SHIFT   
C L5P  0.00000                                              SYS / PHASE SHIFT   
C L2I                                                       SYS / PHASE SHIFT   
C L7I                                                       SYS / PHASE SHIFT   
C L6I                                                       SYS / PHASE SHIFT   
C L7D                                                       SYS / PHASE SHIFT   
J L1C                                                       SYS / PHASE SHIFT   
J L2L  0.00000                                              SYS / PHASE SHIFT   
J L5Q  0.00000                                              SYS / PHASE SHIFT   
J L1L  0.00000                                              SYS / PHASE SHIFT   
I L5A                                                       SYS / PHASE SHIFT   
  2025     1     1    17    45    0.0000000     GPS         TIME OF FIRST OBS   
 C1C    0.000 C2C    0.000 C2P    0.000                     GLONASS COD/PHS/BIS 
DBHZ                                                        SIGNAL STRENGTH UNIT
    18                                                      LEAP SECONDS        
 24 R01  1 R02 -4 R03  5 R04  6 R05  1 R06 -4 R07  5 R08  6 GLONASS SLOT / FRQ #
    R09 -2 R10 -7 R11  0 R12 -1 R13 -2 R14 -7 R15  0 R16 -1 GLONASS SLOT / FRQ #
    R17  4 R18 -3 R19  3 R20  2 R21  4 R22 -3 R23  3 R24  2 GLONASS SLOT / FRQ #
                                                            END OF HEADER       
> 2025 01 01 17 45  0.0000000  0 54
G20         1.000    25635214.212 4 134714109.52304     -3634.338 4        29.393
G25         2.000    24769287.099 6 130163652.66706     -4388.729 6        37.508                                    24769287.574 4 101426318.29904     -3419.785 4        29.697    24769287.819 5 101426328.29005     -3419.668 5        35.319
G05         3.000    23275487.986 7 122313656.60007     -2133.999 7        42.059                                    23275483.871 6  95309401.14906     -1662.862 6        37.497    23275484.533 6  95309400.18206     -1662.855 6        39.108
G29         4.000    22124586.048 7 116265850.43207     -2958.740 7        46.582                                    22124581.908 7  90596932.09907     -2305.509 7        44.257    22124582.448 6  90596935.10406     -2305.487 6        41.030
S21         5.000    38486864.862 7 202249580.39007      -557.277 7        42.167
E13         6.000    24054237.875 7 126406215.20707      1178.120 7        47.393                                                                    24054238.624 8  94394457.36308       879.786 8        49.894    24054238.189 8  96856891.21308       902.757 8        50.546
G23         7.000    23525510.583 6 123627487.40806      2858.878 6        41.480                                    23525508.401 4  96333136.88404      2227.692 4        28.095    23525508.927 6  96333135.90406      2227.741 6        41.111
E15         8.000    23900290.939 7 125597202.11907     -1713.600 7        46.915                                                                    23900291.134 8  93790290.73608     -1279.667 8        50.447    23900290.708 8  96236969.86708     -1312.999 8        51.175
E30        10.000    28199317.308 6 148188608.01606     -3508.473 6        38.108                                                                    28199320.176 7 110660448.11507     -2619.940 7        42.540    28199319.423 7 113547229.35107     -2688.206 7        43.084
G26        11.000    20554902.889 8 108017130.51608      -314.092 8        49.764                                    20554901.757 8  84169378.69308      -244.748 8        51.431    20554901.635 7  84169398.69107      -244.733 7        45.646
S27        12.000    39265573.556 5 206341970.28605      -536.221 5        35.429
R15        13.000    21333872.920 8 114002047.03908     -4438.083 8        50.050                                                                    21333873.513 7  88668399.91207     -3451.902 7        45.991
S36        14.000    38258248.607 7 201048956.28607      -556.246 7        43.735
G27        15.000    23933847.592 6 125773479.42206      2726.644 6        39.883                                    23933846.407 5  98005461.63805      2124.649 5        33.790    23933847.292 6  98005375.64506      2124.693 6        36.272
S45        17.000    63469574.914 6 333536378.27606      -612.569 6        36.548
G31        18.000    23207899.125 7 121958620.46707     -3402.781 7        44.331                                    23207896.085 6  95032842.52506     -2651.518 6        40.124    23207896.314 6  95032821.51806     -2651.429 6        39.937
G16        19.000    21596402.148 7 113490123.08307      1872.036 7        45.561                                    21596397.024 5  88433982.94405      1458.731 5        33.772
E21        20.000    24108054.386 7 126689063.93607       676.463 7        47.430                                                                    24108053.685 8  94605688.95108       505.146 8        50.338    24108053.391 8  97073637.90708       518.348 8        50.977
E26        21.000    28189230.555 6 148135592.00906      2484.041 6        36.885                                                                    28189240.502 6 110620883.25406      1854.887 6        39.589    28189239.123 6 113506626.58706      1903.335 6        40.386
I06        22.000    38769956.688 6 152141843.27206      -408.308 6        41.440
S28        23.000    40962724.539 5 215260535.86205      -553.362 5        34.219
E34        24.000    27685481.515 6 145488490.49706     -3429.135 6        38.099                                                                    27685482.811 6 108644187.11806     -2560.634 6        41.445    27685482.022 6 111478363.39206     -2627.415 6        41.309
S23        25.000    38211237.638 7 200801370.06007      -559.115 7        44.489
C13        26.000                                                                                                                                    37737153.264 7 196507457.20007      -291.306 7        44.787    37737154.334 7 151952141.77907      -225.245 7        45.147    37737152.584 7 159678492.45707      -236.722 7        43.774
G18        27.000    20559434.004 8 108040907.68108      -331.890 8        49.896                                    20559430.142 7  84187893.48707      -258.615 7        43.725    20559430.467 8  84187884.48608      -258.582 8        49.724
I02        29.000    38724538.697 6 151963508.30606      -986.845 6        40.436
G28        30.000    24502387.636 6 128761062.78406     -4025.809 6        40.577                                    24502388.956 4 100333381.64904     -3136.984 4        24.105    24502389.067 6 100333378.63506     -3136.776 6        39.468
R02        31.000    23833770.786 7 127181589.96307      2666.889 7        43.054                                                                    23833771.520 6  98919030.67406      2074.381 6        38.165
C12        32.000                                                                                                                                    25973371.224 6 135250430.67506     -3449.946 6        36.957    25973368.107 6 104584339.33406     -2667.750 6        41.974    25973367.886 6 109902145.75606     -2803.335 6        41.392
R17        33.000    20431463.619 8 109333256.85408     -3186.013 8        50.746                                                                    20431462.565 7  85037145.22607     -2477.988 7        46.698
R08        34.000    24616886.977 6 131822214.56206     -3087.675 6        36.718                                                                    24616892.080 6 102528364.57106     -2401.393 6        39.892
E09        35.000    29068003.031 5 152753383.20205      -466.402 5        35.476                                                                    29068010.049 6 114069099.68006      -348.164 6        39.970    29068008.467 6 117044834.36706      -357.316 6        40.470
R18        36.000    19355287.700 8 103320247.97508         4.954 8        51.453                                                                    19355287.521 7  80360399.17507         3.862 7        47.684
E27        37.000    24115893.829 7 126730115.69407     -2153.149 7        47.961                                                                    24115893.471 8  94636278.34308     -1607.896 8        50.087    24115893.126 8  97105030.86808     -1649.883 8        50.767
R16        38.000    19419536.950 8 103735803.06708      -654.598 8        52.235                                                                    19419536.271 7  80683458.49607      -509.095 7        47.775
C22        39.000                                                                                                                                    26342404.280 6 137171800.93506     -1412.389 6        39.237                                                                    26342399.136 6 111463302.09506     -1147.503 6        39.393
R09        40.000    22190242.557 7 118494719.09107      3100.741 7        46.626                                                                    22190240.881 7  92162582.63407      2411.799 7        44.030
C34        41.000                                                                                                                                    23237812.592 7 121005722.23907     -2850.904 7        47.560                                                                    23237811.874 7  98327200.14207     -2316.588 7        46.519
S44        42.000    40572943.892 6 213212435.45306      -501.570 6        37.637
C38        43.000                                                                                                                                    38756603.805 7 201815966.25507     -1031.859 7        43.592                                                                    38756601.271 7 163992067.59407      -838.491 7        43.604
C05        44.000                                                                                                                                    39393004.884 6 205129728.95606      -487.855 6        38.036    39392999.833 6 158619337.81206      -377.454 6        41.666    39393002.739 6 166684807.20906      -396.667 6        40.498
C08        45.000                                                                                                                                    37762770.941 6 196640852.67106      -543.577 6        41.993    37762765.158 7 152055256.57507      -420.424 7        45.943    37762764.352 7 159786852.02107      -441.772 7        42.946
R19        47.000    21723509.923 6 116206476.52506      2527.592 6        38.189                                                                    21723510.139 7  90382977.09307      1965.937 7        42.129
C43        48.000                                                                                                                                    21537731.183 8 112152944.60608      -552.322 8        51.714                                                                    21537729.553 8  91133581.07808      -448.819 8        49.651
S48        51.000    77217802.245 6 405783622.55906      -596.630 6        37.788
R01        52.000    23066150.794 6 123301823.60306       -75.088 6        40.527                                                                    23066150.677 5  95901408.95505       -58.482 5        34.248
C37        53.000                                                                                                                                    24151396.123 7 125762684.13907      1134.826 7        46.020                                                                    24151399.204 7 102192506.19307       922.126 7        46.766
C60        54.000                                                                                                                                    40572945.639 6 211274159.86406      -497.013 6        39.282                                                                    40572931.009 6 171677526.66606      -403.913 6        40.577
C25        55.000                                                                                                                                    24872090.872 7 129515677.00107     -3942.458 7        43.276                                                                    24872090.157 7 105242170.84407     -3203.626 7        43.573
C23        56.000                                                                                                                                    22825899.328 8 118860801.29008     -1904.324 8        49.995                                                                    22825891.041 8  96584248.07408     -1547.375 8        49.671
C02        57.000                                                                                                                                    40742624.183 5 212157561.16005      -465.119 5        33.904    40742619.498 6 164053671.87506      -359.595 6        39.009    40742622.409 5 172395395.31305      -377.766 5        35.662
I03        58.000   113308433.693 6 368861355.00406      1038.634 6        40.658
C11        59.000                                                                                                                                    21989361.829 8 114504693.92908     -1830.237 8        48.401    21989358.236 8  88542445.27708     -1415.244 8        51.737    21989357.157 8  93044554.23808     -1487.266 8        48.974
C28        60.000                                                                                                                                    24637475.634 7 128294087.81407      2122.641 7        44.874                                                                    24637475.708 7 104249585.52607      1724.787 7        42.973
> 2025 01 01 17 45  5.0000000  0 54
G20         1.000    25638671.705 4 134732283.40904     -3635.130 4        29.043
G25         2.000    24773462.909 6 130185596.17706     -4388.692 6        37.607                                    24773463.256 4 101443417.12604     -3419.755 4        29.536    24773464.190 5 101443427.12905     -3419.865 5        35.224
G05         3.000    23277520.238 6 122324334.26306     -2137.130 6        41.602                                    23277515.646 6  95317721.43906     -1665.297 6        37.289    23277515.983 6  95317720.44006     -1665.289 6        38.922
G29         4.000    22127401.398 7 116280646.88107     -2959.729 7        46.751                                    22127397.559 7  90608461.80007     -2306.282 7        44.254    22127398.432 6  90608464.81706     -2306.322 6        41.628
S21         5.000    38487395.648 7 202252367.29507      -557.391 7        42.267
E13         6.000    24053117.789 7 126400328.32907      1176.538 7        47.260                                                                    24053118.381 8  94390061.33208       878.593 8        49.967    24053117.942 8  96852380.50308       901.537 8        50.528
G23         7.000    23522791.343 6 123613195.55806      2858.101 6        41.015                                    23522788.782 4  96322000.40804      2227.090 4        27.581    23522789.461 6  96321999.41606      2227.097 6        41.201
E15         8.000    23901922.018 7 125605774.13807     -1715.253 7        46.877                                                                    23901922.351 8  93796691.93108     -1280.882 8        50.529    23901921.915 8  96243538.04808     -1314.248 8        51.047
E30        10.000    28202655.471 6 148206150.65206     -3508.706 6        38.021                                                                    28202658.504 7 110673548.12007     -2619.988 7        42.682    28202657.820 7 113560671.10307     -2688.342 7        43.052
G26        11.000    20555203.295 8 108018708.27308      -317.054 8        49.876                                    20555201.991 8  84170608.11708      -247.056 8        51.345    20555202.308 7  84170628.12307      -247.037 7        45.834
S27        12.000    39266084.135 5 206344650.41705      -535.915 5        35.662
R15        13.000    21338025.876 8 114024242.39808     -4440.133 8        49.315                                                                    21338026.436 7  88685662.97207     -3453.386 7        44.870
S36        14.000    38258779.201 7 201051736.92907      -556.065 7        43.898
G27        15.000    23931253.575 6 125759846.67406      2726.436 6        40.062                                    23931252.106 5  97994838.76205      2124.489 5        33.790    23931252.657 5  97994752.79305      2124.321 5        35.986
S45        17.000    63470107.489 6 333537841.06716      -612.476 6        36.681
G31        18.000    23211137.755 7 121975638.10907     -3404.285 7        44.309                                    23211134.443 6  95046103.01906     -2652.688 6        40.079    23211134.685 6  95046082.01506     -2652.746 6        39.784
G16        19.000    21594621.888 7 113480768.19607      1870.013 7        45.780                                    21594616.844 5  88426693.41805      1457.154 5        33.719
E21        20.000    24107411.562 7 126685685.37507       674.992 7        47.314                                                                    24107410.737 8  94603166.00308       504.057 8        50.410    24107410.476 8  97071049.13908       517.229 8        50.949
E26        21.000    28186867.422 6 148123172.68806      2483.773 6        37.705                                                                    28186877.011 6 110611609.26306      1854.778 6        39.655    28186875.329 6 113497110.64606      1903.145 6        40.191
I06        22.000    38770476.668 6 152143884.05706      -408.086 6        41.223
S28        23.000    40963246.950 5 215263302.34805      -553.020 5        34.500
E34        24.000    27688744.166 6 145505636.28706     -3429.170 6        37.766                                                                    27688745.497 6 108656990.83906     -2560.722 6        41.719    27688744.556 6 111491501.12806     -2627.616 6        41.046
S23        25.000    38211770.142 7 200804165.09907      -558.859 7        44.585
C13        26.000                                                                                                                                    37737433.394 7 196508915.71507      -292.059 7        44.740    37737434.292 7 151953269.59707      -225.840 7        45.321    37737432.696 7 159679677.61707      -237.343 7        43.712
G18        27.000    20559751.067 8 108042573.85608      -334.542 8        49.878                                    20559747.198 7  84189191.80707      -260.685 7        43.645    20559747.686 8  84189182.80908      -260.704 8        50.111
I02        29.000    38725796.154 6 151968442.49106      -986.893 6        40.427
G28        30.000    24506218.034 6 128781191.76606     -4025.888 6        39.610                                    24506219.267 3 100349066.54303     -3137.053 3        23.695    24506219.049 6 100349063.52606     -3137.083 6        39.498
R02        31.000    23831272.098 7 127168259.47107      2665.062 7        42.262                                                                    23831272.950 6  98908662.50806      2072.908 6        37.543
C12        32.000                                                                                                                                    25976684.495 6 135267680.53306     -3449.865 6        37.043    25976680.650 7 104597678.00807     -2667.646 7        42.011    25976680.526 6 109916162.68206     -2803.353 6        41.261
R17        33.000    20434441.592 8 109349190.98808     -3187.532 8        50.550                                                                    20434441.142 7  85049538.44607     -2479.165 7        47.127
R08        34.000    24619769.562 5 131837659.69205     -3090.643 5        35.781                                                                    24619775.873 6 102540377.60106     -2403.553 6        40.610
E09        35.000    29068447.386 5 152755719.75505      -468.370 5        35.952                                                                    29068453.936 6 114070844.73706      -349.943 6        40.102    29068452.513 6 117046624.91306      -358.962 6        40.455
R18        36.000    19355284.596 8 103320230.32908         2.169 8        51.518                                                                    19355284.145 7  80360385.45307         1.677 7        47.429
E27        37.000    24117943.248 7 126740885.47107     -2154.715 7        47.696                                                                    24117942.889 8  94644320.71208     -1609.019 8        50.146    24117942.527 8  97113283.03308     -1651.013 8        50.581
R16        38.000    19420151.551 8 103739086.95908      -658.945 8        52.473                                                                    19420151.236 7  80686012.63807      -512.487 7        47.824
C22        39.000                                                                                                                                    26343761.456 6 137178869.05006     -1414.887 6        39.366                                                                    26343756.504 6 111469045.45506     -1149.658 6        39.141
R09        40.000    22187339.788 7 118479220.08307      3098.855 7        46.178                                                                    22187338.038 7  92150527.88507      2410.294 7        44.423
C34        41.000                                                                                                                                    23240550.096 7 121019978.52107     -2851.501 7        47.047                                                                    23240549.561 7  98338784.53407     -2317.006 7        46.488
S44        42.000    40573421.738 6 213214942.57206      -501.346 6        37.743
C38        43.000                                                                                                                                    38757594.935 7 201821127.43307     -1032.562 7        43.403                                                                    38757592.427 7 163996261.48007      -839.000 7        43.460
C05        44.000                                                                                                                                    39393473.241 6 205132168.86806      -487.826 6        38.030    39393468.365 6 158621224.49706      -377.318 6        41.909    39393471.284 6 166686789.83006      -396.381 6        40.486
C08        45.000                                                                                                                                    37763293.224 6 196643573.19906      -544.573 6        41.914    37763287.362 7 152057360.25207      -421.011 7        45.804    37763286.773 7 159789062.66607      -442.450 7        42.840
R19        47.000    21721148.815 6 116193842.49106      2526.019 6        37.603                                                                    21721148.203 6  90373150.64106      1964.640 6        41.313
C43        48.000                                                                                                                                    21538262.346 8 112155710.25008      -553.886 8        51.556                                                                    21538260.696 8  91135828.38908      -450.040 8        49.606
S48        51.000    77218345.162 6 405786605.60006      -596.546 6        37.996
R01        52.000    23066222.467 6 123302209.40206       -79.243 6        40.851                                                                    23066223.323 5  95901709.05805       -61.719 5        34.543
C37        53.000                                                                                                                                    24150307.519 7 125757015.49707      1132.622 7        46.091                                                                    24150310.646 7 102187899.95207       920.389 7        46.723
C60        54.000                                                                                                                                    40573422.716 6 211276644.19006      -496.909 6        39.156                                                                    40573408.109 6 171679545.39906      -403.739 6        40.677
C25        55.000                                                                                                                                    24875876.569 7 129535390.33107     -3942.901 7        43.151                                                                    24875876.054 7 105258189.52707     -3203.821 7        43.604
C23        56.000                                                                                                                                    22827729.127 8 118870329.00808     -1906.732 8        49.947                                                                    22827720.727 8  96591990.13008     -1549.364 8        49.637
C02        57.000                                                                                                                                    40743070.093 5 212159885.70605      -464.647 5        34.057    40743066.209 6 164055469.38606      -359.400 6        39.192    40743068.842 5 172397284.23805      -377.581 5        35.505
I03        58.000   113307110.459 6 368856161.94006      1038.691 6        40.751
C11        59.000                                                                                                                                    21991119.736 8 114513848.43808     -1831.485 8        48.385    21991116.223 8  88549524.13208     -1416.253 8        51.971    21991115.182 8  93051993.03208     -1488.203 8        48.989
C28        60.000                                                                                                                                    24635437.747 7 128283476.36607      2122.002 7        44.882                                                                    24635437.954 7 104240962.87307      1724.265 7        42.758
> 2025 01 01 17 45 10.0000000  0 54
G20         1.000    25642131.277 4 134750463.98104     -3636.787 4        29.081
G25         2.000    24777638.230 6 130207540.82806     -4389.326 6        37.558                                    24777639.130 4 101460516.84104     -3420.250 4        29.460    24777640.331 5 101460526.83005     -3420.096 5        35.219
G05         3.000    23279554.583 6 122335027.51106     -2140.417 6        41.380                                    23279550.418 6  95326053.84006     -1667.862 6        37.081    23279550.958 6  95326052.86206     -1667.817 6        38.694
G29         4.000    22130218.254 7 116295448.85407     -2961.172 7        46.497                                    22130214.288 7  90619995.80207     -2307.407 7        44.214    22130214.921 6  90619998.81206     -2307.417 6        41.805
S21         5.000    38487925.155 7 202255154.18507      -557.604 7        42.406
E13         6.000    24051999.083 7 126394449.97707      1174.580 7        47.352                                                                    24051999.783 8  94385671.66008       877.151 8        49.911    24051999.311 8  96847876.31608       900.012 8        50.499
G23         7.000    23520072.065 6 123598907.85606      2856.825 6        41.116                                    23520069.960 4  96310867.15204      2226.093 4        27.317    23520070.333 6  96310866.17506      2226.112 6        41.569
E15         8.000    23903554.880 7 125614354.65207     -1717.140 7        46.879                                                                    23903555.165 8  93803099.45508     -1282.315 8        50.486    23903554.733 8  96250112.72708     -1315.774 8        51.054
E30        10.000    28205994.133 6 148223695.07906     -3509.151 6        38.249                                                                    28205997.015 7 110686649.48307     -2620.590 7        42.544    28205996.389 7 113574114.23607     -2688.949 7        43.173
G26        11.000    20555506.377 8 108020300.99608      -320.204 8        49.982                                    20555505.068 8  84171849.20308      -249.511 8        51.302    20555505.185 7  84171869.21307      -249.566 7        45.877
S27        12.000    39266594.517 5 206347330.43505      -536.072 5        35.624
R15        13.000    21342181.667 8 114046448.74508     -4442.586 8        49.916                                                                    21342182.418 7  88702934.56207     -3455.281 7        44.810
S36        14.000    38259307.711 7 201054517.43507      -556.226 7        44.062
G27        15.000    23928659.637 6 125746216.26506      2725.660 6        40.253                                    23928658.301 5  97984217.70605      2123.882 5        33.772    23928658.529 6  97984131.73306      2123.881 6        36.450
S45        17.000    63470637.425 6 333540903.51806      -612.803 6        36.798
G31        18.000    23214377.645 7 121992663.83707     -3406.138 7        44.658                                    23214374.343 6  95059369.81606     -2654.132 6        40.010    23214375.133 6  95059348.82906     -2654.250 6        40.262
G16        19.000    21592843.573 7 113471423.83807      1867.546 7        45.883                                    21592838.704 5  88419412.09705      1455.232 5        33.623
E21        20.000    24106770.135 7 126682314.61007       673.210 7        47.562                                                                    24106769.314 8  94600648.88808       502.720 8        50.379    24106769.013 8  97068466.36008       515.805 8        50.949
E26        21.000    28184504.133 6 148110754.92706      2483.072 6        38.051                                                                    28184513.856 6 110602336.43306      1854.248 6        39.790    28184512.222 6 113487595.89406      1902.624 6        40.362
I06        22.000    38770996.622 6 152145924.34706      -408.171 6        41.266
S28        23.000    40963778.022 5 215266067.95105      -553.351 5        34.138
E34        24.000    27692007.099 6 145522783.33506     -3429.667 6        37.501                                                                    27692008.534 6 108669795.53706     -2561.179 6        41.852    27692007.557 6 111504639.85406     -2627.996 6        40.923
S23        25.000    38212302.953 7 200806959.67407      -559.078 7        44.707
C13        26.000                                                                                                                                    37737714.081 7 196510378.82007      -293.308 7        44.676    37737715.250 7 151954400.96507      -226.840 7        45.204    37737713.731 7 159680866.51107      -238.246 7        43.769
G18        27.000    20560071.024 8 108044254.03408      -337.681 8        49.890                                    20560066.933 7  84190501.03707      -263.131 7        43.636    20560066.967 8  84190492.03608      -263.093 8        50.143
I02        29.000    38727053.785 6 151973377.03506      -987.183 6        40.355
G28        30.000    24510049.184 6 128801322.04406     -4026.362 6        38.730                                    24510049.824 3 100364752.42603     -3137.413 3        23.410    24510049.554 6 100364749.40506     -3137.408 6        39.679
R02        31.000    23828776.186 6 127154938.36306      2663.126 6        40.794                                                                    23828777.122 6  98898301.67406      2071.286 6        37.482
C12        32.000                                                                                                                                    25979996.864 6 135284930.25206     -3450.020 6        37.198    25979993.728 7 104611016.58407     -2667.909 7        42.182    25979992.905 6 109930179.49906     -2803.533 6        41.128
R17        33.000    20437420.552 8 109365133.06408     -3189.477 8        50.339                                                                    20437419.855 7  85061937.83607     -2480.662 7        46.941
R08        34.000    24622658.231 6 131853119.22206     -3093.486 6        36.321                                                                    24622662.519 6 102552401.71006     -2406.002 6        39.450
E09        35.000    29068893.596 5 152758067.35105      -470.804 5        34.962                                                                    29068900.528 6 114072597.80806      -351.556 6        39.225    29068899.492 6 117048423.71806      -360.786 6        39.931
R18        36.000    19355284.359 8 103320227.16608        -1.016 8        51.359                                                                    19355283.447 8  80360382.99708        -0.771 8        48.108
E27        37.000    24119994.237 8 126751663.39808     -2156.578 8        48.127                                                                    24119993.916 8  94652369.16308     -1610.441 8        50.051    24119993.522 8  97121541.44108     -1652.438 8        50.615
R16        38.000    19420770.838 8 103742393.00008      -663.739 8        52.294                                                                    19420770.062 7  80688584.00407      -516.218 7        47.797
C22        39.000                                                                                                                                    26345121.265 6 137185950.49006     -1417.682 6        39.312                                                                    26345116.337 6 111474799.70906     -1151.881 6        38.952
R09        40.000    22184438.451 7 118463731.28907      3096.431 7        46.271                                                                    22184438.044 7  92138481.05307      2408.399 7        44.072
C34        41.000                                                                                                                                    23243288.280 7 121034238.59807     -2852.663 7        46.741                                                                    23243288.093 7  98350371.99407     -2317.885 7        46.465
S44        42.000    40573897.546 6 213217449.43506      -501.575 6        37.773
C38        43.000                                                                                                                                    38758586.915 7 201826292.46907     -1033.547 7        43.606                                                                    38758584.253 7 164000458.48607      -839.855 7        43.507
C05        44.000                                                                                                                                    39393942.024 6 205134608.36006      -488.177 6        38.132    39393936.834 6 158623110.86706      -377.403 6        41.678    39393939.727 6 166688772.09506      -396.410 6        40.415
C08        45.000                                                                                                                                    37763816.573 6 196646298.70306      -545.790 6        41.816    37763810.541 7 152059467.78607      -422.049 7        45.549    37763810.153 7 159791277.34907      -443.303 7        42.766
R19        47.000    21718788.199 6 116181217.63206      2523.598 6        38.159                                                                    21718787.669 6  90363331.31506      1963.016 6        41.204
C43        48.000                                                                                                                                    21538794.921 8 112158484.12008      -555.812 8        51.387                                                                    21538793.383 8  91138082.38508      -451.591 8        49.566
S48        51.000    77218883.456 6 405787987.86116      -596.584 6        37.974
R01        52.000    23066298.268 6 123302615.78006       -83.665 6        41.125                                                                    23066300.127 5  95902025.11305       -65.250 5        34.500
C37        53.000                                                                                                                                    24149221.202 7 125751358.23807      1130.095 7        45.941                                                                    24149224.217 7 102183302.96807       918.400 7        46.650
C60        54.000                                                                                                                                    40573899.758 6 211279128.24606      -496.930 6        39.291                                                                    40573885.347 6 171681563.90206      -403.809 6        40.503
C25        55.000                                                                                                                                    24879662.725 7 129555106.25107     -3943.644 7        43.147                                                                    24879662.331 7 105274210.31107     -3204.444 7        43.704
C23        56.000                                                                                                                                    22829560.989 8 118879869.27208     -1909.510 8        49.833                                                                    22829552.772 8  96599742.36208     -1551.522 8        49.614
C02        57.000                                                                                                                                    40743516.982 5 212162209.92805      -464.947 5        33.599    40743512.365 6 164057266.63606      -359.624 6        38.913    40743515.289 5 172399172.86105      -377.851 5        35.390
I03        58.000   113305787.129 6 368850968.61306      1038.431 6        40.856
C11        59.000                                                                                                                                    21992879.002 8 114523009.63208     -1833.042 8        48.364    21992875.758 8  88556608.15608     -1417.499 8        51.771    21992874.491 8  93059437.24908     -1489.417 8        49.009
C28        60.000                                                                                                                                    24633400.596 7 128272868.60707      2120.939 7        44.661                                                                    24633400.810 7 104232343.21507      1723.473 7        42.785
> 2025 01 01 17 45 15.0000000  0 54
G20         1.000    25645591.730 4 134768651.27304     -3638.267 4        28.910
G25         2.000    24781814.611 6 130229486.91406     -4389.160 6        37.350                                    24781815.294 4 101477617.67404     -3420.122 4        29.270    24781816.571 5 101477627.65405     -3420.062 5        35.238
G05         3.000    23281593.123 6 122345736.66106     -2143.363 6        41.066                                    23281588.244 6  95334398.65206     -1670.160 6        36.934    23281588.771 6  95334397.65806     -1669.939 6        38.763
G29         4.000    22133035.910 7 116310256.62007     -2961.952 7        45.655                                    22133032.144 7  90631534.31707     -2308.013 7        43.973    22133032.814 6  90631537.31706     -2308.079 6        41.928
S21         5.000    38488456.062 7 202257940.87707      -557.107 7        42.396
E13         6.000    24050882.425 7 126388580.41707      1173.192 7        47.611                                                                    24050882.824 8  94381288.55608       876.046 8        50.039    24050882.384 8  96843378.86708       898.935 8        50.465
G23         7.000    23517354.261 6 123584624.62306      2856.477 6        41.652                                    23517351.982 4  96299737.38604      2225.813 4        27.317    23517352.343 6  96299736.39506      2225.657 6        41.499
E15         8.000    23905189.273 7 125622943.96007     -1718.613 7        47.143                                                                    23905189.673 8  93809513.54308     -1283.405 8        50.541    23905189.222 8  96256694.14008     -1316.896 8        50.961
E30        10.000    28209333.113 6 148241241.61706     -3509.430 6        38.054                                                                    28209336.041 7 110699752.40507     -2620.684 7        42.684    28209335.492 7 113587558.97407     -2688.982 7        43.175
G26        11.000    20555812.370 8 108021908.98508      -322.986 8        49.681                                    20555811.053 8  84173102.18208      -251.678 8        51.130    20555811.181 7  84173122.17807      -251.679 7        45.907
S27        12.000    39267102.838 6 206350009.80506      -535.516 6        36.113
R15        13.000    21346339.828 8 114068666.04608     -4444.475 8        49.937                                                                    21346340.081 7  88720214.67807     -3456.861 7        44.591
S36        14.000    38259836.914 7 201057298.10707      -556.037 7        44.114
G27        15.000    23926066.680 6 125732588.48106      2725.397 6        40.410                                    23926065.028 5  97973598.69705      2123.676 5        33.623    23926065.595 6  97973512.71706      2123.787 6        36.423
S45        17.000    63471169.124 6 333543965.82606      -612.275 6        36.847
G31        18.000    23217619.279 7 122009697.95407     -3407.522 7        44.587                                    23217615.845 6  95072643.14306     -2655.212 6        39.934    23217616.799 6  95072622.14706     -2655.250 6        40.632
G16        19.000    21591067.410 7 113462090.35107      1865.776 7        45.698                                    21591062.575 5  88412139.25205      1453.849 5        33.389
E21        20.000    24106130.222 7 126678951.98907       671.858 7        47.488                                                                    24106129.456 8  94598137.83408       501.731 8        50.456    24106129.156 8  97065889.80508       514.797 8        50.852
E26        21.000    28182141.287 6 148098339.02006      2483.195 6        38.336                                                                    28182151.289 6 110593064.99106      1854.278 6        40.040    28182149.250 6 113478082.56706      1902.568 6        39.925
I06        22.000    38771516.701 6 152147964.35606      -407.782 6        41.337
S28        23.000    40964299.565 5 215268833.46805      -553.135 5        34.586
E34        24.000    27695270.218 6 145539931.76406     -3429.745 6        37.501                                                                    27695271.664 6 108682601.23406     -2561.123 6        41.950    27695270.576 6 111517779.61906     -2627.972 6        40.510
S23        25.000    38212833.069 7 200809754.06207      -558.680 7        44.751
C13        26.000                                                                                                                                    37737995.636 7 196511846.79107      -293.941 7        44.596    37737997.130 7 151955536.08907      -227.300 7        45.011    37737995.690 7 159682059.36707      -239.143 7        43.721
G18        27.000    20560393.400 8 108045948.49108      -340.142 8        49.765                                    20560389.382 7  84191821.39307      -265.046 7        43.443    20560389.468 8  84191812.39808      -265.096 8        50.003
I02        29.000    38728311.047 6 151978311.85906      -986.850 6        40.427
G28        30.000    24513880.289 6 128821453.87306     -4026.443 6        38.556                                    24513880.941 3 100380439.54103     -3137.483 3        23.276    24513881.249 6 100380436.52006     -3137.424 6        39.658
R02        31.000    23826281.106 6 127141626.55106      2661.417 6        41.001                                                                    23826283.041 6  98887948.04506      2070.292 6        37.278
C12        32.000                                                                                                                                    25983309.837 6 135302180.19506     -3449.731 6        37.372    25983307.034 7 104624355.32707     -2667.744 7        42.305    25983305.600 6 109944196.46806     -2803.384 6        41.182
R17        33.000    20440401.329 8 109381083.45708     -3190.773 8        50.470                                                                    20440400.013 7  85074343.70707     -2481.739 7        46.571
R08        34.000    24625547.909 5 131868593.34905     -3096.189 5        35.890                                                                    24625552.092 6 102564436.94006     -2408.085 6        38.237
E09        35.000    29069343.034 5 152760426.98505      -472.812 5        35.548                                                                    29069349.438 6 114074360.12306      -353.271 6        39.447    29069348.573 6 117050231.97206      -362.397 6        39.952
R18        36.000    19355286.152 8 103320238.78708        -3.639 8        51.556                                                                    19355285.732 7  80360392.04407        -2.876 7        47.463
E27        37.000    24122046.858 8 126762449.77108     -2157.987 8        48.100                                                                    24122046.508 8  94660423.91508     -1611.476 8        50.180    24122046.153 8  97129806.32008     -1653.488 8        50.507
R16        38.000    19421394.008 8 103745721.68608      -667.838 8        52.339                                                                    19421392.982 7  80691172.98407      -519.439 7        47.633
C22        39.000                                                                                                                                    26346483.418 6 137193045.26006     -1420.149 6        39.823                                                                    26346478.810 6 111480564.85606     -1154.131 6        39.300
R09        40.000    22181539.984 7 118448253.00807      3094.743 7        45.728                                                                    22181539.020 7  92126442.42907      2407.031 7        43.837
C34        41.000                                                                                                                                    23246027.774 7 121048502.73307     -2853.190 7        46.972                                                                    23246027.437 7  98361962.78807     -2318.610 7        46.536
S44        42.000    40574374.373 6 213219956.30206      -501.299 6        38.003
C38        43.000                                                                                                                                    38759579.557 7 201831461.67307     -1034.100 7        43.786                                                                    38759576.949 7 164004658.89507      -840.438 7        43.554
C05        44.000                                                                                                                                    39394410.091 6 205137047.73806      -487.808 6        37.981    39394405.313 6 158624997.14906      -377.071 6        41.602    39394408.255 6 166690754.30906      -396.397 6        40.522
C08        45.000                                                                                                                                    37764341.154 6 196649029.40206      -546.508 6        41.921    37764335.155 7 152061579.32807      -422.634 7        45.601    37764334.498 7 159793496.28107      -444.249 7        42.728
R19        47.000    21716429.571 6 116168602.33906      2522.135 6        38.495                                                                    21716429.764 6  90353519.45406      1961.645 6        41.652
C43        48.000                                                                                                                                    21539329.057 8 112161266.50108      -557.164 8        51.491                                                                    21539327.685 8  91140343.31008      -452.903 8        49.632
S48        51.000    77219424.017 6 405790969.98606      -596.254 6        38.039
R01        52.000    23066378.891 6 123303043.21606       -87.501 6        40.446                                                                    23066379.577 5  95902357.57005       -68.075 5        34.938
C37        53.000                                                                                                                                    24148136.706 7 125745712.64007      1128.129 7        45.937                                                                    24148140.122 7 102178715.46707       916.477 7        46.718
C60        54.000                                                                                                                                    40574376.652 6 211281612.34906      -496.854 6        39.174                                                                    40574362.264 6 171683582.44306      -403.678 6        40.586
C25        55.000                                                                                                                                    24883449.328 7 129574825.01707     -3943.863 7        43.003                                                                    24883449.238 7 105290233.44207     -3204.946 7        43.953
C23        56.000                                                                                                                                    22831395.400 8 118889422.35308     -1911.802 8        50.001                                                                    22831387.420 8  96607505.04408     -1553.636 8        49.543
C02        57.000                                                                                                                                    40743963.036 5 212164534.07705      -464.673 5        33.922    40743958.606 6 164059063.83706      -359.204 6        38.979    40743961.450 5 172401061.44905      -377.668 5        35.900
I03        58.000   113304463.615 6 368845775.19306      1038.808 6        40.858
C11        59.000                                                                                                                                    21994639.672 8 114532177.83808     -1834.227 8        48.557    21994636.198 8  88563697.59408     -1418.296 8        51.544    21994635.112 8  93066887.17608     -1490.613 8        48.999
C28        60.000                                                                                                                                    24631364.340 7 128262264.83907      2120.555 7        44.405                                                                    24631364.459 7 104223726.81507      1722.931 7        42.838
> 2025 01 01 17 45 20.0000000  0 54
G20         1.000    25649055.415 4 134786845.13004     -3639.167 4        28.303
G25         2.000    24785990.821 6 130251434.15606     -4389.335 6        37.263                                    24785991.727 4 101494719.40104     -3420.258 4        29.185    24785993.152 5 101494729.40605     -3420.310 5        35.419
G05         3.000    23283633.876 6 122356461.42806     -2146.455 6        41.302                                    23283629.079 6  95342755.64506     -1672.573 6        36.832    23283630.114 6  95342754.66206     -1672.426 6        39.018
G29         4.000    22135854.809 7 116325069.97807     -2963.211 7        45.651                                    22135851.019 7  90643077.18707     -2308.993 7        43.805    22135851.525 6  90643080.17906     -2308.898 6        41.890
S21         5.000    38488985.274 7 202260727.23607      -557.212 7        42.398
E13         6.000    24049767.089 7 126382719.45807      1171.433 7        47.525                                                                    24049767.480 8  94376911.87008       874.775 8        50.030    24049767.061 8  96838888.01008       897.578 8        50.336
G23         7.000    23514636.647 6 123570345.66806      2855.250 6        41.440                                    23514634.886 4  96288610.94204      2224.863 4        27.365    23514634.584 6  96288609.94106      2225.044 6        41.402
E15         8.000    23906825.486 7 125631541.83307     -1720.355 7        46.956                                                                    23906825.771 8  93815934.02508     -1284.617 8        50.544    23906825.369 8  96263282.11508     -1318.203 8        50.881
E30        10.000    28212672.580 6 148258790.02706     -3509.787 6        38.030                                                                    28212675.464 7 110712856.72007     -2620.839 7        42.790    28212674.902 7 113601005.15107     -2689.259 7        43.272
G26        11.000    20556121.114 8 108023532.02108      -326.104 8        49.702                                    20556119.894 8  84174366.88908      -254.108 8        51.020    20556120.197 7  84174386.89407      -254.073 7        46.189
S27        12.000    39267612.759 5 206352688.37105      -535.931 5        35.695
R15        13.000    21350499.250 8 114090894.31708     -4446.676 8        49.625                                                                    21350500.219 7  88737503.33107     -3458.512 7        44.892
S36        14.000    38260365.209 7 201060079.70807      -556.225 7        43.973
G27        15.000    23923473.678 6 125718963.10106      2724.984 6        40.734                                    23923472.301 5  97962981.55605      2123.358 5        33.599    23923472.886 6  97962895.58806      2123.155 6        36.408
S45        17.000    63471701.385 6 333547027.93406      -612.823 6        36.820
G31        18.000    23220862.036 7 122026740.22207     -3409.214 7        44.030                                    23220858.862 6  95085922.83206     -2656.530 6        39.775    23220859.284 6  95085901.82606     -2656.524 6        40.949
G16        19.000    21589293.476 7 113452767.49907      1863.533 7        45.998                                    21589288.495 5  88404874.68805      1452.109 5        33.287
E21        20.000    24105491.892 7 126675597.26207       670.221 7        47.488                                                                    24105491.040 8  94595632.67708       500.563 8        50.407    24105490.767 8  97063319.29208       513.569 8        50.809
E26        21.000    28179778.885 6 148085924.77106      2482.730 6        38.120                                                                    28179788.750 6 110583794.77206      1854.127 6        40.169    28179786.661 6 113468570.49606      1902.418 6        40.031
I06        22.000    38772035.818 6 152150003.94506      -407.844 6        41.566
S28        23.000    40964824.467 5 215271598.79505      -552.881 5        34.248
E34        24.000    27698533.858 6 145557081.37506     -3430.179 6        37.108                                                                    27698535.048 6 108695407.75206     -2561.316 6        41.909    27698534.362 6 111530920.21306     -2628.070 6        40.253
S23        25.000    38213366.175 7 200812548.13107      -558.797 7        44.754
C13        26.000                                                                                                                                    37738278.400 7 196513319.45507      -295.033 7        44.758    37738280.026 7 151956674.84007      -228.066 7        45.162    37738278.499 7 159683255.99707      -239.636 7        43.755
G18        27.000    20560718.530 8 108047657.04008      -343.022 8        49.651                                    20560714.536 7  84193152.73207      -267.291 7        43.361    20560714.569 8  84193143.73308      -267.335 8        50.198
I02        29.000    38729568.786 6 151983247.19006      -987.058 6        40.422
G28        30.000    24517711.694 6 128841587.04406     -4026.782 6        39.204                                    24517712.303 3 100396127.68303     -3137.749 3        23.257    24517712.289 6 100396124.65906     -3137.753 6        39.547
R02        31.000    23823788.172 6 127128324.16206      2659.593 6        40.970                                                                    23823789.757 6  98877601.75006      2068.548 6        38.120
C12        32.000                                                                                                                                    25986622.882 6 135319430.08506     -3449.764 6        37.543    25986619.497 7 104637694.03107     -2667.713 7        42.523    25986618.218 6 109958213.40606     -2803.293 6        41.151
R17        33.000    20443383.391 8 109397042.01808     -3192.500 8        50.283                                                                    20443382.700 7  85086755.91407     -2483.085 7        46.495
R08        34.000    24628440.436 5 131884082.55805     -3099.292 5        35.838                                                                    24628444.730 6 102576484.12306     -2410.976 6        38.363
E09        35.000    29069794.270 5 152762798.13205      -475.322 5        34.695                                                                    29069800.626 6 114076131.07706      -355.025 6        38.712    29069799.470 6 117052049.09406      -364.244 6        39.562
R18        36.000    19355290.986 8 103320264.92808        -6.653 8        51.651                                                                    19355290.799 8  80360412.36508        -5.121 8        48.086
E27        37.000    24124100.890 7 126773244.38007     -2159.732 7        47.857                                                                    24124100.645 8  94668484.81808     -1612.738 8        50.184    24124100.292 8  97138077.50608     -1654.762 8        50.493
R16        38.000    19422020.955 8 103749072.52408      -672.393 8        52.352                                                                    19422020.177 7  80693779.19107      -522.934 7        47.706
C22        39.000                                                                                                                                    26347848.214 6 137200153.20806     -1422.919 6        39.742                                                                    26347843.913 6 111486340.69006     -1156.150 6        39.135
R09        40.000    22178643.174 7 118432784.80007      3092.578 7        46.011                                                                    22178642.591 7  92114411.62207      2405.380 7        45.085
C34        41.000                                                                                                                                    23248767.805 7 121062770.72407     -2853.892 7        47.089                                                                    23248767.552 7  98373556.67407     -2318.921 7        46.696
S44        42.000    40574852.801 6 213222462.99206      -501.233 6        38.102
C38        43.000                                                                                                                                    38760573.134 7 201836634.82707     -1035.061 7        43.674                                                                    38760570.500 7 164008862.48007      -840.992 7        43.524
C05        44.000                                                                                                                                    39394878.538 6 205139486.75606      -487.699 6        38.186    39394873.671 6 158626883.15706      -377.103 6        41.747    39394876.505 6 166692736.20106      -396.079 6        40.601
C08        45.000                                                                                                                                    37764866.498 6 196651765.11306      -547.646 6        41.928    37764860.517 7 152063694.75007      -423.397 7        45.672    37764859.924 7 159795719.25407      -444.908 7        42.853
R19        47.000    21714073.898 6 116155996.32406      2520.268 6        38.706                                                                    21714073.659 6  90343714.78006      1960.176 6        41.580
C43        48.000                                                                                                                                    21539865.166 8 112164057.17608      -558.897 8        51.609                                                                    21539863.599 8  91142610.94408      -454.083 8        49.790
S48        51.000    77219962.722 6 405793952.13706      -596.346 6        37.958
R01        52.000    23066462.134 6 123303491.24806       -91.737 6        40.717                                                                    23066463.537 5  95902705.96405       -71.091 5        35.429
C37        53.000                                                                                                                                    24147054.777 7 125740078.53707      1125.721 7        45.889                                                                    24147058.085 7 102174137.27007       914.826 7        46.856
C60        54.000                                                                                                                                    40574853.573 6 211284096.24606      -496.816 6        39.387                                                                    40574839.185 6 171685600.81406      -403.611 6        40.787
C25        55.000                                                                                                                                    24887236.594 7 129594546.41807     -3944.485 7        42.940                                                                    24887236.629 7 105306258.66607     -3205.118 7        44.203
C23        56.000                                                                                                                                    22833232.506 8 118898988.01108     -1914.365 8        50.266                                                                    22833224.393 8  96615277.91208     -1555.492 8        49.807
C02        57.000                                                                                                                                    40744409.344 5 212166858.02105      -464.521 5        33.976    40744405.008 6 164060860.85606      -359.111 6        39.012    40744407.700 5 172402949.85605      -377.542 5        35.890
I03        58.000   113303140.428 6 368840581.55406      1038.793 6        41.070
C11        59.000                                                                                                                                    21996401.934 8 114541352.80308     -1835.688 8        48.629    21996398.028 8  88570792.25208     -1419.409 8        51.640    21996396.997 8  93074342.56908     -1491.528 8        49.103
C28        60.000                                                                                                                                    24629328.970 7 128251664.85107      2119.624 7        44.686                                                                    24629328.849 7 104215113.46007      1722.443 7        43.027
> 2025 01 01 17 45 25.0000000  0 54
G20         1.000    25652518.666 4 134805045.29504     -3640.522 4        28.171
G25         2.000    24790167.654 6 130273382.53306     -4389.995 6        37.214                                    24790168.419 4 101511822.03004     -3420.770 4        29.336    24790169.383 5 101511832.01505     -3420.778 5        35.129
G05         3.000    23285677.566 6 122367201.82006     -2149.816 6        40.830                                    23285672.887 6  95351124.81506     -1675.191 6        37.062    23285673.774 6  95351123.82706     -1675.286 6        39.420
G29         4.000    22138675.189 7 116339888.86307     -2964.478 7        45.935                                    22138670.940 7  90654624.37007     -2309.983 7        43.917    22138671.077 6  90654627.36206     -2309.906 6        41.633
S21         5.000    38489515.591 7 202263513.04207      -557.218 7        42.586
E13         6.000    24048653.326 7 126376867.03807      1169.454 7        47.541                                                                    24048653.757 8  94372541.56008       873.309 8        50.088    24048653.387 8  96834403.69408       896.089 8        50.326
G23         7.000    23511920.227 6 123556070.90406      2854.397 6        41.445                                    23511918.581 4  96277487.76304      2224.205 4        27.569    23511918.166 6  96277486.79506      2224.192 6        41.232
E15         8.000    23908463.446 7 125640148.22607     -1722.201 7        47.021                                                                    23908463.484 8  93822360.86908     -1286.089 8        50.618    23908463.094 8  96269876.61908     -1319.670 8        50.785
E30        10.000    28216012.161 6 148276340.26506     -3510.395 6        37.992                                                                    28216015.047 7 110725962.41207     -2621.390 7        42.713    28216014.421 7 113614452.72207     -2689.827 7        43.118
G26        11.000    20556432.857 8 108025170.04508      -329.251 8        49.834                                    20556431.598 8  84175643.27808      -256.560 8        51.177    20556431.532 7  84175663.28307      -256.618 7        46.010
S27        12.000    39268125.203 5 206355366.72705      -535.748 5        35.686
R15        13.000    21354660.796 8 114113133.43108     -4449.122 8        49.038                                                                    21354661.513 7  88754800.41807     -3460.379 7        45.120
S36        14.000    38260895.924 7 201062861.47407      -556.383 7        44.181
G27        15.000    23920881.265 6 125705340.09706      2723.896 6        40.276                                    23920880.025 5  97952366.27405      2122.506 5        33.796    23920881.126 6  97952280.27506      2122.736 6        36.219
S45        17.000    63472233.124 6 333550089.51306      -612.482 6        36.767
G31        18.000    23224106.757 7 122043790.57307     -3410.980 7        43.956                                    23224103.418 6  95099208.81806     -2657.908 6        39.781    23224103.720 6  95099187.82206     -2657.914 6        40.379
G16        19.000    21587521.353 7 113443455.24507      1861.251 7        46.118                                    21587516.453 5  88397618.39005      1450.326 5        33.437
E21        20.000    24104855.036 7 126672250.40107       668.380 7        47.614                                                                    24104854.192 8  94593133.40108       499.204 8        50.527    24104853.880 8  97060754.82108       512.170 8        50.736
E26        21.000    28177416.482 6 148073512.10606      2482.186 6        38.054                                                                    28177426.608 6 110574525.75606      1853.648 6        40.386    28177424.549 6 113459059.67006      1901.868 6        40.114
I06        22.000    38772555.566 6 152152043.05206      -407.854 6        41.447
S28        23.000    40965356.053 5 215274363.68105      -552.647 5        34.419
E34        24.000    27701797.518 6 145574232.10006     -3430.534 6        37.255                                                                    27701798.773 6 108708215.15506     -2561.700 6        41.783    27701798.239 6 111544061.73006     -2628.518 6        40.420
S23        25.000    38213897.659 7 200815342.03207      -558.902 7        44.894
C13        26.000                                                                                                                                    37738562.247 7 196514796.67507      -296.125 7        44.641    37738563.782 7 151957817.12207      -229.006 7        45.141    37738562.139 7 159684456.37107      -240.458 7        43.848
G18        27.000    20561046.168 8 108049379.60708      -346.131 8        49.786                                    20561042.332 7  84194494.99807      -269.716 7        43.498    20561042.403 8  84194485.99808      -269.693 8        49.985
I02        29.000    38730825.694 6 151988182.34406      -987.078 6        40.405
G28        30.000    24521543.375 6 128861721.46006     -4027.201 6        40.017                                    24521543.875 3 100411816.79603     -3138.063 3        23.848    24521543.800 6 100411813.78606     -3137.982 6        39.042
R02        31.000    23821297.588 6 127115031.02406      2657.557 6        41.240                                                                    23821299.182 6  98867262.66606      2067.144 6        38.652
C12        32.000                                                                                                                                    25989935.853 6 135336679.92806     -3449.999 6        37.962    25989931.974 7 104651032.69607     -2667.886 7        42.891    25989930.855 6 109972230.30806     -2803.338 6        40.930
R17        33.000    20446367.410 8 109413008.51708     -3194.259 8        50.407                                                                    20446366.166 7  85099174.30907     -2484.408 7        46.611
R08        34.000    24631335.948 6 131899586.85206     -3102.381 6        36.238                                                                    24631340.322 6 102588543.36006     -2412.967 6        38.601
E09        35.000    29070246.934 5 152765180.40905      -477.752 5        35.038                                                                    29070253.741 6 114077910.20006      -356.702 6        39.919    29070252.726 6 117053874.61306      -366.020 6        40.560
R18        36.000    19355298.919 8 103320305.51208        -9.706 8        51.767                                                                    19355298.441 7  80360443.94707        -7.610 7        47.779
E27        37.000    24126156.601 7 126784047.14707     -2161.557 7        47.902                                                                    24126156.321 8  94676551.81808     -1614.099 8        50.279    24126155.984 8  97146354.95508     -1656.233 8        50.364
R16        38.000    19422652.546 8 103752445.69508      -677.034 8        52.355                                                                    19422651.935 7  80696402.77807      -526.556 7        47.713
C22        39.000                                                                                                                                    26349215.566 6 137207274.19606     -1425.699 6        39.237                                                                    26349211.200 6 111492127.15306     -1158.406 6        39.246
R09        40.000    22175748.517 7 118417327.02207      3090.440 7        45.738                                                                    22175748.074 7  92102388.93707      2403.692 7        44.764
C34        41.000                                                                                                                                    23251508.373 7 121077042.51607     -2854.890 7        47.099                                                                    23251508.356 7  98385153.66407     -2319.652 7        46.685
S44        42.000    40575326.578 6 213224969.43606      -501.417 6        38.087
C38        43.000                                                                                                                                    38761567.216 7 201841811.89607     -1035.926 7        43.532                                                                    38761564.608 7 164013069.29107      -841.670 7        43.560
C05        44.000                                                                                                                                    39395346.722 6 205141925.37506      -487.852 6        38.084    39395342.122 6 158628768.86806      -377.246 6        41.850    39395344.894 6 166694717.80506      -396.348 6        40.653
C08        45.000                                                                                                                                    37765392.987 6 196654505.73906      -548.757 6        41.836    37765386.996 7 152065813.97707      -424.317 7        45.940    37765386.220 7 159797946.23607      -445.802 7        42.916
R19        47.000    21711719.106 6 116143399.43806      2518.270 6        38.571                                                                    21711718.292 6  90333917.22006      1958.672 6        41.480
C43        48.000                                                                                                                                    21540402.758 8 112166856.09608      -560.786 8        51.591                                                                    21540401.103 8  91144885.29008      -455.577 8        49.704
S48        51.000    77220499.572 6 405796933.96206      -596.509 6        38.111
R01        52.000    23066549.780 6 123303960.25106       -95.964 6        40.427                                                                    23066550.774 5  95903070.73705       -74.509 5        35.433
C37        53.000                                                                                                                                    24145975.371 7 125734455.85007      1123.315 7        45.998                                                                    24145978.249 7 102169568.38307       912.812 7        46.856
C60        54.000                                                                                                                                    40575330.529 6 211286579.90406      -496.854 6        39.438                                                                    40575316.182 6 171687618.98606      -403.507 6        40.703
C25        55.000                                                                                                                                    24891024.418 7 129614270.40407     -3945.196 7        43.033                                                                    24891024.364 7 105322286.00907     -3205.738 7        44.161
C23        56.000                                                                                                                                    22835072.061 8 118908566.22708     -1917.019 8        50.180                                                                    22835063.827 8  96623060.99708     -1557.658 8        49.728
C02        57.000                                                                                                                                    40744855.715 5 212169181.68805      -464.856 5        33.725    40744851.205 6 164062657.66106      -359.555 6        39.144    40744853.990 5 172404838.00505      -377.609 5        35.686
I03        58.000   113301816.453 6 368835387.64006      1038.689 6        40.875
C11        59.000                                                                                                                                    21998164.743 8 114550534.45508     -1837.134 8        48.420    21998161.207 8  88577892.09308     -1420.628 8        51.735    21998160.300 8  93081803.41708     -1492.724 8        49.020
C28        60.000                                                                                                                                    24627293.890 7 128241068.59207      2118.789 7        44.382                                                                    24627293.737 7 104206503.15907      1721.701 7        43.084
> 2025 01 01 17 45 30.0000000  0 54
G20         1.000    25655983.805 4 134823253.09604     -3642.135 4        28.057
G25         2.000    24794344.619 6 130295332.76306     -4390.138 6        37.478                                    24794345.469 4 101528926.08504     -3420.886 4        29.336    24794346.854 5 101528936.06905     -3421.040 5        35.319
G05         3.000    23287724.514 6 122377958.33606     -2152.855 6        40.810                                    23287719.822 6  95359506.51606     -1677.550 6        37.028    23287720.665 6  95359505.53206     -1677.458 6        39.480
G29         4.000    22141496.330 7 116354713.99307     -2965.461 7        45.764                                    22141492.047 7  90666176.41207     -2310.744 7        43.920    22141492.532 6  90666179.41606     -2310.911 6        41.709
S21         5.000    38490045.532 7 202266298.95307      -556.991 7        42.762
E13         6.000    24047541.230 7 126371023.90307      1167.908 7        47.342                                                                    24047541.820 8  94368178.19308       872.109 8        50.051    24047541.452 8  96829926.49708       894.848 8        50.539
G23         7.000    23509204.955 7 123541801.14207      2853.580 7        42.057                                    23509203.112 4  96266368.48004      2223.561 4        27.748    23509202.974 6  96266367.51006      2223.596 6        41.311
E15         8.000    23910102.809 7 125648763.85807     -1723.910 7        46.801                                                                    23910103.038 8  93828794.61808     -1287.344 8        50.635    23910102.619 8  96276478.20408     -1320.959 8        51.105
E30        10.000    28219352.538 6 148293893.05206     -3510.637 6        38.120                                                                    28219355.395 7 110739070.00807     -2621.711 7        42.754    28219354.507 7 113627902.25607     -2689.997 7        43.340
G26        11.000    20556747.375 8 108026823.84808      -332.224 8        49.792                                    20556746.297 8  84176931.95308      -258.874 8        51.212    20556746.258 7  84176951.95507      -258.903 7        45.731
S27        12.000    39268631.797 6 206358045.78706      -535.934 6        36.042
R15        13.000    21358825.449 8 114135384.04908     -4451.171 8        49.902                                                                    21358825.852 7  88772106.45807     -3461.985 7        45.308
S36        14.000    38261425.753 7 201065643.58307      -556.321 7        44.265
G27        15.000    23918289.202 6 125691720.16606      2723.756 6        39.937                                    23918288.259 5  97941753.38505      2122.397 5        33.898    23918288.618 6  97941667.40206      2122.446 6        36.325
S45        17.000    63472761.934 6 333553151.58106      -612.348 6        37.164
G31        18.000    23227353.047 7 122060849.73807     -3412.580 7        43.801                                    23227349.624 6  95112501.66606     -2659.146 6        39.730    23227349.585 6  95112480.65806     -2659.121 6        40.663
G16        19.000    21585751.051 7 113434154.35007      1859.180 7        45.719                                    21585746.576 5  88390370.94505      1448.711 5        33.569
E21        20.000    24104219.710 7 126668912.13307       666.953 7        47.378                                                                    24104218.940 8  94590640.54708       498.047 8        50.580    24104218.654 8  97058196.92908       511.032 8        51.054
E26        21.000    28175054.749 6 148061101.80306      2481.853 6        37.879                                                                    28175064.796 6 110565258.50806      1853.380 6        40.455    28175062.874 6 113449550.62206      1901.803 6        40.465
I06        22.000    38773075.234 6 152154082.25406      -407.749 6        41.557
S28        23.000    40965883.065 5 215277128.72305      -553.006 5        34.609
E34        24.000    27705061.964 6 145591384.68006     -3430.537 6        37.512                                                                    27705062.721 6 108721023.89606     -2561.786 6        41.719    27705062.553 6 111557204.61106     -2628.697 6        40.961
S23        25.000    38214429.357 7 200818136.25307      -558.708 7        44.767
C13        26.000                                                                                                                                    37738847.316 7 196516279.30507      -296.932 7        44.691    37738848.310 7 151958963.58607      -229.582 7        45.223    37738846.885 7 159685661.16207      -241.393 7        43.888
G18        27.000    20561377.016 8 108051116.91808      -348.756 8        49.651                                    20561372.897 7  84195848.75107      -271.758 7        43.547    20561372.801 8  84195839.75408      -271.799 8        49.856
I02        29.000    38732083.924 6 151993118.53706      -987.050 6        40.346
G28        30.000    24525375.148 6 128881857.88206     -4027.271 6        39.390                                    24525375.922 3 100427507.47203     -3138.129 3        23.962    24525376.116 6 100427504.46906     -3138.141 6        38.961
R02        31.000    23818808.533 6 127101747.87606      2655.635 6        41.695                                                                    23818809.962 6  98856931.32706      2065.584 6        38.781
C12        32.000                                                                                                                                    25993247.968 6 135353930.41006     -3450.048 6        37.977    25993244.759 7 104664371.83707     -2667.709 7        42.906    25993243.462 6 109986247.74606     -2803.444 6        40.796
R17        33.000    20449352.663 8 109428983.80708     -3195.797 8        50.144                                                                    20449351.441 7  85111599.53407     -2485.666 7        46.616
R08        34.000    24634233.043 6 131915106.31906     -3105.355 6        36.643                                                                    24634238.121 6 102600614.21706     -2415.545 6        38.462
E09        35.000    29070702.819 5 152767574.95605      -480.220 5        34.957                                                                    29070709.063 6 114079698.57006      -358.295 6        39.832    29070708.385 6 117055709.61306      -367.829 6        40.605
R18        36.000    19355309.598 8 103320361.34408       -12.579 8        51.860                                                                    19355308.859 7  80360487.37207        -9.826 7        47.963
E27        37.000    24128214.070 7 126794858.84207     -2163.058 7        47.945                                                                    24128213.684 8  94684625.49008     -1615.292 8        50.241    24128213.373 8  97154639.24608     -1657.425 8        50.683
R16        38.000    19423288.501 8 103755841.90108      -681.325 8        52.473                                                                    19423287.621 7  80699044.27007      -529.992 7        47.553
C22        39.000                                                                                                                                    26350585.650 6 137214409.05706     -1428.034 6        39.024                                                                    26350581.241 6 111497924.91906     -1160.444 6        39.387
R09        40.000    22172855.851 7 118401880.28607      3088.323 7        45.294                                                                    22172854.754 7  92090374.78307      2402.032 7        43.761
C34        41.000                                                                                                                                    23254250.157 7 121091318.85407     -2855.596 7        47.382                                                                    23254249.969 7  98396754.38007     -2320.486 7        46.638
S44        42.000    40575805.046 6 213227476.37206      -501.302 6        38.075
C38        43.000                                                                                                                                    38762562.230 7 201846993.57207     -1036.632 7        43.247                                                                    38762559.654 7 164017279.85007      -842.454 7        43.630
C05        44.000                                                                                                                                    39395815.437 6 205144364.35706      -487.750 6        38.069    39395810.274 6 158630654.83906      -377.059 6        41.902    39395813.230 6 166696699.69306      -396.401 6        40.477
C08        45.000                                                                                                                                    37765920.873 6 196657252.06206      -549.563 6        41.881    37765914.604 7 152067937.61207      -425.052 7        46.006    37765913.688 7 159800177.87507      -446.773 7        42.954
R19        47.000    21709365.550 6 116130812.57306      2516.481 6        38.423                                                                    21709365.152 6  90324127.45006      1957.322 6        40.689
C43        48.000                                                                                                                                    21540941.973 8 112169663.98508      -562.315 8        51.522                                                                    21540940.402 8  91147166.95508      -457.078 8        49.736
S48        51.000    77221040.522 6 405799916.27706      -596.343 6        38.174
R01        52.000    23066641.305 6 123304450.67206      -100.203 6        40.212                                                                    23066644.354 5  95903452.16705       -77.900 5        34.914
C37        53.000                                                                                                                                    24144897.435 7 125728845.32807      1121.003 7        45.788                                                                    24144900.844 7 102165009.40007       910.779 7        46.955
C60        54.000                                                                                                                                    40575807.589 6 211289064.04206      -496.837 6        39.375                                                                    40575793.259 6 171689637.58706      -403.723 6        40.732
C25        55.000                                                                                                                                    24894812.951 7 129633997.69307     -3945.711 7        43.130                                                                    24894812.688 7 105338316.06007     -3206.290 7        44.214
C23        56.000                                                                                                                                    22836913.948 8 118918157.72708     -1919.521 8        50.110                                                                    22836905.774 8  96630854.89708     -1559.857 8        49.805
C02        57.000                                                                                                                                    40745301.830 5 212171505.70105      -464.697 5        33.617    40745297.137 6 164064454.75306      -359.310 6        39.132    40745300.379 5 172406726.52005      -377.845 5        35.495
I03        58.000   113300493.187 6 368830194.02806      1038.681 6        40.915
C11        59.000                                                                                                                                    21999929.046 8 114559723.55308     -1838.475 8        48.383    21999925.912 8  88584997.68208     -1421.630 8        51.716    21999925.064 8  93089270.33208     -1493.953 8        49.066
C28        60.000                                                                                                                                    24625259.945 7 128230476.79107      2118.097 7        44.418                                                                    24625259.613 7 104197896.49107      1720.930 7        42.933
> 2025 01 01 17 45 35.0000000  0 54
G20         1.000    25659449.305 4 134841467.86704     -3643.573 4        28.313
G25         2.000    24798522.391 6 130317284.43006     -4390.601 6        37.210                                    24798522.908 4 101546031.26804     -3421.246 4        29.166    24798523.695 5 101546041.28005     -3421.397 5        35.705
G05         3.000    23289774.982 6 122388730.82506     -2156.084 6        40.746                                    23289769.788 6  95367900.67206     -1680.066 6        37.009    23289770.698 6  95367899.67606     -1680.118 6        39.655
G29         4.000    22144318.694 7 116369545.10207     -2966.932 7        46.073                                    22144314.325 7  90677733.11207     -2311.893 7        44.029    22144314.987 7  90677736.11607     -2311.909 7        42.034
S21         5.000    38490575.799 7 202269084.56007      -557.045 7        42.428
E13         6.000    24046431.016 7 126365189.67907      1165.877 7        47.695                                                                    24046431.618 8  94363821.47308       870.592 8        50.100    24046431.172 8  96825456.11908       893.342 8        50.610
G23         7.000    23506490.663 7 123527535.99407      2852.505 7        42.900                                    23506488.564 4  96255252.81004      2222.736 4        28.152    23506488.625 6  96255251.82106      2222.804 6        41.661
E15         8.000    23911744.111 7 125657388.36007     -1725.876 7        46.993                                                                    23911744.200 8  93835234.98708     -1288.793 8        50.598    23911743.786 8  96283086.58308     -1322.415 8        51.065
E30        10.000    28222693.204 6 148311447.99206     -3511.192 6        38.390                                                                    28222696.045 7 110752179.21507     -2622.127 7        42.834    28222695.041 7 113641353.43907     -2690.480 7        43.211
G26        11.000    20557065.203 8 108028492.97808      -335.480 8        49.736                                    20557063.912 8  84178232.58308      -261.414 8        51.280    20557063.751 7  84178252.58907      -261.500 7        46.033
S27        12.000    39269142.041 5 206360724.87005      -535.932 5        35.819
R15        13.000    21362992.162 8 114157645.90508     -4453.507 8        50.731                                                                    21362991.853 7  88789421.23207     -3463.870 7        44.814
S36        14.000    38261953.270 7 201068425.48707      -556.385 7        44.131
G27        15.000    23915698.008 6 125678102.96806      2723.060 6        39.342                                    23915696.999 5  97931142.62005      2121.856 5        33.940    23915697.477 6  97931056.63206      2121.890 6        36.639
S45        17.000    63473293.006 6 333554613.57816      -612.491 6        36.843
G31        18.000    23230601.000 7 122077917.27207     -3414.422 7        44.333                                    23230597.403 6  95125801.04406     -2660.589 6        39.772    23230597.703 6  95125780.04706     -2660.679 6        40.665
G16        19.000    21583983.534 7 113424864.43607      1856.787 7        46.147                                    21583978.787 5  88383132.05105      1446.848 5        33.581
E21        20.000    24103586.043 7 126665582.09907       665.072 7        47.506                                                                    24103585.210 8  94588153.83208       496.640 8        50.508    24103584.948 8  97055645.34608       509.599 8        51.045
E26        21.000    28172693.262 6 148048693.44006      2481.375 6        37.592                                                                    28172703.357 6 110555992.69806      1852.988 6        40.272    28172701.507 6 113440043.09406      1901.218 6        40.591
I06        22.000    38773594.948 6 152156121.21806      -407.724 6        41.583
S28        23.000    40966404.193 5 215279893.86005      -553.122 5        34.500
E34        24.000    27708326.050 6 145608538.84206     -3431.010 6        37.679                                                                    27708327.051 6 108733833.85506     -2562.068 6        41.371    27708326.911 6 111570348.74306     -2628.976 6        40.987
S23        25.000    38214961.011 7 200820930.28607      -559.057 7        44.868
C13        26.000                                                                                                                                    37739132.795 7 196517766.84307      -298.084 7        44.725    37739134.299 7 151960113.86107      -230.492 7        45.257    37739132.646 7 159686869.92507      -242.383 7        43.748
G18        27.000    20561710.185 8 108052868.60308      -351.883 8        49.736                                    20561706.239 7  84197213.70307      -274.195 7        43.636    20561706.269 8  84197204.71108      -274.174 8        49.719
I02        29.000    38733342.030 6 151998055.10706      -987.501 6        40.405
G28        30.000    24529206.658 6 128901995.92506     -4027.771 6        38.622                                    24529208.201 3 100443199.42103     -3138.508 3        23.371    24529208.148 6 100443196.40306     -3138.468 6        38.988
R02        31.000    23816321.198 7 127088474.45307      2653.604 7        42.353                                                                    23816321.578 6  98846607.56206      2063.856 6        38.408
C12        32.000                                                                                                                                    25996561.510 6 135371181.13406     -3450.243 6        38.180    25996557.609 7 104677711.20507     -2667.930 7        42.700    25996556.313 6 110000265.38206     -2803.778 6        40.605
R17        33.000    20452339.470 8 109444967.48108     -3197.734 8        50.286                                                                    20452338.420 7  85124031.26707     -2487.115 7        46.507
R08        34.000    24637133.424 6 131930641.00406     -3108.624 6        36.095                                                                    24637138.496 6 102612697.01506     -2418.044 6        38.934
E09        35.000    29071160.458 5 152769981.12205      -482.640 5        35.210                                                                    29071166.830 6 114081495.60806      -360.421 6        39.679    29071165.837 6 117057553.48206      -369.817 6        40.756
R18        36.000    19355322.207 8 103320432.06008       -15.739 8        51.469                                                                    19355321.810 7  80360542.37507       -12.210 7        47.994
E27        37.000    24130273.116 8 126805679.05908     -2164.960 8        48.027                                                                    24130272.681 8  94692705.52508     -1616.735 8        50.254    24130272.351 8  97162930.05708     -1658.880 8        50.703
R16        38.000    19423928.664 8 103759260.71108      -686.108 8        52.276                                                                    19423927.785 8  80701703.34708      -533.673 8        48.117
C22        39.000                                                                                                                                    26351958.194 6 137221557.04306     -1430.915 6        38.754                                                                    26351953.863 6 111503733.24906     -1162.814 6        39.312
R09        40.000    22169964.606 7 118386444.14407      3086.077 7        44.930                                                                    22169964.083 7  92078368.92607      2400.320 7        44.522
C34        41.000                                                                                                                                    23256992.725 7 121105599.32507     -2856.637 7        47.473                                                                    23256992.340 7  98408358.43907     -2321.275 7        46.497
S44        42.000    40576283.452 6 213229983.41106      -501.571 6        38.018
C38        43.000                                                                                                                                    38763558.029 7 201852179.48707     -1037.710 7        43.056                                                                    38763555.493 7 164021493.83007      -843.326 7        43.427
C05        44.000                                                                                                                                    39396284.050 6 205146803.28006      -487.750 6        38.000    39396278.690 6 158632540.78706      -377.300 6        41.890    39396281.628 6 166698681.52906      -396.474 6        40.439
C08        45.000                                                                                                                                    37766449.324 6 196660003.67106      -551.001 6        41.874    37766442.887 7 152070065.34207      -426.042 7        46.004    37766441.986 7 159802413.79007      -447.755 7        42.796
R19        47.000    21707014.314 6 116118235.33406      2514.298 6        38.450                                                                    21707014.066 6  90314345.17006      1955.669 6        41.659
C43        48.000                                                                                                                                    21541482.805 8 112172480.46408      -564.234 8        51.527                                                                    21541481.300 8  91149455.57908      -458.570 8        49.592
S48        51.000    77221581.083 6 405802898.18406      -596.496 6        38.075
R01        52.000    23066738.005 6 123304962.33806      -104.568 6        39.441                                                                    23066738.363 5  95903850.10105       -81.203 5        35.314
C37        53.000                                                                                                                                    24143822.341 7 125723246.60107      1118.473 7        45.849                                                                    24143825.661 7 102160459.97907       908.769 7        46.718
C60        54.000                                                                                                                                    40576284.944 6 211291548.29606      -496.878 6        39.213                                                                    40576270.274 6 171691656.26106      -403.894 6        40.653
C25        55.000                                                                                                                                    24898601.958 7 129653727.87407     -3946.311 7        43.041                                                                    24898601.720 7 105354348.44807     -3206.837 7        44.027
C23        56.000                                                                                                                                    22838758.390 8 118927762.09408     -1922.255 8        50.051                                                                    22838750.248 8  96638659.23608     -1562.052 8        49.628
C02        57.000                                                                                                                                    40745748.148 5 212173829.74205      -465.088 5        33.533    40745743.593 6 164066251.86806      -359.524 6        39.201    40745746.736 5 172408614.99205      -377.713 5        35.567
I03        58.000   113299169.811 6 368825000.39206      1038.675 6        40.794
C11        59.000                                                                                                                                    22001695.767 8 114568919.70208     -1839.985 8        48.563    22001692.228 8  88592108.72408     -1422.787 8        51.850    22001691.004 8  93096742.96408     -1495.293 8        48.984
C28        60.000                                                                                                                                    24623226.785 7 128219889.07907      2116.969 7        44.459                                                                    24623226.315 7 104189293.12807      1720.256 7        42.792
> 2025 01 01 17 45 40.0000000  0 54
G20         1.000    25662917.173 4 134859689.14304     -3644.906 4        28.692
G25         2.000    24802699.845 6 130339237.30806     -4390.849 6        37.112                                    24802700.490 4 101563137.37904     -3421.438 4        29.213    24802701.607 5 101563147.37305     -3421.236 5        35.010
G05         3.000    23291827.204 6 122399518.98106     -2159.276 6        41.611                                    23291822.746 6  95376307.03706     -1682.556 6        36.968    23291823.608 6  95376306.06206     -1682.608 6        39.174
G29         4.000    22147142.170 7 116384381.75507     -2967.954 7        46.117                                    22147137.698 7  90689294.13207     -2312.687 7        44.060    22147138.210 7  90689297.12307     -2312.579 7        42.256
S21         5.000    38491106.715 7 202271869.74307      -557.047 7        42.540
E13         6.000    24045322.522 7 126359364.06907      1164.205 7        47.712                                                                    24045323.033 8  94359471.19408       869.343 8        50.066    24045322.601 8  96820992.35208       892.084 8        50.463
G23         7.000    23503776.368 7 123513275.19007      2851.708 7        42.563                                    23503774.938 4  96244140.51804      2222.102 4        28.493    23503774.902 6  96244139.54006      2221.936 6        41.950
E15         8.000    23913386.616 7 125666021.41907     -1727.537 7        47.022                                                                    23913387.047 8  93841681.74708     -1289.985 8        50.544    23913386.660 8  96289701.52308     -1323.711 8        50.923
E30        10.000    28226034.040 6 148329004.81406     -3511.596 6        38.589                                                                    28226036.839 7 110765289.81207     -2622.308 7        42.698    28226035.933 7 113654806.05507     -2690.696 7        42.878
G26        11.000    20557385.672 8 108030177.19508      -338.502 8        50.098                                    20557384.406 8  84179544.96108      -263.769 8        51.254    20557384.618 7  84179564.95907      -263.713 7        45.868
S27        12.000    39269652.114 5 206363403.17305      -535.758 5        35.962
R15        13.000    21367159.118 8 114179918.54308     -4455.637 8        49.730                                                                    21367160.201 7  88806744.39007     -3465.525 7        45.099
S36        14.000    38262482.965 7 201071206.10807      -556.050 7        44.164
G27        15.000    23913107.148 6 125664488.24306      2722.566 6        40.639                                    23913106.150 5  97920533.78205      2121.470 5        33.892    23913107.230 6  97920447.81806      2121.548 6        36.344
S45        17.000    63473825.402 6 333557675.33606      -612.315 6        37.138
G31        18.000    23233850.408 7 122094992.91607     -3415.933 7        44.664                                    23233846.739 6  95139106.73306     -2661.764 6        39.805    23233846.677 6  95139085.73606     -2661.800 6        39.643
G16        19.000    21582217.980 7 113415585.23007      1854.684 7        46.186                                    21582212.984 5  88375901.50605      1445.209 5        33.605
E21        20.000    24102953.828 7 126662260.02007       663.549 7        47.819                                                                    24102953.039 8  94585673.05908       495.555 8        50.456    24102952.777 8  97053099.85808       508.448 8        50.957
E26        21.000    28170332.258 6 148036286.76806      2481.049 6        37.395                                                                    28170342.048 6 110546728.16806      1852.883 6        40.095    28170340.701 6 113430536.85706      1901.123 6        40.439
I06        22.000    38774114.755 6 152158159.78706      -407.868 6        41.306
S28        23.000    40966929.725 5 215282658.66005      -552.958 5        34.190
E34        24.000    27711590.294 6 145625694.17606     -3431.185 6        38.024                                                                    27711591.453 6 108746644.71406     -2562.236 6        41.337    27711591.672 6 111583493.78906     -2629.104 6        41.478
S23        25.000    38215493.089 7 200823724.20607      -558.859 7        44.808
C13        26.000                                                                                                                                    37739419.340 7 196519259.05307      -299.007 7        44.850    37739420.843 7 151961267.73207      -231.137 7        45.139    37739419.141 7 159688082.45607      -242.887 7        43.680
G18        27.000    20562046.295 8 108054634.37408      -354.540 8        50.067                                    20562042.268 7  84198589.63307      -276.261 7        43.609    20562042.443 8  84198580.63908      -276.351 8        49.380
I02        29.000    38734599.921 6 152002992.19306      -987.436 6        40.346
G28        30.000    24533039.297 6 128922135.25206     -4027.986 6        39.006                                    24533040.564 3 100458892.35903     -3138.680 3        22.933    24533040.395 6 100458889.36506     -3138.673 6        38.781
R02        31.000    23813835.054 7 127075210.51207      2651.855 7        42.290                                                                    23813836.590 6  98836291.16606      2062.519 6        38.802
C12        32.000                                                                                                                                    25999874.390 6 135388431.90706     -3450.298 6        38.691    25999870.598 7 104691050.59707     -2667.929 7        42.656    25999869.250 6 110014283.05106     -2803.383 6        40.803
R17        33.000    20455327.331 8 109460959.21808     -3199.173 8        50.182                                                                    20455326.956 7  85136469.27407     -2488.242 7        46.542
R08        34.000    24640037.634 6 131946190.29606     -3111.136 6        36.488                                                                    24640041.849 6 102624791.19206     -2419.716 6        39.447
E09        35.000    29071620.278 5 152772398.96005      -484.736 5        34.724                                                                    29071626.805 6 114083301.51306      -362.106 6        39.129    29071625.528 6 117059406.45906      -371.495 6        39.574
R18        36.000    19355338.306 8 103320517.26608       -18.542 8        51.527                                                                    19355338.143 7  80360608.64107       -14.397 7        47.776
E27        37.000    24132333.585 8 126816507.51608     -2166.523 8        48.047                                                                    24132333.276 8  94700791.71008     -1617.892 8        50.230    24132332.990 8  97171227.18808     -1660.092 8        50.564
R16        38.000    19424572.693 8 103762701.74308      -690.486 8        52.472                                                                    19424571.503 7  80704379.70907      -537.063 7        47.668
C22        39.000                                                                                                                                    26353333.642 6 137228717.94906     -1433.541 6        38.517                                                                    26353329.279 6 111509551.97406     -1164.778 6        39.153
R09        40.000    22167076.472 7 118371018.43807      3084.138 7        46.239                                                                    22167075.644 7  92066371.15207      2398.750 7        44.424
C34        41.000                                                                                                                                    23259735.865 7 121119883.65307     -2857.254 7        47.633                                                                    23259735.446 7  98419965.61007     -2321.654 7        46.454
S44        42.000    40576760.623 6 213232490.29006      -501.298 6        37.887
C38        43.000                                                                                                                                    38764554.549 7 201857369.37907     -1038.392 7        42.984                                                                    38764552.268 7 164025711.04207      -843.734 7        43.323
C05        44.000                                                                                                                                    39396752.135 6 205149241.88406      -487.832 6        38.036    39396746.815 7 158634426.47407      -377.193 7        42.059    39396749.990 6 166700663.09906      -396.301 6        40.482
C08        45.000                                                                                                                                    37766978.341 7 196662760.28807      -551.840 7        42.337    37766972.058 7 152072196.94407      -426.713 7        46.096    37766971.467 7 159804653.77407      -448.369 7        42.794
R19        47.000    21704664.448 6 116105667.38006      2512.548 6        38.336                                                                    21704665.245 6  90304570.11106      1954.358 6        41.518
C43        48.000                                                                                                                                    21542025.341 8 112175305.24808      -565.806 8        51.730                                                                    21542023.719 8  91151750.94208      -459.648 8        49.535
S48        51.000    77222118.867 6 405805879.40006      -596.172 6        38.015
R01        52.000    23066836.249 6 123305494.84206      -108.632 6        39.465                                                                    23066838.488 5  95904264.32105       -84.541 5        35.600
C37        53.000                                                                                                                                    24142749.330 7 125717659.38107      1116.209 7        45.690                                                                    24142752.650 7 102155919.89707       907.118 7        46.669
C60        54.000                                                                                                                                    40576761.641 6 211294032.38806      -496.867 6        39.628                                                                    40576747.271 6 171693674.78506      -403.643 6        40.508
C25        55.000                                                                                                                                    24902391.128 7 129673460.68907     -3946.894 7        42.925                                                                    24902391.212 7 105370382.97007     -3207.157 7        43.829
C23        56.000                                                                                                                                    22840605.248 8 118937379.05908     -1924.719 8        50.052                                                                    22840597.038 8  96646473.80708     -1563.977 8        49.533
C02        57.000                                                                                                                                    40746193.512 5 212176153.60105      -464.761 5        33.958    40746189.619 6 164068048.82406      -359.257 6        39.309    40746193.062 5 172410503.30905      -377.592 5        35.357
I03        58.000   113297846.072 6 368819806.57706      1038.654 6        40.753
C11        59.000                                                                                                                                    22003463.124 8 114578122.63008     -1841.283 8        48.515    22003459.598 8  88599225.00608     -1423.815 8        51.958    22003458.359 8  93104221.08408     -1496.135 8        48.870
C28        60.000                                                                                                                                    24621194.232 7 128209305.16107      2116.329 7        44.751                                                                    24621193.735 7 104180692.85007      1719.809 7        42.688
> 2025 01 01 17 45 45.0000000  0 54
G20         1.000    25666385.753 5 134877917.04205     -3646.468 5        30.189
G25         2.000    24806877.127 6 130361191.52406     -4390.671 6        37.569                                    24806878.247 4 101580244.56504     -3421.294 4        29.299    24806878.880 5 101580254.57705     -3421.622 5        35.248
G05         3.000    23293883.454 7 122410322.84707     -2162.340 7        42.588                                    23293878.619 6  95384725.66506     -1684.940 6        37.187    23293879.020 6  95384724.66406     -1684.977 6        38.607
G29         4.000    22149966.397 7 116399224.15307     -2969.000 7        46.855                                    22149962.163 7  90700859.63007     -2313.505 7        44.169    22149962.311 7  90700862.63507     -2313.511 7        42.307
S21         5.000    38491633.414 7 202274654.64307      -556.983 7        42.413
E13         6.000    24044215.677 7 126353547.27107      1162.519 7        47.719                                                                    24044216.146 8  94355127.48908       868.159 8        49.881    24044215.723 8  96816535.33408       890.794 8        50.583
G23         7.000    23501063.439 7 123499018.90907      2850.902 7        42.658                                    23501062.098 4  96233031.75604      2221.482 4        28.701    23501062.203 7  96233030.77807      2221.486 7        42.218
E15         8.000    23915031.237 7 125674663.24107     -1729.128 7        47.014                                                                    23915031.532 8  93848135.05308     -1291.276 8        50.375    23915031.151 8  96296323.17208     -1324.969 8        51.114
E30        10.000    28229375.331 6 148346563.69106     -3511.876 6        38.598                                                                    28229378.274 7 110778401.96407     -2622.615 7        42.521    28229377.312 7 113668260.24907     -2690.992 7        43.039
G26        11.000    20557708.996 8 108031876.67608      -341.289 8        50.230                                    20557707.799 8  84180869.23908      -265.940 8        51.399    20557707.720 7  84180889.24007      -265.883 7        45.863
S27        12.000    39270163.972 5 206366081.58705      -535.706 5        35.514
R15        13.000    21371328.156 8 114202202.29008     -4457.726 8        49.302                                                                    21371329.864 7  88824076.19707     -3467.125 7        45.237
S36        14.000    38263012.530 7 201073986.50907      -556.023 7        44.062
G27        15.000    23910517.377 6 125650876.12706      2722.217 6        40.839                                    23910515.707 5  97909926.98105      2121.205 5        34.081    23910516.266 6  97909841.00506      2121.016 6        36.783
S45        17.000    63474355.164 6 333560737.02406      -612.160 6        36.957
G31        18.000    23237100.930 7 122112076.85407     -3417.531 7        44.935                                    23237097.707 6  95152418.89406     -2663.008 6        39.940    23237098.582 6  95152397.88506     -2662.988 6        39.907
G16        19.000    21580453.835 7 113406316.94407      1852.609 7        46.470                                    21580449.277 5  88368679.46705      1443.591 5        33.892
E21        20.000    24102323.138 7 126658946.08507       662.062 7        47.763                                                                    24102322.413 8  94583198.37608       494.401 8        50.275    24102322.192 8  97050560.62008       507.270 8        51.040
E26        21.000    28167971.689 6 148023881.98806      2480.882 6        37.267                                                                    28167981.162 6 110537465.03406      1852.457 6        39.583    28167979.768 6 113421032.04106      1900.994 6        40.739
I06        22.000    38774634.064 6 152160198.05106      -407.624 6        41.306
S28        23.000    40967457.877 5 215285423.26905      -552.999 5        34.410
E34        24.000    27714855.026 6 145642850.87906     -3431.428 6        38.216                                                                    27714856.220 6 108759456.53506     -2562.399 6        40.825    27714856.344 6 111596639.83406     -2629.248 6        41.793
S23        25.000    38216024.412 7 200826518.12007      -558.772 7        44.847
C13        26.000                                                                                                                                    37739707.250 7 196520756.15907      -299.807 7        44.789    37739708.429 7 151962425.39207      -231.816 7        45.252    37739706.637 7 159689298.97407      -243.680 7        43.731
G18        27.000    20562385.107 8 108056414.41608      -357.377 8        50.071                                    20562380.971 7  84199976.68407      -278.476 7        43.772    20562381.096 8  84199967.68808      -278.453 8        49.518
I02        29.000    38735858.653 6 152007929.65006      -987.382 6        40.732
G28        30.000    24536872.205 6 128942276.06206     -4028.244 6        39.979                                    24536873.134 3 100474586.46503     -3138.880 3        22.800    24536872.979 6 100474583.46806     -3138.996 6        38.634
R02        31.000    23811351.122 7 127061956.08107      2649.985 7        42.044                                                                    23811352.790 6  98825982.21006      2060.933 6        39.222
C12        32.000                                                                                                                                    26003187.682 6 135405682.84106     -3450.155 6        38.988    26003183.521 7 104704390.12407     -2667.761 7        42.859    26003182.125 6 110028300.86506     -2803.518 6        41.395
R17        33.000    20458317.694 8 109476959.21808     -3200.751 8        50.484                                                                    20458316.861 7  85148913.72107     -2489.477 7        46.598
R08        34.000    24642943.393 6 131961754.09706     -3114.143 6        36.507                                                                    24642948.881 6 102636896.43806     -2422.194 6        40.021
E09        35.000    29072082.358 5 152774828.22105      -486.977 5        34.490                                                                    29072088.541 6 114085115.75806      -363.659 6        39.550    29072087.529 6 117061268.01806      -373.247 6        40.482
R18        36.000    19355356.999 8 103320617.22708       -21.389 8        51.626                                                                    19355356.276 7  80360686.39507       -16.627 7        47.787
E27        37.000    24134395.893 7 126827344.41107     -2168.133 7        47.990                                                                    24134395.504 8  94708884.18808     -1619.064 8        50.010    24134395.207 8  97179530.77908     -1661.309 8        50.691
R16        38.000    19425220.875 8 103766165.42808      -694.945 8        52.138                                                                    19425219.991 7  80707073.67707      -540.480 7        47.923
C22        39.000                                                                                                                                    26354711.723 6 137235892.10706     -1436.033 6        38.667                                                                    26354707.080 6 111515381.46506     -1167.086 6        39.276
R09        40.000    22164190.392 7 118355603.25607      3082.038 7        46.372                                                                    22164188.655 7  92054381.55107      2397.168 7        44.426
C34        41.000                                                                                                                                    23262479.697 7 121134172.04807     -2858.042 7        47.290                                                                    23262479.359 7  98431576.10307     -2322.394 7        46.540
S44        42.000    40577237.955 6 213234997.17606      -501.281 6        37.864
C38        43.000                                                                                                                                    38765551.835 7 201862563.41107     -1039.217 7        43.020                                                                    38765549.744 7 164029931.61507      -844.382 7        43.528
C05        44.000                                                                                                                                    39397220.224 6 205151680.35306      -487.598 6        37.989    39397215.325 6 158636312.05606      -377.062 6        41.943    39397218.267 6 166702644.56606      -396.216 6        40.543
C08        45.000                                                                                                                                    37767508.940 7 196665522.03007      -552.774 7        42.191    37767502.305 7 152074332.50007      -427.435 7        45.964    37767501.807 7 159806897.91907      -449.225 7        42.813
R19        47.000    21702317.005 6 116093108.94306      2510.856 6        38.718                                                                    21702316.853 6  90294802.47006      1952.882 6        41.573
C43        48.000                                                                                                                                    21542569.495 8 112178138.53508      -567.397 8        51.629                                                                    21542567.827 8  91154053.22108      -461.087 8        49.713
S48        51.000    77222657.698 6 405808861.10406      -596.216 6        37.773
R01        52.000    23066940.535 6 123306048.34706      -112.719 6        40.248                                                                    23066941.707 5  95904694.80205       -87.603 5        34.609
C37        53.000                                                                                                                                    24141679.141 7 125712083.89607      1113.994 7        45.932                                                                    24141682.010 7 102151389.35707       905.207 7        46.876
C60        54.000                                                                                                                                    40577238.942 6 211296516.46606      -496.630 6        39.282                                                                    40577224.438 6 171695693.32006      -403.597 6        40.746
C25        55.000                                                                                                                                    24906181.395 7 129693196.28907     -3947.355 7        42.354                                                                    24906181.200 7 105386419.74407     -3207.573 7        43.911
C23        56.000                                                                                                                                    22842454.311 8 118947008.80908     -1927.149 8        49.805                                                                    22842446.252 8  96654298.75708     -1565.999 8        49.687
C02        57.000                                                                                                                                    40746640.965 5 212178477.39505      -464.559 5        33.737    40746636.151 6 164069845.76606      -359.383 6        39.255    40746639.057 5 172412391.61605      -377.783 5        35.495
I03        58.000   113296522.367 6 368814612.66306      1038.817 6        40.777
C11        59.000                                                                                                                                    22005231.474 8 114587332.51108     -1842.562 8        48.496    22005228.179 8  88606346.66608     -1424.738 8        52.022    22005227.046 8  93111704.85808     -1497.226 8        49.009
C28        60.000                                                                                                                                    24619162.501 7 128198725.24807      2115.686 7        44.819                                                                    24619162.059 7 104172095.82007      1719.142 7        42.737
> 2025 01 01 17 45 50.0000000  0 54
G20         1.000    25669855.385 5 134896151.72005     -3647.675 5        30.528
G25         2.000    24811054.957 6 130383146.95106     -4391.219 6        37.463                                    24811056.298 4 101597352.66504     -3421.730 4        29.213    24811056.961 5 101597362.67205     -3421.703 5        35.043
G05         3.000    23295941.918 7 122421142.40107     -2165.558 7        42.595                                    23295937.488 6  95393156.51406     -1687.458 6        37.161    23295938.058 6  95393155.52706     -1687.374 6        38.652
G29         4.000    22152791.675 7 116414072.18807     -2970.216 7        47.048                                    22152787.651 7  90712429.52407     -2314.456 7        44.125    22152787.791 6  90712432.52906     -2314.405 6        41.869
S21         5.000    38492166.051 7 202277439.05407      -557.037 7        42.472
E13         6.000    24043110.319 8 126347739.13208      1160.749 8        48.011                                                                    24043110.916 8  94350790.24908       866.737 8        50.063    24043110.513 8  96812084.95208       889.352 8        50.600
G23         7.000    23498351.909 7 123484767.06707      2849.866 7        42.402                                    23498350.122 4  96221926.44804      2220.664 4        28.815    23498350.001 6  96221925.45006      2220.753 6        41.814
E15         8.000    23916677.372 7 125683313.67307     -1730.955 7        47.210                                                                    23916677.674 8  93854594.78908     -1292.641 8        50.461    23916677.269 8  96302951.42108     -1326.320 8        51.110
E30        10.000    28232717.208 6 148364124.48506     -3512.478 6        38.378                                                                    28232719.964 7 110791515.52507     -2622.804 7        42.495    28232718.868 7 113681715.92707     -2691.326 7        42.893
G26        11.000    20558035.214 8 108033591.29508      -344.429 8        50.198                                    20558034.089 8  84182205.30508      -268.386 8        51.374    20558034.015 7  84182225.31107      -268.447 7        45.800
S27        12.000    39270671.076 5 206368759.64505      -535.642 5        35.648
R15        13.000    21375501.035 8 114224496.73808     -4459.985 8        49.729                                                                    21375502.031 7  88841416.31807     -3468.904 7        45.418
S36        14.000    38263541.192 7 201076767.42207      -556.343 7        44.132
G27        15.000    23907927.558 6 125637266.52706      2721.703 6        40.119                                    23907925.815 5  97899322.11805      2120.799 5        34.095    23907925.889 6  97899236.13006      2120.810 6        36.730
S45        17.000    63474884.783 6 333563798.61506      -612.263 6        36.794
G31        18.000    23240353.861 7 122129168.92107     -3419.239 7        45.956                                    23240350.245 6  95165737.37506     -2664.342 6        39.997    23240350.522 6  95165716.38206     -2664.402 6        40.217
G16        19.000    21578692.262 7 113397059.38707      1850.445 7        45.943                                    21578687.601 5  88361465.79205      1441.903 5        33.808
E21        20.000    24101693.878 7 126655640.16307       660.358 7        47.782                                                                    24101693.310 8  94580729.67108       493.131 8        50.444    24101693.079 8  97048027.51008       506.001 8        51.072
E26        21.000    28165611.448 6 148011478.94306      2480.486 6        37.784                                                                    28165620.839 6 110528203.20806      1852.209 6        39.553    28165619.599 6 113411528.59506      1900.476 6        40.605
I06        22.000    38775152.891 6 152162235.93906      -407.516 6        41.333
S28        23.000    40967981.870 5 215288187.30605      -552.720 5        34.524
E34        24.000    27718119.981 6 145660008.80906     -3431.759 6        38.021                                                                    27718121.239 6 108772269.27406     -2562.706 6        41.006    27718121.295 6 111609786.81006     -2629.484 6        41.969
S23        25.000    38216555.207 7 200829311.69907      -558.625 7        44.725
C13        26.000                                                                                                                                    37739995.388 7 196522257.92707      -300.907 7        44.856    37739996.734 7 151963586.63507      -232.628 7        45.029    37739995.133 7 159690519.26107      -244.457 7        43.803
G18        27.000    20562726.355 8 108058208.58408      -360.223 8        50.294                                    20562722.375 7  84201374.73807      -280.695 7        43.729    20562722.861 8  84201365.74708      -280.723 8        49.455
I02        29.000    38737116.179 6 152012867.61806      -987.690 6        40.896
G28        30.000    24540704.905 6 128962418.17106     -4028.504 6        40.827                                    24540705.994 3 100490281.57203     -3139.088 3        22.838    24540705.771 6 100490278.57006     -3139.035 6        38.955
R02        31.000    23808869.251 7 127048711.13507      2648.077 7        42.195                                                                    23808870.729 6  98815680.56806      2059.599 6        39.009
C12        32.000                                                                                                                                    26006500.905 6 135422933.76206     -3450.089 6        38.670    26006496.505 7 104717729.64607     -2667.922 7        42.978    26006495.254 6 110042318.65306     -2803.646 6        41.483
R17        33.000    20461309.596 8 109492967.32908     -3202.445 8        50.100                                                                    20461308.538 7  85161364.45707     -2490.718 7        46.483
R08        34.000    24645852.335 6 131977332.44406     -3116.786 6        36.707                                                                    24645857.666 6 102649012.92706     -2424.442 6        39.270
E09        35.000    29072546.789 5 152777269.11805      -489.301 5        35.105                                                                    29072552.928 6 114086938.84006      -365.281 6        39.904    29072551.815 6 117063138.63406      -374.988 6        40.684
R18        36.000    19355378.564 8 103320731.76308       -24.406 8        51.328                                                                    19355377.983 7  80360775.47307       -18.979 7        47.150
E27        37.000    24136459.667 8 126838189.59408     -2169.895 8        48.078                                                                    24136459.248 8  94716982.86608     -1620.367 8        50.132    24136458.916 8  97187840.72308     -1662.628 8        50.708
R16        38.000    19425873.433 8 103769651.53408      -699.445 8        52.397                                                                    19425872.954 8  80709785.10608      -543.973 8        48.304
C22        39.000                                                                                                                                    26356092.641 6 137243079.73606     -1438.763 6        39.628                                                                    26356087.323 6 111521222.01906     -1169.266 6        39.450
R09        40.000    22161305.537 7 118340198.53807      3079.921 7        46.059                                                                    22161304.197 7  92042400.11207      2395.496 7        44.284
C34        41.000                                                                                                                                    23265224.243 7 121148464.34207     -2858.865 7        47.274                                                                    23265224.121 7  98443189.73407     -2323.091 7        46.600
S44        42.000    40577714.791 6 213237503.94606      -501.540 6        37.894
C38        43.000                                                                                                                                    38766550.492 7 201867761.43607     -1040.058 7        43.147                                                                    38766547.983 7 164034155.41207      -845.060 7        43.427
C05        44.000                                                                                                                                    39397688.282 6 205154118.59206      -487.519 6        38.192    39397683.522 6 158638197.46206      -377.174 6        41.728    39397686.527 6 166704625.80906      -396.111 6        40.472
C08        45.000                                                                                                                                    37768040.689 7 196668288.87007      -553.814 7        42.362    37768033.541 7 152076472.00207      -428.277 7        45.687    37768033.235 7 159809146.19207      -450.114 7        42.798
R19        47.000    21699972.331 6 116080559.86106      2508.736 6        38.192                                                                    21699970.849 6  90285042.09906      1951.334 6        41.697
C43        48.000                                                                                                                                    21543115.208 8 112180980.17708      -569.151 8        51.762                                                                    21543113.515 8  91156362.26708      -462.471 8        49.631
S48        51.000    77223199.663 6 405811842.49406      -596.193 6        38.006
R01        52.000    23067047.950 6 123306622.92906      -117.152 6        40.029                                                                    23067049.333 5  95905141.77205       -91.082 5        34.981
C37        53.000                                                                                                                                    24140610.575 7 125706519.96307      1111.626 7        45.953                                                                    24140613.464 7 102146868.19707       903.256 7        46.738
C60        54.000                                                                                                                                    40577715.898 6 211299000.44506      -496.668 6        39.520                                                                    40577701.233 6 171697711.74406      -403.727 6        40.729
C25        55.000                                                                                                                                    24909971.675 7 129712934.55507     -3948.030 7        42.354                                                                    24909971.593 7 105402458.67007     -3208.097 7        43.666
C23        56.000                                                                                                                                    22844306.179 8 118956651.17808     -1929.736 8        50.093                                                                    22844297.980 8  96662133.96708     -1568.081 8        49.669
C02        57.000                                                                                                                                    40747087.170 5 212180801.01005      -464.603 5        33.802    40747082.504 6 164071642.52806      -359.277 6        39.195    40747085.455 5 172414279.72205      -377.683 5        35.681
I03        58.000   113295199.154 6 368809418.59006      1038.774 6        40.832
C11        59.000                                                                                                                                    22007001.264 8 114596549.18908     -1843.972 8        48.511    22006998.183 8  88613473.58108     -1425.910 8        51.979    22006997.010 8  93119194.14408     -1498.423 8        48.977
C28        60.000                                                                                                                                    24617131.390 7 128188149.19207      2114.788 7        45.168                                                                    24617131.051 7 104163501.90907      1718.467 7        42.809
> 2025 01 01 17 45 55.0000000  0 54
G20         1.000    25673326.928 4 134914393.36404     -3648.960 4        29.611
G25         2.000    24815234.003 6 130405103.97806     -4391.450 6        37.452                                    24815234.650 4 101614462.02404     -3421.908 4        28.938    24815234.838 5 101614472.04805     -3422.186 5        35.148
G05         3.000    23298003.438 7 122431978.07307     -2168.736 7        42.182                                    23297999.376 6  95401599.93506     -1689.925 6        37.474    23298000.702 6  95401598.95706     -1689.832 6        38.309
G29         4.000    22155618.437 7 116428926.27207     -2971.378 7        46.301                                    22155614.253 7  90724004.13407     -2315.359 7        44.134    22155614.575 6  90724007.14606     -2315.403 6        41.466
S21         5.000    38492695.822 7 202280223.77607      -556.970 7        42.381
E13         6.000    24042006.608 8 126341940.09508      1158.911 8        48.009                                                                    24042007.390 8  94346459.80708       865.389 8        49.987    24042006.961 8  96807641.53708       887.993 8        50.607
G23         7.000    23495640.560 7 123470520.06407      2848.831 7        42.432                                    23495638.981 4  96210824.91104      2219.859 4        28.692    23495638.637 6  96210823.91306      2219.954 6        41.692
E15         8.000    23918325.193 7 125691973.13007     -1732.770 7        47.097                                                                    23918325.489 8  93861061.26108     -1293.982 8        50.458    23918325.104 8  96309586.58608     -1327.749 8        51.133
E30        10.000    28236059.226 6 148381687.62806     -3512.802 6        38.544                                                                    28236062.158 7 110804630.85307     -2623.293 7        42.430    28236061.088 7 113695173.38207     -2691.681 7        42.605
G26        11.000    20558364.393 8 108035321.46508      -347.591 8        50.002                                    20558363.334 8  84183553.49208      -270.849 8        51.420    20558363.700 7  84183573.49907      -270.869 7        45.940
S27        12.000    39271181.083 5 206371437.94205      -535.536 5        35.410
R15        13.000    21379675.731 8 114246802.58608     -4462.315 8        49.530                                                                    21379676.506 7  88858765.30407     -3470.692 7        45.451
S36        14.000    38264070.476 7 201079549.49807      -556.624 7        44.155
G27        15.000    23905337.662 6 125623659.83206      2721.117 6        40.620                                    23905336.531 5  97888719.53905      2120.344 5        34.086    23905337.082 6  97888633.55506      2120.155 6        36.620
S45        17.000    63475416.597 6 333566860.42206      -612.281 6        36.820
G31        18.000    23243607.601 7 122146269.55607     -3420.918 7        45.216                                    23243604.432 6  95179062.54006     -2665.651 6        40.098    23243604.799 6  95179041.53906     -2665.535 6        40.381
G16        19.000    21576932.764 7 113387813.03307      1848.185 7        46.348                                    21576928.049 5  88354260.83705      1440.141 5        33.748
E21        20.000    24101066.464 7 126652342.66807       658.677 7        47.634                                                                    24101065.812 8  94578267.25608       491.868 8        50.341    24101065.571 8  97045500.85708       504.706 8        51.111
E26        21.000    28163251.829 6 147999078.06606      2479.817 6        37.626                                                                    28163261.027 6 110518942.99106      1851.924 6        39.501    28163259.414 6 113402026.78906      1900.217 6        40.629
I06        22.000    38775672.476 6 152164273.74506      -407.488 6        41.299
S28        23.000    40968511.342 5 215290951.76305      -552.778 5        34.619
E34        24.000    27721385.259 6 145677168.34906     -3431.994 6        37.996                                                                    27721386.695 6 108785083.19606     -2562.985 6        40.856    27721386.706 7 111622935.00007     -2629.755 7        42.127
S23        25.000    38217086.990 7 200832105.38307      -558.726 7        44.692
C13        26.000                                                                                                                                    37740284.980 7 196523764.84907      -301.948 7        44.758    37740286.155 7 151964751.88507      -233.508 7        44.804    37740284.446 7 159691743.77107      -245.388 7        43.824
G18        27.000    20563070.736 8 108060017.30108      -363.209 8        50.342                                    20563066.555 7  84202784.13207      -283.020 7        43.788    20563066.788 8  84202775.13608      -283.037 8        49.509
I02        29.000    38738375.276 6 152017806.06906      -987.765 6        40.899
G28        30.000    24544537.923 6 128982562.01006     -4028.914 6        40.920                                    24544539.020 3 100505978.04503     -3139.421 3        23.429    24544539.356 6 100505975.03706     -3139.414 6        39.703
R02        31.000    23806389.313 6 127035476.33506      2646.064 6        41.821                                                                    23806390.287 6  98805386.85106      2058.021 6        38.474
C12        32.000                                                                                                                                    26009813.136 6 135440185.10006     -3450.406 6        38.102    26009809.649 7 104731069.45607     -2667.914 7        43.268    26009808.621 6 110056336.77006     -2803.760 6        41.933
R17        33.000    20464302.526 8 109508983.87608     -3204.155 8        50.520                                                                    20464301.746 7  85173821.76607     -2492.124 7        46.723
R08        34.000    24648764.341 6 131992926.08706     -3120.629 6        36.163                                                                    24648770.386 6 102661141.39106     -2427.466 6        38.444
E09        35.000    29073013.360 5 152779721.95805      -491.789 5        35.095                                                                    29073019.718 6 114088770.82506      -367.216 6        39.793    29073018.275 6 117065018.36106      -376.765 6        40.641
R18        36.000    19355402.873 8 103320861.34108       -27.417 8        51.631                                                                    19355402.264 7  80360876.25707       -21.364 7        47.297
E27        37.000    24138525.171 8 126849043.47108     -2171.645 8        48.058                                                                    24138524.585 8  94725088.03308     -1621.645 8        50.112    24138524.358 8  97196157.33208     -1663.988 8        50.735
R16        38.000    19426530.499 8 103773160.33208      -704.025 8        52.356                                                                    19426529.765 8  80712514.16908      -547.593 8        48.087
C22        39.000                                                                                                                                    26357474.994 6 137250280.92606     -1441.584 6        39.126                                                                    26357470.000 6 111527073.61806     -1171.578 6        39.345
R09        40.000    22158422.481 7 118324804.76707      3077.646 7        46.512                                                                    22158421.315 7  92030427.14407      2393.634 7        44.436
C34        41.000                                                                                                                                    23267969.795 7 121162760.93607     -2859.731 7        47.205                                                                    23267969.672 7  98454806.90707     -2323.849 7        46.501
S44        42.000    40578189.463 6 213240010.98806      -501.394 6        37.962
C38        43.000                                                                                                                                    38767549.571 7 201872963.87507     -1040.906 7        43.268                                                                    38767547.035 7 164038382.85207      -845.971 7        43.587
C05        44.000                                                                                                                                    39398156.770 6 205156556.95506      -487.813 6        38.114    39398151.585 6 158640082.95506      -377.082 6        41.816    39398154.674 6 166706607.19806      -396.264 6        40.465
C08        45.000                                                                                                                                    37768573.023 7 196671061.16807      -555.040 7        42.368    37768565.985 7 152078615.71107      -429.190 7        45.785    37768565.578 7 159811398.92107      -450.931 7        42.813
R19        47.000    21697627.590 6 116068020.55506      2506.860 6        38.186                                                                    21697627.118 6  90275289.30306      1949.669 6        41.225
C43        48.000                                                                                                                                    21543662.616 8 112183830.58608      -570.979 8        51.537                                                                    21543660.910 8  91158678.48108      -464.062 8        49.613
S48        51.000    77223736.195 6 405814823.71606      -596.013 6        38.222
R01        52.000    23067159.513 6 123307218.75906      -121.286 6        39.294                                                                    23067160.621 5  95905605.24705       -94.506 5        35.148
C37        53.000                                                                                                                                    24139544.221 7 125700968.04207      1109.221 7        45.857                                                                    24139547.298 7 102142356.82807       901.258 7        46.783
C60        54.000                                                                                                                                    40578192.967 6 211301484.72206      -496.862 6        39.123                                                                    40578178.458 6 171699730.44906      -403.759 6        40.634
C25        55.000                                                                                                                                    24913762.743 7 129732675.82707     -3948.398 7        42.603                                                                    24913762.547 7 105418500.08607     -3208.590 7        43.537
C23        56.000                                                                                                                                    22846160.693 8 118966306.61608     -1932.420 8        49.941                                                                    22846152.204 8  96669979.81808     -1570.339 8        49.685
C02        57.000                                                                                                                                    40747532.186 5 212183124.83005      -464.802 5        33.509    40747528.817 6 164073439.46806      -359.519 6        39.039    40747531.754 5 172416168.02205      -377.646 5        35.657
I03        58.000   113293875.111 6 368804224.64906      1038.877 6        40.648
C11        59.000                                                                                                                                    22008772.738 8 114605773.11508     -1845.480 8        48.393    22008769.461 8  88620606.10008     -1427.062 8        52.063    22008768.382 8  93126689.35508     -1499.666 8        49.019
C28        60.000                                                                                                                                    24615100.861 7 128177577.41307      2113.927 7        44.764                                                                    24615100.811 7 104154911.52907      1717.520 7        42.764
> 2025 01 01 17 46  0.0000000  0 54
G20         1.000    25676799.683 4 134932641.70104     -3650.472 4        28.445
G25         2.000    24819412.162 6 130427062.33406     -4391.662 6        37.259                                    24819413.086 4 101631572.41704     -3422.074 4        28.739    24819413.950 5 101631582.42905     -3422.227 5        35.171
G05         3.000    23300068.615 7 122442829.43207     -2171.818 7        42.182                                    23300064.313 6  95410055.55306     -1692.326 6        37.682    23300065.539 6  95410054.56806     -1692.364 6        39.306
G29         4.000    22158445.916 7 116443786.09707     -2972.453 7        46.043                                    22158441.911 7  90735583.21507     -2316.197 7        44.150    22158442.482 6  90735586.21106     -2316.164 6        41.495
S21         5.000    38493225.888 7 202283008.29307      -556.897 7        42.464
E13         6.000    24040904.546 7 126336149.86907      1157.177 7        47.623                                                                    24040905.560 8  94342135.94608       864.164 8        49.980    24040905.110 8  96803204.87908       886.735 8        50.699
G23         7.000    23492930.640 7 123456277.60307      2848.104 7        42.203                                    23492928.686 4  96199726.92504      2219.290 4        28.483    23492928.135 6  96199725.92606      2219.405 6        41.461
E15         8.000    23919974.715 7 125700641.29607     -1734.397 7        46.954                                                                    23919974.989 8  93867534.24608     -1295.202 8        50.306    23919974.605 8  96316228.43508     -1329.002 8        51.166
E30        10.000    28239401.832 6 148399252.79106     -3513.092 6        38.607                                                                    28239404.737 7 110817747.68507     -2623.418 7        42.256    28239403.618 7 113708632.40107     -2691.923 7        42.571
G26        11.000    20558696.597 8 108037066.91508      -350.607 8        49.957                                    20558695.477 8  84184913.58608      -273.201 8        51.476    20558695.466 7  84184933.59207      -273.214 7        45.828
S27        12.000    39271689.895 5 206374116.12105      -535.533 5        35.767
R15        13.000    21383851.638 8 114269119.42308     -4464.393 8        49.572                                                                    21383852.550 7  88876122.83207     -3472.238 7        45.472
S36        14.000    38264600.032 7 201082332.37807      -556.419 7        43.981
G27        15.000    23902749.246 6 125610055.78906      2720.625 6        40.360                                    23902747.708 5  97878119.01905      2119.958 5        34.167    23902747.577 6  97878033.03006      2120.150 6        36.098
S45        17.000    63475947.495 6 333569922.19306      -612.186 6        37.017
G31        18.000    23246863.097 7 122163378.43607     -3422.569 7        44.426                                    23246860.198 6  95192394.13306     -2666.936 6        40.122    23246860.373 6  95192373.12506     -2666.821 6        40.226
G16        19.000    21575175.580 7 113378577.60607      1846.020 7        46.438                                    21575170.581 5  88347064.41705      1438.458 5        33.952
E21        20.000    24100440.617 7 126649053.29407       657.183 7        47.368                                                                    24100439.855 8  94575810.91508       490.723 8        50.207    24100439.627 8  97042980.43808       503.539 8        51.130
E26        21.000    28160892.301 6 147986679.08406      2479.507 6        37.486                                                                    28160901.402 6 110509684.19506      1851.653 6        39.489    28160899.804 6 113392526.44406      1899.915 6        40.541
I06        22.000    38776191.368 6 152166311.25806      -407.412 6        41.414
S28        23.000    40969037.562 5 215293715.93205      -553.069 5        34.690
E34        24.000    27724651.176 6 145694329.25406     -3432.238 6        37.059                                                                    27724652.245 6 108797898.12506     -2562.899 6        40.460    27724652.182 7 111636084.24907     -2629.951 7        42.066
S23        25.000    38217618.975 7 200834899.01807      -558.761 7        44.623
C13        26.000                                                                                                                                    37740574.963 7 196525276.58707      -302.787 7        44.667    37740576.147 7 151965920.85507      -234.149 7        44.692    37740574.699 7 159692972.16907      -246.004 7        43.767
G18        27.000    20563417.351 8 108061840.25708      -365.941 8        50.006                                    20563413.446 7  84204204.62207      -285.149 7        43.862    20563413.765 8  84204195.62908      -285.179 8        49.733
I02        29.000    38739633.959 6 152022745.02206      -987.884 6        41.135
G28        30.000    24548371.284 6 129002707.27206     -4029.113 6        40.658                                    24548372.511 3 100521675.61303     -3139.563 3        23.562    24548372.614 6 100521672.59306     -3139.658 6        39.772
R02        31.000    23803910.844 6 127022250.88006      2644.182 6        41.759                                                                    23803912.172 6  98795100.37406      2056.623 6        38.249
C12        32.000                                                                                                                                    26013125.419 6 135457436.56706     -3450.272 6        37.312    26013122.410 7 104744409.39107     -2668.010 7        43.259    26013121.518 7 110070354.97907     -2803.628 7        42.032
R17        33.000    20467297.472 8 109525008.68608     -3205.721 8        50.595                                                                    20467296.197 7  85186285.50507     -2493.350 7        46.779
R08        34.000    24651679.915 6 132008534.54706     -3123.213 6        36.688                                                                    24651684.026 6 102673281.37206     -2429.412 6        39.015
E09        35.000    29073482.456 5 152782186.53105      -494.174 5        35.200                                                                    29073488.249 6 114090611.62706      -369.065 6        39.619    29073487.098 6 117066907.13406      -378.473 6        41.123
R18        36.000    19355429.888 8 103321005.64008       -30.335 8        51.654                                                                    19355429.371 7  80360988.48107       -23.529 7        47.304
E27        37.000    24140592.284 7 126859905.76407     -2173.290 7        47.969                                                                    24140591.678 8  94733199.48908     -1622.889 8        50.040    24140591.319 8  97204480.38608     -1665.190 8        50.815
R16        38.000    19427191.585 8 103776691.76108      -708.516 8        52.439                                                                    19427190.562 7  80715260.83207      -550.985 7        47.757
C22        39.000                                                                                                                                    26358859.678 6 137257495.32206     -1444.201 6        39.084                                                                    26358855.587 6 111532935.89506     -1173.562 6        39.700
R09        40.000    22155542.314 7 118309421.64407      3075.584 7        46.597                                                                    22155540.551 7  92018462.48407      2392.150 7        44.858
C34        41.000                                                                                                                                    23270716.067 7 121177061.56807     -2860.528 7        47.272                                                                    23270715.972 7  98466427.33107     -2324.407 7        46.576
S44        42.000    40578667.390 6 213242518.05606      -501.418 6        37.856
C38        43.000                                                                                                                                    38768549.677 7 201878170.45107     -1041.596 7        43.175                                                                    38768546.906 7 164042613.59707      -846.451 7        43.503
C05        44.000                                                                                                                                    39398625.078 6 205158995.18106      -487.580 6        38.087    39398620.032 6 158641968.35006      -377.026 6        41.690    39398623.023 6 166708588.45406      -396.270 6        40.636
C08        45.000                                                                                                                                    37769106.434 7 196673838.68107      -555.985 7        42.286    37769099.586 7 152080763.48007      -429.871 7        45.633    37769098.962 7 159813655.87707      -451.771 7        42.849
R19        47.000    21695284.754 6 116055490.59706      2504.976 6        38.159                                                                    21695284.173 6  90265543.80206      1948.398 6        41.702
C43        48.000                                                                                                                                    21544211.526 8 112186689.45508      -572.556 8        51.484                                                                    21544209.941 8  91161001.53008      -465.165 8        49.638
S48        51.000    77224278.169 6 405817804.39906      -596.229 6        38.045
R01        52.000    23067274.067 6 123307835.61006      -125.522 6        39.871                                                                    23067275.216 5  95906085.01405       -97.593 5        34.662
C37        53.000                                                                                                                                    24138480.431 7 125695427.83107      1106.918 7        45.798                                                                    24138483.387 7 102137854.93507       899.486 7        46.879
C60        54.000                                                                                                                                    40578670.107 6 211303968.98506      -496.837 6        39.213                                                                    40578655.531 6 171701749.12006      -403.784 6        40.572
C25        55.000                                                                                                                                    24917554.100 7 129752419.87207     -3949.019 7        43.153                                                                    24917554.253 7 105434543.73107     -3208.868 7        43.278
C23        56.000                                                                                                                                    22848017.142 8 118975974.80308     -1934.885 8        49.891                                                                    22848008.841 8  96677835.99508     -1572.219 8        49.660
C02        57.000                                                                                                                                    40747978.606 5 212185448.59205      -464.611 5        33.575    40747974.933 6 164075236.36206      -359.212 6        38.967    40747977.772 5 172418056.28105      -377.513 5        35.576
I03        58.000   113292551.945 6 368799030.62906      1039.007 6        40.567
C11        59.000                                                                                                                                    22010545.620 8 114615003.95108     -1846.858 8        48.472    22010542.312 8  88627743.96808     -1428.022 8        51.992    22010541.031 8  93134190.15208     -1500.675 8        48.994
C28        60.000                                                                                                                                    24613071.248 7 128167009.63307      2113.220 7        44.829                                                                    24613071.428 7 104146324.33007      1717.232 7        42.819
> 2025 01 01 17 46  5.0000000  0 54
G20         1.000    25680272.218 4 134950896.64204     -3651.621 4        28.360
G25         2.000    24823590.814 6 130449022.04406     -4392.352 6        36.805                                    24823591.835 4 101648683.87004     -3422.606 4        28.445    24823592.116 5 101648693.87205     -3422.708 5        35.133
G05         3.000    23302136.780 6 122453696.66506     -2175.105 6        41.876                                    23302132.371 6  95418523.53506     -1694.890 6        37.622    23302133.348 6  95418522.55506     -1694.818 6        39.667
G29         4.000    22161275.201 7 116458651.68207     -2973.708 7        46.077                                    22161270.708 7  90747166.78607     -2317.175 7        44.122    22161271.505 7  90747169.79107     -2317.274 7        42.013
S21         5.000    38493755.735 7 202285792.78507      -556.917 7        42.182
E13         6.000    24039804.755 7 126330368.47907      1155.315 7        47.725                                                                    24039805.374 8  94337818.67908       862.748 8        50.048    24039804.927 8  96798774.98808       885.260 8        50.624
G23         7.000    23490221.467 7 123442039.77407      2847.071 7        42.135                                    23490219.227 4  96188632.52304      2218.493 4        28.303    23490218.575 6  96188631.52106      2218.634 6        41.406
E15         8.000    23921625.814 7 125709318.21407     -1736.296 7        46.870                                                                    23921626.170 8  93874013.76008     -1296.590 8        50.462    23921625.756 8  96322876.97608     -1330.394 8        51.120
E30        10.000    28242744.985 6 148416820.04206     -3513.779 6        38.628                                                                    28242747.649 7 110830866.06907     -2623.776 7        42.284    28242746.463 7 113722093.00707     -2692.323 7        42.421
G26        11.000    20559031.756 8 108038827.64208      -353.745 8        49.768                                    20559030.540 8  84186285.58308      -275.647 8        51.411    20559030.507 7  84186305.58407      -275.558 7        45.947
S27        12.000    39272200.519 5 206376793.97205      -535.871 5        35.267
R15        13.000    21388030.418 8 114291447.16308     -4466.728 8        50.284                                                                    21388030.296 7  88893488.85807     -3474.197 7        45.029
S36        14.000    38265127.451 7 201085114.02807      -556.234 7        43.837
G27        15.000    23900161.078 6 125596454.43806      2719.956 6        40.753                                    23900159.295 5  97867520.60305      2119.435 5        34.162    23900160.376 6  97867434.60906      2119.494 6        36.529
S45        17.000    63476480.897 6 333571383.97716      -612.428 6        36.601
G31        18.000    23250120.725 7 122180495.55007     -3424.280 7        44.652                                    23250117.507 6  95205732.14206     -2668.268 6        40.026    23250117.810 6  95205711.15606     -2668.309 6        40.105
G16        19.000    21573420.426 7 113369353.13407      1843.688 7        46.152                                    21573415.196 5  88339876.52505      1436.635 5        33.892
E21        20.000    24099816.206 7 126645772.12007       655.374 7        47.323                                                                    24099815.493 8  94573360.68108       489.396 8        50.394    24099815.265 8  97040466.28408       502.152 8        51.085
E26        21.000    28158532.963 6 147974282.01606      2479.164 6        37.142                                                                    28158542.163 6 110500426.82806      1851.246 6        39.808    28158540.508 6 113383027.55406      1899.583 6        40.453
I06        22.000    38776711.042 6 152168348.51906      -407.512 6        41.302
S28        23.000    40969557.845 5 215296480.63305      -552.765 5        34.290
E34        24.000    27727916.935 6 145711491.58006     -3432.807 6        36.703                                                                    27727918.169 6 108810714.12206     -2563.393 6        40.260    27727917.756 6 111649234.55706     -2630.163 6        41.189
S23        25.000    38218149.296 7 200837692.58407      -558.788 7        44.558
C13        26.000                                                                                                                                    37740866.093 7 196526793.26407      -303.819 7        44.770    37740867.663 7 151967093.63407      -235.004 7        44.659    37740866.021 7 159694204.58207      -247.073 7        43.604
G18        27.000    20563766.996 8 108063677.49508      -368.878 8        50.124                                    20563763.051 7  84205636.24007      -287.434 7        43.814    20563763.478 8  84205627.23708      -287.450 8        49.674
I02        29.000    38740892.486 6 152027684.17506      -987.925 6        40.953
G28        30.000    24552205.188 6 129022853.96806     -4029.606 6        40.307                                    24552206.377 3 100537374.30303     -3139.949 3        23.276    24552206.057 6 100537371.29506     -3140.033 6        39.201
R02        31.000    23801433.857 7 127009035.35707      2642.094 7        42.072                                                                    23801434.989 6  98784821.65006      2055.006 6        38.210
C12        32.000                                                                                                                                    26016438.384 6 135474688.27806     -3450.425 6        36.851    26016435.604 7 104757749.49507     -2668.145 7        43.460    26016434.518 6 110084373.39506     -2804.049 6        41.721
R17        33.000    20470293.438 8 109541041.74508     -3207.528 8        50.417                                                                    20470292.473 7  85198755.66907     -2494.776 7        46.702
R08        34.000    24654597.777 6 132024157.91106     -3125.958 6        36.015                                                                    24654602.212 6 102685433.14706     -2431.681 6        38.171
E09        35.000    29073953.160 5 152784662.47105      -496.676 5        34.414                                                                    29073959.014 6 114092460.80606      -370.862 6        39.465    29073958.013 6 117068804.54106      -380.721 6        40.777
R18        36.000    19355459.751 8 103321164.68108       -33.327 8        51.389                                                                    19355459.079 7  80361112.18507       -25.980 7        47.019
E27        37.000    24142660.787 8 126870776.49008     -2175.074 8        48.076                                                                    24142660.290 8  94741317.23408     -1624.223 8        50.124    24142659.944 8  97212809.90508     -1666.601 8        50.705
R16        38.000    19427856.815 8 103780245.80508      -713.135 8        52.246                                                                    19427856.116 7  80718025.08307      -554.627 7        47.598
C22        39.000                                                                                                                                    26360248.083 6 137264723.03006     -1446.939 6        38.715                                                                    26360243.907 6 111538809.01306     -1176.133 6        39.234
R09        40.000    22152662.989 7 118294049.27007      3073.321 7        46.544                                                                    22152662.387 7  92006506.20707      2390.312 7        44.784
C34        41.000                                                                                                                                    23273463.218 7 121191366.22707     -2861.424 7        47.339                                                                    23273462.908 7  98478051.03307     -2325.295 7        46.342
S44        42.000    40579146.417 6 213245025.15306      -501.466 6        37.894
C38        43.000                                                                                                                                    38769550.497 7 201883381.15207     -1042.523 7        43.263                                                                    38769547.636 7 164046847.71507      -847.413 7        43.291
C05        44.000                                                                                                                                    39399092.698 6 205161433.27906      -487.619 6        37.902    39399088.273 6 158643853.65306      -377.141 6        41.802    39399091.206 6 166710569.61406      -396.591 6        40.365
C08        45.000                                                                                                                                    37769640.222 7 196676621.36907      -557.020 7        42.284    37769633.916 7 152082915.23707      -430.756 7        45.552    37769633.354 7 159815917.04307      -452.815 7        42.652
R19        47.000    21692943.965 6 116042970.25806      2503.066 6        38.495                                                                    21692944.295 6  90255805.78106      1946.887 6        41.862
C43        48.000                                                                                                                                    21544762.039 8 112189556.83008      -574.367 8        51.503                                                                    21544760.626 8  91163331.50608      -466.959 8        49.414
S48        51.000    77224819.544 6 405819184.84216      -596.141 6        37.845
R01        52.000    23067393.693 6 123308473.56206      -129.721 6        40.403                                                                    23067394.517 5  95906581.23505      -100.829 5        34.414
C37        53.000                                                                                                                                    24137418.879 7 125689899.37507      1104.453 7        46.155                                                                    24137421.707 7 102133362.61307       897.210 7        46.642
C60        54.000                                                                                                                                    40579147.162 6 211306453.28906      -496.908 6        39.159                                                                    40579132.528 6 171703767.81706      -403.973 6        40.491
C25        55.000                                                                                                                                    24921346.457 7 129772166.67607     -3949.633 7        43.518                                                                    24921346.537 7 105450589.61607     -3209.752 7        43.336
C23        56.000                                                                                                                                    22849876.385 8 118985655.76908     -1937.488 8        49.805                                                                    22849867.990 8  96685702.57008     -1574.663 8        49.499
C02        57.000                                                                                                                                    40748425.491 5 212187772.30905      -464.609 5        33.287    40748421.209 6 164077033.23506      -359.557 6        39.051    40748424.227 5 172419944.50105      -377.934 5        35.219
I03        58.000   113291228.098 6 368793836.55606      1038.855 6        40.553
C11        59.000                                                                                                                                    22012320.054 8 114624241.73308     -1848.277 8        48.637    22012316.158 8  88634887.21308     -1429.282 8        51.929    22012315.034 8  93141696.59808     -1502.099 8        48.859
C28        60.000                                                                                                                                    24611042.809 7 128156445.86107      2112.396 7        44.655                                                                    24611042.822 7 104137740.42707      1716.153 7        42.724
> 2025 01 01 17 46 10.0000000  0 54
G20         1.000    25683748.790 4 134969158.31904     -3652.851 4        27.653
G25         2.000    24827769.821 6 130470982.68806     -4392.056 6        36.219                                    24827770.906 4 101665796.03904     -3422.374 4        28.142    24827771.212 5 101665806.04005     -3422.407 5        35.390
G05         3.000    23304207.129 6 122464579.32206     -2177.965 6        41.948                                    23304203.394 6  95427003.52406     -1697.116 6        37.493    23304203.991 6  95427002.54806     -1697.139 6        39.682
G29         4.000    22164104.971 7 116473522.69507     -2974.578 7        45.792                                    22164100.593 7  90758754.58307     -2317.854 7        44.184    22164101.449 7  90758757.57107     -2317.824 7        42.017
S21         5.000    38494283.494 7 202288576.93107      -556.576 7        42.527
E13         6.000    24038706.205 7 126324595.57807      1153.898 7        47.799                                                                    24038706.832 8  94333507.75008       861.695 8        49.861    24038706.353 8  96794351.59908       884.188 8        50.727
G23         7.000    23487512.524 7 123427806.23407      2846.475 7        42.093                                    23487510.596 4  96177541.47204      2218.030 4        28.218    23487509.935 6  96177540.47506      2218.039 6        41.588
E15         8.000    23923278.620 7 125718003.52907     -1737.803 7        46.956                                                                    23923278.924 8  93880499.54208     -1297.702 8        50.281    23923278.561 8  96329531.95408     -1331.558 8        51.191
E30        10.000    28246088.391 6 148434389.00106     -3513.816 6        38.652                                                                    28246090.798 7 110843985.74307     -2623.859 7        42.093    28246089.861 7 113735554.94407     -2692.557 7        42.372
G26        11.000    20559369.661 8 108040603.33808      -356.491 8        49.779                                    20559368.448 8  84187669.24508      -277.787 8        51.403    20559368.744 7  84187689.24607      -277.786 7        46.200
S27        12.000    39272711.840 5 206379471.23405      -535.341 5        35.776
R15        13.000    21392211.007 8 114313785.51808     -4468.553 8        50.281                                                                    21392210.814 7  88910863.13907     -3475.578 7        44.984
S36        14.000    38265657.656 7 201087894.13307      -555.799 7        44.051
G27        15.000    23897572.655 6 125582855.42806      2719.602 6        39.790                                    23897571.335 5  97856924.00405      2119.165 5        34.133    23897572.147 6  97856838.00906      2119.307 6        36.715
S45        17.000    63477008.544 6 333574445.21106      -612.153 6        36.922
G31        18.000    23253380.125 7 122197620.56007     -3425.669 7        43.998                                    23253376.291 6  95219076.31106     -2669.345 6        39.934    23253376.907 6  95219055.30106     -2669.345 6        40.446
G16        19.000    21571666.642 7 113360139.28607      1841.833 7        45.988                                    21571661.850 5  88332696.90305      1435.198 5        33.886
E21        20.000    24099193.222 7 126642498.79007       653.996 7        47.350                                                                    24099192.604 8  94570916.30508       488.407 8        50.210    24099192.381 8  97037958.14108       501.204 8        51.127
E26        21.000    28156174.326 6 147961886.51706      2479.024 6        37.066                                                                    28156183.446 6 110491170.63206      1851.213 6        40.036    28156181.580 6 113373529.87106      1899.485 6        40.329
I06        22.000    38777229.540 6 152170385.25606      -407.138 6        41.375
S28        23.000    40970086.538 5 215299244.82605      -552.780 5        34.100
E34        24.000    27731182.861 6 145728654.90006     -3432.491 6        36.030                                                                    27731184.269 6 108823530.87506     -2563.258 6        40.479    27731183.611 6 111662385.65706     -2630.162 6        41.266
S23        25.000    38218682.197 7 200840485.63007      -558.437 7        44.662
C13        26.000                                                                                                                                    37741158.301 7 196528314.42907      -304.528 7        44.707    37741159.596 7 151968269.88607      -235.406 7        44.825    37741158.139 7 159695440.66107      -247.499 7        43.500
G18        27.000    20564119.419 8 108065528.66408      -371.511 8        50.077                                    20564115.303 7  84207078.71007      -289.490 7        43.801    20564115.687 8  84207069.70808      -289.433 8        50.010
I02        29.000    38742151.078 6 152032623.39906      -987.766 6        41.073
G28        30.000    24556039.288 6 129043001.74706     -4029.572 6        40.138                                    24556040.427 3 100553073.82003     -3139.919 3        23.219    24556040.451 6 100553070.80606     -3139.815 6        38.664
R02        31.000    23798959.132 7 126995829.34607      2640.337 7        42.167                                                                    23798961.078 6  98774550.30106      2053.574 6        38.667
C12        32.000                                                                                                                                    26019751.178 6 135491939.78106     -3450.134 6        36.681    26019748.541 7 104771089.46607     -2667.848 7        43.746    26019747.418 6 110098391.66406     -2803.389 6        41.585
R17        33.000    20473290.855 8 109557082.61508     -3208.820 8        49.956                                                                    20473289.940 7  85211231.90707     -2495.796 7        46.335
R08        34.000    24657517.357 6 132039795.88306     -3129.032 6        36.049                                                                    24657522.226 6 102697596.28006     -2433.448 6        37.259
E09        35.000    29074426.357 5 152787149.82205      -498.266 5        35.414                                                                    29074432.126 6 114094318.55306      -372.144 6        40.098    29074431.175 6 117070710.70406      -381.749 6        41.495
R18        36.000    19355492.107 8 103321338.04008       -35.969 8        51.309                                                                    19355491.559 7  80361247.02207       -27.949 7        47.338
E27        37.000    24144730.987 8 126881655.32608     -2176.435 8        48.177                                                                    24144730.473 8  94749441.03508     -1625.220 8        49.938    24144730.152 8  97221145.63108     -1667.626 8        50.743
R16        38.000    19428526.409 8 103783821.96208      -717.343 8        52.278                                                                    19428525.590 7  80720806.55307      -557.933 7        47.447
C22        39.000                                                                                                                                    26361638.594 6 137271963.92506     -1449.179 6        38.468                                                                    26361634.351 6 111544692.94706     -1177.740 6        39.321
R09        40.000    22149786.547 7 118278687.31907      3071.545 7        46.349                                                                    22149784.602 7  91994558.02507      2388.980 7        44.331
C34        41.000                                                                                                                                    23276210.969 7 121205674.57807     -2861.885 7        46.992                                                                    23276210.654 7  98489677.74507     -2325.524 7        46.307
S44        42.000    40579624.769 6 213247531.93906      -500.990 6        38.159
C38        43.000                                                                                                                                    38770551.756 7 201888595.75407     -1043.144 7        43.177                                                                    38770549.096 7 164051085.01707      -847.587 7        43.443
C05        44.000                                                                                                                                    39399560.975 6 205163870.95206      -487.393 6        38.024    39399556.206 6 158645738.60206      -376.717 6        41.809    39399559.363 6 166712550.41006      -396.049 6        40.412
C08        45.000                                                                                                                                    37770175.326 7 196679408.85007      -557.872 7        42.159    37770169.212 7 152085070.70507      -431.390 7        45.684    37770168.731 7 159818182.11307      -453.306 7        42.643
R19        47.000    21690606.275 6 116030459.14106      2501.306 6        38.946                                                                    21690605.514 7  90246074.91507      1945.502 7        42.099
C43        48.000                                                                                                                                    21545314.296 8 112192432.36808      -575.792 8        51.473                                                                    21545312.812 8  91165668.12308      -467.893 8        49.436
S48        51.000    77225357.476 6 405822164.88906      -595.657 6        37.951
R01        52.000    23067517.491 6 123309132.22106      -133.679 6        41.108                                                                    23067518.275 5  95907093.51805      -104.089 5        34.376
C37        53.000                                                                                                                                    24136359.288 7 125684382.36607      1102.407 7        46.041                                                                    24136362.183 7 102128879.60307       895.742 7        46.721
C60        54.000                                                                                                                                    40579624.056 6 211308937.29706      -496.674 6        39.258                                                                    40579609.592 6 171705786.28306      -403.644 6        40.527
C25        55.000                                                                                                                                    24925139.235 7 129791915.92207     -3950.067 7        43.230                                                                    24925139.482 7 105466637.47507     -3209.604 7        43.645
C23        56.000                                                                                                                                    22851737.592 8 118995349.18108     -1939.808 8        49.805                                                                    22851729.548 8  96693579.25808     -1576.235 8        49.524
C02        57.000                                                                                                                                    40748871.375 5 212190095.63705      -464.267 5        33.395    40748867.196 6 164078829.78606      -359.057 6        39.225    40748870.500 5 172421832.42105      -377.700 5        35.214
I03        58.000   113289904.123 6 368788642.17706      1039.059 6        40.634
C11        59.000                                                                                                                                    22014095.449 8 114633486.12608     -1849.404 8        48.684    22014091.317 8  88642035.54808     -1430.048 8        52.045    22014090.328 8  93149208.42908     -1502.843 8        48.866
C28        60.000                                                                                                                                    24609014.849 7 128145885.78607      2111.759 7        44.688                                                                    24609014.782 7 104129159.52207      1715.877 7        42.639
> 2025 01 01 17 46 15.0000000  0 54
G20         1.000    25687224.961 4 134987425.85604     -3654.028 4        27.701
G25         2.000    24831949.162 6 130492943.99106     -4392.273 6        36.140                                    24831950.040 4 101682908.73104     -3422.546 4        27.916    24831950.140 5 101682918.72305     -3422.618 5        34.571
G05         3.000    23306281.178 7 122475476.94407     -2181.079 7        42.573                                    23306277.167 6  95435495.19106     -1699.542 6        37.289    23306277.401 6  95435494.19206     -1699.442 6        39.315
G29         4.000    22166935.718 7 116488398.76907     -2975.738 7        45.843                                    22166931.492 7  90770346.32107     -2318.757 7        44.158    22166931.917 6  90770349.31706     -2318.739 6        41.554
S21         5.000    38494815.577 7 202291360.13807      -556.559 7        42.381
E13         6.000    24037609.076 7 126318830.82707      1152.149 7        47.572                                                                    24037609.810 8  94329202.91608       860.317 8        49.823    24037609.373 8  96789934.46408       882.830 8        50.672
G23         7.000    23484804.728 7 123413576.63707      2845.578 7        42.430                                    23484802.818 4  96166453.49304      2217.327 4        28.218    23484802.543 6  96166452.51206      2217.247 6        41.495
E15         8.000    23924932.985 7 125726696.86407     -1739.435 7        46.906                                                                    23924933.198 8  93886991.31908     -1298.924 8        50.241    23924932.796 8  96336193.08208     -1332.831 8        51.168
E30        10.000    28249431.728 6 148451959.31806     -3514.162 6        38.748                                                                    28249434.437 7 110857106.43207     -2624.317 7        42.042    28249433.540 7 113749017.89707     -2692.685 7        42.226
G26        11.000    20559710.423 8 108042393.62908      -359.552 8        49.750                                    20559709.132 8  84189064.28108      -280.172 8        51.362    20559709.074 7  84189084.29007      -280.201 7        45.735
S27        12.000    39273218.336 5 206382147.96005      -535.302 5        35.352
R15        13.000    21396392.579 8 114336134.12808     -4470.827 8        49.752                                                                    21396393.484 7  88928245.37907     -3477.254 7        44.880
S36        14.000    38266186.045 7 201090672.46907      -555.635 7        43.987
G27        15.000    23894985.581 6 125569258.39606      2719.141 6        40.622                                    23894983.813 5  97846328.95505      2118.801 5        34.081    23894984.400 6  97846242.97606      2118.826 6        36.098
S45        17.000    63477541.374 6 333577505.66406      -612.220 6        36.866
G31        18.000    23256640.156 7 122214753.11607     -3427.289 7        44.277                                    23256636.489 6  95232426.34906     -2670.615 6        39.811    23256637.111 6  95232405.35706     -2670.691 6        39.535
G16        19.000    21569915.039 7 113350935.72307      1839.623 7        46.501                                    21569910.477 5  88325525.29605      1433.471 5        33.964
E21        20.000    24098571.603 7 126639232.94607       652.410 7        47.293                                                                    24098571.056 8  94568477.53408       487.163 8        50.177    24098570.918 8  97035455.75708       499.876 8        51.130
E26        21.000    28153815.350 6 147949492.24906      2478.867 6        36.949                                                                    28153824.700 6 110481915.36106      1850.967 6        40.102    28153822.883 6 113364033.14106      1899.200 6        40.200
I06        22.000    38777748.384 6 152172421.19006      -407.202 6        41.297
S28        23.000    40970616.287 5 215302008.06305      -552.453 5        34.305
E34        24.000    27734449.554 6 145745818.97506     -3432.917 6        36.612                                                                    27734450.593 6 108836348.23006     -2563.710 6        40.639    27734449.843 6 111675537.38806     -2630.650 6        41.035
S23        25.000    38219214.002 7 200843277.80007      -558.385 7        44.576
C13        26.000                                                                                                                                    37741451.535 7 196529839.78907      -305.514 7        44.832    37741452.727 7 151969449.40607      -236.260 7        44.667    37741451.107 7 159696680.13107      -248.144 7        43.771
G18        27.000    20564474.241 8 108067393.40708      -374.280 8        49.914                                    20564470.131 7  84208531.75507      -291.647 7        43.744    20564470.347 8  84208522.75608      -291.678 8        49.710
I02        29.000    38743409.563 6 152037562.77306      -987.960 6        40.944
G28        30.000    24559873.632 6 129063150.23406     -4029.857 6        40.200                                    24559874.597 3 100568773.91103     -3140.135 3        23.733    24559875.304 6 100568770.89506     -3140.068 6        38.646
R02        31.000    23796486.200 7 126982632.29807      2638.502 7        42.466                                                                    23796487.747 6  98764285.95706      2052.008 6        38.363
C12        32.000                                                                                                                                    26023063.822 6 135509190.73206     -3450.098 6        36.733    26023061.052 7 104784428.98807     -2667.785 7        43.338    26023060.102 6 110112409.47206     -2803.427 6        41.499
R17        33.000    20476290.288 8 109573130.94908     -3210.459 8        50.777                                                                    20476289.106 7  85223713.92907     -2497.010 7        46.210
R08        34.000    24660439.571 5 132055447.76105     -3131.687 5        35.871                                                                    24660443.813 6 102709770.15406     -2435.848 6        36.544
E09        35.000    29074901.503 5 152789648.08005      -501.022 5        34.448                                                                    29074907.188 6 114096184.35906      -373.901 6        39.736    29074906.342 6 117072625.16306      -383.715 6        41.013
R18        36.000    19355526.968 8 103321525.41108       -38.919 8        51.335                                                                    19355526.757 7  80361392.75607       -30.248 7        47.530
E27        37.000    24146802.535 8 126892541.89808     -2178.094 8        48.115                                                                    24146802.135 8  94757570.62208     -1626.522 8        49.874    24146801.798 8  97229487.29308     -1668.957 8        50.704
R16        38.000    19429199.788 8 103787420.01208      -721.780 8        52.298                                                                    19429199.284 7  80723605.03607      -561.396 7        47.625
C22        39.000                                                                                                                                    26363031.470 6 137279217.25206     -1451.926 6        38.378                                                                    26363027.019 6 111550586.90306     -1179.690 6        39.784
R09        40.000    22146910.970 7 118263335.28807      3069.391 7        46.733                                                                    22146909.495 7  91982617.57607      2387.273 7        43.920
C34        41.000                                                                                                                                    23278959.248 7 121219986.26507     -2862.650 7        47.083                                                                    23278959.058 7  98501307.15607     -2325.977 7        46.362
S44        42.000    40580099.847 6 213250038.06306      -501.080 6        37.694
C38        43.000                                                                                                                                    38771554.092 7 201893813.78407     -1043.912 7        43.333                                                                    38771551.083 7 164055325.11307      -848.143 7        43.532
C05        44.000                                                                                                                                    39400029.432 6 205166307.79406      -487.243 6        38.072    39400024.363 6 158647622.94106      -376.857 6        41.969    39400027.300 6 166714530.54906      -395.854 6        40.384
C08        45.000                                                                                                                                    37770711.684 7 196682200.91007      -558.899 7        42.415    37770705.266 7 152087229.67907      -432.142 7        45.565    37770704.896 7 159820450.87407      -454.058 7        42.756
R19        47.000    21688269.325 6 116017956.89906      2499.533 6        38.667                                                                    21688267.707 6  90236350.96506      1944.038 6        41.440
C43        48.000                                                                                                                                    21545868.104 8 112195315.70108      -577.477 8        51.571                                                                    21545866.558 8  91168011.05908      -469.051 8        49.575
S48        51.000    77225894.956 6 405825144.36306      -595.734 6        37.871
R01        52.000    23067645.440 6 123309811.32206      -137.872 6        41.089                                                                    23067644.205 5  95907621.72305      -107.283 5        34.252
C37        53.000                                                                                                                                    24135301.840 7 125678876.42807      1100.137 7        46.225                                                                    24135304.895 7 102124405.58007       894.098 7        46.756
C60        54.000                                                                                                                                    40580100.767 6 211311420.62206      -496.541 6        39.595                                                                    40580086.392 6 171707804.20906      -403.508 6        40.577
C25        55.000                                                                                                                                    24928932.616 7 129811667.21107     -3950.584 7        43.075                                                                    24928932.754 7 105482687.01007     -3209.985 7        43.863
C23        56.000                                                                                                                                    22853601.663 8 119005054.63908     -1942.297 8        50.185                                                                    22853593.363 8  96701465.74708     -1578.139 8        49.545
C02        57.000                                                                                                                                    40749317.160 5 212192418.29205      -464.672 5        33.910    40749313.334 6 164080625.81106      -359.234 6        39.204    40749316.312 5 172423719.73805      -376.950 5        35.662
I03        58.000   113288580.671 6 368783447.21506      1039.106 6        40.491
C11        59.000                                                                                                                                    22015871.665 8 114642736.75608     -1850.766 8        48.697    22015867.831 8  88649188.73008     -1431.110 8        51.906    22015866.855 8  93156725.32108     -1503.723 8        48.943
C28        60.000                                                                                                                                    24606987.627 7 128135329.03507      2111.062 7        44.566                                                                    24606987.364 7 104120581.30807      1715.470 7        42.794
> 2025 01 01 17 46 20.0000000  0 54
G20         1.000    25690700.771 4 135005700.67704     -3655.621 4        26.790
G25         2.000    24836127.900 6 130514907.06006     -4392.659 6        36.045                                    24836129.464 4 101700022.79404     -3422.846 4        27.629    24836129.740 5 101700032.77705     -3423.092 5        34.876
G05         3.000    23308358.054 7 122486390.81107     -2184.307 7        42.286                                    23308354.030 6  95443999.50806     -1702.058 6        37.100    23308354.440 6  95443998.51806     -1702.216 6        39.685
G29         4.000    22169767.982 7 116503281.05207     -2976.990 7        46.008                                    22169763.572 7  90781942.90207     -2319.732 7        44.111    22169763.995 6  90781945.90106     -2319.762 6        41.683
S21         5.000    38495344.177 7 202294143.63707      -556.755 7        42.262
E13         6.000    24036513.746 7 126313075.35507      1150.229 7        47.493                                                                    24036514.604 8  94324905.00708       858.897 8        50.006    24036514.092 8  96785524.43208       881.378 8        50.602
G23         7.000    23482097.982 7 123399352.13907      2844.486 7        42.595                                    23482095.899 4  96155369.47904      2216.477 4        28.427    23482095.992 6  96155368.51006      2216.414 6        41.836
E15         8.000    23926588.930 7 125735399.38707     -1741.344 7        46.880                                                                    23926589.247 8  93893489.95308     -1300.386 8        50.346    23926588.854 8  96342861.24308     -1334.305 8        51.043
E30        10.000    28252775.533 6 148469532.12506     -3514.862 6        38.760                                                                    28252778.388 7 110870228.95507     -2624.531 7        42.042    28252777.606 7 113762482.75507     -2693.104 7        42.237
G26        11.000    20560054.220 8 108044199.68708      -362.700 8        49.879                                    20560052.816 8  84190471.59908      -282.624 8        51.287    20560052.826 7  84190491.60507      -282.694 7        45.785
S27        12.000    39273727.251 5 206384824.94405      -535.485 5        35.552
R15        13.000    21400577.126 8 114358494.09608     -4473.087 8        49.621                                                                    21400577.469 7  88945636.46607     -3479.041 7        44.686
S36        14.000    38266714.877 7 201093450.77307      -555.626 7        43.867
G27        15.000    23892398.587 6 125555664.49106      2718.622 6        40.362                                    23892396.979 5  97835736.33805      2118.399 5        34.029    23892398.171 6  97835650.38006      2118.221 6        36.665
S45        17.000    63478072.732 6 333580566.53406      -612.125 6        36.643
G31        18.000    23259902.121 7 122231894.32507     -3429.106 7        44.093                                    23259898.359 6  95245783.12706     -2672.026 6        39.757    23259899.070 6  95245762.13206     -2672.025 6        40.157
G16        19.000    21568166.296 7 113341743.59707      1837.341 7        46.662                                    21568161.263 5  88318362.60405      1431.698 5        33.922
E21        20.000    24097951.738 7 126635975.76707       650.631 7        47.403                                                                    24097951.296 8  94566045.22108       485.838 8        50.278    24097951.091 8  97032959.98508       498.534 8        51.058
E26        21.000    28151457.446 6 147937100.35806      2478.105 6        36.941                                                                    28151466.384 6 110472661.86306      1850.557 6        40.358    28151464.584 6 113354538.21206      1898.836 6        40.091
I06        22.000    38778267.455 6 152174457.19306      -407.249 6        41.380
S28        23.000    40971141.591 5 215304771.56405      -552.354 5        34.214
E34        24.000    27737716.231 6 145762984.74106     -3433.267 6        36.783                                                                    27737717.052 6 108849166.77506     -2563.814 6        40.787    27737716.263 6 111688690.33106     -2630.516 6        40.591
S23        25.000    38219744.113 7 200846070.49607      -558.655 7        44.572
C13        26.000                                                                                                                                    37741745.603 7 196531370.48407      -306.660 7        44.928    37741746.507 7 151970633.01307      -237.128 7        44.780    37741744.960 7 159697923.94807      -249.155 7        43.954
G18        27.000    20564831.909 8 108069272.86008      -377.271 8        50.002                                    20564827.785 7  84209996.26207      -293.976 7        43.676    20564827.955 8  84209987.26108      -294.006 8        49.916
I02        29.000    38744668.566 6 152042503.26406      -988.257 6        40.958
G28        30.000    24563707.813 6 129083300.56106     -4030.207 6        40.091                                    24563709.246 3 100584475.43003     -3140.409 3        23.790    24563709.537 6 100584472.40906     -3140.428 6        39.577
R02        31.000    23794014.240 7 126969445.49007      2636.527 7        42.451                                                                    23794016.117 6  98754029.56806      2050.584 6        38.637
C12        32.000                                                                                                                                    26026376.850 6 135526442.32606     -3450.461 6        36.862    26026373.722 7 104797768.98507     -2668.102 7        43.101    26026372.903 6 110126427.79006     -2803.601 6        41.249
R17        33.000    20479291.050 8 109589187.93408     -3212.250 8        50.740                                                                    20479289.419 7  85236202.68407     -2498.428 7        46.444
R08        34.000    24663365.080 6 132071115.09106     -3134.887 6        36.079                                                                    24663370.044 6 102721956.19806     -2438.472 6        36.798
E09        35.000    29075378.850 5 152792158.26505      -503.413 5        34.962                                                                    29075384.654 6 114098059.01706      -375.655 6        39.498    29075383.711 6 117074548.70406      -385.443 6        40.698
R18        36.000    19355565.221 8 103321727.99708       -41.985 8        51.448                                                                    19355564.798 7  80361550.32207       -32.650 7        47.690
E27        37.000    24148875.778 7 126903437.34307     -2179.952 7        47.955                                                                    24148875.460 8  94765706.82308     -1627.853 8        50.058    24148875.155 8  97237835.73908     -1670.325 8        50.596
R16        38.000    19429877.874 8 103791041.12108      -726.469 8        52.248                                                                    19429877.164 7  80726421.46107      -565.062 7        47.959
C22        39.000                                                                                                                                    26364427.369 6 137286484.16906     -1454.732 6        38.730                                                                    26364422.520 6 111556491.84106     -1182.083 6        39.946
R09        40.000    22144038.454 7 118247994.42907      3067.082 7        46.628                                                                    22144037.336 7  91970685.79407      2385.583 7        44.355
C34        41.000                                                                                                                                    23281708.580 7 121234302.41407     -2863.625 7        47.605                                                                    23281708.317 7  98512940.20607     -2326.871 7        46.503
S44        42.000    40580577.613 6 213252544.65906      -501.201 6        37.871
C38        43.000                                                                                                                                    38772556.800 7 201899036.41607     -1044.870 7        43.336                                                                    38772553.935 7 164059568.94007      -848.941 7        43.549
C05        44.000                                                                                                                                    39400497.163 6 205168744.93006      -487.290 6        38.258    39400492.184 6 158649507.49206      -376.790 6        41.809    39400495.309 6 166716510.94806      -396.047 6        40.689
C08        45.000                                                                                                                                    37771249.296 7 196684998.51607      -559.966 7        42.402    37771242.855 7 152089392.94907      -432.998 7        45.532    37771242.116 7 159822724.15407      -455.046 7        42.832
R19        47.000    21685932.296 6 116005464.68506      2497.384 6        38.102                                                                    21685932.862 6  90226634.81806      1942.461 6        41.476
C43        48.000                                                                                                                                    21546423.513 8 112198207.98008      -579.301 8        51.746                                                                    21546421.982 8  91170361.28408      -470.671 8        49.698
S48        51.000    77226436.317 6 405828124.34806      -596.193 6        37.830
R01        52.000    23067775.599 6 123310512.06106      -142.257 6        40.813                                                                    23067776.656 5  95908166.85505      -110.745 5        34.676
C37        53.000                                                                                                                                    24134246.923 7 125673382.72007      1097.558 7        46.322                                                                    24134249.892 7 102119941.49407       891.943 7        46.900
C60        54.000                                                                                                                                    40580578.135 6 211313904.44806      -496.804 6        39.733                                                                    40580563.438 6 171709822.51506      -403.584 6        40.765
C25        55.000                                                                                                                                    24932726.050 7 129831421.70207     -3951.274 7        43.240                                                                    24932726.526 7 105498739.14907     -3210.739 7        44.313
C23        56.000                                                                                                                                    22855468.125 8 119014773.32108     -1945.012 8        50.375                                                                    22855459.767 8  96709362.96808     -1580.407 8        49.694
C02        57.000                                                                                                                                    40749763.526 5 212194741.33905      -464.685 5        34.019    40749759.387 6 164082422.14606      -359.330 6        39.141    40749762.454 5 172425607.42005      -377.468 5        35.486
I03        58.000   113287257.181 6 368778252.53106      1038.935 6        40.551
C11        59.000                                                                                                                                    22017649.020 8 114651994.76908     -1852.280 8        48.880    22017645.907 8  88656347.61108     -1432.349 8        51.943    22017644.720 8  93164248.20908     -1505.087 8        48.981
C28        60.000                                                                                                                                    24604961.490 7 128124776.77107      2110.001 7        44.915                                                                    24604960.870 7 104112006.75907      1714.619 7        42.893
> 2025 01 01 17 46 25.0000000  0 54
G20         1.000    25694180.969 4 135023982.11804     -3656.458 4        26.683
G25         2.000    24840308.332 5 130536871.51905     -4392.718 5        35.833                                    24840309.322 4 101717137.94204     -3422.899 4        27.210    24840310.283 5 101717147.91505     -3423.000 5        34.976
G05         3.000    23310437.800 6 122497320.63606     -2187.365 6        41.840                                    23310433.965 6  95452516.26406     -1704.441 6        37.255    23310434.300 6  95452515.27706     -1704.558 6        39.664
G29         4.000    22172600.964 7 116518169.21207     -2978.020 7        46.126                                    22172596.747 7  90793544.05807     -2320.534 7        44.134    22172597.103 6  90793547.04406     -2320.502 6        41.795
S21         5.000    38495876.130 7 202296926.99907      -556.496 7        42.178
E13         6.000    24035420.251 7 126307328.85807      1148.599 7        47.539                                                                    24035421.034 8  94320613.79808       857.722 8        49.933    24035420.625 8  96781121.27708       880.146 8        50.667
G23         7.000    23479391.876 7 123385132.44007      2843.708 7        42.899                                    23479390.120 4  96144289.22104      2215.867 4        28.540    23479389.979 6  96144288.23906      2215.840 6        41.886
E15         8.000    23928246.638 7 125744110.75107     -1742.970 7        46.901                                                                    23928246.950 8  93899995.19708     -1301.556 8        50.391    23928246.563 8  96349536.19108     -1335.505 8        51.163
E30        10.000    28256120.120 6 148487107.08306     -3514.992 6        38.871                                                                    28256122.807 6 110883353.11406     -2624.882 6        41.878    28256122.191 7 113775949.27907     -2693.321 7        42.400
G26        11.000    20560400.729 8 108046021.16608      -365.638 8        49.702                                    20560399.429 8  84191890.93308      -284.913 8        51.326    20560399.543 7  84191910.93707      -284.893 7        45.851
S27        12.000    39274239.664 5 206387501.67505      -534.951 5        35.490
R15        13.000    21404762.867 8 114380865.19108     -4475.070 8        49.420                                                                    21404763.820 7  88963036.21107     -3480.600 7        44.846
S36        14.000    38267243.191 7 201096229.13207      -555.525 7        43.848
G27        15.000    23889812.251 6 125542073.40106      2718.147 6        40.341                                    23889810.646 5  97825145.91705      2118.029 5        34.181    23889811.266 6  97825059.93906      2118.054 6        36.208
S45        17.000    63478604.363 6 333583627.42606      -611.950 6        36.699
G31        18.000    23263165.591 7 122249043.83207     -3430.358 7        44.763                                    23263161.789 6  95259146.37606     -2673.006 6        39.880    23263162.153 6  95259125.37506     -2673.057 6        40.532
G16        19.000    21566418.976 7 113332562.58807      1835.219 7        46.513                                    21566414.191 5  88311208.57105      1430.038 5        34.014
E21        20.000    24097333.794 7 126632726.89207       649.173 7        47.449                                                                    24097333.054 8  94563619.10808       484.757 8        50.305    24097332.838 8  97030470.58808       497.400 8        51.132
E26        21.000    28149099.321 6 147924710.51306      2477.846 6        36.922                                                                    28149108.400 6 110463409.89006      1850.513 6        40.389    28149106.653 6 113345044.86506      1898.686 6        40.091
I06        22.000    38778786.151 6 152176493.01006      -406.919 6        41.118
S28        23.000    40971664.149 5 215307535.17205      -552.488 5        34.162
E34        24.000    27740982.915 6 145780151.97406     -3433.274 6        37.195                                                                    27740984.153 6 108861986.40606     -2564.015 6        41.263    27740983.076 6 111701844.39106     -2630.843 6        40.713
S23        25.000    38220275.387 7 200848863.12707      -558.239 7        44.441
C13        26.000                                                                                                                                    37742040.030 7 196532906.11507      -307.468 7        44.865    37742041.557 7 151971820.46107      -237.762 7        44.752    37742039.907 7 159699171.76507      -249.863 7        43.664
G18        27.000    20565192.222 8 108071166.70208      -380.028 8        50.235                                    20565188.179 7  84211471.98507      -296.126 7        43.719    20565188.374 8  84211462.98608      -296.133 8        49.881
I02        29.000    38745927.722 6 152047444.25406      -988.105 6        40.868
G28        30.000    24567542.884 6 129103452.39206     -4030.404 6        40.021                                    24567544.150 3 100600178.10703     -3140.553 3        23.905    24567544.249 6 100600175.08806     -3140.516 6        40.200
R02        31.000    23791545.420 7 126956268.44607      2634.565 7        42.961                                                                    23791546.996 6  98743780.77606      2049.140 6        39.865
C12        32.000                                                                                                                                    26029689.349 6 135543694.13106     -3450.156 6        36.673    26029686.768 7 104811109.17307     -2667.893 7        42.701    26029685.913 6 110140446.30506     -2803.806 6        41.209
R17        33.000    20482292.805 8 109605253.21808     -3213.664 8        50.557                                                                    20482291.785 7  85248697.91307     -2499.494 7        46.644
R08        34.000    24666294.515 6 132086797.34806     -3137.667 6        36.416                                                                    24666298.428 6 102734153.81306     -2439.951 6        38.348
E09        35.000    29075858.495 5 152794680.25805      -505.597 5        34.976                                                                    29075864.484 6 114099942.56106      -377.686 6        40.303    29075863.709 6 117076481.35506      -387.523 6        41.638
R18        36.000    19355605.941 8 103321945.42308       -44.744 8        51.356                                                                    19355605.251 7  80361719.42907       -34.753 7        47.841
E27        37.000    24150950.719 8 126914341.34308     -2181.461 8        48.089                                                                    24150950.429 8  94773849.41708     -1629.002 8        50.029    24150950.135 8  97246190.75208     -1671.506 8        50.730
R16        38.000    19430559.634 8 103794684.84908      -730.766 8        52.171                                                                    19430559.335 7  80729255.46707      -568.369 7        47.705
C22        39.000                                                                                                                                    26365825.788 6 137293764.55006     -1457.342 6        39.613                                                                    26365820.773 6 111562407.75906     -1184.204 6        39.907
R09        40.000    22141167.890 7 118232664.39007      3065.204 7        45.726                                                                    22141166.133 7  91958762.41507      2384.056 7        44.223
C34        41.000                                                                                                                                    23284458.914 7 121248622.69707     -2864.290 7        47.743                                                                    23284458.467 7  98524576.60707     -2327.527 7        46.436
S44        42.000    40581055.348 6 213255051.42206      -501.157 6        37.724
C38        43.000                                                                                                                                    38773560.523 7 201904263.33007     -1045.663 7        43.192                                                                    38773557.649 7 164063816.24907      -849.717 7        43.562
C05        44.000                                                                                                                                    39400965.190 6 205171182.11206      -487.232 6        38.102    39400960.269 6 158651392.07006      -376.799 6        41.828    39400963.260 6 166718491.34106      -396.006 6        40.534
C08        45.000                                                                                                                                    37771787.413 7 196687801.47607      -560.859 7        42.339    37771781.035 7 152091560.37607      -433.700 7        45.484    37771780.404 7 159825001.79507      -455.864 7        42.779
R19        47.000    21683598.786 6 115992982.07406      2495.733 6        37.633                                                                    21683599.010 7  90216926.14207      1941.194 7        42.000
C43        48.000                                                                                                                                    21546980.655 8 112201108.87408      -580.830 8        51.692                                                                    21546979.023 8  91172718.49708      -472.095 8        49.553
S48        51.000    77226973.068 6 405831104.96306      -595.838 6        37.626
R01        52.000    23067911.089 6 123311234.00306      -146.274 6        40.617                                                                    23067912.539 5  95908728.45305      -113.728 5        34.981
C37        53.000                                                                                                                                    24133194.188 7 125667900.91407      1095.456 7        46.490                                                                    24133197.118 7 102115487.08407       889.968 7        46.851
C60        54.000                                                                                                                                    40581055.136 6 211316388.41206      -496.675 6        39.595                                                                    40581040.359 6 171711840.94306      -403.555 6        40.560
C25        55.000                                                                                                                                    24936520.050 7 129851179.02707     -3951.542 7        43.581                                                                    24936520.675 7 105514793.58807     -3211.046 7        44.292
C23        56.000                                                                                                                                    22857336.816 8 119024504.87408     -1947.400 8        50.232                                                                    22857328.651 8  96717270.65508     -1582.553 8        49.571
C02        57.000                                                                                                                                    40750210.402 5 212197064.48505      -464.442 5        33.802    40750205.396 6 164084218.56306      -359.163 6        39.096    40750208.338 5 172427495.19005      -377.473 5        35.443
I03        58.000   113285932.922 6 368773057.86006      1039.125 6        40.517
C11        59.000                                                                                                                                    22019428.635 8 114661259.83408     -1853.550 8        49.084    22019425.359 8  88663511.94208     -1433.206 8        52.092    22019423.933 8  93171776.84208     -1506.255 8        48.926
C28        60.000                                                                                                                                    24602935.617 7 128114228.64007      2109.374 7        44.885                                                                    24602935.122 7 104103435.55807      1713.883 7        42.882
> 2025 01 01 17 46 30.0000000  0 54
G20         1.000    25697660.781 4 135042270.10304     -3658.040 4        26.335
G25         2.000    24844488.242 6 130558837.09706     -4392.991 6        36.038                                    24844489.247 4 101734253.96304     -3423.102 4        27.425    24844490.185 5 101734263.97605     -3423.387 5        34.643
G05         3.000    23312521.057 7 122508266.15807     -2190.602 7        42.254                                    23312516.941 6  95461045.28406     -1706.973 6        37.225    23312516.995 6  95461044.31106     -1706.878 6        39.282
G29         4.000    22175435.055 7 116533062.91707     -2979.256 7        46.167                                    22175430.969 7  90805149.54207     -2321.497 7        44.110    22175431.324 6  90805152.53606     -2321.471 6        41.614
S21         5.000    38496403.629 7 202299710.14607      -556.634 7        42.493
E13         6.000    24034328.719 7 126301591.03207      1146.722 7        47.782                                                                    24034329.178 8  94316329.06908       856.320 8        49.971    24034328.774 8  96776724.77608       878.643 8        50.745
G23         7.000    23476686.418 7 123370917.23207      2842.648 7        42.427                                    23476685.088 4  96133212.46004      2215.048 4        28.701    23476685.311 7  96133211.48407      2215.016 7        42.004
E15         8.000    23929906.131 7 125752830.66607     -1744.842 7        46.910                                                                    23929906.269 8  93906506.82208     -1302.936 8        50.355    23929905.894 8  96356217.67908     -1336.897 8        51.206
E30        10.000    28259464.680 6 148504683.90706     -3515.363 6        39.147                                                                    28259467.604 6 110896478.66006     -2625.173 6        41.805    28259466.970 7 113789417.23707     -2693.772 7        42.307
G26        11.000    20560750.073 8 108047857.78708      -368.842 8        49.950                                    20560748.931 8  84193322.06808      -287.406 8        51.319    20560749.121 7  84193342.07207      -287.360 7        46.030
S27        12.000    39274745.887 5 206390178.41705      -535.412 5        35.586
R15        13.000    21408952.224 8 114403246.87708     -4477.414 8        49.829                                                                    21408952.516 7  88980444.17907     -3482.402 7        44.775
S36        14.000    38267772.099 7 201099007.45807      -555.618 7        44.027
G27        15.000    23887226.607 6 125528484.85106      2717.451 6        40.830                                    23887224.765 5  97814557.47405      2117.485 5        34.290    23887225.560 6  97814471.47406      2117.699 6        36.132
S45        17.000    63479133.325 6 333585087.89816      -611.989 6        36.870
G31        18.000    23266430.212 7 122266201.34107     -3432.176 7        44.698                                    23266426.767 6  95272515.86006     -2674.421 6        39.910    23266427.105 6  95272494.86506     -2674.400 6        40.555
G16        19.000    21564673.768 7 113323392.41107      1833.034 7        46.379                                    21564669.154 5  88304062.97605      1428.337 5        33.964
E21        20.000    24096717.262 7 126629486.05407       647.402 7        47.555                                                                    24096716.314 8  94561199.00608       483.457 8        50.322    24096716.157 8  97027987.35108       496.062 8        51.239
E26        21.000    28146741.998 6 147912322.44206      2477.509 6        37.350                                                                    28146750.875 6 110454159.25806      1850.089 6        40.307    28146749.081 6 113335552.87806      1898.452 6        40.133
I06        22.000    38779304.833 6 152178528.45406      -407.110 6        41.306
S28        23.000    40972189.636 5 215310298.46705      -552.906 5        34.248
E34        24.000    27744249.955 6 145797320.49206     -3433.708 6        37.493                                                                    27744251.159 6 108874807.05506     -2564.151 6        41.499    27744250.281 6 111714999.50506     -2631.022 6        40.644
S23        25.000    38220807.358 7 200851655.38907      -558.374 7        44.719
C13        26.000                                                                                                                                    37742335.814 7 196534446.46907      -308.444 7        44.625    37742337.200 7 151973011.56307      -238.543 7        44.968    37742335.762 7 159700423.43407      -250.761 7        43.723
G18        27.000    20565555.333 8 108073074.63308      -382.889 8        50.244                                    20565551.244 7  84212958.68207      -298.354 7        43.721    20565551.428 8  84212949.68708      -298.421 8        49.544
I02        29.000    38747186.816 6 152052385.38206      -988.194 6        41.135
G28        30.000    24571378.115 6 129123605.39706     -4030.677 6        40.145                                    24571379.308 4 100615881.70104     -3140.780 4        24.241    24571379.821 6 100615878.69606     -3140.750 6        40.064
R02        31.000    23789078.462 7 126943101.20007      2632.489 7        43.352                                                                    23789078.223 6  98733539.58306      2047.600 6        39.411
C12        32.000                                                                                                                                    26033001.692 6 135560945.93406     -3450.382 6        36.794    26032999.873 7 104824449.32807     -2667.938 7        42.753    26032999.167 6 110154464.77206     -2803.803 6        41.278
R17        33.000    20485296.243 8 109621326.53608     -3215.401 8        50.328                                                                    20485295.436 7  85261199.38207     -2500.820 7        46.237
R08        34.000    24669225.052 6 132102493.93006     -3140.953 6        36.979                                                                    24669228.750 6 102746362.49606     -2442.671 6        36.439
E09        35.000    29076340.559 5 152797213.69005      -507.858 5        34.443                                                                    29076346.379 6 114101834.60806      -379.268 6        38.847    29076345.520 6 117078422.73506      -389.029 6        39.754
R18        36.000    19355649.398 8 103322177.35908       -47.814 8        51.343                                                                    19355648.805 7  80361899.82707       -37.177 7        47.937
E27        37.000    24153027.380 8 126925253.61008     -2183.271 8        48.074                                                                    24153026.961 8  94781998.18808     -1630.346 8        49.967    24153026.672 8  97254552.09408     -1672.863 8        50.728
R16        38.000    19431245.888 8 103798350.96408      -735.403 8        51.984                                                                    19431245.265 7  80732106.88707      -572.015 7        47.982
C22        39.000                                                                                                                                    26367226.268 6 137301057.98706     -1459.928 6        39.393                                                                    26367221.256 6 111568334.24606     -1186.269 6        40.167
R09        40.000    22138298.142 7 118217344.94907      3062.879 7        46.060                                                                    22138297.734 7  91946847.32607      2382.257 7        44.722
C34        41.000                                                                                                                                    23287209.768 7 121262946.85607     -2865.138 7        47.536                                                                    23287209.335 7  98536216.14907     -2328.148 7        46.550
S44        42.000    40581531.558 6 213257558.02406      -501.061 6        38.027
C38        43.000                                                                                                                                    38774565.216 7 201909494.14607     -1046.443 7        42.995                                                                    38774562.155 7 164068066.71307      -850.432 7        43.710
C05        44.000                                                                                                                                    39401432.940 6 205173618.99606      -487.254 6        38.075    39401428.144 6 158653276.42806      -376.823 6        41.847    39401431.247 6 166720471.51506      -395.983 6        40.558
C08        45.000                                                                                                                                    37772326.456 7 196690609.51507      -562.062 7        42.250    37772320.301 7 152093731.71407      -434.572 7        45.294    37772319.689 7 159827283.54007      -456.852 7        42.952
R19        47.000    21681267.183 6 115980508.88306      2493.730 6        38.360                                                                    21681267.983 7  90207224.79107      1939.525 7        42.123
C43        48.000                                                                                                                                    21547539.267 8 112204018.07808      -582.644 8        51.639                                                                    21547537.738 8  91175082.46608      -473.552 8        49.592
S48        51.000    77227514.282 6 405834085.70606      -595.925 6        37.924
R01        52.000    23068049.116 6 123311976.72306      -150.573 6        40.420                                                                    23068050.522 5  95909306.13605      -117.037 5        35.271
C37        53.000                                                                                                                                    24132143.635 7 125662430.69707      1092.917 7        46.302                                                                    24132146.597 7 102111042.08307       887.996 7        46.828
C60        54.000                                                                                                                                    40581532.026 6 211318872.23306      -496.655 6        39.444                                                                    40581517.459 6 171713859.26806      -403.791 6        40.653
C25        55.000                                                                                                                                    24940315.332 7 129870938.92607     -3952.160 7        43.391                                                                    24940315.241 7 105530850.10907     -3211.547 7        44.322
C23        56.000                                                                                                                                    22859207.958 8 119034249.00108     -1950.065 8        50.140                                                                    22859199.854 8  96725188.55908     -1584.640 8        49.683
C02        57.000                                                                                                                                    40750655.150 5 212199387.40905      -464.141 5        33.874    40750651.659 6 164086014.82306      -359.226 6        39.207    40750654.615 5 172429382.79205      -377.418 5        35.819
I03        58.000   113284609.272 6 368767863.02506      1038.931 6        40.451
C11        59.000                                                                                                                                    22021209.661 8 114670531.66908     -1855.013 8        48.871    22021205.911 8  88670681.51108     -1434.388 8        52.115    22021204.516 8  93179310.96508     -1507.371 8        49.044
C28        60.000                                                                                                                                    24600910.213 7 128103684.36907      2108.519 7        44.847                                                                    24600910.215 7 104094867.48307      1713.270 7        42.847
> 2025 01 01 17 46 35.0000000  0 54
G20         1.000    25701141.994 4 135060564.97404     -3659.232 4        26.515
G25         2.000    24848668.338 5 130580804.06505     -4393.459 5        35.886                                    24848669.508 4 101751371.05104     -3423.471 4        27.365    24848670.192 5 101751381.01905     -3423.574 5        34.943
G05         3.000    23314606.572 7 122519227.55007     -2194.028 7        42.311                                    23314602.949 6  95469586.67006     -1709.641 6        37.444    23314603.087 6  95469585.69706     -1709.626 6        39.868
G29         4.000    22178270.328 7 116547962.46507     -2980.578 7        45.967                                    22178266.246 7  90816759.57707     -2322.529 7        44.131    22178266.523 6  90816762.57406     -2322.561 6        41.743
S21         5.000    38496933.735 7 202302493.33907      -556.745 7        42.364
E13         6.000    24033238.394 7 126295862.10007      1144.816 7        47.906                                                                    24033239.018 8  94312050.98208       854.882 8        50.026    24033238.541 8  96772335.08208       877.172 8        50.546
G23         7.000    23473982.422 6 123356706.78206      2841.488 6        41.874                                    23473980.991 4  96122139.40904      2214.130 4        28.616    23473980.992 7  96122138.41707      2214.135 7        42.305
E15         8.000    23931566.913 7 125761559.32507     -1746.669 7        46.954                                                                    23931567.320 8  93913024.97408     -1304.341 8        50.376    23931566.919 8  96362905.87308     -1338.373 8        51.033
E30        10.000    28262809.998 6 148522262.84906     -3516.100 6        38.985                                                                    28262812.752 6 110909605.78106     -2625.670 6        41.676    28262812.113 7 113802886.78707     -2694.086 7        42.174
G26        11.000    20561102.701 8 108049709.77608      -371.968 8        49.902                                    20561101.344 8  84194765.18008      -289.845 8        51.369    20561101.422 7  84194785.19007      -289.963 7        45.970
S27        12.000    39275257.637 5 206392855.01905      -535.284 5        35.690
R15        13.000    21413142.299 8 114425639.59408     -4479.762 8        49.564                                                                    21413142.925 7  88997860.72007     -3484.220 7        44.981
S36        14.000    38268302.093 7 201101786.21807      -555.823 7        44.056
G27        15.000    23884641.083 6 125514899.03006      2716.700 6        40.551                                    23884639.429 5  97803971.15005      2116.909 5        34.286    23884640.704 6  97803885.16506      2116.598 6        36.578
S45        17.000    63479663.015 6 333588148.27606      -612.030 6        36.786
G31        18.000    23269696.493 7 122283367.08007     -3434.124 7        45.052                                    23269693.327 6  95285891.75806     -2675.942 6        39.943    23269693.668 6  95285870.76206     -2675.798 6        40.267
G16        19.000    21562931.095 7 113314233.32807      1830.600 7        46.324                                    21562926.227 5  88296926.02905      1426.441 5        34.000
E21        20.000    24096101.827 7 126626253.49507       645.568 7        47.766                                                                    24096101.232 8  94558785.08508       482.115 8        50.332    24096101.024 8  97025510.45508       494.688 8        51.038
E26        21.000    28144384.518 6 147899936.35706      2476.906 6        37.391                                                                    28144393.635 6 110444910.11206      1849.672 6        40.246    28144391.805 6 113326062.43806      1897.826 6        39.727
I06        22.000    38779823.301 6 152180563.65806      -407.134 6        41.464
S28        23.000    40972712.972 5 215313061.84505      -552.851 5        34.124
E34        24.000    27747517.246 6 145814490.46206     -3434.243 6        37.648                                                                    27747518.488 6 108887628.81406     -2564.520 6        41.743    27747517.784 6 111728155.73706     -2631.373 6        40.479
S23        25.000    38221337.598 7 200854447.58607      -558.560 7        44.652
C13        26.000                                                                                                                                    37742632.486 7 196535991.79407      -309.688 7        44.519    37742634.124 7 151974206.50107      -239.451 7        44.948    37742632.404 7 159701679.13907      -251.681 7        43.623
G18        27.000    20565921.143 8 108074996.89608      -386.015 8        50.135                                    20565917.041 7  84214456.55407      -300.793 7        43.754    20565917.342 8  84214447.55208      -300.815 8        49.876
I02        29.000    38748445.911 6 152057326.88806      -988.441 6        41.130
G28        30.000    24575213.620 6 129143759.83606     -4031.172 6        40.010                                    24575214.538 4 100631586.42404     -3141.167 4        24.045    24575214.810 6 100631583.41406     -3141.179 6        39.676
R02        31.000    23786612.087 7 126929943.81407      2630.414 7        42.349                                                                    23786613.195 6  98723306.07106      2045.913 6        38.967
C12        32.000                                                                                                                                    26036315.318 6 135578197.93506     -3450.551 6        37.115    26036313.056 7 104837789.67607     -2668.281 7        42.720    26036312.251 6 110168483.43006     -2803.899 6        41.218
R17        33.000    20488301.528 8 109637408.05208     -3217.236 8        50.768                                                                    20488300.496 7  85273707.22407     -2502.266 7        46.334
R08        34.000    24672158.590 6 132118205.36106     -3143.930 6        36.715                                                                    24672162.840 6 102758582.85206     -2445.298 6        36.873
E09        35.000    29076824.805 5 152799758.89705      -510.255 5        35.576                                                                    29076830.645 6 114103735.42706      -380.997 6        40.732    29076829.718 6 117080373.13106      -390.940 6        41.471
R18        36.000    19355695.751 8 103322424.06308       -50.970 8        51.405                                                                    19355695.008 8  80362091.70208       -39.551 8        48.090
E27        37.000    24155105.413 7 126936174.35607     -2185.175 7        47.825                                                                    24155105.095 8  94790153.29108     -1631.732 8        50.072    24155104.834 8  97262919.94508     -1674.316 8        50.567
R16        38.000    19431936.564 8 103802039.72708      -740.141 8        52.162                                                                    19431935.794 7  80734975.93107      -575.645 7        47.529
C22        39.000                                                                                                                                    26368629.793 6 137308364.68006     -1462.631 6        38.922                                                                    26368624.674 6 111574271.47306     -1188.563 6        40.029
R09        40.000    22135432.070 7 118202036.49707      3060.525 7        46.245                                                                    22135430.850 7  91934940.75007      2380.376 7        43.860
C34        41.000                                                                                                                                    23289961.209 7 121277275.07507     -2866.211 7        47.233                                                                    23289960.915 7  98547859.00607     -2329.013 7        46.482
S44        42.000    40582008.940 6 213260064.74406      -501.534 6        37.732
C38        43.000                                                                                                                                    38775570.316 7 201914729.18707     -1047.510 7        42.900                                                                    38775567.451 7 164072320.62407      -851.287 7        43.536
C05        44.000                                                                                                                                    39401901.060 6 205176055.83706      -487.493 6        38.030    39401896.144 6 158655160.74606      -376.869 6        41.826    39401899.358 6 166722451.64906      -396.130 6        40.484
C08        45.000                                                                                                                                    37772866.956 7 196693422.78807      -563.370 7        42.144    37772860.450 7 152095907.11007      -435.525 7        45.371    37772859.978 7 159829569.55007      -457.707 7        42.777
R19        47.000    21678937.989 6 115968045.47406      2491.620 6        38.568                                                                    21678937.816 7  90197531.04407      1937.895 7        42.142
C43        48.000                                                                                                                                    21548099.678 8 112206935.82308      -584.558 8        51.636                                                                    21548098.035 8  91177453.37608      -474.995 8        49.544
S48        51.000    77228051.682 6 405837065.91406      -596.024 6        37.977
R01        52.000    23068193.003 6 123312740.58606      -155.043 6        41.447                                                                    23068193.742 5  95909900.27105      -120.668 5        35.410
C37        53.000                                                                                                                                    24131095.551 7 125656972.35507      1090.418 7        46.231                                                                    24131098.327 7 102106606.73207       886.066 7        46.742
C60        54.000                                                                                                                                    40582008.893 6 211321356.16106      -496.818 6        39.517                                                                    40581994.425 6 171715877.67006      -403.776 6        40.524
C25        55.000                                                                                                                                    24944110.365 7 129890701.61007     -3952.900 7        43.062                                                                    24944110.393 7 105546908.90707     -3212.222 7        44.160
C23        56.000                                                                                                                                    22861081.934 8 119044005.93708     -1952.776 8        50.017                                                                    22861073.535 8  96733116.87408     -1586.842 8        49.552
C02        57.000                                                                                                                                    40751101.807 5 212201710.37005      -464.849 5        33.665    40751097.659 6 164087811.06806      -359.332 6        39.168    40751100.789 5 172431270.39105      -377.830 5        35.662
I03        58.000   113283285.479 6 368762668.15106      1038.927 6        40.675
C11        59.000                                                                                                                                    22022991.386 8 114679810.46008     -1856.585 8        48.793    22022987.518 8  88677856.46608     -1435.631 8        51.983    22022986.424 8  93186850.75608     -1508.674 8        48.859
C28        60.000                                                                                                                                    24598886.481 7 128093144.19407      2107.557 7        45.208                                                                    24598886.074 7 104086302.76307      1712.546 7        42.834
> 2025 01 01 17 46 40.0000000  0 54
G20         1.000    25704623.013 4 135078866.22704     -3660.812 4        26.335
G25         2.000    24852848.679 6 130602772.49506     -4393.598 6        36.208                                    24852850.006 4 101768489.29104     -3423.579 4        27.222    24852850.056 5 101768499.30005     -3423.812 5        34.605
G05         3.000    23316695.438 7 122530204.83107     -2196.917 7        42.942                                    23316691.876 6  95478140.42306     -1711.884 6        37.376    23316692.190 6  95478139.43406     -1712.023 6        39.844
G29         4.000    22181106.637 7 116562867.98307     -2981.650 7        46.466                                    22181102.623 7  90828374.26907     -2323.363 7        43.972    22181103.194 6  90828377.27106     -2323.352 6        41.733
S21         5.000    38497465.085 7 202305276.69107      -556.766 7        42.610
E13         6.000    24032149.687 7 126290142.26407      1143.104 7        47.805                                                                    24032150.609 8  94307779.67808       853.616 8        50.004    24032150.114 8  96767952.35408       875.873 8        50.708
G23         7.000    23471279.167 7 123342501.26407      2840.664 7        42.068                                    23471277.752 4  96111070.18904      2213.498 4        28.180    23471277.635 6  96111069.20206      2213.440 6        41.986
E15         8.000    23933229.816 7 125770296.91107     -1748.319 7        46.776                                                                    23933230.013 8  93919549.78408     -1305.572 8        50.361    23933229.644 8  96369600.89508     -1339.605 8        51.179
E30        10.000    28266155.724 6 148539844.02406     -3516.456 6        39.057                                                                    28266158.267 6 110922734.57506     -2625.906 6        41.569    28266157.624 7 113816358.07607     -2694.319 7        42.207
G26        11.000    20561457.874 8 108051577.31208      -374.930 8        49.866                                    20561456.713 8  84196220.40708      -292.152 8        51.267    20561456.725 7  84196240.40607      -292.149 7        46.065
S27        12.000    39275765.310 5 206395531.54305      -535.222 5        35.424
R15        13.000    21417334.822 8 114448043.35608     -4481.725 8        49.520                                                                    21417335.825 7  89015285.86607     -3485.806 7        45.043
S36        14.000    38268831.167 7 201104565.59307      -555.730 7        44.083
G27        15.000    23882055.895 6 125501316.11806      2716.427 6        39.694                                    23882054.679 5  97793387.09005      2116.688 5        34.224    23882055.394 6  97793301.12606      2116.766 6        36.972
S45        17.000    63480194.857 6 333591208.84306      -611.995 6        36.771
G31        18.000    23272964.934 7 122300541.20207     -3435.594 7        44.612                                    23272961.439 6  95299274.18906     -2677.085 6        39.790    23272961.569 6  95299253.18506     -2677.091 6        39.907
G16        19.000    21561190.291 7 113305085.51007      1828.520 7        46.237                                    21561185.456 5  88289797.85905      1424.819 5        34.005
E21        20.000    24095488.310 7 126623029.38207       644.136 7        47.915                                                                    24095487.709 8  94556377.47408       480.978 8        50.296    24095487.515 8  97023040.03808       493.517 8        51.152
E26        21.000    28142027.947 6 147887552.44106      2476.755 6        37.837                                                                    28142036.702 6 110435662.58106      1849.447 6        40.052    28142035.122 6 113316573.64506      1897.580 6        40.336
I06        22.000    38780341.667 6 152182598.74306      -406.991 6        41.330
S28        23.000    40973240.114 5 215315825.43805      -552.458 5        34.357
E34        24.000    27750784.976 6 145831662.03506     -3434.332 6        37.777                                                                    27750786.133 7 108900451.80807     -2564.643 7        42.085    27750785.688 6 111741313.24906     -2631.484 6        40.923
S23        25.000    38221870.790 7 200857239.98207      -558.354 7        44.760
C13        26.000                                                                                                                                    37742930.466 7 196537542.15107      -310.408 7        44.534    37742931.757 7 151975405.34707      -240.157 7        45.085    37742930.239 7 159702938.92807      -252.244 7        43.623
G18        27.000    20566289.632 8 108076933.62908      -388.700 8        50.089                                    20566285.596 7  84215965.69507      -302.885 7        43.693    20566285.893 8  84215956.69608      -302.902 8        50.069
I02        29.000    38749705.714 6 152062268.97406      -988.449 6        41.204
G28        30.000    24579048.726 6 129163915.83406     -4031.206 6        39.976                                    24579049.965 3 100647292.34303     -3141.180 3        23.695    24579049.771 6 100647289.32206     -3141.225 6        39.432
R02        31.000    23784147.931 7 126916796.40107      2628.584 7        42.696                                                                    23784148.913 6  98713080.30406      2044.420 6        38.934
C12        32.000                                                                                                                                    26039629.423 6 135595450.27706     -3450.321 6        37.134    26039626.547 7 104851130.29507     -2668.150 7        42.741    26039625.465 6 110182502.38006     -2803.758 6        41.118
R17        33.000    20491308.638 8 109653497.91408     -3218.646 8        50.423                                                                    20491307.782 7  85286221.56407     -2503.417 7        46.606
R08        34.000    24675094.576 5 132133931.61605     -3146.494 5        35.767                                                                    24675099.257 6 102770814.68906     -2447.540 6        36.783
E09        35.000    29077311.335 5 152802316.17005      -512.478 5        35.900                                                                    29077317.092 6 114105645.46306      -382.781 6        39.565    29077315.910 6 117082332.95206      -392.850 6        40.231
R18        36.000    19355744.652 8 103322685.72608       -53.716 8        51.564                                                                    19355743.757 8  80362295.22308       -41.740 8        48.009
E27        37.000    24157185.330 8 126947103.73808     -2186.632 8        48.014                                                                    24157184.904 8  94798314.84308     -1632.902 8        50.032    24157184.624 8  97271294.40408     -1675.491 8        50.696
R16        38.000    19432631.552 8 103805751.32208      -744.442 8        52.109                                                                    19432630.528 7  80737862.73207      -579.011 7        47.050
C22        39.000                                                                                                                                    26370035.135 6 137315684.92406     -1465.258 6        38.946                                                                    26370030.444 6 111580219.77206     -1190.666 6        40.148
R09        40.000    22132567.333 7 118186738.99607      3058.472 7        46.142                                                                    22132565.773 7  91923042.67507      2378.855 7        43.945
C34        41.000                                                                                                                                    23292713.369 7 121291607.50907     -2866.838 7        47.166                                                                    23292713.284 7  98559505.27107     -2329.445 7        46.458
S44        42.000    40582486.996 6 213262571.69406      -501.152 6        37.992
C38        43.000                                                                                                                                    38776576.438 7 201919968.57307     -1048.256 7        42.906                                                                    38776573.621 7 164076578.03907      -851.672 7        43.448
C05        44.000                                                                                                                                    39402368.721 6 205178492.76206      -487.380 6        37.898    39402364.224 6 158657045.13206      -376.803 6        41.881    39402367.202 6 166724431.84406      -395.898 6        40.281
C08        45.000                                                                                                                                    37773408.175 7 196696241.43807      -564.195 7        42.220    37773401.731 7 152098086.66007      -436.315 7        45.442    37773401.229 7 159831859.91807      -458.442 7        42.660
R19        47.000    21676609.755 6 115955591.74506      2489.813 6        38.817                                                                    21676609.400 6  90187844.79706      1936.654 6        41.969
C43        48.000                                                                                                                                    21548661.719 8 112209862.26208      -586.062 8        51.630                                                                    21548660.003 8  91179831.34308      -476.256 8        49.398
S48        51.000    77228591.049 6 405840046.07206      -595.947 6        38.027
R01        52.000    23068339.937 6 123313525.89906      -159.058 6        40.908                                                                    23068340.451 5  95910511.10705      -123.979 5        35.590
C37        53.000                                                                                                                                    24130049.179 7 125651526.04807      1088.163 7        45.795                                                                    24130052.502 7 102102181.14807       884.232 7        46.613
C60        54.000                                                                                                                                    40582486.199 6 211323840.33506      -496.832 6        39.544                                                                    40582471.453 6 171717896.25106      -403.652 6        40.329
C25        55.000                                                                                                                                    24947905.889 7 129910467.18607     -3953.396 7        42.354                                                                    24947906.024 7 105562970.02707     -3212.303 7        43.634
C23        56.000                                                                                                                                    22862958.138 8 119053775.82708     -1955.150 8        49.623                                                                    22862949.765 8  96741055.69408     -1588.707 8        49.399
C02        57.000                                                                                                                                    40751547.551 5 212204033.49505      -464.413 5        33.575    40751543.913 6 164089607.47306      -359.133 6        39.171    40751546.744 5 172433158.11405      -377.412 5        35.314
I03        58.000   113281961.543 6 368757473.39906      1038.951 6        40.501
C11        59.000                                                                                                                                    22024774.470 8 114689096.39908     -1857.745 8        48.770    22024770.620 8  88685036.94608     -1436.567 8        52.003    22024769.660 8  93194396.33308     -1509.611 8        48.772
C28        60.000                                                                                                                                    24596862.999 7 128082608.26907      2106.760 7        44.847                                                                    24596862.865 7 104077741.47007      1711.989 7        42.694
> 2025 01 01 17 46 45.0000000  0 54
G20         1.000    25708110.268 4 135097173.76204     -3662.636 4        25.639
G25         2.000    24857028.914 5 130624741.88805     -4393.798 5        35.652                                    24857030.780 4 101785608.28404     -3423.739 4        27.353    24857032.064 5 101785618.27405     -3423.825 5        34.905
G05         3.000    23318787.501 7 122541197.44907     -2200.031 7        42.622                                    23318783.647 6  95486706.12006     -1714.315 6        37.505    23318783.289 6  95486705.12606     -1714.188 6        39.550
G29         4.000    22183944.164 7 116577778.89907     -2982.636 7        46.357                                    22183940.024 7  90839993.16807     -2324.132 7        44.011    22183940.581 6  90839996.17106     -2324.221 6        41.416
S21         5.000    38497993.407 7 202308059.42807      -556.515 7        42.398
E13         6.000    24031063.185 7 126284430.94107      1141.433 7        47.975                                                                    24031063.733 8  94303514.73908       852.371 8        49.889    24031063.268 8  96763576.15308       874.631 8        50.709
G23         7.000    23468576.993 7 123328300.14307      2839.904 7        42.188                                    23468575.327 4  96100004.40604      2212.905 4        28.209    23468575.001 6  96100003.41706      2212.895 6        41.335
E15         8.000    23934894.038 7 125779042.87007     -1749.982 7        47.054                                                                    23934894.359 8  93926080.85708     -1306.845 8        50.303    23934893.951 8  96376302.34608     -1340.918 8        51.157
E30        10.000    28269501.515 6 148557426.91506     -3516.730 6        39.087                                                                    28269504.146 6 110935864.65206     -2626.211 6        41.187    28269503.475 6 113829830.67806     -2694.604 6        41.974
G26        11.000    20561816.060 8 108053459.84808      -378.040 8        50.204                                    20561814.948 8  84197687.32008      -294.577 8        51.326    20561815.043 7  84197707.31507      -294.614 7        45.878
S27        12.000    39276274.368 5 206398207.89505      -535.156 5        35.848
R15        13.000    21421529.376 8 114470457.66508     -4483.887 8        49.358                                                                    21421529.882 7  89032719.21007     -3487.404 7        45.102
S36        14.000    38269358.018 7 201107344.04007      -555.643 7        43.989
G27        15.000    23879471.531 6 125487735.63406      2715.855 6        40.870                                    23879470.421 5  97782804.92705      2116.250 5        34.224    23879470.448 6  97782718.94106      2116.225 6        36.775
S45        17.000    63480725.057 6 333594268.83106      -612.045 6        36.877
G31        18.000    23276234.230 7 122317723.13007     -3437.231 7        45.460                                    23276231.032 6  95312662.70306     -2678.361 6        39.862    23276231.738 6  95312641.70606     -2678.279 6        40.274
G16        19.000    21559451.612 7 113295948.45507      1826.347 7        45.995                                    21559446.737 5  88282678.07405      1423.128 5        34.090
E21        20.000    24094876.323 7 126619813.17707       642.524 7        47.847                                                                    24094875.650 8  94553975.76808       479.794 8        50.226    24094875.463 8  97020575.67608       492.282 8        51.219
E26        21.000    28139671.454 6 147875170.19406      2476.295 6        38.174                                                                    28139680.208 6 110426416.29906      1849.100 6        40.069    28139678.857 6 113307086.11106      1897.496 6        40.553
I06        22.000    38780860.453 6 152184633.33606      -406.825 6        41.166
S28        23.000    40973770.547 5 215318588.05405      -552.368 5        34.357
E34        24.000    27754052.696 6 145848834.65206     -3434.632 6        38.057                                                                    27754053.910 6 108913275.59206     -2564.754 6        41.986    27754053.588 6 111754471.55206     -2631.567 6        41.094
S23        25.000    38222402.220 7 200860032.05207      -558.278 7        44.656
C13        26.000                                                                                                                                    37743229.353 7 196539097.10507      -311.351 7        44.555    37743230.441 7 151976607.73207      -240.787 7        45.052    37743228.768 7 159704202.45807      -252.989 7        43.712
G18        27.000    20566660.880 8 108078884.30408      -391.435 8        50.132                                    20566656.795 7  84217485.70207      -305.015 7        43.786    20566657.003 8  84217476.70808      -305.038 8        49.896
I02        29.000    38750965.304 6 152067211.23906      -988.313 6        41.104
G28        30.000    24582884.859 6 129184072.83806     -4031.519 6        40.560                                    24582885.665 3 100662999.05303     -3141.439 3        23.429    24582885.601 6 100662996.05206     -3141.319 6        39.156
R02        31.000    23781686.612 7 126903658.66707      2626.489 7        42.918                                                                    23781687.542 6  98702862.06806      2043.100 6        38.928
C12        32.000                                                                                                                                    26042942.112 6 135612702.48506     -3450.528 6        37.202    26042939.263 7 104864470.78607     -2668.058 7        42.654    26042938.517 6 110196521.20706     -2803.732 6        41.125
R17        33.000    20494316.833 8 109669595.56308     -3220.274 8        50.808                                                                    20494315.834 7  85298741.96007     -2504.604 7        46.698
R08        34.000    24678034.013 6 132149672.15906     -3149.238 6        37.418                                                                    24678038.945 6 102783057.56606     -2449.783 6        39.459
E09        35.000    29077800.458 6 152804884.58706      -514.773 6        37.013                                                                    29077805.634 6 114107563.63606      -384.411 6        41.135    29077804.263 6 117084301.12906      -394.339 6        41.349
R18        36.000    19355796.254 8 103322961.79108       -56.619 8        51.573                                                                    19355795.753 7  80362509.94407       -44.084 7        47.999
E27        37.000    24159266.765 8 126958041.24408     -2188.263 8        48.034                                                                    24159266.302 8  94806482.45608     -1634.055 8        49.949    24159265.980 8  97279675.09208     -1676.723 8        50.741
R16        38.000    19433330.487 8 103809485.23608      -748.972 8        52.130                                                                    19433330.020 7  80740766.88507      -582.575 7        47.447
C22        39.000                                                                                                                                    26371442.964 6 137323018.11606     -1468.012 6        38.303                                                                    26371438.824 6 111586178.53306     -1192.758 6        40.012
R09        40.000    22129704.092 7 118171452.03007      3056.371 7        46.326                                                                    22129703.473 7  91911152.82807      2377.203 7        44.507
C34        41.000                                                                                                                                    23295466.623 7 121305943.64007     -2867.603 7        46.979                                                                    23295466.431 7  98571154.56107     -2330.128 7        46.472
S44        42.000    40582962.026 6 213265078.38606      -501.234 6        37.860
C38        43.000                                                                                                                                    38777583.333 7 201925211.77607     -1048.979 7        43.009                                                                    38777580.522 7 164080838.58807      -852.267 7        43.473
C05        44.000                                                                                                                                    39402836.712 6 205180929.27806      -487.335 6        37.671    39402832.139 6 158658929.21506      -376.727 6        41.728    39402835.238 6 166726411.73806      -396.072 6        40.398
C08        45.000                                                                                                                                    37773949.867 7 196699065.00107      -565.284 7        42.140    37773944.160 7 152100270.02907      -436.997 7        45.315    37773943.461 7 159834154.31307      -459.257 7        42.730
R19        47.000    21674283.439 6 115943147.19006      2487.990 6        37.939                                                                    21674282.950 6  90178165.74206      1935.101 6        41.778
C43        48.000                                                                                                                                    21549225.204 8 112212796.87808      -587.691 8        51.453                                                                    21549223.576 8  91182215.96208      -477.496 8        49.490
S48        51.000    77229131.472 6 405843026.03106      -596.016 6        37.890
R01        52.000    23068489.487 6 123314331.66506      -163.103 6        40.605                                                                    23068491.757 5  95911137.71805      -126.671 5        35.224
C37        53.000                                                                                                                                    24129005.665 7 125646091.23707      1085.842 7        45.959                                                                    24129008.770 7 102097764.91207       882.401 7        46.690
C60        54.000                                                                                                                                    40582963.258 6 211326324.22406      -496.844 6        39.378                                                                    40582948.512 6 171719914.63606      -403.596 6        40.377
C25        55.000                                                                                                                                    24951702.006 7 129930235.14507     -3953.730 7        42.102                                                                    24951701.962 7 105579033.10307     -3212.675 7        43.335
C23        56.000                                                                                                                                    22864836.406 8 119063558.14208     -1957.666 8        49.746                                                                    22864828.314 8  96749004.63108     -1590.721 8        49.539
C02        57.000                                                                                                                                    40751994.369 5 212206356.27405      -464.625 5        33.671    40751989.944 6 164091403.60706      -359.218 6        39.135    40751993.070 5 172435045.58005      -377.463 5        35.757
I03        58.000   113280638.018 6 368752278.35806      1039.026 6        40.424
C11        59.000                                                                                                                                    22026558.851 8 114698388.93908     -1859.100 8        48.585    22026555.364 8  88692222.52708     -1437.596 8        51.903    22026554.233 8  93201947.28708     -1510.695 8        48.831
C28        60.000                                                                                                                                    24594839.893 7 128072076.07907      2106.049 7        44.665                                                                    24594840.228 7 104069183.22507      1711.416 7        42.743
> 2025 01 01 17 46 50.0000000  0 54
G20         1.000    25711595.670 4 135115488.52504     -3663.429 4        24.707
G25         2.000    24861210.386 5 130646712.55405     -4394.418 5        35.619                                    24861211.636 4 101802728.25504     -3424.220 4        27.138    24861212.078 5 101802738.23805     -3424.259 5        34.929
G05         3.000    23320881.788 7 122552205.77607     -2203.418 7        42.004                                    23320878.379 6  95495284.05106     -1716.951 6        37.474    23320878.445 6  95495283.05006     -1716.903 6        39.568
G29         4.000    22186782.851 7 116592695.57707     -2983.946 7        45.694                                    22186778.520 7  90851616.55407     -2325.151 7        44.044    22186779.265 6  90851619.54906     -2325.235 6        41.569
S21         5.000    38498523.478 7 202310841.99707      -556.753 7        42.438
E13         6.000    24029978.029 7 126278728.49207      1139.462 7        47.984                                                                    24029978.569 8  94299256.42608       850.912 8        49.834    24029978.101 8  96759206.75808       873.045 8        50.715
G23         7.000    23465875.507 7 123314103.77707      2838.791 7        42.063                                    23465873.653 4  96088942.32504      2212.042 4        28.284    23465873.115 6  96088941.34106      2211.915 6        41.197
E15         8.000    23936560.040 7 125787797.54807     -1751.919 7        46.996                                                                    23936560.361 8  93932618.43708     -1308.272 8        50.207    23936559.911 8  96383010.46808     -1342.332 8        51.217
E30        10.000    28272847.688 6 148575011.84106     -3517.378 6        39.039                                                                    28272850.440 6 110948996.24906     -2626.596 6        41.182    28272849.735 6 113843304.83106     -2694.960 6        41.993
G26        11.000    20562177.349 8 108055357.71908      -381.274 8        50.140                                    20562176.103 8  84199166.18508      -297.097 8        51.421    20562176.012 7  84199186.18607      -297.085 7        45.770
S27        12.000    39276788.623 5 206400884.00905      -535.022 5        35.629
R15        13.000    21425726.005 8 114492882.83008     -4486.248 8        49.066                                                                    21425726.393 7  89050161.01807     -3489.324 7        44.429
S36        14.000    38269887.140 7 201110122.47707      -555.724 7        44.024
G27        15.000    23876888.547 6 125474157.86706      2715.204 6        40.372                                    23876886.704 5  97772224.88505      2115.739 5        34.310    23876886.724 6  97772138.89006      2115.696 6        37.006
S45        17.000    63481255.105 6 333597328.87006      -612.191 6        36.692
G31        18.000    23279505.497 7 122334913.19907     -3438.818 7        44.807                                    23279502.189 6  95326057.55906     -2679.597 6        39.919    23279502.495 6  95326036.57106     -2679.519 6        39.856
G16        19.000    21557715.066 7 113286822.46607      1823.972 7        45.901                                    21557710.138 5  88275566.92005      1421.273 5        34.119
E21        20.000    24094265.977 7 126616605.21607       640.694 7        47.968                                                                    24094265.160 8  94551580.21008       478.428 8        50.150    24094265.027 8  97018117.63008       490.867 8        51.275
E26        21.000    28137315.275 6 147862789.90006      2475.927 6        38.102                                                                    28137324.203 6 110417171.48906      1848.585 6        39.772    28137322.952 6 113297600.10706      1896.958 6        40.808
I06        22.000    38781378.868 6 152186667.67506      -407.000 6        41.271
S28        23.000    40974293.441 5 215321350.97205      -552.843 5        34.243
E34        24.000    27757320.616 6 145866008.56406     -3434.892 6        38.162                                                                    27757321.910 7 108926100.33407     -2565.219 7        42.182    27757321.803 6 111767630.84406     -2632.027 6        41.669
S23        25.000    38222933.060 7 200862823.88107      -558.404 7        44.621
C13        26.000                                                                                                                                    37743529.086 7 196540656.90707      -312.544 7        44.471    37743529.874 7 151977813.86207      -241.679 7        45.387    37743528.401 7 159705469.90707      -253.919 7        43.575
G18        27.000    20567034.886 8 108080849.26708      -394.516 8        49.950                                    20567030.716 7  84219016.84107      -307.417 7        43.879    20567030.865 8  84219007.83808      -307.426 8        49.915
I02        29.000    38752224.692 6 152072154.20806      -988.652 6        41.340
G28        30.000    24586720.704 6 129204231.17306     -4032.043 6        40.238                                    24586721.450 3 100678706.81203     -3141.843 3        22.971    24586721.452 6 100678703.80806     -3141.759 6        38.838
R02        31.000    23779226.324 7 126890530.83207      2624.558 7        43.661                                                                    23779227.390 6  98692651.56106      2041.203 6        38.420
C12        32.000                                                                                                                                    26046255.300 6 135629954.84006     -3450.756 6        37.429    26046252.281 7 104877811.40107     -2668.207 7        42.567    26046251.613 6 110210540.14906     -2803.874 6        40.965
R17        33.000    20497326.209 8 109685701.42508     -3222.156 8        50.422                                                                    20497325.456 7  85311268.74407     -2506.094 7        46.269
R08        34.000    24680975.317 6 132165427.20906     -3152.403 6        36.238                                                                    24680980.022 6 102795311.68406     -2451.833 6        38.189
E09        35.000    29078290.936 5 152807464.72705      -517.157 5        35.981                                                                    29078296.587 6 114109490.62006      -386.288 6        40.133    29078295.003 6 117086278.36506      -396.462 6        40.203
R18        36.000    19355850.736 8 103323252.52908       -59.726 8        51.525                                                                    19355850.229 7  80362736.07507       -46.466 7        47.950
E27        37.000    24161349.653 8 126968987.17808     -2190.150 8        48.269                                                                    24161349.214 8  94814656.36808     -1635.522 8        49.892    24161348.918 8  97288062.22908     -1678.145 8        50.809
R16        38.000    19434033.716 8 103813241.67808      -753.633 8        52.371                                                                    19434033.194 7  80743688.56707      -586.185 7        47.736
C22        39.000                                                                                                                                    26372853.913 6 137330364.70006     -1470.687 6        38.504                                                                    26372849.450 6 111592148.29206     -1195.132 6        40.088
R09        40.000    22126844.321 7 118156175.96307      3054.025 7        46.887                                                                    22126842.602 7  91899271.43607      2375.394 7        44.668
C34        41.000                                                                                                                                    23298220.644 7 121320283.77307     -2868.574 7        46.812                                                                    23298220.307 7  98582807.08107     -2330.887 7        46.484
S44        42.000    40583436.577 6 213267585.10106      -501.417 6        37.936
C38        43.000                                                                                                                                    38778591.231 7 201930459.13107     -1050.000 7        43.230                                                                    38778588.263 7 164085102.47407      -853.117 7        43.450
C05        44.000                                                                                                                                    39403304.506 6 205183365.68106      -487.481 6        37.698    39403299.898 6 158660813.19106      -376.813 6        41.905    39403303.019 6 166728391.49906      -396.004 6        40.513
C08        45.000                                                                                                                                    37774493.344 6 196701893.75406      -566.214 6        41.993    37774487.511 7 152102457.40707      -437.933 7        45.627    37774486.670 7 159836452.90507      -460.215 7        42.743
R19        47.000    21671957.636 6 115930712.40006      2485.910 6        37.705                                                                    21671958.715 7  90168494.25807      1933.505 7        42.212
C43        48.000                                                                                                                                    21549790.397 8 112215739.98408      -589.537 8        51.464                                                                    21549788.777 8  91184607.46408      -479.034 8        49.489
S48        51.000    77229668.902 6 405846006.27806      -596.177 6        37.947
R01        52.000    23068644.678 6 123315158.78006      -167.587 6        40.462                                                                    23068644.663 5  95911781.04105      -130.370 5        34.600
C37        53.000                                                                                                                                    24127964.330 7 125640668.24407      1083.297 7        45.746                                                                    24127967.324 7 102093358.28607       880.328 7        46.782
C60        54.000                                                                                                                                    40583440.125 6 211328808.16006      -496.920 6        39.285                                                                    40583425.469 6 171721933.02906      -403.710 6        40.527
C25        55.000                                                                                                                                    24955498.710 7 129950005.81707     -3954.457 7        42.263                                                                    24955498.433 7 105595098.39407     -3213.315 7        42.863
C23        56.000                                                                                                                                    22866717.620 8 119073353.19808     -1960.417 8        49.956                                                                    22866709.381 8  96756963.90708     -1592.954 8        49.532
C02        57.000                                                                                                                                    40752440.727 5 212208678.98905      -464.647 5        33.575    40752436.217 6 164093199.70606      -359.342 6        39.541    40752438.935 5 172436932.99205      -377.635 5        35.481
I03        58.000   113279313.473 6 368747083.25506      1039.013 6        40.472
C11        59.000                                                                                                                                    22028344.885 8 114707688.37208     -1860.665 8        48.580    22028341.177 8  88699413.43808     -1438.817 8        52.107    22028340.091 8  93209503.83408     -1511.989 8        48.881
C28        60.000                                                                                                                                    24592818.316 7 128061547.94307      2105.162 7        44.378                                                                    24592818.429 7 104060628.26707      1710.641 7        42.897
