     3.04           OBSERVATION DATA    M                   RINEX VERSION / TYPE
ssrcrin-15.6.1x                         20250101 234500 UTC PGM / RUN BY / DATE 
(00000000023479385599111004) Septentrio proprietary         COMMENT             
rref                                                        MARKER NAME         
01                                                          MARKER NUMBER       
geodetic                                                    MARKER TYPE         
NFB                 CLIMERS@TUW                             OBSERVER / AGENCY   
3297213             SEPT ASTERX SB3 PROB4.14.4              REC # / TYPE / VERS 
Unknown             Unknown                                 ANT # / TYPE        
  4127831.9371  1207193.2466  4695247.6012                  APPROX POSITION XYZ 
        0.0000        0.0000        0.0000                  ANTENNA: DELTA H/E/N
G   23 X1  C1C L1C D1C S1C C1W S1W C2W L2W D2W S2W C2L L2L  SYS / # / OBS TYPES 
       D2L S2L C5Q L5Q D5Q S5Q C1L L1L D1L S1L              SYS / # / OBS TYPES 
E   21 X1  C1C L1C D1C S1C C6C L6C D6C S6C C5Q L5Q D5Q S5Q  SYS / # / OBS TYPES 
       C7Q L7Q D7Q S7Q C8Q L8Q D8Q S8Q                      SYS / # / OBS TYPES 
S    9 X1  C1C L1C D1C S1C C5I L5I D5I S5I                  SYS / # / OBS TYPES 
R   17 X1  C1C L1C D1C S1C C2P L2P D2P S2P C2C L2C D2C S2C  SYS / # / OBS TYPES 
       C3Q L3Q D3Q S3Q                                      SYS / # / OBS TYPES 
C   25 X1  C1P L1P D1P S1P C5P L5P D5P S5P C2I L2I D2I S2I  SYS / # / OBS TYPES 
       C7I L7I D7I S7I C6I L6I D6I S6I C7D L7D D7D S7D      SYS / # / OBS TYPES 
J   17 X1  C1C L1C D1C S1C C2L L2L D2L S2L C5Q L5Q D5Q S5Q  SYS / # / OBS TYPES 
       C1L L1L D1L S1L                                      SYS / # / OBS TYPES 
I    5 X1  C5A L5A D5A S5A                                  SYS / # / OBS TYPES 
SEPTENTRIO RECEIVERS OUTPUT ALIGNED CARRIER PHASES.         COMMENT             
NO FURTHER PHASE SHIFT APPLIED IN THE RINEX ENCODER.        COMMENT             
G L1C                                                       SYS / PHASE SHIFT   
G L2W                                                       SYS / PHASE SHIFT   
G L2L  0.00000                                              SYS / PHASE SHIFT   
G L5Q  0.00000                                              SYS / PHASE SHIFT   
G L1L  0.00000                                              SYS / PHASE SHIFT   
E L1C  0.00000                                              SYS / PHASE SHIFT   
E L6C  0.00000                                              SYS / PHASE SHIFT   
E L5Q  0.00000                                              SYS / PHASE SHIFT   
E L7Q  0.00000                                              SYS / PHASE SHIFT   
E L8Q  0.00000                                              SYS / PHASE SHIFT   
S L1C                                                       SYS / PHASE SHIFT   
S L5I                                                       SYS / PHASE SHIFT   
R L1C                                                       SYS / PHASE SHIFT   
R L2P  0.00000                                              SYS / PHASE SHIFT   
R L2C                                                       SYS / PHASE SHIFT   
R L3Q  0.00000                                              SYS / PHASE SHIFT   
C L1P  0.00000                                              SYS / PHASE SHIFT   
C L5P  0.00000                                              SYS / PHASE SHIFT   
C L2I                                                       SYS / PHASE SHIFT   
C L7I                                                       SYS / PHASE SHIFT   
C L6I                                                       SYS / PHASE SHIFT   
C L7D                                                       SYS / PHASE SHIFT   
J L1C                                                       SYS / PHASE SHIFT   
J L2L  0.00000                                              SYS / PHASE SHIFT   
J L5Q  0.00000                                              SYS / PHASE SHIFT   
J L1L  0.00000                                              SYS / PHASE SHIFT   
I L5A                                                       SYS / PHASE SHIFT   
  2025     1     1    23    45    0.0000000     GPS         TIME OF FIRST OBS   
 C1C    0.000 C2C    0.000 C2P    0.000                     GLONASS COD/PHS/BIS 
DBHZ                                                        SIGNAL STRENGTH UNIT
    18                                                      LEAP SECONDS        
 24 R01  1 R02 -4 R03  5 R04  6 R05  1 R06 -4 R07  5 R08  6 GLONASS SLOT / FRQ #
    R09 -2 R10 -7 R11  0 R12 -1 R13 -2 R14 -7 R15  0 R16 -1 GLONASS SLOT / FRQ #
    R17  4 R18 -3 R19  3 R20  2 R21  4 R22 -3 R23  3 R24  2 GLONASS SLOT / FRQ #
                                                            END OF HEADER       
> 2025 01 01 23 45  0.0000000  0 55
G10         1.000    24758946.596 6 130109238.69206     -3576.859 6        39.820                                    24758944.850 5 101383883.36305     -2787.165 5        32.359    24758944.315 6 101383860.36306     -2787.265 6        36.159
G14         2.000    24492018.896 6 128706476.37006     -2206.731 6        39.015                                    24492014.997 3 100290762.79003     -1719.530 3        20.429    24492015.929 6 100290758.78106     -1719.478 6        36.741
C33         3.000                                                                                                                                    25695917.183 7 133805409.07107     -3551.303 7        42.425                                                                    25695928.627 7 108727914.01807     -2885.794 7        42.902
E31         4.000    27664759.929 6 145379336.86006     -2898.448 6        38.402                                                                    27664760.062 6 108562503.64706     -2164.348 6        40.946    27664759.445 6 111394565.54806     -2220.800 6        40.899
S21         5.000    38521487.218 7 202431548.53007      -473.061 7        42.406
E13         6.000    28447784.635 5 149494452.13705     -3049.560 5        34.057                                                                    28447785.650 6 111635671.50006     -2276.967 6        36.790    28447785.002 6 114547876.36706     -2336.510 6        37.936
G28         7.000    24613204.906 6 129343271.53906      2118.832 6        39.213                                    24613201.616 3 100786945.65903      1651.038 3        23.752    24613201.473 6 100786953.65006      1651.168 6        39.856
G03         8.000    21435584.188 7 112644853.49307      1925.313 7        46.677                                    21435581.844 7  87775252.20407      1500.245 7        46.588    21435582.500 7  87775250.20607      1500.243 7        43.570
G02         9.000    20816493.614 8 109391466.77608        31.260 8        50.058                                    20816486.801 7  85240099.37007        24.359 7        43.441
R12        10.000    24473315.613 6 130732094.40706     -3240.512 6        40.279                                                                    24473315.967 6 101680551.51006     -2520.415 6        38.054
C30        11.000                                                                                                                                    22367017.108 8 116470944.92908       880.941 8        50.247                                                                    22367017.463 8  94642186.57608       715.771 8        48.852
S27        12.000    39180919.145 5 205897172.31205      -448.775 5        35.767
R20        13.000    20694125.823 6 110660836.16206     -3199.836 6        37.648                                                                    20694127.312 7  86069606.22007     -2488.780 7        46.369
S36        14.000    38289317.534 7 201212252.24307      -472.523 7        43.917
S45        17.000    63491819.577 6 333652956.74206      -514.847 6        38.084
E08        18.000    28078598.890 6 147554067.85806     -3177.600 6        36.892                                                                    28078598.047 6 110186479.06606     -2372.911 6        40.810    28078597.930 6 113060904.92706     -2434.852 6        41.888
E12        19.000    27771323.592 5 145939296.80205      2081.276 5        35.767                                                                    27771320.059 6 108980631.37906      1554.136 6        38.727    27771320.189 6 111823603.94706      1594.646 6        39.411
G17        20.000    23629507.643 7 124173921.04707      2124.898 7        42.269                                    23629502.945 6  96758888.95506      1655.761 6        38.237    23629502.794 6  96758887.97906      1655.572 6        39.823
E26        21.000    24246685.246 7 127417539.23107     -1866.197 7        47.081                                                                    24246682.514 8  95149658.68508     -1393.567 8        49.776    24246682.445 8  97631799.19308     -1429.960 8        50.905
I06        22.000    38391406.876 7 150656363.28707      -246.237 7        42.565
S28        23.000    40968079.924 5 215288723.37405      -465.578 5        34.657
G08        24.000    23199985.027 7 121916754.12907     -3976.443 7        43.336                                    23199982.854 6  95000067.68206     -3098.529 6        39.477    23199983.969 6  95000068.69406     -3098.593 6        40.427
S23        25.000    38241616.138 7 200961018.12907      -470.113 7        45.008
C13        26.000                                                                                                                                    40853617.802 6 212735700.89006     -1221.592 6        38.721    40853619.138 6 164500848.84606      -944.513 6        39.018    40853616.819 6 172865269.46106      -992.469 6        36.862
E24        27.000    27900170.710 6 146616422.35206     -1032.840 6        38.571                                                                    27900169.209 6 109486302.10306      -771.309 6        41.106    27900168.669 7 112342463.02507      -791.385 7        42.459
R21        29.000    19400926.578 8 103818282.03708       660.574 8        51.662                                                                    19400924.588 7  80747556.25707       513.781 7        46.114
E19        30.000    27533205.918 5 144687990.40705      2783.634 5        34.248                                                                    27533205.202 6 108046223.82906      2078.776 6        37.059    27533204.179 6 110864818.33606      2132.991 6        36.949
R05        31.000    20371596.334 8 108897899.53708     -3196.491 8        49.953                                                                    20371595.525 7  84698376.58707     -2486.139 7        46.862
R13        32.000    23880997.718 6 127523215.40106     -1019.136 6        38.550
E29        33.000    24776088.459 7 130199302.58007      1802.670 7        46.247                                                                    24776086.753 8  97226765.67808      1346.165 8        48.969    24776086.510 8  99763110.71608      1381.296 8        49.511
C16        35.000                                                                                                                                    39753569.387 6 207007290.41506       852.767 6        41.170    39753568.244 6 160071179.06706       659.394 6        41.647    39753566.129 6 168210379.36506       692.918 6        37.595
C32        36.000                                                                                                                                    22947848.457 8 119495524.69708      1667.229 8        50.007                                                                    22947848.278 8  97099923.15308      1354.774 8        49.267
G32        37.000    22512778.241 7 118305489.67107     -2361.896 7        46.936                                    22512775.712 7  92186098.42007     -1840.436 7        45.592    22512776.543 7  92186107.41307     -1840.416 7        43.465
E07        38.000    24585002.593 7 129195079.51007     -1069.799 7        45.625                                                                    24585002.704 8  96476883.24708      -798.870 8        49.083    24585002.336 8  98993663.86008      -819.727 8        50.082
C41        39.000                                                                                                                                    22278542.902 8 116010251.42108     -1565.725 8        50.683                                                                    22278547.712 8  94267861.59908     -1272.292 8        50.204
C39        40.000                                                                                                                                    39408708.796 7 205211510.45507       480.739 7        42.220                                                                    39408703.779 7 166751156.99807       390.691 7        42.823
E33        41.000    23616367.139 8 124104934.71708       495.284 8        48.032                                                                    23616364.719 8  92675796.23408       369.873 8        50.890    23616364.570 8  95093421.59008       379.540 8        51.850
S44        42.000    40619535.673 6 213457277.00706      -531.552 6        38.550
R06        43.000    19926491.444 7 106331638.26207      1788.877 7        42.112
C05        44.000                                                                                                                                    39210095.855 6 204177295.94006      -449.856 6        38.610    39210089.797 7 157882862.31107      -347.724 7        43.592    39210092.069 6 165910882.21506      -365.521 6        40.453
C29        45.000                                                                                                                                    26452614.070 6 137745700.64406      2757.545 6        41.085                                                                    26452610.988 6 111929659.43806      2240.766 6        39.577
G04        46.000    25249412.837 6 132686567.68106      3375.903 6        36.669                                    25249410.527 2 103392110.10402      2630.543 2        16.113    25249411.409 5 103392112.08505      2630.478 5        35.276
R22        48.000    22832991.671 7 121884083.36807      3398.457 7        46.293                                                                    22832990.597 7  94798727.04207      2643.212 7        43.393
I05        49.000  -497586845.591 5-876852452.46605       251.245 5        32.060
C06        50.000                                                                                                                                    39462453.793 6 205491379.10606       966.005 6        38.814    39462448.916 7 158898950.91607       746.964 7        42.169    39462448.306 6 166978557.43406       784.841 6        39.622
S48        51.000    77277859.265 6 406099215.38006      -483.610 6        38.327
G21        52.000    20944433.745 7 110063817.57607     -1470.318 7        44.841                                    20944428.189 6  85764036.05806     -1145.701 6        37.433
C09        53.000                                                                                                                                    40460920.084 6 210690633.48806      1234.491 6        39.021    40460916.491 7 162919350.31907       954.626 7        43.124    40460914.317 6 171203375.36206      1003.169 6        38.844
C60        54.000                                                                                                                                    40619532.295 6 211516775.82806      -526.766 6        40.493                                                                    40619515.792 6 171874678.04706      -427.938 6        39.901
C27        55.000                                                                                                                                    22031407.658 8 114723340.59408     -2120.872 8        51.503                                                                    22031405.845 8  93222115.87608     -1723.359 8        48.930
R04        56.000    24506030.264 6 131228678.01506     -4781.908 6        37.860                                                                    24506029.806 5 102066737.40205     -3719.222 5        31.766
C02        57.000                                                                                                                                    40612550.496 5 211480265.27205      -491.680 5        34.333    40612543.030 6 163529952.53706      -380.177 6        40.296    40612547.050 6 171845044.02906      -399.293 6        36.601
I03        58.000   105626720.506 6 338716709.12606       961.588 6        40.946
R07        59.000    23476068.463 7 125669272.39407      3771.360 7        45.500                                                                    23476065.506 6  97742816.82006      2933.174 6        39.420
C28        60.000                                                                                                                                    25113889.874 7 130774922.82707     -3714.818 7        42.485                                                                    25113888.820 6 106265471.39606     -3018.776 6        41.943
> 2025 01 01 23 45  5.0000000  0 55
G10         1.000    24762349.860 6 130127123.14206     -3577.158 6        40.153                                    24762348.063 5 101397819.29905     -2787.392 5        32.293    24762347.295 5 101397796.31805     -2787.410 5        35.533
G14         2.000    24494119.700 6 128717515.21906     -2209.073 6        38.568                                    24494115.573 3 100299364.48403     -1721.352 3        20.167    24494115.483 6 100299360.47706     -1721.108 6        36.465
C33         3.000                                                                                                                                    25699327.440 7 133823166.82207     -3551.881 7        42.428                                                                    25699338.807 7 108742343.64007     -2886.073 7        42.925
E31         4.000    27667517.786 6 145393830.30606     -2899.231 6        38.541                                                                    27667518.134 6 108573326.67306     -2165.039 6        40.703    27667517.531 6 111405670.90606     -2221.446 6        41.092
S21         5.000    38521936.218 7 202433914.51007      -473.460 7        42.400
E13         6.000    28450686.384 5 149509699.90105     -3050.015 5        33.335                                                                    28450687.200 6 111647057.83606     -2277.518 6        36.662    28450686.524 6 114559559.71806     -2336.725 6        37.784
G28         7.000    24611189.246 6 129332680.09506      2117.528 6        38.853                                    24611186.135 3 100778692.58503      1650.021 3        23.429    24611185.286 6 100778700.58506      1649.854 6        39.288
G03         8.000    21433752.836 7 112635230.93307      1923.604 7        46.409                                    21433750.746 7  87767754.10407      1498.912 7        46.723    21433751.539 7  87767752.11307      1498.848 7        43.257
G02         9.000    20816464.828 8 109391314.95508        29.308 8        50.007                                    20816457.914 7  85239981.06907        22.837 7        43.581
R12        10.000    24476349.093 6 130748302.34606     -3242.732 6        41.986                                                                    24476349.843 6 101693157.68506     -2522.124 6        37.868
C30        11.000                                                                                                                                    22366172.320 8 116466545.65808       878.703 8        50.381                                                                    22366172.646 8  94638611.82308       714.079 8        48.684
S27        12.000    39181345.215 5 205899415.92105      -448.759 5        35.714
R20        13.000    20697118.201 6 110676841.71006     -3202.550 6        38.048                                                                    20697119.733 7  86082055.00107     -2490.873 7        46.256
S36        14.000    38289765.765 7 201214614.53007      -472.526 7        44.179
S45        17.000    63492266.060 6 333655530.70606      -515.012 6        38.039
E08        18.000    28081622.827 6 147569958.78106     -3178.813 6        36.669                                                                    28081621.993 6 110198345.65606     -2373.785 6        40.384    28081621.824 7 113073081.08007     -2435.732 7        42.125
E12        19.000    27769343.210 5 145928890.30505      2081.434 5        35.767                                                                    27769339.940 6 108972860.29006      1554.144 6        38.622    27769339.898 6 111815630.13006      1594.633 6        39.489
G17        20.000    23627486.865 7 124163301.01807      2123.052 7        43.096                                    23627482.044 6  96750613.61906      1654.324 6        38.456    23627481.940 6  96750612.61406      1654.318 6        39.501
E26        21.000    24248461.379 7 127426873.17007     -1867.484 7        47.059                                                                    24248458.720 8  95156628.82708     -1394.502 8        49.763    24248458.598 8  97638951.16508     -1430.913 8        51.211
I06        22.000    38391720.206 7 150657594.19307      -246.281 7        42.555
S28        23.000    40968523.397 5 215291050.20705      -465.175 5        34.724
G08        24.000    23203768.787 7 121936639.09207     -3977.574 7        43.154                                    23203767.067 6  95015562.45106     -3099.409 6        39.919    23203767.996 6  95015563.44406     -3099.341 6        41.030
S23        25.000    38242060.474 7 200963368.48907      -470.063 7        44.924
C13        26.000                                                                                                                                    40854791.099 6 212741808.22706     -1221.484 6        38.727    40854791.647 6 164505571.43106      -944.499 6        39.198    40854789.889 6 172870232.17606      -992.326 6        36.991
E24        27.000    27901154.654 6 146621592.13006     -1035.201 6        38.483                                                                    27901153.118 6 109490162.65606      -772.974 6        41.039    27901152.449 7 112346424.30407      -793.250 7        42.665
R21        29.000    19400310.715 8 103814987.12508       657.255 8        51.753                                                                    19400308.487 7  80744993.54707       511.136 7        45.479
E19        30.000    27530557.620 5 144674072.02605      2783.659 5        34.286                                                                    27530556.642 6 108035830.25406      2078.648 6        36.730    27530555.890 6 110854153.61106      2132.980 6        37.527
R05        31.000    20374587.575 8 108913889.10008     -3199.419 8        50.461                                                                    20374586.631 7  84710812.90707     -2488.373 7        46.674
R13        32.000    23881953.747 6 127528320.94306     -1023.228 6        37.758
E29        33.000    24774374.274 7 130190293.23207      1800.990 7        46.704                                                                    24774372.282 8  97220037.92008      1344.869 8        48.889    24774372.089 8  99756207.45008      1379.969 8        49.689
C16        35.000                                                                                                                                    39752750.151 6 207003028.38706       851.928 6        41.461    39752749.823 7 160067883.40507       658.853 7        42.013    39752747.673 6 168206916.14306       692.198 6        37.660
C32        36.000                                                                                                                                    22946248.506 8 119487192.99508      1665.329 8        50.156                                                                    22946248.207 8  97093152.97408      1353.274 8        49.193
G32        37.000    22515026.532 7 118317305.43607     -2364.549 7        46.852                                    22515024.182 7  92195305.50907     -1842.502 7        45.737    22515024.447 7  92195314.51607     -1842.495 7        42.876
E07        38.000    24586021.734 7 129200434.30807     -1072.126 7        45.857                                                                    24586021.692 8  96480881.95808      -800.653 8        49.042    24586021.302 8  98997766.88508      -821.568 8        50.268
C41        39.000                                                                                                                                    22280047.312 8 116018085.18608     -1567.865 8        50.736                                                                    22280052.085 8  94274227.18208     -1273.972 8        50.235
C39        40.000                                                                                                                                    39408247.545 7 205209108.83107       479.637 7        42.654                                                                    39408242.587 7 166749205.49507       389.901 7        42.684
E33        41.000    23615896.273 8 124102461.06408       494.117 8        48.153                                                                    23615894.034 8  92673949.02408       368.999 8        50.797    23615893.816 8  95091526.19508       378.605 8        52.121
S44        42.000    40620036.450 6 213459934.61406      -531.703 6        38.423
R06        43.000    19924816.759 7 106322702.53307      1785.319 7        42.038
C05        44.000                                                                                                                                    39210527.299 6 204179544.63206      -449.924 6        38.910    39210521.720 7 157884601.14307      -347.823 7        43.429    39210523.983 6 165912709.46206      -365.457 6        40.272
C29        45.000                                                                                                                                    26449965.722 6 137731913.34606      2757.213 6        41.490                                                                    26449963.504 6 111918456.15106      2240.531 6        39.799
G04        46.000    25246200.998 6 132669687.99206      3375.983 6        36.662                                    25246198.503 2 103378957.10602      2630.625 2        16.302    25246199.278 5 103378959.11405      2630.597 5        35.567
R22        48.000    22829809.407 7 121867092.19007      3397.911 7        46.353                                                                    22829807.915 7  94785511.67707      2642.787 7        43.437
I05        49.000  -497587163.770 5-876853708.04805       250.745 5        31.313
C06        50.000                                                                                                                                    39461525.991 6 205486550.77006       965.128 6        38.240    39461521.712 7 158895217.33207       746.270 7        42.193    39461521.130 6 166974634.01806       784.397 6        39.396
S48        51.000    77278305.596 6 406101633.33906      -483.575 6        38.333
G21        52.000    20945833.970 7 110071173.20907     -1472.086 7        44.947                                    20945827.905 6  85769767.71806     -1147.083 6        37.565
C09        53.000                                                                                                                                    40459734.135 6 210684462.04106      1233.881 6        38.610    40459731.212 7 162914578.16507       954.190 7        43.192    40459729.138 6 171198360.57306      1002.626 6        38.646
C60        54.000                                                                                                                                    40620038.094 6 211519409.27706      -526.853 6        40.605                                                                    40620021.564 6 171876817.94106      -427.797 6        39.928
C27        55.000                                                                                                                                    22033445.392 8 114733950.31308     -2123.136 8        51.498                                                                    22033443.307 8  93230737.15408     -1725.144 8        48.893
R04        56.000    24510494.677 6 131252587.21906     -4781.905 6        37.573                                                                    24510494.560 5 102085333.42405     -3719.174 5        32.317
C02        57.000                                                                                                                                    40613022.994 5 211482722.73005      -491.703 5        34.538    40613015.229 6 163531852.80106      -380.194 6        40.505    40613018.909 6 171847040.95206      -399.459 6        36.333
I03        58.000   105625494.879 6 338711900.97506       961.482 6        41.035
R07        59.000    23472546.211 7 125650417.97807      3770.243 7        44.676                                                                    23472543.594 6  97728152.29206      2932.431 6        39.565
C28        60.000                                                                                                                                    25117456.989 7 130793499.07607     -3715.679 7        42.792                                                                    25117456.110 6 106280566.13606     -3019.277 6        41.967
> 2025 01 01 23 45 10.0000000  0 55
G10         1.000    24765753.109 6 130145007.88906     -3576.902 6        40.398                                    24765751.326 5 101411755.47205     -2787.197 5        32.210    24765750.964 5 101411732.46005     -2787.090 5        35.157
G14         2.000    24496222.160 6 128728564.39906     -2210.805 6        38.357                                    24496218.197 3 100307974.24803     -1722.689 3        20.548    24496218.677 6 100307970.22806     -1722.627 6        37.066
C33         3.000                                                                                                                                    25702737.796 7 133840926.60107     -3552.008 7        42.555                                                                    25702749.514 7 108756774.92207     -2886.366 7        43.064
E31         4.000    27670277.151 6 145408328.17006     -2899.873 6        38.381                                                                    27670276.967 6 108584152.98606     -2165.462 6        40.858    27670276.534 6 111416779.66906     -2222.153 6        41.004
S21         5.000    38522388.952 7 202436280.05507      -472.849 7        42.555
E13         6.000    28453587.933 5 149524949.02105     -3050.003 5        33.078                                                                    28453588.943 6 111658445.15206     -2277.572 6        36.684    28453588.343 6 114571244.10706     -2337.011 6        37.887
G28         7.000    24609175.255 6 129322095.23106      2116.557 6        38.874                                    24609171.669 3 100770444.63803      1649.253 3        22.952    24609171.096 6 100770452.64606      1649.121 6        39.039
G03         8.000    21431923.587 7 112625616.56607      1922.167 7        46.551                                    21431921.181 7  87760262.39107      1497.794 7        46.787    21431921.789 7  87760260.38807      1497.880 7        43.204
G02         9.000    20816437.584 8 109391172.44408        27.662 8        50.030                                    20816430.785 7  85239870.02107        21.555 7        43.630
R12        10.000    24479386.594 7 130764521.76307     -3244.821 7        42.027                                                                    24479387.195 6 101705772.76906     -2523.832 6        38.372
C30        11.000                                                                                                                                    22365329.629 8 116462157.00308       876.739 8        50.497                                                                    22365329.814 8  94635045.68608       712.464 8        48.854
S27        12.000    39181776.610 5 205901659.18705      -448.485 5        35.838
R20        13.000    20700114.354 6 110692860.03906     -3204.890 6        38.324                                                                    20700115.501 7  86094513.68107     -2492.646 7        46.593
S36        14.000    38290215.655 7 201216976.45607      -472.189 7        43.882
S45        17.000    63492709.980 6 333658104.19706      -514.355 6        37.917
E08        18.000    28084647.735 6 147585854.04606     -3179.417 6        36.552                                                                    28084646.730 6 110210215.51406     -2374.208 6        40.379    28084646.587 7 113085260.58007     -2436.206 7        42.193
E12        19.000    27767363.236 5 145918483.55705      2081.550 5        35.643                                                                    27767359.525 6 108965089.03406      1554.303 6        38.718    27767359.486 6 111807656.14506      1594.878 6        39.366
G17        20.000    23625467.581 7 124152689.60007      2121.492 7        42.988                                    23625462.735 6  96742344.98406      1653.111 6        38.517    23625462.655 6  96742343.98506      1653.185 6        38.751
E26        21.000    24250238.367 7 127436212.66607     -1868.298 7        47.096                                                                    24250235.988 8  95163603.13008     -1395.168 8        49.823    24250235.791 8  97646107.40708     -1431.568 8        51.036
I06        22.000    38392033.729 7 150658824.79707      -245.998 7        42.762
S28        23.000    40968966.275 5 215293376.49605      -464.771 5        34.633
G08        24.000    23207553.833 7 121956528.42007     -3978.174 7        43.295                                    23207552.215 6  95031060.62406     -3099.872 6        40.105    23207552.663 6  95031061.62506     -3099.902 6        40.715
S23        25.000    38242508.383 7 200965718.38607      -469.883 7        44.652
C13        26.000                                                                                                                                    40855963.646 6 212747914.23106     -1220.975 6        38.580    40855964.420 6 164510292.99406      -944.131 6        39.222    40855962.664 6 172875193.82306      -992.119 6        37.206
E24        27.000    27902140.139 6 146626773.02806     -1037.201 6        38.345                                                                    27902139.006 6 109494031.50606      -774.500 6        41.192    27902138.301 7 112350394.07807      -794.691 7        42.667
R21        29.000    19399697.938 8 103811708.29508       654.277 8        51.399                                                                    19399696.270 7  80742443.34807       508.842 7        45.938
E19        30.000    27527909.061 5 144660153.70505      2783.722 5        33.701                                                                    27527908.057 6 108025436.69706      2078.782 6        37.077    27527907.159 6 110843488.94306      2132.857 6        37.784
R05        31.000    20377581.169 8 108929892.22808     -3201.883 8        50.081                                                                    20377580.301 7  84723259.79007     -2490.369 7        47.065
R13        32.000    23882913.292 6 127533446.27606     -1026.909 6        37.176
E29        33.000    24772661.067 7 130181291.67707      1799.654 7        46.489                                                                    24772659.356 8  97213315.97908      1343.904 8        48.915    24772659.097 8  99749310.15908      1378.946 8        49.641
C16        35.000                                                                                                                                    39751932.173 6 206998769.91106       851.497 6        41.292    39751932.089 7 160064590.47607       658.465 7        42.290    39751929.812 6 168203455.78406       691.820 6        37.800
C32        36.000                                                                                                                                    22944650.176 8 119478870.28008      1663.747 8        50.346                                                                    22944649.983 8  97086390.10208      1351.916 8        49.305
G32        37.000    22517277.455 7 118329133.42607     -2366.668 7        46.867                                    22517274.956 7  92204522.12207     -1844.158 7        45.813    22517275.104 7  92204531.12507     -1844.172 7        42.732
E07        38.000    24587043.044 7 129205800.28307     -1074.182 7        45.597                                                                    24587042.805 8  96484889.02408      -802.172 8        49.000    24587042.391 8  99001878.48008      -823.054 8        50.173
C41        39.000                                                                                                                                    22281553.665 8 116025929.07608     -1569.699 8        50.791                                                                    22281558.473 8  94280600.99108     -1275.500 8        50.317
C39        40.000                                                                                                                                    39407786.958 7 205206711.52207       479.098 7        42.794                                                                    39407782.241 7 166747257.50807       389.247 7        42.730
E33        41.000    23615426.385 8 124099992.62308       493.244 8        48.061                                                                    23615424.283 8  92672105.71008       368.320 8        50.830    23615424.102 8  95089634.79308       377.973 8        51.990
S44        42.000    40620546.890 6 213462591.85106      -531.253 6        38.685
R06        43.000    19923144.961 6 106313783.56906      1782.203 6        41.983
C05        44.000                                                                                                                                    39210959.088 6 204181792.95706      -449.448 6        38.859    39210953.634 7 157886339.70107      -347.596 7        43.554    39210955.740 6 165914536.43606      -365.372 6        40.646
C29        45.000                                                                                                                                    26447317.810 6 137718127.17606      2757.339 6        41.197                                                                    26447316.239 6 111907253.80706      2240.381 6        39.655
G04        46.000    25242988.791 6 132652807.27506      3376.433 6        36.522                                    25242986.264 2 103365803.34102      2630.975 2        17.321    25242986.676 5 103365805.34605      2631.029 5        35.557
R22        48.000    22826626.749 7 121850103.12007      3397.724 7        45.428                                                                    22826624.757 7  94772297.95807      2642.611 7        43.189
I05        49.000  -497587486.041 5-876854963.77705       251.295 5        30.098
C06        50.000                                                                                                                                    39460598.917 6 205481725.82706       964.719 6        37.879    39460595.252 7 158891486.38307       746.086 7        42.011    39460594.435 6 166970713.36206       784.146 6        39.426
S48        51.000    77278751.998 6 406104051.14906      -483.402 6        38.102
G21        52.000    20947235.046 7 110078537.54107     -1473.697 7        44.837                                    20947229.281 6  85775506.15906     -1148.334 6        37.603
C09        53.000                                                                                                                                    40458549.003 6 210678292.73006      1233.782 6        38.802    40458546.211 7 162909807.67107       954.027 7        43.357    40458544.330 6 171193347.51506      1002.491 6        38.465
C60        54.000                                                                                                                                    40620544.044 6 211522042.35606      -526.576 6        40.856                                                                    40620527.206 6 171878957.56206      -427.875 6        40.091
C27        55.000                                                                                                                                    22035484.737 8 114744570.74008     -2124.979 8        51.364                                                                    22035482.850 8  93239367.12808     -1726.812 8        48.920
R04        56.000    24514959.800 6 131276495.80506     -4781.515 6        37.497                                                                    24514958.738 5 102103929.03105     -3718.979 5        32.234
C02        57.000                                                                                                                                    40613494.585 5 211485179.94305      -491.336 5        34.262    40613486.685 6 163533752.85706      -379.878 6        40.246    40613491.031 6 171849037.63306      -399.393 6        36.491
I03        58.000   105624269.580 6 338707092.70206       961.605 6        41.192
R07        59.000    23469023.963 7 125631567.90107      3769.671 7        43.975                                                                    23469021.991 6  97713491.13506      2932.156 6        39.967
C28        60.000                                                                                                                                    25121025.163 7 130812078.76207     -3716.141 7        43.479                                                                    25121024.172 7 106295663.67407     -3019.746 7        42.006
> 2025 01 01 23 45 15.0000000  0 55
G10         1.000    24769156.519 6 130162893.01806     -3577.281 6        40.238                                    24769154.620 5 101425691.94805     -2787.493 5        32.287    24769154.227 5 101425668.97905     -2787.534 5        35.462
G14         2.000    24498327.051 6 128739624.02406     -2213.205 6        39.027                                    24498322.703 3 100316592.11903     -1724.576 3        20.500    24498322.837 6 100316588.14206     -1724.718 6        36.439
C33         3.000                                                                                                                                    25706148.860 7 133858688.53407     -3552.906 7        42.955                                                                    25706160.530 7 108771207.94207     -2887.014 7        43.139
E31         4.000    27673036.640 6 145422830.51406     -2901.299 6        38.757                                                                    27673036.705 6 108594982.63506     -2166.322 6        40.892    27673036.370 6 111427891.83106     -2222.991 6        40.880
S21         5.000    38522837.657 7 202438645.21007      -473.317 7        42.409
E13         6.000    28456490.497 5 149540199.51605     -3050.427 5        33.275                                                                    28456491.086 6 111669833.53506     -2278.034 6        36.983    28456490.220 6 114582929.56006     -2337.418 6        37.524
G28         7.000    24607162.004 6 129311517.05506      2114.710 6        38.306                                    24607158.603 3 100762201.90303      1647.839 3        22.686    24607158.402 6 100762209.90606      1647.853 6        39.240
G03         8.000    21430095.603 7 112616010.50007      1920.068 7        46.264                                    21430093.209 7  87752777.14507      1496.156 7        46.757    21430094.102 7  87752775.14507      1496.193 7        43.285
G02         9.000    20816412.371 8 109391039.35308        25.440 8        49.982                                    20816405.458 7  85239766.31307        19.825 7        43.602
R12        10.000    24482425.296 6 130780752.79006     -3247.661 6        41.375                                                                    24482424.953 6 101718396.97506     -2525.939 6        36.722
C30        11.000                                                                                                                                    22364488.884 8 116457779.06808       874.208 8        50.371                                                                    22364489.118 8  94631488.25308       710.448 8        48.773
S27        12.000    39182197.287 5 205903902.28305      -448.835 5        35.614
R20        13.000    20703111.211 6 110708891.27406     -3207.856 6        37.909                                                                    20703113.191 7  86106982.44207     -2494.962 7        46.056
S36        14.000    38290665.969 7 201219338.13107      -472.597 7        44.105
S45        17.000    63493153.815 6 333658977.37416      -514.821 6        37.909
E08        18.000    28087673.481 6 147601753.77906     -3180.736 6        36.824                                                                    28087672.445 6 110222088.69006     -2375.178 6        40.367    28087672.230 7 113097443.48407     -2437.104 7        42.078
E12        19.000    27765383.042 5 145908076.71005      2081.232 5        35.786                                                                    27765379.414 6 108957317.68106      1554.069 6        38.871    27765379.202 6 111799682.06206      1594.583 6        39.393
G17        20.000    23623449.535 7 124142086.95507      2119.316 7        43.170                                    23623445.077 6  96734083.18006      1651.417 6        38.628    23623445.034 6  96734082.17006      1651.501 6        39.219
E26        21.000    24252016.872 7 127445557.84007     -1869.909 7        47.303                                                                    24252014.359 8  95170581.67108     -1396.370 8        49.911    24252014.068 8  97653267.99408     -1432.786 8        50.955
I06        22.000    38392347.414 7 150660055.12707      -246.203 7        42.588
S28        23.000    40969410.227 5 215295702.39405      -465.445 5        34.081
G08        24.000    23211339.194 7 121976422.23207     -3979.536 7        44.095                                    23211337.922 6  95046562.28506     -3100.936 6        39.949    23211338.141 6  95046563.30406     -3100.982 6        39.640
S23        25.000    38242954.709 7 200968067.87507      -470.072 7        44.874
C13        26.000                                                                                                                                    40857134.940 6 212754019.12606     -1221.143 6        38.075    40857136.700 6 164515013.65706      -944.156 6        39.384    40857135.027 6 172880154.52706      -992.188 6        37.656
E24        27.000    27903128.003 6 146631965.17206     -1039.934 6        38.589                                                                    27903127.094 6 109497908.76206      -776.504 6        41.299    27903126.377 7 112354372.46607      -796.710 7        42.455
R21        29.000    19399088.106 8 103808445.59008       650.638 8        51.190                                                                    19399086.391 7  80739905.69007       506.077 7        45.869
E19        30.000    27525260.192 5 144646235.47605      2783.039 5        33.778                                                                    27525259.571 6 108015043.24606      2078.351 6        37.028    27525258.837 6 110832824.31606      2132.744 6        38.039
R05        31.000    20380577.602 8 108945908.98208     -3205.013 8        50.312                                                                    20380576.783 7  84735717.26707     -2492.817 7        47.211
R13        32.000    23883877.115 6 127538591.63406     -1031.214 6        38.306
E29        33.000    24770949.619 7 130172298.02207      1797.659 7        46.471                                                                    24770947.893 8  97206599.94108      1342.425 8        49.000    24770947.800 8  99742418.91808      1377.461 8        49.554
C16        35.000                                                                                                                                    39751115.289 6 206994515.06906       850.336 6        40.980    39751114.997 7 160061300.36907       657.623 7        42.195    39751112.710 6 168199998.36606       691.101 6        37.641
C32        36.000                                                                                                                                    22943053.461 8 119470556.66808      1661.531 8        50.193                                                                    22943053.430 8  97079634.60108      1350.197 8        49.264
G32        37.000    22519530.693 7 118340973.76007     -2369.601 7        46.866                                    22519528.121 7  92213748.35907     -1846.444 7        45.776    22519528.567 7  92213757.36507     -1846.491 7        42.779
E07        38.000    24588066.060 7 129211177.54307     -1076.891 7        45.752                                                                    24588066.022 8  96488904.50808      -804.164 8        49.134    24588065.683 8  99005998.71308      -825.116 8        50.103
C41        39.000                                                                                                                                    22283062.130 8 116033783.20508     -1572.106 8        50.645                                                                    22283066.776 8  94286983.10808     -1277.408 8        50.252
C39        40.000                                                                                                                                    39407327.333 7 205204318.65807       477.908 7        43.007                                                                    39407322.655 7 166745313.10807       388.377 7        42.815
E33        41.000    23614957.694 8 124097529.50308       491.819 8        48.126                                                                    23614955.572 8  92670266.36808       367.304 8        50.929    23614955.409 8  95087747.46908       376.849 8        51.937
S44        42.000    40621050.699 6 213465248.80706      -531.560 6        38.718
R06        43.000    19921477.250 6 106304881.45306      1778.617 6        41.876
C05        44.000                                                                                                                                    39211390.590 6 204184041.05206      -449.903 6        38.664    39211385.034 7 157888078.05907      -347.971 7        43.517    39211387.221 6 165916363.17406      -365.458 6        40.288
C29        45.000                                                                                                                                    26444670.919 6 137704342.33506      2756.448 6        41.197                                                                    26444668.702 6 111896052.48206      2239.909 6        39.757
G04        46.000    25239776.177 6 132635925.68106      3375.836 6        36.813                                    25239773.863 2 103352648.88902      2630.501 2        17.585    25239774.275 5 103352650.89605      2630.592 5        35.957
R22        48.000    22823443.447 7 121833116.35307      3396.800 7        45.368                                                                    22823443.082 7  94759086.03507      2641.990 7        42.919
I05        49.000  -497587805.409 5-876856219.62905       250.738 5        32.281
C06        50.000                                                                                                                                    39459673.163 6 205476904.39706       963.726 6        37.769    39459669.572 7 158887758.16907       745.171 7        42.385    39459668.634 6 166966795.57306       783.148 6        39.225
S48        51.000    77279204.132 6 406106468.40806      -483.831 6        38.447
G21        52.000    20948638.311 7 110085910.66307     -1475.666 7        44.844                                    20948632.342 6  85781251.44806     -1149.873 6        37.565
C09        53.000                                                                                                                                    40457365.219 6 210672125.68206      1232.760 6        38.931    40457361.938 7 162905038.91507       953.389 7        43.492    40457360.059 6 171188336.27706      1001.792 6        38.360
C60        54.000                                                                                                                                    40621049.382 6 211524675.17306      -526.905 6        40.565                                                                    40621032.906 6 171881096.93406      -428.115 6        39.892
C27        55.000                                                                                                                                    22037526.296 8 114755201.96908     -2127.627 8        51.470                                                                    22037524.403 8  93248005.86208     -1728.757 8        48.877
R04        56.000    24519424.631 6 131300403.63606     -4781.878 6        37.161                                                                    24519423.287 5 102122524.01105     -3719.124 5        32.228
C02        57.000                                                                                                                                    40613965.974 5 211487636.86305      -491.731 5        34.671    40613958.638 6 163535652.71206      -380.071 6        40.274    40613962.676 6 171851034.09406      -399.557 6        36.276
I03        58.000   105623044.500 6 338702284.38206       961.322 6        41.089
R07        59.000    23465502.944 7 125612722.30607      3768.387 7        43.371                                                                    23465502.572 6  97698833.47506      2930.971 6        39.862
C28        60.000                                                                                                                                    25124594.143 7 130830661.99407     -3717.250 7        43.977                                                                    25124593.119 7 106310764.06307     -3020.544 7        42.593
> 2025 01 01 23 45 20.0000000  0 55
G10         1.000    24772560.234 6 130180779.15206     -3577.084 6        40.412                                    24772558.115 5 101439629.20505     -2787.342 5        32.563    24772557.751 5 101439606.19505     -2787.367 5        35.971
G14         2.000    24500433.506 6 128750694.73606     -2215.171 6        38.213                                    24500429.437 3 100325218.65603     -1726.094 3        20.333    24500429.788 6 100325214.62606     -1725.972 6        36.457
C33         3.000                                                                                                                                    25709560.603 7 133876453.21607     -3553.169 7        43.139                                                                    25709571.947 7 108785643.20607     -2887.109 7        42.904
E31         4.000    27675796.750 6 145437337.95706     -2901.937 6        37.996                                                                    27675797.269 6 108605816.10806     -2166.921 6        40.725    27675796.905 6 111439007.91006     -2223.378 6        40.768
S21         5.000    38523287.359 7 202441010.54807      -473.070 7        42.317
E13         6.000    28459392.560 5 149555452.10505     -3050.551 5        33.359                                                                    28459393.563 6 111681223.44306     -2278.061 6        36.624    28459392.698 6 114594616.62006     -2337.493 6        37.157
G28         7.000    24605150.346 6 129300946.20906      2113.481 6        38.273                                    24605146.833 3 100753964.88303      1646.864 3        22.705    24605147.044 6 100753972.88006      1646.945 6        39.529
G03         8.000    21428269.202 7 112606413.36707      1918.696 7        46.118                                    21428266.931 7  87745298.85907      1495.085 7        46.858    21428267.677 7  87745296.85707      1495.194 7        43.234
G02         9.000    20816388.948 8 109390916.31208        23.767 8        49.990                                    20816382.040 7  85239670.43607        18.518 7        43.729
R12        10.000    24485465.710 6 130796996.03006     -3249.723 6        41.754                                                                    24485464.705 6 101731030.54006     -2527.371 6        38.198
C30        11.000                                                                                                                                    22363650.218 8 116453412.47308       872.280 8        50.319                                                                    22363650.545 8  94627940.03908       708.921 8        48.795
S27        12.000    39182627.247 5 205906145.67905      -448.451 5        35.614
R20        13.000    20706111.365 6 110724936.09106     -3210.219 6        38.081                                                                    20706113.858 7  86119461.71607     -2496.780 7        46.363
S36        14.000    38291117.313 7 201221701.04107      -472.442 7        43.954
S45        17.000    63493599.855 6 333661550.85006      -514.313 6        37.890
E08        18.000    28090699.944 6 147617658.57606     -3181.343 6        36.586                                                                    28090698.863 6 110233965.63606     -2375.541 6        40.420    28090698.819 7 113109630.27007     -2437.676 7        42.008
E12        19.000    27763403.001 5 145897670.33105      2081.553 5        35.333                                                                    27763398.920 6 108949546.68806      1554.361 6        38.853    27763398.903 6 111791708.35606      1594.850 6        39.057
G17        20.000    23621433.522 7 124131493.71407      2117.884 7        43.263                                    23621429.251 6  96725828.70806      1650.302 6        38.670    23621430.059 6  96725827.70406      1650.306 6        39.438
E26        21.000    24253796.323 7 127454909.31807     -1870.798 7        47.255                                                                    24253793.811 8  95177564.91208     -1397.018 8        49.795    24253793.568 8  97660433.41208     -1433.477 8        50.728
I06        22.000    38392660.715 7 150661285.69107      -246.124 7        42.633
S28        23.000    40969849.944 5 215298028.70405      -464.934 5        34.448
G08        24.000    23215126.005 7 121996321.13707     -3980.234 7        43.795                                    23215124.394 6  95062067.92606     -3101.483 6        39.781    23215124.674 6  95062068.93106     -3101.321 6        39.541
S23        25.000    38243403.115 7 200970417.62707      -469.712 7        45.049
C13        26.000                                                                                                                                    40858306.672 6 212760123.38406     -1220.517 6        38.183    40858308.923 6 164519733.88306      -943.993 6        39.474    40858307.151 6 172885114.77206      -991.911 6        37.505
E24        27.000    27904118.463 6 146637169.11106     -1042.007 6        38.369                                                                    27904117.086 6 109501794.82806      -778.061 6        41.080    27904116.732 7 112358359.92607      -798.441 7        42.292
R21        29.000    19398481.986 8 103805199.73408       647.647 8        51.473                                                                    19398479.936 7  80737381.13507       503.722 7        45.959
E19        30.000    27522612.137 5 144632318.03405      2783.640 5        33.892                                                                    27522611.061 6 108004650.36206      2078.536 6        36.851    27522610.508 6 110822160.33306      2132.831 6        37.800
R05        31.000    20383576.529 8 108961940.11608     -3207.480 8        50.177                                                                    20383575.684 7  84748185.92307     -2494.742 7        47.485
R13        32.000    23884844.475 6 127543757.58206     -1035.066 6        38.450
E29        33.000    24769239.946 7 130163312.90107      1796.303 7        46.635                                                                    24769237.949 8  97199890.27308      1341.406 8        48.807    24769238.015 8  99735534.22008      1376.352 8        49.356
C16        35.000                                                                                                                                    39750298.917 6 206990264.48906       849.920 6        40.865    39750298.328 7 160058013.56807       657.151 7        42.210    39750296.434 6 168196544.45106       690.698 6        37.837
C32        36.000                                                                                                                                    22941458.780 8 119462252.75608      1659.913 8        49.866                                                                    22941458.740 8  97072887.00308      1348.916 8        49.216
G32        37.000    22521786.361 7 118352827.02207     -2371.812 7        47.243                                    22521783.720 7  92222984.66907     -1848.167 7        45.868    22521784.256 7  92222993.66207     -1848.162 7        42.974
E07        38.000    24589091.375 7 129216566.69807     -1078.893 7        45.597                                                                    24589091.544 8  96492928.87108      -805.629 8        48.933    24589091.215 8  99010128.06508      -826.645 8        49.907
C41        39.000                                                                                                                                    22284572.344 8 116041648.16308     -1573.953 8        50.712                                                                    22284577.143 8  94293374.03408     -1278.828 8        50.204
C39        40.000                                                                                                                                    39406868.330 7 205201930.86607       477.064 7        42.872                                                                    39406864.245 7 166743372.82407       387.866 7        42.754
E33        41.000    23614490.223 8 124095072.33708       491.007 8        48.028                                                                    23614487.986 8  92668431.46908       366.658 8        50.779    23614487.799 8  95085864.70508       376.216 8        51.692
S44        42.000    40621556.788 6 213467906.13006      -531.301 6        38.673
R06        43.000    19919812.310 6 106295996.89006      1775.453 6        41.859
C05        44.000                                                                                                                                    39211822.719 6 204186289.49306      -449.700 6        38.622    39211816.769 7 157889816.70007      -347.523 7        43.344    39211819.059 6 165918190.22406      -365.064 6        40.191
C29        45.000                                                                                                                                    26442023.913 6 137690559.38106      2756.495 6        41.461                                                                    26442021.748 6 111884852.71206      2240.045 6        39.483
G04        46.000    25236563.470 6 132619043.78506      3376.385 6        36.885                                    25236561.557 2 103339494.20802      2630.956 2        17.887    25236562.158 6 103339496.20806      2631.128 6        36.147
R22        48.000    22820262.826 7 121816132.52407      3396.617 7        45.658                                                                    22820261.655 7  94745876.40007      2641.843 7        43.270
I05        49.000  -497588124.597 5-876857475.13305       251.093 5        32.389
C06        50.000                                                                                                                                    39458748.711 6 205472087.09206       963.129 6        37.705    39458744.166 7 158884033.11007       744.844 7        42.294    39458743.451 6 166962881.11106       782.671 6        39.198
S48        51.000    77279655.046 6 406108885.67106      -483.146 6        38.357
G21        52.000    20950042.999 7 110093293.22907     -1477.333 7        44.632                                    20950037.200 6  85787004.09606     -1151.170 6        37.728
C09        53.000                                                                                                                                    40456182.088 6 210665961.46906      1232.681 6        39.054    40456178.178 7 162900272.35507       953.159 7        43.570    40456176.224 6 171183327.33906      1001.856 6        38.438
C60        54.000                                                                                                                                    40621554.881 6 211527308.34206      -526.578 6        40.319                                                                    40621538.481 6 171883236.58306      -427.673 6        39.871
C27        55.000                                                                                                                                    22039570.335 8 114765844.61008     -2129.537 8        51.414                                                                    22039568.181 8  93256653.88908     -1730.349 8        48.809
R04        56.000    24523889.951 6 131324311.47006     -4781.340 6        37.198                                                                    24523888.218 5 102141118.96305     -3718.510 5        33.192
C02        57.000                                                                                                                                    40614438.066 5 211490094.21205      -491.145 5        34.329    40614430.225 6 163537552.90506      -379.879 6        40.255    40614434.602 6 171853030.88206      -398.981 6        36.208
I03        58.000   105621819.263 6 338697476.49406       961.653 6        40.894
R07        59.000    23461982.717 7 125593881.60907      3767.878 7        43.346                                                                    23461983.008 6  97684179.62506      2930.501 6        39.907
C28        60.000                                                                                                                                    25128163.692 7 130849249.35207     -3717.755 7        44.111                                                                    25128162.857 7 106325867.83707     -3020.975 7        42.550
> 2025 01 01 23 45 25.0000000  0 55
G10         1.000    24775963.656 6 130198665.69206     -3577.376 6        39.886                                    24775961.851 5 101453566.77105     -2787.566 5        32.611    24775962.347 6 101453543.76606     -2787.538 6        36.004
G14         2.000    24502541.663 6 128761775.87306     -2217.401 6        38.949                                    24502538.299 3 100333853.30703     -1727.851 3        20.524    24502538.185 6 100333849.28906     -1727.878 6        36.329
C33         3.000                                                                                                                                    25712972.610 7 133894220.09907     -3553.796 7        43.016                                                                    25712983.814 7 108800080.24107     -2887.502 7        42.709
E31         4.000    27678558.171 6 145451849.90306     -2903.017 6        39.021                                                                    27678558.896 6 108616652.95606     -2167.710 6        40.906    27678558.454 6 111450127.46206     -2224.384 6        40.977
S21         5.000    38523742.369 7 202443375.28907      -472.976 7        42.468
E13         6.000    28462295.186 5 149570706.17505     -3051.326 5        33.096                                                                    28462296.199 6 111692614.45406     -2278.510 6        36.246    28462295.444 6 114606304.75406     -2337.614 6        37.081
G28         7.000    24603140.300 6 129290382.13906      2112.003 6        38.429                                    24603136.633 3 100745733.14903      1645.717 3        22.819    24603136.815 6 100745741.13506      1645.691 6        39.772
G03         8.000    21426444.385 7 112596824.60207      1916.810 7        46.306                                    21426442.250 7  87737827.10007      1493.617 7        46.984    21426443.006 7  87737825.09607      1493.670 7        43.058
G02         9.000    20816367.456 8 109390802.76808        21.669 8        50.014                                    20816360.428 7  85239581.96407        16.884 7        43.881
R12        10.000    24488507.855 6 130813250.83206     -3252.220 6        40.901                                                                    24488507.821 6 101743673.13806     -2529.398 6        37.962
C30        11.000                                                                                                                                    22362813.614 8 116449056.66908       870.015 8        50.226                                                                    22362814.092 8  94624400.59008       707.055 8        48.794
S27        12.000    39183058.714 5 205908388.18905      -448.425 5        35.648
R20        13.000    20709115.957 6 110740993.84506     -3212.968 6        38.982                                                                    20709116.549 7  86131951.07507     -2498.887 7        46.045
S36        14.000    38291565.588 7 201224063.53307      -472.655 7        43.765
S45        17.000    63494047.585 6 333664123.97006      -514.869 6        37.769
E08        18.000    28093727.597 6 147633567.88006     -3182.675 6        36.253                                                                    28093726.428 6 110245845.95506     -2376.542 6        40.501    28093726.196 6 113121820.50006     -2438.428 6        41.871
E12        19.000    27761422.545 5 145887263.86705      2081.374 5        35.805                                                                    27761418.661 6 108941775.62906      1554.136 6        38.862    27761418.499 6 111783734.56806      1594.679 6        39.258
G17        20.000    23619419.580 7 124120909.33607      2115.858 7        42.535                                    23619415.094 6  96717581.14106      1648.719 6        38.658    23619415.522 6  96717580.13606      1648.815 6        39.057
E26        21.000    24255577.035 7 127464266.53107     -1872.196 7        46.996                                                                    24255574.382 8  95184552.44108     -1398.009 8        49.862    24255574.182 8  97667603.21808     -1434.445 8        50.747
I06        22.000    38392974.016 7 150662516.04507      -246.174 7        42.482
S28        23.000    40970295.420 5 215300354.66505      -465.034 5        34.319
G08        24.000    23218913.258 7 122016224.56207     -3981.376 7        43.446                                    23218911.661 6  95077577.08906     -3102.371 6        39.703    23218912.268 6  95077578.10406     -3102.312 6        39.411
S23        25.000    38243851.256 7 200972767.03407      -470.014 7        45.007
C13        26.000                                                                                                                                    40859479.364 6 212766226.53306     -1220.593 6        37.974    40859481.159 6 164524453.21306      -943.875 6        39.571    40859479.367 6 172890074.06106      -991.883 6        37.679
E24        27.000    27905111.252 6 146642384.34706     -1044.427 6        38.408                                                                    27905109.607 6 109505689.32106      -779.744 6        41.485    27905109.120 7 112362356.01207      -800.119 7        42.459
R21        29.000    19397878.136 8 103801970.18808       644.184 8        51.300                                                                    19397876.253 7  80734869.26507       501.056 7        46.045
E19        30.000    27519963.670 5 144618400.81105      2783.365 5        33.862                                                                    27519962.511 6 107994257.63406      2078.355 6        36.896    27519962.130 6 110811496.48406      2132.823 6        37.856
R05        31.000    20386578.051 8 108977984.93408     -3210.476 8        50.400                                                                    20386577.081 7  84760665.22207     -2496.982 7        47.219
R13        32.000    23885814.745 6 127548943.66006     -1039.387 6        38.550
E29        33.000    24767531.628 7 130154335.75507      1794.490 7        46.680                                                                    24767529.610 8  97193186.56608      1340.040 8        48.879    24767529.656 8  99728655.62508      1375.052 8        49.457
C16        35.000                                                                                                                                    39749482.770 6 206986017.65406       848.814 6        40.179    39749482.952 7 160054729.64607       656.344 7        42.169    39749480.946 6 168193093.52906       689.940 6        37.826
C32        36.000                                                                                                                                    22939866.176 8 119453958.00708      1657.949 8        50.135                                                                    22939865.825 8  97066146.83608      1347.340 8        49.180
G32        37.000    22524044.273 7 118364692.66907     -2374.470 7        47.248                                    22524041.665 7  92232230.63007     -1850.236 7        46.030    22524041.994 7  92232239.61707     -1850.177 7        42.646
E07        38.000    24590119.331 7 129221967.17507     -1081.323 7        45.577                                                                    24590119.292 8  96496961.69708      -807.457 8        49.143    24590118.928 8  99014266.08908      -828.465 8        49.873
C41        39.000                                                                                                                                    22286084.792 8 116049523.40608     -1576.227 8        50.651                                                                    22286089.530 8  94299773.31208     -1280.683 8        50.204
C39        40.000                                                                                                                                    39406410.828 7 205199547.56707       476.121 7        42.952                                                                    39406406.654 7 166741436.20407       386.949 7        42.775
E33        41.000    23614023.704 7 124092620.56007       489.672 7        47.918                                                                    23614021.437 8  92666600.60208       365.638 8        50.887    23614021.238 8  95083986.07308       375.248 8        51.723
S44        42.000    40622062.842 6 213470563.25506      -531.560 6        38.754
R06        43.000    19918149.912 6 106287129.23106      1771.717 6        41.645
C05        44.000                                                                                                                                    39212254.342 6 204188537.77606      -449.774 6        38.688    39212248.697 7 157891555.20707      -347.772 7        43.331    39212251.062 6 165920017.13306      -365.237 6        40.362
C29        45.000                                                                                                                                    26439376.952 6 137676777.78006      2756.119 6        41.271                                                                    26439375.076 6 111873654.01606      2239.624 6        39.513
G04        46.000    25233350.582 6 132602161.12106      3376.227 6        36.688                                    25233348.786 3 103326338.90803      2630.833 3        18.687    25233349.134 6 103326340.89606      2631.079 6        36.552
R22        48.000    22817081.791 7 121799151.04807      3396.057 7        45.797                                                                    22817079.828 7  94732668.59607      2641.308 7        42.870
I05        49.000  -497588444.732 5-876858730.65705       251.023 5        31.834
C06        50.000                                                                                                                                    39457824.431 6 205467273.34806       962.389 6        37.724    39457819.543 7 158880310.84107       744.048 7        42.409    39457818.931 6 166958969.57006       781.970 6        39.141
S48        51.000    77280103.371 6 406109702.57716      -483.407 6        38.195
G21        52.000    20951449.459 7 110100684.61807     -1479.229 7        44.620                                    20951443.731 6  85792763.61906     -1152.646 6        37.864
C09        53.000                                                                                                                                    40454999.178 6 210659799.56706      1232.028 6        39.060    40454995.009 7 162895507.58907       952.718 7        43.318    40454992.734 6 171178320.30106      1001.184 6        38.297
C60        54.000                                                                                                                                    40622060.425 6 211529941.29506      -526.625 6        40.536                                                                    40622044.222 6 171885376.07706      -427.836 6        40.036
C27        55.000                                                                                                                                    22041616.210 8 114776498.11408     -2131.921 8        51.260                                                                    22041614.121 8  93265310.72208     -1732.224 8        48.787
R04        56.000    24528354.091 6 131348218.67506     -4781.370 6        36.987                                                                    24528353.139 5 102159713.45205     -3719.034 5        32.132
C02        57.000                                                                                                                                    40614909.768 5 211492551.45205      -491.550 5        33.707    40614902.213 6 163539452.98206      -380.058 6        40.136    40614906.506 6 171855027.59406      -399.368 6        36.272
I03        58.000   105620594.246 6 338692668.62006       961.325 6        41.006
R07        59.000    23458464.400 7 125575045.43107      3766.750 7        44.042                                                                    23458463.732 6  97669529.26206      2929.692 6        39.024
C28        60.000                                                                                                                                    25131733.976 7 130867840.34007     -3718.822 7        43.816                                                                    25131732.992 7 106340974.51307     -3021.659 7        42.768
> 2025 01 01 23 45 30.0000000  0 55
G10         1.000    24779367.670 6 130216552.24706     -3577.421 6        39.778                                    24779365.646 5 101467504.34205     -2787.600 5        32.587    24779365.759 6 101467481.36106     -2787.705 6        36.578
G14         2.000    24504652.820 6 128772867.03206     -2219.552 6        38.595                                    24504648.694 3 100342495.76803     -1729.515 3        20.452    24504649.023 6 100342491.77306     -1729.532 6        36.197
C33         3.000                                                                                                                                    25716384.689 7 133911988.71607     -3554.065 7        42.868                                                                    25716395.846 7 108814518.71307     -2888.001 7        42.495
E31         4.000    27681320.843 6 145466365.93306     -2903.684 6        38.495                                                                    27681321.256 6 108627492.85906     -2168.412 6        40.949    27681320.681 6 111461250.12906     -2224.978 6        40.937
S21         5.000    38524187.461 7 202445739.06307      -472.883 7        42.391
E13         6.000    28465198.080 5 149585961.27805     -3051.419 5        33.359                                                                    28465199.091 6 111704006.24806     -2278.665 6        36.718    28465198.451 6 114617993.73806     -2338.117 6        37.066
G28         7.000    24601131.133 6 129279824.41206      2110.655 6        38.559                                    24601127.524 3 100737506.34803      1644.680 3        22.762    24601127.757 6 100737514.34306      1644.748 6        39.640
G03         8.000    21424621.650 7 112587243.75907      1915.165 7        46.237                                    21424619.066 7  87730361.50707      1492.335 7        46.871    21424619.968 7  87730359.51407      1492.360 7        43.001
G02         9.000    20816347.353 8 109390698.27908        19.800 8        49.994                                    20816340.539 7  85239500.54407        15.429 7        43.716
R12        10.000    24491553.718 7 130829516.78307     -3254.628 7        42.271                                                                    24491552.951 5 101756324.52305     -2531.363 5        35.881
C30        11.000                                                                                                                                    22361979.239 8 116444711.23008       867.855 8        50.311                                                                    22361979.574 8  94620869.57608       705.137 8        48.790
S27        12.000    39183483.477 5 205910630.39605      -448.584 5        35.486
R20        13.000    20712120.578 6 110757064.08106     -3215.649 6        38.177                                                                    20712121.645 7  86144450.14307     -2500.997 7        45.890
S36        14.000    38292014.888 7 201226425.50307      -472.546 7        44.041
S45        17.000    63494488.045 6 333666696.47206      -514.486 6        37.641
E08        18.000    28096755.571 6 147649481.20906     -3183.323 6        36.938                                                                    28096754.654 6 110257729.29906     -2377.186 6        40.539    28096754.179 6 113134013.83206     -2439.113 6        41.652
E12        19.000    27759442.170 5 145876856.85305      2081.326 5        35.862                                                                    27759438.265 6 108934004.16106      1554.208 6        39.144    27759438.203 6 111775760.36906      1594.634 6        39.219
G17        20.000    23617407.141 7 124110333.38107      2114.172 7        43.117                                    23617402.542 6  96709340.14306      1647.403 6        38.538    23617402.994 6  96709339.13606      1647.379 6        39.465
E26        21.000    24257358.664 7 127473629.02507     -1873.280 7        47.090                                                                    24257356.047 8  95191543.91608     -1398.852 8        49.964    24257355.908 8  97674777.08308     -1435.395 8        50.801
I06        22.000    38393287.938 7 150663745.86007      -246.049 7        42.641
S28        23.000    40970737.973 5 215302679.86705      -465.240 5        34.276
G08        24.000    23222701.654 7 122036132.03007     -3982.109 7        43.071                                    23222699.747 6  95093089.40206     -3102.945 6        39.592    23222700.787 6  95093090.41206     -3102.863 6        39.688
S23        25.000    38244297.846 7 200975115.68407      -469.832 7        44.957
C13        26.000                                                                                                                                    40860651.422 6 212772328.10306     -1220.331 6        38.252    40860653.017 6 164529171.31306      -943.559 6        39.553    40860650.720 6 172895032.08206      -991.665 6        37.429
E24        27.000    27906106.102 6 146647610.37006     -1046.631 6        38.928                                                                    27906104.233 6 109509591.87906      -781.454 6        41.492    27906103.625 7 112366360.37807      -801.878 7        42.375
R21        29.000    19397277.490 8 103798756.46208       640.979 8        51.104                                                                    19397275.671 7  80732369.70507       498.493 7        45.849
E19        30.000    27517315.186 5 144604483.40505      2783.354 5        33.748                                                                    27517313.920 6 107983864.77906      2078.394 6        36.885    27517313.798 6 110800832.54006      2132.330 6        37.826
R05        31.000    20389582.032 8 108994042.87208     -3213.093 8        49.819                                                                    20389581.014 7  84773154.74507     -2499.126 7        47.256
R13        32.000    23886790.707 6 127554149.31906     -1043.331 6        38.162
E29        33.000    24765824.570 7 130145366.14107      1792.990 7        46.654                                                                    24765822.851 8  97186488.48308      1338.910 8        48.965    24765822.724 8  99721782.81408      1373.847 8        49.420
C16        35.000                                                                                                                                    39748667.718 6 206981774.06706       848.191 6        40.253    39748667.906 7 160051448.23607       655.848 7        42.243    39748666.047 6 168189645.28206       689.219 6        37.917
C32        36.000                                                                                                                                    22938274.970 8 119445671.98208      1656.133 8        50.296                                                                    22938274.553 8  97059413.77608      1345.666 8        49.243
G32        37.000    22526304.523 7 118376570.21607     -2376.901 7        47.472                                    22526301.851 7  92241485.86007     -1852.130 7        45.896    22526302.419 7  92241494.86407     -1852.125 7        42.516
E07        38.000    24591149.124 7 129227378.52207     -1083.521 7        45.591                                                                    24591149.011 8  96501002.64808      -809.153 8        49.197    24591148.662 8  99018412.46108      -830.255 8        49.954
C41        39.000                                                                                                                                    22287598.863 8 116057408.46208     -1578.192 8        50.816                                                                    22287603.732 8  94306180.57708     -1282.482 8        50.273
C39        40.000                                                                                                                                    39405953.702 7 205197168.32307       475.299 7        42.790                                                                    39405949.591 7 166739502.87607       386.199 7        42.832
E33        41.000    23613558.021 8 124090173.73608       488.649 8        48.086                                                                    23613555.818 8  92664773.43408       364.897 8        50.993    23613555.624 8  95082111.24108       374.403 8        51.691
S44        42.000    40622570.751 6 213473219.71806      -531.440 6        38.535
R06        43.000    19916491.391 6 106278277.99006      1768.434 6        41.733
C05        44.000                                                                                                                                    39212686.024 6 204190785.37806      -449.471 6        38.450    39212680.405 7 157893293.21207      -347.681 7        43.573    39212682.591 6 165921843.51806      -365.411 6        40.377
C29        45.000                                                                                                                                    26436730.328 6 137662997.18806      2755.767 6        41.192                                                                    26436728.762 6 111862456.18706      2239.179 6        40.129
G04        46.000    25230138.048 6 132585277.14806      3376.690 6        37.172                                    25230135.621 3 103313182.59103      2631.184 3        18.716    25230136.532 6 103313184.59406      2631.232 6        36.824
R22        48.000    22813900.900 7 121782171.49007      3395.550 7        46.231                                                                    22813898.892 7  94719462.27407      2640.967 7        43.255
I05        49.000  -497588765.521 5-876859986.56605       251.009 5        32.234
C06        50.000                                                                                                                                    39456901.012 6 205462462.75206       961.589 6        37.947    39456895.924 7 158876590.98807       743.504 7        43.075    39456895.242 6 166955060.57006       781.377 6        39.063
S48        51.000    77280556.517 6 406112118.67506      -483.362 6        38.324
G21        52.000    20952857.669 7 110108084.40407     -1481.014 7        44.829                                    20952851.868 6  85798529.68506     -1154.037 6        37.694
C09        53.000                                                                                                                                    40453816.065 6 210653639.51306      1231.573 6        39.580    40453811.938 7 162890744.24907       952.258 7        43.052    40453809.662 6 171173314.75806      1000.845 6        38.273
C60        54.000                                                                                                                                    40622566.130 6 211532573.60206      -526.617 6        40.338                                                                    40622549.586 6 171887515.06006      -427.959 6        39.757
C27        55.000                                                                                                                                    22043663.916 8 114787162.03408     -2134.063 8        51.475                                                                    22043662.044 8  93273976.04208     -1734.118 8        48.791
R04        56.000    24532817.526 6 131372124.82906     -4781.375 6        36.707                                                                    24532816.566 5 102178307.14305     -3719.063 5        32.281
C02        57.000                                                                                                                                    40615381.448 5 211495008.07605      -491.525 5        34.362    40615374.309 6 163541352.58206      -379.993 6        40.215    40615378.235 6 171857023.79006      -399.408 6        36.518
I03        58.000   105619369.117 6 338687860.39606       961.621 6        41.097
R07        59.000    23454946.637 7 125556213.41807      3765.936 7        45.481                                                                    23454945.943 6  97654882.13106      2928.893 6        38.297
C28        60.000                                                                                                                                    25135304.496 7 130886434.41807     -3719.287 7        44.021                                                                    25135303.792 7 106356083.73907     -3022.239 7        43.029
> 2025 01 01 23 45 35.0000000  0 55
G10         1.000    24782771.459 6 130234439.16306     -3577.205 6        39.523                                    24782769.499 5 101481442.19205     -2787.436 5        32.617    24782769.168 6 101481419.19506     -2787.509 6        36.609
G14         2.000    24506764.931 6 128783968.61306     -2221.244 6        38.649                                    24506760.950 3 100351146.34603     -1730.829 3        20.238    24506761.776 6 100351142.34706     -1730.843 6        36.488
C33         3.000                                                                                                                                    25719797.239 7 133929759.44807     -3554.231 7        42.663                                                                    25719808.461 7 108828958.86307     -2888.075 7        42.427
E31         4.000    27684083.985 6 145480886.39906     -2904.416 6        39.102                                                                    27684084.182 6 108638336.05606     -2168.799 6        40.770    27684083.858 6 111472376.19106     -2225.529 6        40.830
S21         5.000    38524633.773 7 202448102.22307      -472.439 7        42.231
E13         6.000    28468101.142 5 149601217.75505     -3051.246 5        33.287                                                                    28468102.337 6 111715399.08506     -2278.759 6        36.393    28468101.860 6 114629683.78406     -2338.070 6        36.594
G28         7.000    24599123.279 6 129269273.43206      2109.583 6        38.883                                    24599119.918 3 100729284.80503      1643.832 3        23.200    24599120.142 6 100729292.80706      1643.865 6        39.826
G03         8.000    21422800.072 7 112577671.22607      1913.784 7        46.655                                    21422797.466 7  87722902.39607      1491.261 7        46.915    21422798.432 7  87722900.39907      1491.328 7        43.354
G02         9.000    20816329.311 8 109390603.19108        18.120 8        50.035                                    20816322.447 7  85239426.45107        14.119 7        43.761
R12        10.000    24494600.372 7 130845794.34807     -3256.493 7        42.584                                                                    24494601.729 6 101768984.85806     -2532.708 6        36.994
C30        11.000                                                                                                                                    22361146.992 8 116440376.52708       865.930 8        50.250                                                                    22361147.057 8  94617347.25808       703.635 8        48.803
S27        12.000    39183915.070 6 205912872.30806      -448.243 6        36.181
R20        13.000    20715127.950 6 110773147.15706     -3217.762 6        38.369                                                                    20715129.745 7  86156959.20907     -2502.716 7        45.449
S36        14.000    38292466.522 7 201228786.88607      -472.202 7        44.011
S45        17.000    63494939.737 6 333669268.49106      -514.403 6        38.165
E08        18.000    28099784.970 6 147665398.95606     -3183.817 6        37.195                                                                    28099783.758 6 110269615.89706     -2377.519 6        40.317    28099783.297 6 113146210.52806     -2439.490 6        41.213
E12        19.000    27757461.672 6 145866449.72106      2081.509 6        36.212                                                                    27757457.891 6 108926232.58406      1554.432 6        38.928    27757457.924 6 111767786.05306      1594.833 6        38.991
G17        20.000    23615396.991 7 124099766.24807      2112.632 7        43.431                                    23615391.635 6  96701106.02606      1646.207 6        38.610    23615391.940 6  96701105.02306      1646.170 6        38.865
E26        21.000    24259141.321 7 127482997.18007     -1874.089 7        47.449                                                                    24259138.744 8  95198539.61608     -1399.455 8        49.780    24259138.585 8  97681955.28508     -1436.017 8        50.658
I06        22.000    38393601.108 7 150664975.42707      -245.760 7        42.726
S28        23.000    40971174.823 5 215305004.63905      -464.950 5        34.600
G08        24.000    23226490.446 7 122056043.91207     -3982.595 7        42.919                                    23226488.848 6  95108605.15706     -3103.316 6        39.613    23226490.091 6  95108606.16806     -3103.437 6        39.733
S23        25.000    38244747.915 7 200977463.94607      -469.602 7        45.103
C13        26.000                                                                                                                                    40861822.922 6 212778428.47906     -1220.044 6        38.246    40861824.247 6 164533888.51606      -943.249 6        39.745    40861822.327 6 172899989.12406      -991.462 6        37.452
E24        27.000    27907102.176 6 146652847.57706     -1048.490 6        39.189                                                                    27907100.878 6 109513502.78306      -783.020 6        41.390    27907100.255 7 112370373.29107      -803.374 7        42.042
R21        29.000    19396679.967 8 103795558.88408       637.984 8        51.212                                                                    19396678.116 7  80729882.69807       496.171 7        45.934
E19        30.000    27514666.909 5 144590566.15405      2783.860 5        34.114                                                                    27514665.752 6 107973472.05906      2078.250 6        36.510    27514665.501 6 110790168.66206      2132.896 6        37.331
R05        31.000    20392588.135 8 109010114.49208     -3215.616 8        49.803                                                                    20392587.238 7  84785654.88307     -2501.074 7        46.660
R13        32.000    23887769.956 6 127559375.01806     -1047.078 6        38.276
E29        33.000    24764119.170 7 130136404.45707      1791.654 7        46.930                                                                    24764117.569 8  97179796.31908      1337.906 8        48.884    24764117.379 8  99714916.06808      1372.830 8        49.288
C16        35.000                                                                                                                                    39747854.012 6 206977534.12206       847.794 6        40.241    39747853.994 7 160048169.64207       655.506 7        42.114    39747851.968 6 168186199.96306       688.842 6        37.890
C32        36.000                                                                                                                                    22936685.186 8 119437395.05408      1654.580 8        50.232                                                                    22936685.066 8  97052688.07508      1344.492 8        49.270
G32        37.000    22528566.783 7 118388460.06107     -2379.109 7        47.117                                    22528564.381 7  92250750.67007     -1853.851 7        45.959    22528565.179 7  92250759.67207     -1853.867 7        42.933
E07        38.000    24592180.908 7 129232801.13907     -1085.505 7        45.881                                                                    24592180.862 8  96505051.99908      -810.620 8        49.022    24592180.517 8  99022567.44608      -831.798 8        49.710
C41        39.000                                                                                                                                    22289115.154 8 116065303.71408     -1579.951 8        50.843                                                                    22289119.984 8  94312596.09808     -1283.850 8        50.317
C39        40.000                                                                                                                                    39405497.344 7 205194793.51107       474.650 7        42.493                                                                    39405493.490 7 166737573.12007       385.757 7        42.745
E33        41.000    23613093.304 8 124087732.23608       487.874 8        48.359                                                                    23613091.200 8  92662950.22908       364.348 8        50.849    23613091.042 8  95080240.47608       373.830 8        51.635
S44        42.000    40623073.102 6 213475875.88606      -531.089 6        38.928
R06        43.000    19914836.431 6 106269443.57706      1765.356 6        41.263
C05        44.000                                                                                                                                    39213117.254 6 204193032.76506      -449.226 6        38.568    39213112.011 7 157895031.03107      -347.477 7        43.820    39213113.969 6 165923669.69006      -365.216 6        40.451
C29        45.000                                                                                                                                    26434084.307 6 137649217.84306      2755.939 6        40.567                                                                    26434082.683 6 111851259.32706      2239.303 6        40.145
G04        46.000    25226924.687 6 132568392.34506      3377.298 6        36.983                                    25226922.478 3 103300025.63503      2631.651 3        18.687    25226922.872 6 103300027.64506      2631.369 6        36.926
R22        48.000    22810720.270 7 121765194.22607      3395.288 7        46.172                                                                    22810719.326 7  94706257.76407      2640.787 7        42.764
I05        49.000  -497589085.471 5-876861242.61205       251.058 5        32.168
C06        50.000                                                                                                                                    39455977.880 6 205457655.65406       961.459 6        38.553    39455972.661 7 158872873.84107       743.270 7        43.073    39455972.095 6 166951154.40406       780.999 6        38.958
S48        51.000    77281003.075 6 406114534.21906      -482.889 6        38.556
G21        52.000    20954267.445 7 110115492.93407     -1482.504 7        44.739                                    20954261.663 6  85804302.56606     -1155.196 6        37.732
C09        53.000                                                                                                                                    40452634.020 6 210647481.71806      1231.567 6        39.841    40452629.480 7 162885982.63507       952.264 7        43.228    40452627.189 6 171168311.02506      1000.521 6        38.111
C60        54.000                                                                                                                                    40623071.633 6 211535205.62506      -526.172 6        40.305                                                                    40623054.938 6 171889653.78606      -427.725 6        39.796
C27        55.000                                                                                                                                    22045713.979 8 114797836.73408     -2135.926 8        51.556                                                                    22045711.993 8  93282650.08808     -1735.558 8        48.848
R04        56.000    24537282.706 6 131396030.38706     -4780.968 6        37.229                                                                    24537279.771 5 102196900.33705     -3718.334 5        32.868
C02        57.000                                                                                                                                    40615853.299 5 211497464.45605      -490.964 5        34.448    40615845.699 6 163543252.03506      -379.697 6        40.546    40615850.260 6 171859019.79606      -399.078 6        36.431
I03        58.000   105618143.314 6 338683052.11306       961.789 6        41.020
R07        59.000    23451430.561 7 125537385.84307      3765.167 7        45.684                                                                    23451428.248 6  97640238.42706      2928.612 6        38.574
C28        60.000                                                                                                                                    25138876.049 7 130905032.02607     -3719.716 7        43.932                                                                    25138875.285 7 106371195.79707     -3022.588 7        43.109
> 2025 01 01 23 45 40.0000000  0 55
G10         1.000    24786175.377 6 130252326.40906     -3577.594 6        39.390                                    24786173.427 5 101495380.31105     -2787.739 5        32.581    24786173.570 6 101495357.31406     -2787.603 6        36.125
G14         2.000    24508879.483 6 128795080.49706     -2223.472 6        39.378                                    24508875.397 3 100359804.95203     -1732.613 3        20.214    24508875.953 6 100359800.95506     -1732.463 6        36.276
C33         3.000                                                                                                                                    25723210.154 7 133947532.23907     -3554.896 7        43.181                                                                    25723221.613 7 108843400.70407     -2888.534 7        42.360
E31         4.000    27686848.046 6 145495411.25406     -2905.500 6        38.556                                                                    27686848.189 6 108649182.53506     -2169.593 6        40.646    27686847.817 6 111483505.62606     -2226.325 6        40.596
S21         5.000    38525085.796 7 202450464.96807      -472.569 7        42.362
E13         6.000    28471004.152 5 149616475.63705     -3051.788 5        32.862                                                                    28471005.931 6 111726792.95106     -2278.662 6        36.064    28471005.248 6 114641374.87506     -2338.259 6        36.306
G28         7.000    24597116.473 6 129258729.16406      2108.200 6        38.195                                    24597113.554 3 100721068.49703      1642.750 3        23.029    24597113.584 6 100721076.48806      1642.784 6        39.495
G03         8.000    21420980.123 7 112568106.97407      1912.056 7        46.773                                    21420977.431 7  87715449.73107      1489.917 7        46.840    21420978.180 7  87715447.72507      1489.990 7        43.281
G02         9.000    20816313.063 8 109390517.47808        16.175 8        50.260                                    20816306.139 7  85239359.66407        12.607 7        43.649
R12        10.000    24497650.648 6 130862083.31306     -3259.020 6        41.449                                                                    24497650.135 5 101781654.06505     -2534.677 5        35.457
C30        11.000                                                                                                                                    22360316.498 8 116436052.52808       863.718 8        50.311                                                                    22360316.707 8  94613833.64408       701.869 8        48.672
S27        12.000    39184340.388 5 205915113.74405      -448.314 5        35.419
R20        13.000    20718137.475 6 110789243.00606     -3220.457 6        38.021                                                                    20718139.795 7  86169478.20107     -2504.789 7        45.922
S36        14.000    38292915.339 7 201231147.99807      -472.319 7        44.254
S45        17.000    63495384.417 6 333671840.10506      -514.163 6        38.078
E08        18.000    28102814.766 6 147681321.08406     -3184.744 6        37.081                                                                    28102813.710 6 110281505.81106     -2378.301 6        40.627    28102812.994 6 113158410.60606     -2440.334 6        40.682
E12        19.000    27755481.014 6 145856042.40106      2081.382 6        36.370                                                                    27755477.426 6 108918460.89306      1554.309 6        38.973    27755477.360 6 111759811.61606      1594.782 6        39.018
G17        20.000    23613387.273 7 124089207.90007      2110.809 7        43.029                                    23613382.433 6  96692878.74406      1644.784 6        38.510    23613382.924 6  96692877.75206      1644.859 6        38.880
E26        21.000    24260925.133 7 127492370.96407     -1875.303 7        47.517                                                                    24260922.517 8  95205539.52308     -1400.419 8        49.841    24260922.396 8  97689137.79408     -1436.974 8        50.591
I06        22.000    38393914.469 7 150666204.71307      -245.915 7        42.554
S28        23.000    40971620.961 5 215307328.90305      -464.703 5        34.586
G08        24.000    23230280.710 7 122075960.17207     -3983.745 7        42.658                                    23230278.794 6  95124124.31606     -3104.212 6        39.477    23230280.114 6  95124125.31406     -3104.110 6        39.634
S23        25.000    38245189.640 7 200979811.70307      -469.471 7        44.795
C13        26.000                                                                                                                                    40862993.998 6 212784527.57006     -1219.478 6        38.132    40862995.710 6 164538604.72606      -943.161 6        39.661    40862993.437 6 172904945.13006      -991.107 6        37.210
E24        27.000    27908100.921 6 146658095.99206     -1050.798 6        38.483                                                                    27908099.557 6 109517422.04106      -784.687 6        41.199    27908098.978 6 112374394.79706      -805.094 6        41.840
R21        29.000    19396085.584 8 103792377.46008       634.631 8        51.430                                                                    19396084.121 7  80727408.25507       493.610 7        45.968
E19        30.000    27512018.543 5 144576649.14205      2783.264 5        34.214                                                                    27512017.438 6 107963079.45806      2078.401 6        36.442    27512017.049 6 110779504.96806      2132.640 6        37.754
R05        31.000    20395597.286 8 109026199.68808     -3218.398 8        50.038                                                                    20395596.493 7  84798165.60007     -2503.174 7        46.204
R13        32.000    23888749.766 6 127564620.40006     -1050.975 6        37.641
E29        33.000    24762415.366 7 130127450.66007      1789.919 7        46.854                                                                    24762413.750 8  97173110.04508      1336.646 8        48.880    24762413.533 8  99708055.36608      1371.550 8        49.230
C16        35.000                                                                                                                                    39747040.778 6 206973297.80006       846.765 6        40.217    39747040.463 7 160044893.84607       654.783 7        42.339    39747038.222 6 168182757.59406       688.226 6        37.974
C32        36.000                                                                                                                                    22935097.400 8 119429127.19708      1652.684 8        50.077                                                                    22935097.335 8  97045969.76108      1342.947 8        49.159
G32        37.000    22530831.691 7 118400362.12407     -2381.643 7        47.641                                    22530829.244 7  92260025.00807     -1855.824 7        45.896    22530829.952 7  92260034.00707     -1855.813 7        42.732
E07        38.000    24593214.757 7 129238234.95807     -1087.849 7        46.004                                                                    24593214.823 8  96509109.71908      -812.313 8        49.065    24593214.558 8  99026731.02308      -833.536 8        49.665
C41        39.000                                                                                                                                    22290633.336 8 116073209.11608     -1582.040 8        50.866                                                                    22290638.098 8  94319019.87708     -1285.567 8        50.204
C39        40.000                                                                                                                                    39405042.407 7 205192423.10807       473.585 7        42.254                                                                    39405038.306 7 166735646.96207       384.963 7        42.561
E33        41.000    23612629.795 8 124085296.02008       486.697 8        48.229                                                                    23612627.632 8  92661130.98308       363.468 8        50.887    23612627.399 8  95078373.77008       372.943 8        51.502
S44        42.000    40623578.807 6 213478531.74806      -531.040 6        38.679
R06        43.000    19913183.179 6 106260626.07706      1761.873 6        41.952
C05        44.000                                                                                                                                    39213549.356 6 204195279.85106      -449.474 6        38.847    39213543.826 7 157896768.62707      -347.543 7        44.017    39213545.543 6 165925495.61306      -365.117 6        40.400
C29        45.000                                                                                                                                    26431438.249 6 137635439.76806      2755.566 6        40.570                                                                    26431436.767 6 111840063.52406      2239.013 6        39.892
G04        46.000    25223712.118 6 132551506.61706      3377.293 6        37.418                                    25223709.224 3 103286867.96103      2631.633 3        19.224    25223709.626 6 103286869.97206      2631.612 6        37.104
R22        48.000    22807540.556 7 121748219.24707      3394.814 7        45.610                                                                    22807538.721 6  94693054.96806      2640.408 6        41.242
I05        49.000  -497589404.809 5-876862498.79705       251.143 5        32.707
C06        50.000                                                                                                                                    39455056.428 6 205452852.01806       960.451 6        38.811    39455050.050 7 158869159.37207       742.633 7        43.196    39455049.692 6 166947251.05006       780.305 6        38.937
S48        51.000    77281452.831 6 406116949.36106      -483.105 6        38.526
G21        52.000    20955678.951 7 110122910.21807     -1484.412 7        44.959                                    20955673.135 6  85810082.27106     -1156.691 6        37.652
C09        53.000                                                                                                                                    40451451.540 6 210641326.13406      1230.750 6        39.691    40451447.226 7 162881222.75307       951.791 7        42.754    40451444.861 6 171163309.10206      1000.249 6        37.853
C60        54.000                                                                                                                                    40623577.088 6 211537837.35306      -526.338 6        40.360                                                                    40623560.361 6 171891792.26006      -427.690 6        39.760
C27        55.000                                                                                                                                    22047766.090 8 114808522.18208     -2138.139 8        51.301                                                                    22047764.033 8  93291332.88308     -1737.462 8        48.824
R04        56.000    24541746.919 5 131419935.15205     -4781.049 5        35.957                                                                    24541744.701 5 102215492.91105     -3718.490 5        31.026
C02        57.000                                                                                                                                    40616324.746 5 211499920.56205      -491.203 5        34.529    40616317.638 6 163545151.23806      -379.808 6        40.443    40616321.680 6 171861015.55606      -399.079 6        36.204
I03        58.000   105616918.284 6 338678243.77906       961.805 6        40.825
R07        59.000    23447914.344 7 125518562.68107      3764.234 7        45.153                                                                    23447911.618 6  97625598.23106      2927.731 6        38.826
C28        60.000                                                                                                                                    25142448.456 7 130923633.08807     -3720.616 7        44.044                                                                    25142447.421 7 106386310.67907     -3023.226 7        42.995
> 2025 01 01 23 45 45.0000000  0 55
G10         1.000    24789578.976 6 130270214.26606     -3577.467 6        39.486                                    24789577.463 5 101509318.90205     -2787.636 5        32.575    24789577.880 6 101509295.92406     -2787.885 6        36.480
G14         2.000    24510996.026 6 128806203.06706     -2225.855 6        38.282                                    24510991.879 3 100368471.89303     -1734.432 3        20.190    24510992.894 6 100368467.89006     -1734.365 6        37.384
C33         3.000                                                                                                                                    25726623.922 7 133965307.42607     -3555.294 7        43.145                                                                    25726635.345 7 108857844.49807     -2889.141 7        42.741
E31         4.000    27689612.844 6 145509940.83706     -2906.462 6        38.640                                                                    27689613.127 6 108660032.55606     -2170.427 6        40.420    27689612.586 6 111494638.67806     -2227.010 6        40.572
S21         5.000    38525543.006 7 202452827.56807      -472.607 7        42.569
E13         6.000    28473908.387 5 149631735.22805     -3052.235 5        32.222                                                                    28473909.718 6 111738188.09506     -2279.019 6        36.000    28473908.927 6 114653067.31206     -2338.885 6        36.185
G28         7.000    24595111.134 6 129248191.96706      2106.612 6        38.420                                    24595108.291 3 100712857.69503      1641.520 3        22.800    24595108.252 6 100712865.69806      1641.635 6        39.787
G03         8.000    21419161.245 7 112558551.34007      1910.227 7        46.341                                    21419159.068 7  87708003.77707      1488.489 7        46.977    21419159.803 7  87708001.78207      1488.451 7        43.856
G02         9.000    20816298.708 8 109390441.53808        14.101 8        50.187                                    20816291.673 7  85239300.49107        10.989 7        43.788
R12        10.000    24500701.834 7 130878384.03207     -3261.429 7        42.942                                                                    24500701.103 6 101794332.43806     -2536.649 6        37.834
C30        11.000                                                                                                                                    22359488.149 8 116431739.59108       861.421 8        50.307                                                                    22359488.466 8  94610329.03008       699.853 8        48.902
S27        12.000    39184762.013 5 205917355.48705      -448.419 5        35.248
R20        13.000    20721149.931 6 110805352.01606     -3223.247 6        37.868                                                                    20721152.208 7  86182007.43607     -2506.934 7        46.257
S36        14.000    38293360.256 7 201233509.07107      -472.344 7        44.059
S45        17.000    63495825.104 6 333674411.67406      -514.378 6        37.902
E08        18.000    28105845.710 6 147697247.96706     -3185.887 6        36.987                                                                    28105844.608 6 110293399.27506     -2379.036 6        40.465    28105843.644 6 113170614.32706     -2441.231 6        40.687
E12        19.000    27753500.608 6 145845635.22206      2081.273 6        36.110                                                                    27753497.014 6 108910689.28406      1554.374 6        38.664    27753496.829 6 111751837.27906      1594.947 6        38.835
G17        20.000    23611379.557 7 124078658.70807      2108.735 7        43.329                                    23611374.987 6  96684658.60206      1643.169 6        38.667    23611375.510 6  96684657.58706      1643.305 6        39.195
E26        21.000    24262710.109 7 127501750.74407     -1876.681 7        47.427                                                                    24262707.457 8  95212543.90608     -1401.404 8        49.575    24262707.298 8  97696324.89808     -1437.942 8        50.564
I06        22.000    38394227.625 7 150667433.96007      -245.850 7        42.612
S28        23.000    40972064.971 5 215309653.23305      -465.105 5        34.448
G08        24.000    23234071.743 7 122095881.14107     -3984.748 7        42.726                                    23234069.657 6  95139647.14306     -3104.998 6        39.676    23234070.754 6  95139648.13406     -3104.923 6        40.236
S23        25.000    38245636.198 7 200982159.36407      -469.645 7        44.816
C13        26.000                                                                                                                                    40864164.988 6 212790625.76306     -1219.487 6        38.168    40864166.110 6 164543320.22806      -942.926 6        39.556    40864164.687 6 172909900.40706      -991.045 6        37.641
E24        27.000    27909102.095 6 146663355.86406     -1053.176 6        38.384                                                                    27909100.377 6 109521349.88606      -786.556 6        41.256    27909100.003 7 112378425.10007      -806.972 7        42.102
R21        29.000    19395494.082 8 103789212.61708       631.216 8        51.498                                                                    19395492.185 7  80724946.71507       490.901 7        45.716
E19        30.000    27509370.286 5 144562732.60005      2782.791 5        34.062                                                                    27509368.998 6 107952687.21406      2078.601 6        36.227    27509368.825 6 110768841.64606      2132.545 6        37.361
R05        31.000    20398609.202 8 109042298.79508     -3221.218 8        49.830                                                                    20398608.328 7  84810687.11907     -2505.404 7        46.830
R13        32.000    23889735.987 6 127569886.27406     -1055.234 6        38.333
E29        33.000    24760712.879 7 130118505.09607      1788.183 7        46.457                                                                    24760711.436 8  97166429.92408      1335.337 8        48.712    24760711.242 8  99701200.98208      1370.188 8        49.266
C16        35.000                                                                                                                                    39746227.915 6 206969065.39706       845.947 6        40.215    39746227.529 7 160041621.10007       654.213 7        42.159    39746225.339 6 168179318.44006       687.451 6        38.096
C32        36.000                                                                                                                                    22933511.419 8 119420868.75908      1650.627 8        49.969                                                                    22933511.413 8  97039259.09908      1341.192 8        49.432
G32        37.000    22533099.167 7 118412276.76607     -2384.321 7        47.267                                    22533096.509 7  92269309.14607     -1857.913 7        45.971    22533097.012 7  92269318.14507     -1857.914 7        42.965
E07        38.000    24594251.187 7 129243680.33707     -1090.351 7        45.878                                                                    24594251.092 8  96513176.08308      -814.230 8        48.873    24594250.758 8  99030903.45908      -835.452 8        49.608
C41        39.000                                                                                                                                    22292153.413 8 116081125.02108     -1584.328 8        50.878                                                                    22292158.249 8  94325452.20008     -1287.484 8        50.323
C39        40.000                                                                                                                                    39404588.119 7 205190057.42507       472.570 7        42.138                                                                    39404583.861 7 166733724.65607       383.935 7        42.669
E33        41.000    23612167.296 8 124082865.46508       485.471 8        48.161                                                                    23612165.109 8  92659315.96408       362.517 8        50.622    23612164.908 8  95076511.40408       371.954 8        51.434
S44        42.000    40624084.949 6 213481187.66506      -531.384 6        38.682
R06        43.000    19911534.434 6 106251825.75606      1758.242 6        41.976
C05        44.000                                                                                                                                    39213980.876 6 204197526.99506      -449.556 6        38.721    39213975.155 7 157898506.25907      -347.598 7        43.755    39213977.323 6 165927321.60606      -365.357 6        40.594
C29        45.000                                                                                                                                    26428792.867 6 137621663.33806      2755.083 6        40.803                                                                    26428790.936 6 111828869.04806      2238.505 6        39.721
G04        46.000    25220498.639 6 132534620.38006      3377.141 6        37.554                                    25220496.131 3 103273709.87803      2631.537 3        19.910    25220496.801 6 103273711.90706      2631.489 6        37.168
R22        48.000    22804360.636 7 121731246.91407      3394.095 7        45.384                                                                    22804359.073 6  94679854.27706      2639.741 6        41.552
I05        49.000  -497589725.437 4-876863754.87004       251.022 4        29.687
C06        50.000                                                                                                                                    39454134.938 6 205448052.22506       959.377 6        39.135    39454128.207 7 158865447.86707       742.072 7        43.251    39454127.761 6 166943350.83206       779.444 6        39.114
S48        51.000    77281895.508 6 406119364.55406      -483.041 6        38.294
G21        52.000    20957092.094 7 110130336.55907     -1486.198 7        44.605                                    20957086.351 6  85815869.03206     -1158.072 6        37.724
C09        53.000                                                                                                                                    40450269.043 6 210635173.07306      1230.331 6        39.405    40450265.796 7 162876464.82807       951.251 7        42.635    40450262.979 6 171158309.24106       999.613 6        38.102
C60        54.000                                                                                                                                    40624082.354 6 211540469.10606      -526.539 6        40.474                                                                    40624065.824 6 171893930.79106      -427.864 6        40.119
C27        55.000                                                                                                                                    22049820.005 8 114819218.70308     -2140.488 8        51.436                                                                    22049818.172 8  93300024.68108     -1739.445 8        48.878
R04        56.000    24546210.216 5 131443839.61305     -4780.944 5        35.876                                                                    24546208.234 5 102234085.29405     -3718.449 5        30.958
C02        57.000                                                                                                                                    40616796.793 5 211502376.78805      -491.240 5        34.338    40616789.287 6 163547050.56006      -380.037 6        40.141    40616793.316 6 171863011.45506      -399.361 6        36.393
I03        58.000   105615692.932 6 338673435.62406       961.486 6        41.044
R07        59.000    23444398.913 7 125499744.21707      3763.128 7        44.703                                                                    23444397.109 6  97610961.67706      2926.881 6        39.859
C28        60.000                                                                                                                                    25146021.525 7 130942237.94907     -3721.416 7        43.640                                                                    25146020.278 7 106401428.64707     -3024.062 7        43.052
> 2025 01 01 23 45 50.0000000  0 55
G10         1.000    24792982.469 6 130288102.61606     -3577.731 6        39.664                                    24792981.567 5 101523257.86605     -2787.848 5        32.162    24792980.815 6 101523234.86206     -2787.884 6        36.457
G14         2.000    24513114.152 6 128817336.07506     -2227.753 6        38.396                                    24513110.234 3 100377146.96803     -1735.911 3        19.970    24513111.755 6 100377142.95806     -1736.048 6        36.405
C33         3.000                                                                                                                                    25730037.989 7 133983084.81007     -3555.765 7        43.522                                                                    25730049.506 7 108872290.08407     -2889.337 7        42.732
E31         4.000    27692378.317 6 145524474.95806     -2907.441 6        38.456                                                                    27692378.884 6 108670885.93806     -2170.992 6        40.391    27692378.386 6 111505775.20606     -2227.681 6        40.546
S21         5.000    38525989.990 7 202455189.94407      -472.622 7        42.447
E13         6.000    28476812.990 5 149646996.33305     -3052.568 5        32.347                                                                    28476814.010 5 111749584.38205     -2279.483 5        35.843    28476812.901 6 114664760.87106     -2338.942 6        36.004
G28         7.000    24593107.761 6 129237661.64806      2105.369 6        38.721                                    24593104.284 3 100704652.25703      1640.540 3        22.990    24593104.925 6 100704660.27106      1640.520 6        39.958
G03         8.000    21417344.143 7 112549004.15407      1908.500 7        46.658                                    21417342.310 7  87700564.41607      1487.144 7        46.832    21417343.170 7  87700562.41207      1487.152 7        43.901
G02         9.000    20816286.014 8 109390375.14508        12.258 8        50.129                                    20816279.032 7  85239248.75507         9.551 7        43.663
R12        10.000    24503754.926 6 130894696.35706     -3263.623 6        41.116                                                                    24503755.134 6 101807019.79406     -2538.406 6        37.735
C30        11.000                                                                                                                                    22358661.955 8 116427437.53108       859.216 8        50.464                                                                    22358662.329 8  94606833.25808       698.290 8        48.699
S27        12.000    39185191.843 5 205919596.45305      -448.106 5        35.405
R20        13.000    20724164.959 6 110821473.93906     -3225.776 6        38.372                                                                    20724167.104 7  86194546.71307     -2508.933 7        46.439
S36        14.000    38293810.803 7 201235870.37307      -472.280 7        43.788
S45        17.000    63496267.504 6 333675282.86616      -514.281 6        37.546
E08        18.000    28108877.219 6 147713179.34706     -3186.867 6        36.836                                                                    28108876.160 6 110305296.07306     -2379.829 6        40.324    28108875.214 6 113182821.48806     -2441.869 6        40.312
E12        19.000    27751520.281 5 145835228.05905      2081.197 5        35.771                                                                    27751516.621 6 108902917.71406      1554.112 6        38.667    27751516.459 6 111743862.95106      1594.933 6        38.844
G17        20.000    23609373.691 7 124068118.47607      2107.123 7        43.185                                    23609369.285 6  96676445.43706      1641.913 6        38.598    23609369.907 6  96676444.44506      1641.774 6        39.934
E26        21.000    24264496.018 7 127511136.31407     -1877.843 7        47.405                                                                    24264493.409 8  95219552.60808     -1402.283 8        49.527    24264493.268 8  97703516.43308     -1438.803 8        50.576
I06        22.000    38394540.880 7 150668663.05007      -245.872 7        42.789
S28        23.000    40972508.198 5 215311977.44305      -465.249 5        33.922
G08        24.000    23237863.567 7 122115806.60507     -3985.690 7        43.494                                    23237861.369 6  95155173.47506     -3105.733 6        39.468    23237862.503 6  95155174.47006     -3105.699 6        40.072
S23        25.000    38246084.970 7 200984506.76507      -469.467 7        44.932
C13        26.000                                                                                                                                    40865335.854 6 212796722.89206     -1219.320 6        37.974    40865336.788 6 164548034.91806      -942.908 6        39.024    40865335.591 6 172914854.84306      -991.053 6        36.987
E24        27.000    27910104.666 6 146668627.06006     -1055.560 6        38.568                                                                    27910103.534 6 109525286.16606      -788.197 6        41.056    27910103.051 7 112382464.07007      -808.733 7        42.157
R21        29.000    19394905.523 8 103786064.16908       628.063 8        51.352                                                                    19394903.631 7  80722497.92307       488.427 7        45.685
E19        30.000    27506722.371 5 144548816.34305      2783.129 5        34.267                                                                    27506720.987 6 107942295.24006      2078.236 6        36.102    27506720.931 6 110758178.56706      2132.315 6        37.263
R05        31.000    20401623.836 8 109058411.55208     -3224.036 8        50.406                                                                    20401622.278 7  84823219.25807     -2507.589 7        46.290
R13        32.000    23890728.935 6 127575172.25406     -1059.242 6        38.580
E29        33.000    24759012.326 7 130109567.58707      1786.642 7        46.433                                                                    24759010.640 8  97159755.81208      1334.127 8        48.624    24759010.458 8  99694352.76408      1368.988 8        49.184
C16        35.000                                                                                                                                    39745416.434 6 206964836.78406       845.334 6        40.601    39745415.324 7 160038351.27707       653.561 7        42.118    39745413.381 6 168175882.35106       686.836 6        37.962
C32        36.000                                                                                                                                    22931927.287 8 119412619.54308      1648.835 8        50.035                                                                    22931927.228 8  97032555.94508      1339.827 8        49.258
G32        37.000    22535368.494 7 118424203.77607     -2386.712 7        47.053                                    22535366.143 7  92278602.91707     -1859.773 7        45.798    22535367.114 7  92278611.91407     -1859.746 7        42.874
E07        38.000    24595289.602 7 129249137.06807     -1092.560 7        46.032                                                                    24595289.527 8  96517250.91808      -815.862 8        48.792    24595289.081 8  99035084.59408      -837.130 8        49.699
C41        39.000                                                                                                                                    22293675.641 8 116089051.20208     -1586.333 8        51.009                                                                    22293680.364 8  94331892.87008     -1289.030 8        50.207
C39        40.000                                                                                                                                    39404134.936 7 205187696.30107       471.639 7        42.379                                                                    39404130.527 7 166731806.05607       383.267 7        42.493
E33        41.000    23611705.845 8 124080440.35008       484.441 8        48.100                                                                    23611703.608 8  92657505.00708       361.665 8        50.628    23611703.384 8  95074653.20008       371.173 8        51.494
S44        42.000    40624586.241 6 213483843.39006      -531.347 6        38.402
R06        43.000    19909888.818 7 106243042.38507      1754.943 7        42.082
C05        44.000                                                                                                                                    39214411.833 6 204199773.98206      -449.585 6        38.970    39214406.492 7 157900243.76307      -347.620 7        43.611    39214408.995 6 165929147.46206      -365.173 6        40.546
C29        45.000                                                                                                                                    26426147.961 6 137607888.38606      2754.712 6        41.302                                                                    26426145.239 6 111817675.77806      2238.415 6        39.429
G04        46.000    25217284.897 6 132517733.40506      3377.462 6        37.599                                    25217282.518 3 103260551.22903      2631.794 3        20.071    25217283.171 6 103260553.25506      2631.654 6        37.229
R22        48.000    22801181.491 7 121714277.07207      3393.656 7        45.729                                                                    22801180.489 6  94666655.52906      2639.561 6        41.909
I05        49.000  -497590046.188 5-876865010.97005       251.364 5        31.192
C06        50.000                                                                                                                                    39453213.900 6 205443256.04406       958.800 6        39.553    39453207.170 7 158861739.16207       741.382 7        42.959    39453206.738 6 166939453.53106       779.152 6        39.111
S48        51.000    77282348.077 6 406121779.37206      -482.929 6        38.378
G21        52.000    20958507.043 7 110137771.74307     -1488.027 7        44.903                                    20958501.231 6  85821662.68206     -1159.495 6        37.682
C09        53.000                                                                                                                                    40449088.145 6 210629022.40906      1229.854 6        39.520    40449084.602 7 162871708.73907       951.029 7        42.235    40449081.974 6 171153311.32306       999.280 6        38.084
C60        54.000                                                                                                                                    40624588.028 6 211543100.69806      -526.340 6        40.517                                                                    40624571.243 6 171896069.16806      -427.628 6        40.081
C27        55.000                                                                                                                                    22051876.394 8 114829926.11608     -2142.662 8        51.568                                                                    22051874.480 8  93308725.33308     -1741.049 8        48.799
R04        56.000    24550673.485 5 131467743.39005     -4780.687 5        35.510                                                                    24550672.335 5 102252677.10605     -3718.280 5        31.004
C02        57.000                                                                                                                                    40617268.205 5 211504832.86005      -491.277 5        33.748    40617260.498 6 163548949.77006      -379.876 6        40.064    40617265.059 6 171865007.24906      -399.310 6        36.484
I03        58.000   105614467.628 6 338668627.50406       961.613 6        41.094
R07        59.000    23440883.362 7 125480930.41207      3762.484 7        44.710                                                                    23440882.618 6  97596328.73206      2926.324 6        40.219
C28        60.000                                                                                                                                    25149594.935 7 130960846.41707     -3722.188 7        43.355                                                                    25149593.934 7 106416549.55507     -3024.500 7        42.965
> 2025 01 01 23 45 55.0000000  0 55
G10         1.000    24796387.045 6 130305991.55006     -3577.767 6        39.592                                    24796385.737 5 101537197.29105     -2787.871 5        32.048    24796384.943 6 101537174.29706     -2787.927 6        36.541
G14         2.000    24515235.700 6 128828479.69606     -2229.970 6        37.796                                    24515230.731 3 100385830.32303     -1737.639 3        20.381    24515231.220 6 100385826.27706     -1737.391 6        36.098
C33         3.000                                                                                                                                    25733452.395 7 134000864.52907     -3556.180 7        43.172                                                                    25733463.942 7 108886737.55207     -2889.620 7        42.876
E31         4.000    27695145.178 6 145539013.70406     -2908.116 6        38.799                                                                    27695145.712 6 108681742.81006     -2171.713 6        40.546    27695145.034 6 111516915.29306     -2228.432 6        40.338
S21         5.000    38526437.814 7 202457552.36207      -472.341 7        42.519
E13         6.000    28479716.788 5 149662259.11505     -3052.500 5        32.491                                                                    28479718.272 5 111760981.90305     -2279.678 5        35.886    28479717.066 5 114676455.73005     -2339.079 5        35.481
G28         7.000    24591105.135 6 129227138.40306      2103.924 6        38.748                                    24591101.668 3 100696452.33203      1639.422 3        22.914    24591102.010 6 100696460.34706      1639.315 6        40.243
G03         8.000    21415529.378 7 112539465.52407      1906.872 7        45.967                                    21415527.185 7  87693131.71507      1485.874 7        46.762    21415527.720 7  87693129.72107      1485.857 7        43.850
G02         9.000    20816274.809 8 109390318.47308        10.393 8        50.105                                    20816268.233 7  85239204.59507         8.098 7        43.558
R12        10.000    24506811.784 7 130911020.36507     -3265.967 7        42.904                                                                    24506810.619 6 101819716.23406     -2540.095 6        36.000
C30        11.000                                                                                                                                    22357837.728 8 116423146.49408       857.150 8        50.272                                                                    22357838.255 8  94603346.43708       696.589 8        48.702
S27        12.000    39185617.881 5 205921837.46605      -447.991 5        35.743
R20        13.000    20727181.773 6 110837608.94206     -3228.403 6        38.237                                                                    20727184.035 7  86207096.14007     -2510.878 7        46.231
S36        14.000    38294259.347 7 201238231.64707      -472.319 7        43.710
S45        17.000    63496712.306 6 333677854.00306      -514.041 6        37.633
E08        18.000    28111909.860 6 147729115.34106     -3187.682 6        36.246                                                                    28111908.741 6 110317196.33306     -2380.389 6        40.386    28111907.992 6 113195032.19006     -2442.571 6        40.017
E12        19.000    27749539.358 5 145824821.00405      2081.574 5        35.905                                                                    27749536.205 6 108895146.21406      1554.333 6        38.796    27749536.122 6 111735888.73506      1594.836 6        38.850
G17        20.000    23607369.429 7 124057587.35907      2105.428 7        43.280                                    23607365.323 6  96668239.38606      1640.586 6        38.429    23607365.605 6  96668238.40206      1640.457 6        39.919
E26        21.000    24266282.929 7 127520527.80607     -1878.947 7        47.402                                                                    24266280.559 8  95226565.73308     -1403.038 8        49.579    24266280.431 8  97710712.51508     -1439.676 8        50.474
I06        22.000    38394854.027 7 150669892.08507      -245.757 7        42.557
S28        23.000    40972946.735 5 215314301.47905      -464.942 5        34.405
G08        24.000    23241656.037 7 122135736.68007     -3986.396 7        43.835                                    23241653.940 6  95170703.40506     -3106.287 6        39.351    23241654.892 6  95170704.40906     -3106.303 6        39.850
S23        25.000    38246534.480 7 200986854.11107      -469.539 7        44.933
C13        26.000                                                                                                                                    40866506.512 6 212802819.02606     -1219.126 6        37.784    40866507.624 6 164552748.84006      -942.806 6        38.934    40866506.211 6 172919808.43406      -990.508 6        36.854
E24        27.000    27911110.417 6 146673909.68506     -1057.576 6        38.456                                                                    27911108.746 6 109529230.99506      -789.938 6        41.199    27911108.327 6 112386511.79606      -810.337 6        41.988
R21        29.000    19394320.335 8 103782932.17608       624.810 8        51.344                                                                    19394318.758 7  80720061.92007       485.984 7        45.827
E19        30.000    27504074.294 5 144534900.55805      2782.786 5        33.701                                                                    27504073.030 5 107931903.58305      2078.214 5        35.900    27504072.780 6 110747515.81506      2132.438 6        37.104
R05        31.000    20404640.540 8 109074538.11908     -3226.605 8        50.017                                                                    20404639.513 7  84835762.15807     -2509.636 7        46.653
R13        32.000    23891721.405 6 127580478.38206     -1063.273 6        38.814
E29        33.000    24757313.460 7 130100638.28207      1785.044 7        46.611                                                                    24757311.451 8  97153087.82908      1332.931 8        48.674    24757311.280 8  99687510.83408      1367.745 8        49.209
C16        35.000                                                                                                                                    39744604.987 6 206960612.09806       844.613 6        40.653    39744604.289 7 160035084.46807       653.134 7        42.222    39744602.069 6 168172449.44106       686.302 6        37.909
C32        36.000                                                                                                                                    22930345.025 8 119404379.68608      1647.077 8        50.105                                                                    22930344.840 8  97025860.38808      1338.438 8        49.217
G32        37.000    22537640.681 7 118436143.29607     -2389.205 7        47.305                                    22537638.153 7  92287906.43807     -1861.719 7        45.687    22537638.795 7  92287915.44407     -1861.720 7        42.645
E07        38.000    24596330.102 7 129254605.30007     -1094.773 7        45.925                                                                    24596330.065 8  96521334.33708      -817.519 8        48.921    24596329.665 8  99039274.53508      -838.791 8        49.589
C41        39.000                                                                                                                                    22295199.769 8 116096987.82008     -1588.386 8        50.775                                                                    22295204.534 8  94338342.02008     -1290.563 8        50.206
C39        40.000                                                                                                                                    39403682.706 7 205185339.85807       470.792 7        42.538                                                                    39403677.905 7 166729891.25407       382.748 7        42.366
E33        41.000    23611245.508 8 124078020.85708       483.364 8        48.203                                                                    23611243.177 8  92655698.23708       360.967 8        50.630    23611242.980 8  95072799.30008       370.366 8        51.364
S44        42.000    40625094.606 6 213486499.10806      -531.134 6        38.520
R06        43.000    19908245.857 6 106234276.20006      1751.642 6        41.907
C05        44.000                                                                                                                                    39214843.837 6 204202020.95006      -449.421 6        38.607    39214837.923 7 157901981.27307      -347.404 7        43.412    39214840.301 6 165930973.33306      -365.107 6        40.350
C29        45.000                                                                                                                                    26423502.538 6 137594115.01906      2754.501 6        41.125                                                                    26423500.399 6 111806483.78306      2238.417 6        39.207
G04        46.000    25214071.664 6 132500845.86406      3377.485 6        37.580                                    25214068.933 3 103247392.14603      2631.803 3        20.190    25214069.332 6 103247394.16306      2631.817 6        37.618
R22        48.000    22798003.634 7 121697309.86607      3393.215 7        46.143                                                                    22798001.911 7  94653458.82107      2639.146 7        42.580
I05        49.000  -497590364.644 5-876866266.98505       251.122 5        32.850
C06        50.000                                                                                                                                    39452293.143 6 205438463.62806       958.292 6        39.435    39452286.349 7 158858033.38607       740.800 7        43.196    39452286.480 6 166935559.31806       778.539 6        39.048
S48        51.000    77282792.346 6 406124194.13306      -482.854 6        38.045
G21        52.000    20959923.921 7 110145215.99507     -1489.728 7        44.662                                    20959917.823 6  85827463.39706     -1160.829 6        37.505
C09        53.000                                                                                                                                    40447907.160 6 210622874.24806      1229.385 6        39.321    40447903.923 7 162866954.59007       950.550 7        42.538    40447901.696 6 171148315.42706       999.226 6        38.015
C60        54.000                                                                                                                                    40625093.236 6 211545732.27406      -526.181 6        40.269                                                                    40625076.514 6 171898207.53606      -427.412 6        39.874
C27        55.000                                                                                                                                    22053934.649 8 114840644.55708     -2144.759 8        51.403                                                                    22053932.800 8  93317434.94208     -1742.700 8        48.833
R04        56.000    24555138.559 5 131491646.76505     -4780.751 5        35.819                                                                    24555137.752 5 102271268.58605     -3718.285 5        30.566
C02        57.000                                                                                                                                    40617739.228 5 211507289.01605      -491.397 5        34.014    40617732.576 6 163550848.99606      -379.983 6        40.532    40617736.774 6 171867003.04706      -399.390 6        36.246
I03        58.000   105613242.192 6 338663819.53806       961.591 6        40.994
R07        59.000    23437369.643 7 125462121.29907      3761.448 7        44.399                                                                    23437369.005 6  97581699.43806      2925.631 6        40.281
C28        60.000                                                                                                                                    25153169.206 7 130979458.59907     -3722.735 7        42.935                                                                    25153168.319 7 106431673.46807     -3024.929 7        42.931
> 2025 01 01 23 46  0.0000000  0 55
G10         1.000    24799791.285 6 130323880.67606     -3577.762 6        39.958                                    24799789.867 5 101551136.87305     -2787.869 5        32.311    24799789.359 6 101551113.88106     -2787.774 6        36.155
G14         2.000    24517357.660 6 128839633.47406     -2231.710 6        38.613                                    24517353.236 3 100394521.56603     -1738.991 3        20.167    24517354.396 6 100394517.56606     -1738.969 6        36.847
C33         3.000                                                                                                                                    25736867.056 7 134018646.16207     -3556.493 7        43.109                                                                    25736878.716 7 108901186.59207     -2889.812 7        43.122
E31         4.000    27697912.426 6 145553556.71506     -2908.960 6        38.712                                                                    27697913.220 6 108692602.83906     -2172.429 6        40.572    27697912.402 6 111528058.62506     -2228.932 6        40.844
S21         5.000    38526887.994 7 202459914.29707      -472.095 7        42.732
E13         6.000    28482621.657 5 149677523.14805     -3052.757 5        32.132                                                                    28482622.900 5 111772380.37205     -2279.668 5        35.890    28482621.667 5 114688151.52105     -2339.011 5        35.467
G28         7.000    24589103.839 6 129216621.81606      2102.746 6        38.943                                    24589100.411 3 100688257.58903      1638.490 3        23.467    24589100.370 6 100688265.58406      1638.464 6        39.910
G03         8.000    21413715.532 7 112529935.07607      1905.382 7        46.197                                    21413713.624 7  87685705.39907      1484.714 7        46.850    21413714.336 7  87685703.39707      1484.656 7        44.083
G02         9.000    20816266.079 8 109390271.12108         8.661 8        50.009                                    20816259.213 7  85239167.69807         6.748 7        43.621
R12        10.000    24509869.957 7 130927355.62707     -3268.113 7        42.055                                                                    24509868.254 5 101832421.44905     -2541.738 5        34.924
C30        11.000                                                                                                                                    22357015.703 8 116418866.07508       855.094 8        50.182                                                                    22357016.231 8  94599868.25408       694.942 8        48.765
S27        12.000    39186049.536 5 205924078.29405      -447.964 5        35.871
R20        13.000    20730202.521 6 110853756.59806     -3230.635 6        38.264                                                                    20730203.894 7  86219655.43407     -2512.683 7        45.929
S36        14.000    38294707.261 7 201240592.15807      -471.690 7        43.928
S45        17.000    63497160.058 6 333680424.68106      -513.968 6        37.830
E08        18.000    28114942.975 6 147745055.57606     -3188.329 6        36.809                                                                    28114941.946 6 110329099.76206     -2380.932 6        40.765    28114941.444 6 113207246.14306     -2443.015 6        40.596
E12        19.000    27747559.251 6 145814413.65506      2081.673 6        36.310                                                                    27747555.818 6 108887374.48106      1554.532 6        38.838    27747555.655 6 111727914.27206      1594.892 6        39.243
G17        20.000    23605367.526 7 124047065.01507      2103.673 7        43.776                                    23605363.016 6  96660040.16106      1639.226 6        38.544    23605363.054 6  96660039.16006      1639.119 6        39.613
E26        21.000    24268071.149 7 127529924.79907     -1879.848 7        47.337                                                                    24268068.749 8  95233582.96108     -1403.753 8        49.671    24268068.627 8  97717912.79908     -1440.363 8        50.863
I06        22.000    38395167.189 7 150671120.72707      -245.674 7        42.626
S28        23.000    40973387.802 5 215316624.99005      -464.715 5        34.138
G08        24.000    23245449.306 7 122155670.96707     -3987.204 7        42.480                                    23245447.303 6  95186236.61606     -3106.911 6        39.486    23245448.390 6  95186237.61806     -3106.853 6        40.570
S23        25.000    38246978.078 7 200989200.94007      -469.179 7        45.059
C13        26.000                                                                                                                                    40867677.134 6 212808913.83206     -1218.688 6        37.187    40867678.205 6 164557461.70906      -942.364 6        39.000    40867676.593 6 172924760.97106      -990.333 6        36.960
E24        27.000    27912117.280 6 146679203.32206     -1059.712 6        38.553                                                                    27912115.980 6 109533184.03706      -791.484 6        41.094    27912115.713 7 112390567.96107      -811.922 7        42.224
R21        29.000    19393738.225 8 103779816.27508       621.659 8        51.229                                                                    19393736.114 7  80717638.44507       483.568 7        45.958
E19        30.000    27501426.214 5 144520984.75405      2783.216 5        34.071                                                                    27501424.885 6 107921511.92306      2078.382 6        36.215    27501424.460 6 110736853.06806      2132.672 6        37.376
R05        31.000    20407659.461 8 109090677.99908     -3229.166 8        50.203                                                                    20407658.864 7  84848315.39007     -2511.575 7        46.307
R13        32.000    23892716.855 6 127585804.38106     -1067.262 6        37.463
E29        33.000    24755615.796 7 130091716.77107      1783.551 7        46.721                                                                    24755613.759 8  97146425.65508      1331.904 8        48.721    24755613.576 8  99680674.86408      1366.699 8        49.556
C16        35.000                                                                                                                                    39743794.390 6 206956390.88006       844.008 6        40.763    39743793.750 7 160031820.35607       652.710 7        42.398    39743791.315 6 168169019.37406       685.797 6        37.932
C32        36.000                                                                                                                                    22928764.481 8 119396148.80208      1645.365 8        50.173                                                                    22928764.175 8  97019172.13308      1337.063 8        49.293
G32        37.000    22539915.055 7 118448094.89707     -2391.466 7        46.935                                    22539912.420 7  92297219.37607     -1863.480 7        45.782    22539912.943 7  92297228.37607     -1863.556 7        42.406
E07        38.000    24597372.718 7 129260084.61007     -1096.863 7        46.056                                                                    24597372.750 8  96525426.02908      -819.101 8        48.895    24597372.372 8  99043472.96708      -840.423 8        49.970
C41        39.000                                                                                                                                    22296725.777 8 116104934.43508     -1590.248 8        50.708                                                                    22296730.585 8  94344799.30308     -1292.134 8        50.248
C39        40.000                                                                                                                                    39403231.021 7 205182987.70007       470.147 7        42.464                                                                    39403226.197 7 166727979.94007       382.122 7        42.453
E33        41.000    23610786.001 8 124075606.54508       482.432 8        48.208                                                                    23610783.745 8  92653895.34108       360.245 8        50.690    23610783.583 8  95070949.37108       369.659 8        51.805
S44        42.000    40625600.347 6 213489154.38906      -530.972 6        38.706
R06        43.000    19906605.837 6 106225526.72106      1748.380 6        41.974
C05        44.000                                                                                                                                    39215275.433 6 204204267.50406      -449.131 6        38.739    39215269.421 7 157903718.44907      -347.280 7        43.776    39215271.410 6 165932798.84206      -365.030 6        40.129
C29        45.000                                                                                                                                    26420857.506 6 137580342.84206      2754.380 6        41.070                                                                    26420855.739 6 111795292.79006      2238.220 6        39.535
G04        46.000    25210857.774 6 132483957.35106      3377.890 6        37.410                                    25210855.129 3 103234232.30103      2632.109 3        20.238    25210855.051 6 103234234.30406      2632.072 6        37.675
R22        48.000    22794825.640 7 121680344.82407      3392.893 7        46.440                                                                    22794824.392 7  94640263.79807      2638.949 7        43.467
I05        49.000  -497590685.012 5-876867523.19805       251.107 5        31.336
C06        50.000                                                                                                                                    39451373.011 6 205433674.56506       957.681 6        39.739    39451366.940 7 158854330.16807       740.483 7        43.048    39451366.846 6 166931667.81606       778.192 6        39.384
S48        51.000    77283246.757 6 406126608.45706      -482.797 6        38.120
G21        52.000    20961341.762 7 110152668.83907     -1491.378 7        44.667                                    20961336.051 6  85833270.80706     -1162.113 6        37.565
C09        53.000                                                                                                                                    40446726.868 6 210616728.19506      1229.034 6        39.096    40446723.442 7 162862202.04707       950.485 7        42.582    40446721.492 6 171143321.26006       998.796 6        38.312
C60        54.000                                                                                                                                    40625598.400 6 211548363.42206      -526.258 6        40.303                                                                    40625581.727 6 171900345.55906      -427.381 6        39.829
C27        55.000                                                                                                                                    22055995.202 8 114851373.60508     -2146.781 8        51.309                                                                    22055993.211 8  93326153.17608     -1744.366 8        48.873
R04        56.000    24559600.777 5 131515549.34205     -4780.298 5        35.276                                                                    24559602.316 4 102289859.44704     -3717.875 4        29.972
C02        57.000                                                                                                                                    40618211.529 5 211509744.74005      -491.068 5        34.195    40618204.243 6 163552747.93106      -379.620 6        40.644    40618208.388 6 171868998.54806      -398.771 6        36.284
I03        58.000   105612017.246 6 338659011.36806       961.669 6        41.080
R07        59.000    23433856.227 7 125443316.52107      3760.566 7        44.023                                                                    23433855.733 6  97567073.51506      2925.050 6        39.661
C28        60.000                                                                                                                                    25156744.283 7 130998074.10807     -3723.212 7        42.358                                                                    25156743.016 7 106446800.10307     -3025.481 7        42.908
> 2025 01 01 23 46  5.0000000  0 55
G10         1.000    24803195.541 6 130341769.84006     -3578.120 6        39.970                                    24803193.966 5 101565076.48405     -2788.148 5        32.317    24803193.850 5 101565053.50305     -2788.087 5        35.948
G14         2.000    24519482.456 6 128850797.28106     -2233.998 6        38.297                                    24519477.856 3 100403220.63403     -1740.779 3        20.143    24519478.857 6 100403216.63006     -1740.658 6        36.552
C33         3.000                                                                                                                                    25740281.967 7 134036429.56607     -3556.888 7        42.988                                                                    25740293.783 7 108915637.06007     -2890.208 7        42.952
E31         4.000    27700680.480 6 145568103.80406     -2909.934 6        37.720                                                                    27700681.304 6 108703465.91206     -2173.009 6        40.610    27700680.818 6 111539205.09906     -2229.705 6        40.846
S21         5.000    38527337.576 7 202462275.49107      -472.170 7        42.461
E13         6.000    28485527.305 5 149692788.27905     -3053.287 5        33.617                                                                    28485527.722 6 111783779.67906     -2280.314 6        36.011    28485526.818 5 114699848.21105     -2339.647 5        35.114
G28         7.000    24587104.029 6 129206111.75106      2101.213 6        39.147                                    24587100.429 3 100680067.92303      1637.310 3        23.790    24587100.631 6 100680075.94006      1637.117 6        39.405
G03         8.000    21411903.971 7 112520412.64407      1903.598 7        46.078                                    21411901.593 7  87678285.32107      1483.321 7        46.675    21411902.117 7  87678283.31907      1483.315 7        43.681
G02         9.000    20816259.170 8 109390232.91808         6.633 8        50.197                                    20816251.925 7  85239137.93307         5.167 7        43.454
R12        10.000    24512928.863 7 130943701.95107     -3270.510 7        42.445                                                                    24512928.901 6 101845135.25806     -2543.506 6        37.304
C30        11.000                                                                                                                                    22356195.753 8 116414596.14308       852.851 8        50.359                                                                    22356196.234 8  94596398.58708       693.105 8        48.810
S27        12.000    39186467.633 5 205926318.43905      -447.967 5        35.381
R20        13.000    20733224.037 6 110869916.76906     -3233.571 6        37.784                                                                    20733225.653 7  86232224.44007     -2514.959 7        45.997
S36        14.000    38295160.057 7 201242950.52207      -471.475 7        43.583
S45        17.000    63497604.591 6 333682994.83706      -514.377 6        37.622
E08        18.000    28117977.127 6 147760999.88006     -3189.371 6        36.597                                                                    28117975.987 6 110341006.22106     -2381.659 6        40.858    28117975.671 6 113219463.21106     -2443.834 6        40.701
E12        19.000    27745578.790 5 145804005.90605      2081.386 5        35.762                                                                    27745575.290 6 108879602.45306      1554.536 6        38.667    27745575.044 6 111719939.49406      1594.904 6        39.204
G17        20.000    23603367.002 7 124036551.22007      2101.824 7        43.033                                    23603362.313 6  96651847.59506      1637.785 6        38.429    23603362.662 6  96651846.60606      1637.758 6        39.529
E26        21.000    24269860.449 7 127539327.17407     -1881.090 7        47.396                                                                    24269857.925 8  95240604.22108     -1404.713 8        49.745    24269857.821 8  97725117.22208     -1441.359 8        50.868
I06        22.000    38395480.201 7 150672348.90507      -245.647 7        42.616
S28        23.000    40973830.082 5 215318947.68405      -464.659 5        34.081
G08        24.000    23249243.192 6 122175609.35506     -3988.370 6        41.738                                    23249241.613 6  95201773.01806     -3107.819 6        39.210    23249242.955 6  95201773.99306     -3107.677 6        40.872
S23        25.000    38247425.455 7 200991547.13607      -469.504 7        44.777
C13        26.000                                                                                                                                    40868847.232 6 212815007.14206     -1218.571 6        37.164    40868848.645 6 164562173.45706      -942.333 6        39.153    40868846.661 6 172929712.28306      -990.265 6        36.862
E24        27.000    27913126.900 6 146684507.85106     -1062.206 6        39.111                                                                    27913125.394 6 109537145.19506      -793.001 6        41.232    27913125.019 7 112394632.46707      -813.841 7        42.480
R21        29.000    19393158.932 8 103776716.41908       618.281 8        51.075                                                                    19393157.236 7  80715227.45507       480.831 7        45.610
E19        30.000    27498778.010 5 144507068.95505      2783.028 5        34.529                                                                    27498776.608 6 107911120.26306      2078.298 6        36.548    27498776.247 6 110726190.30606      2132.554 6        37.236
R05        31.000    20410681.673 8 109106831.06108     -3232.058 8        50.302                                                                    20410680.590 7  84860878.88007     -2513.852 7        46.618
R13        32.000    23893718.440 6 127591149.96206     -1071.210 6        37.932
E29        33.000    24753919.427 7 130082802.91807      1781.859 7        46.809                                                                    24753917.532 8  97139769.21508      1330.656 8        48.843    24753917.329 8  99673844.77708      1365.342 8        49.553
C16        35.000                                                                                                                                    39742983.980 6 206952173.03306       843.107 6        40.813    39742983.376 7 160028558.86207       651.990 7        42.406    39742981.092 6 168165592.02206       685.119 6        37.709
C32        36.000                                                                                                                                    22927185.408 8 119387926.73508      1643.423 8        50.086                                                                    22927185.178 8  97012491.03408      1335.476 8        49.249
G32        37.000    22542191.761 7 118460058.42507     -2394.084 7        47.023                                    22542188.972 7  92306541.60407     -1865.520 7        45.597    22542189.678 7  92306550.60607     -1865.484 7        42.379
E07        38.000    24598417.352 7 129265574.85807     -1099.263 7        46.128                                                                    24598417.587 8  96529525.89008      -820.864 8        48.997    24598417.153 8  99047679.78308      -842.281 8        50.001
C41        39.000                                                                                                                                    22298253.932 8 116112890.90708     -1592.460 8        50.690                                                                    22298258.603 8  94351264.58908     -1293.883 8        50.300
C39        40.000                                                                                                                                    39402780.383 7 205180639.69107       468.935 7        42.698                                                                    39402775.333 7 166726071.99807       381.225 7        42.563
E33        41.000    23610327.402 8 124073197.29108       481.229 8        48.224                                                                    23610325.287 8  92652096.22608       359.349 8        50.775    23610325.086 8  95069103.32208       368.735 8        51.805
S44        42.000    40626101.727 6 213491809.10106      -531.151 6        38.426
R06        43.000    19904969.362 6 106216793.81306      1744.792 6        41.931
C05        44.000                                                                                                                                    39215706.466 6 204206513.50906      -449.304 6        38.853    39215700.530 7 157905455.20707      -347.403 7        43.708    39215702.985 6 165934623.89106      -365.003 6        40.346
C29        45.000                                                                                                                                    26418212.625 6 137566571.70406      2754.004 6        40.369                                                                    26418211.165 6 111784102.60906      2237.908 6        39.432
G04        46.000    25207643.294 6 132467067.73906      3377.996 6        38.027                                    25207641.034 3 103221071.59103      2632.198 3        20.190    25207641.486 6 103221073.60606      2631.942 6        37.592
R22        48.000    22791647.329 7 121663381.87307      3392.258 7        46.106                                                                    22791645.682 7  94627070.38307      2638.515 7        42.590
I05        49.000  -497591006.403 5-876868779.75405       251.414 5        30.151
C06        50.000                                                                                                                                    39450453.872 6 205428888.74106       956.771 6        39.565    39450448.212 7 158850629.46807       739.846 7        43.100    39450447.825 6 166927778.93806       777.410 6        39.381
S48        51.000    77283689.072 6 406129022.01606      -482.545 6        38.015
G21        52.000    20962761.461 7 110160130.14407     -1493.303 7        44.680                                    20962755.903 6  85839084.81206     -1163.614 6        37.380
C09        53.000                                                                                                                                    40445546.778 6 210610584.04706      1228.522 6        39.036    40445543.623 7 162857451.01707       949.971 7        42.777    40445541.595 6 171138328.64606       998.333 6        38.670
C60        54.000                                                                                                                                    40626103.541 6 211550993.99406      -526.357 6        40.358                                                                    40626086.984 6 171902483.11406      -427.513 6        39.802
C27        55.000                                                                                                                                    22058057.515 8 114862113.11608     -2149.085 8        51.689                                                                    22058055.668 8  93334879.91408     -1746.229 8        48.830
R04        56.000    24564064.702 5 131539450.80205     -4780.562 5        33.731                                                                    24564062.272 4 102308449.47904     -3717.826 4        29.469
C02        57.000                                                                                                                                    40618683.473 5 211512200.00005      -491.165 5        34.271    40618675.963 6 163554646.49206      -379.871 6        40.696    40618679.737 6 171870993.62106      -398.974 6        36.189
I03        58.000   105610791.723 6 338654202.93806       961.600 6        41.044
R07        59.000    23430343.880 7 125424515.97607      3759.456 7        43.657                                                                    23430342.697 6  97552450.88006      2924.013 6        38.682
C28        60.000                                                                                                                                    25160319.445 7 131016692.80507     -3724.212 7        42.277                                                                    25160318.475 7 106461929.31807     -3026.177 7        42.648
> 2025 01 01 23 46 10.0000000  0 55
G10         1.000    24806600.035 6 130359659.85106     -3578.030 6        40.436                                    24806598.243 5 101579016.75205     -2788.074 5        32.503    24806597.774 5 101578993.76205     -2788.121 5        35.881
G14         2.000    24521608.794 6 128861971.93006     -2236.104 6        38.441                                    24521604.354 3 100411928.15203     -1742.429 3        19.970    24521604.585 6 100411924.17406     -1742.567 6        36.722
C33         3.000                                                                                                                                    25743697.892 7 134054215.54307     -3557.456 7        42.677                                                                    25743709.386 7 108930089.60407     -2890.637 7        42.910
E31         4.000    27703450.253 6 145582655.76806     -2910.824 6        38.174                                                                    27703450.314 6 108714332.64906     -2173.634 6        40.524    27703449.956 6 111550355.31906     -2230.482 6        41.015
S21         5.000    38527787.358 7 202464637.01907      -472.358 7        42.286
E13         6.000    28488432.443 5 149708055.34805     -3053.656 5        33.623                                                                    28488432.825 5 111795180.40205     -2280.323 5        35.609    28488432.125 5 114711546.34505     -2339.828 5        35.362
G28         7.000    24585105.871 6 129195609.05706      2099.759 6        39.300                                    24585101.774 3 100671884.01503      1636.179 3        22.838    24585101.813 6 100671892.00206      1636.384 6        39.775
G03         8.000    21410093.550 7 112510899.08407      1901.876 7        46.568                                    21410091.230 7  87670872.16107      1481.980 7        46.659    21410091.766 7  87670870.16807      1481.887 7        43.642
G02         9.000    20816253.657 8 109390204.69808         4.636 8        50.008                                    20816246.563 7  85239115.94507         3.614 7        43.414
R12        10.000    24515990.950 6 130960060.22006     -3272.853 6        41.528                                                                    24515991.627 6 101857858.36206     -2545.581 6        37.134
C30        11.000                                                                                                                                    22355378.042 8 116410337.53408       850.572 8        50.249                                                                    22355378.417 8  94592938.10808       691.210 8        48.822
S27        12.000    39186893.948 5 205928558.51105      -448.075 5        35.410
R20        13.000    20736248.723 6 110886090.12906     -3236.009 6        38.075                                                                    20736250.585 7  86244803.72107     -2516.825 7        46.335
S36        14.000    38295606.661 7 201245308.57707      -471.879 7        43.619
S45        17.000    63498047.568 6 333685565.05106      -513.993 6        37.928
E08        18.000    28121012.250 6 147776949.06206     -3190.325 6        36.363                                                                    28121011.301 6 110352916.29606     -2382.378 6        40.434    28121010.691 6 113231683.99806     -2444.544 6        40.460
E12        19.000    27743598.048 6 145793598.55506      2081.432 6        36.049                                                                    27743594.893 6 108871830.72606      1554.338 6        38.706    27743594.604 6 111711965.03506      1594.933 6        39.189
G17        20.000    23601367.438 7 124026046.84707      2099.878 7        42.415                                    23601363.364 6  96643662.37506      1636.268 6        38.480    23601363.695 6  96643661.38906      1636.343 6        39.450
E26        21.000    24271650.927 7 127548735.74407     -1882.323 7        47.184                                                                    24271648.339 8  95247630.10608     -1405.674 8        49.726    24271648.151 8  97732326.38708     -1442.338 8        50.822
I06        22.000    38395793.205 7 150673577.24207      -245.764 7        42.445
S28        23.000    40974276.327 5 215321270.48505      -464.516 5        34.138
G08        24.000    23253038.244 7 122195552.55007     -3989.204 7        42.011                                    23253036.853 6  95217313.15706     -3108.466 6        39.063    23253037.094 6  95217314.16206     -3108.492 6        40.543
S23        25.000    38247870.798 7 200993893.61207      -469.344 7        44.752
C13        26.000                                                                                                                                    40870016.522 6 212821099.76406     -1218.469 6        37.119    40870018.627 6 164566884.63306      -942.124 6        39.036    40870016.725 6 172934662.99806      -990.029 6        37.108
E24        27.000    27914138.556 6 146689824.10306     -1064.404 6        38.655                                                                    27914137.107 6 109541115.14706      -794.902 6        40.996    27914136.589 7 112398705.97207      -815.531 7        42.199
R21        29.000    19392582.653 8 103773633.34908       614.923 8        51.319                                                                    19392580.897 7  80712829.50607       478.301 7        45.676
E19        30.000    27496130.195 5 144493153.92505      2783.068 5        34.581                                                                    27496128.788 6 107900729.17506      2078.143 6        36.484    27496128.421 6 110715528.15706      2132.481 6        37.032
R05        31.000    20413705.698 8 109122998.18508     -3234.836 8        50.370                                                                    20413704.930 7  84873453.30407     -2515.943 7        46.626
R13        32.000    23894723.883 6 127596515.91306     -1075.387 6        37.274
E29        33.000    24752224.805 7 130073897.55707      1780.214 7        46.793                                                                    24752222.864 8  97133119.11608      1329.403 8        48.828    24752222.752 8  99667021.19908      1364.045 8        49.520
C16        35.000                                                                                                                                    39742175.136 6 206947959.37906       842.333 6        40.837    39742174.179 7 160025300.61107       651.311 7        42.451    39742171.840 6 168162168.07406       684.556 6        37.788
C32        36.000                                                                                                                                    22925608.216 8 119379714.32608      1641.508 8        50.102                                                                    22925608.089 8  97005817.76508      1333.878 8        49.359
G32        37.000    22544470.603 7 118472034.70607     -2396.563 7        47.090                                    22544467.957 7  92315873.77207     -1867.453 7        45.567    22544469.175 7  92315882.77607     -1867.437 7        42.362
E07        38.000    24599464.409 7 129271076.86207     -1101.644 7        45.696                                                                    24599464.532 8  96533634.53008      -822.608 8        48.976    24599464.136 8  99051895.61208      -844.101 8        49.971
C41        39.000                                                                                                                                    22299783.892 8 116120858.06208     -1594.502 8        50.552                                                                    22299788.606 8  94357738.54008     -1295.622 8        50.300
C39        40.000                                                                                                                                    39402330.352 7 205178296.64607       468.104 7        42.722                                                                    39402325.406 7 166724168.06407       380.448 7        42.552
E33        41.000    23609870.111 8 124070793.92308       480.071 8        48.107                                                                    23609867.938 8  92650301.50608       358.491 8        50.776    23609867.745 8  95067261.78508       367.833 8        51.789
S44        42.000    40626610.374 6 213494464.04206      -530.972 6        38.288
R06        43.000    19903336.631 6 106208078.44206      1741.342 6        41.912
C05        44.000                                                                                                                                    39216138.354 6 204208759.77806      -449.278 6        38.673    39216131.997 7 157907192.16907      -347.416 7        43.852    39216134.286 6 165936449.16006      -364.926 6        40.462
C29        45.000                                                                                                                                    26415568.830 6 137552802.45706      2753.546 6        39.760                                                                    26415566.952 6 111772913.94706      2237.462 6        39.775
G04        46.000    25204429.598 6 132450177.85206      3378.027 6        37.834                                    25204427.042 3 103207910.66203      2632.205 3        20.357    25204427.334 6 103207912.66606      2632.209 6        37.837
R22        48.000    22788470.175 7 121646421.86707      3391.660 7        45.773                                                                    22788468.527 7  94613879.27107      2638.095 7        42.868
I05        49.000  -497591325.722 5-876870036.07005       251.502 5        33.425
C06        50.000                                                                                                                                    39449535.649 6 205424106.96706       955.860 6        39.619    39449529.939 7 158846931.88707       739.243 7        43.409    39449529.664 6 166923893.32806       776.900 6        39.883
S48        51.000    77284139.109 6 406131435.64906      -482.947 6        37.709
G21        52.000    20964183.504 7 110167600.75907     -1495.117 7        44.453                                    20964177.522 6  85844906.07406     -1165.026 6        37.372
C09        53.000                                                                                                                                    40444367.730 6 210604442.72806      1228.045 6        39.084    40444364.479 7 162852702.14607       949.640 7        42.792    40444362.402 6 171133338.31506       997.837 6        38.826
C60        54.000                                                                                                                                    40626608.655 6 211553624.80806      -526.181 6        40.367                                                                    40626592.135 6 171904620.85906      -427.476 6        40.067
C27        55.000                                                                                                                                    22060122.231 8 114872863.93308     -2151.301 8        51.550                                                                    22060120.158 8  93343615.81708     -1748.083 8        48.984
R04        56.000    24568527.275 5 131563352.16105     -4780.126 5        34.429                                                                    24568529.803 5 102327039.48005     -3718.155 5        30.460
C02        57.000                                                                                                                                    40619154.384 5 211514655.52405      -490.964 5        34.329    40619147.138 6 163556545.26206      -379.828 6        40.622    40619151.386 6 171872988.93006      -398.990 6        36.533
I03        58.000   105609566.836 6 338649394.86306       961.484 6        41.008
R07        59.000    23426833.371 7 125405720.49507      3758.707 7        44.564                                                                    23426832.820 6  97537832.15106      2923.346 6        38.733
C28        60.000                                                                                                                                    25163895.387 7 131035315.47307     -3724.925 7        42.133                                                                    25163894.648 7 106477061.74307     -3026.809 7        42.720
> 2025 01 01 23 46 15.0000000  0 55
G10         1.000    24810004.051 6 130377549.60206     -3578.071 6        40.625                                    24810002.534 5 101592956.81905     -2788.108 5        32.820    24810002.570 6 101592933.82806     -2787.971 6        36.329
G14         2.000    24523737.019 6 128873156.32706     -2238.190 6        38.141                                    24523732.551 3 100420643.26603     -1744.034 3        20.238    24523733.702 6 100420639.24906     -1743.826 6        37.032
C33         3.000                                                                                                                                    25747113.699 7 134072003.04107     -3557.883 7        42.548                                                                    25747125.369 7 108944543.41807     -2891.213 7        42.845
E31         4.000    27706220.747 6 145597211.56706     -2911.859 6        38.213                                                                    27706220.233 6 108725202.22706     -2174.393 6        40.489    27706219.724 6 111561508.43806     -2231.048 6        40.946
S21         5.000    38528232.875 7 202466997.79907      -472.334 7        42.008
E13         6.000    28491338.009 5 149723323.24305     -3053.735 5        34.195                                                                    28491338.307 5 111806581.77405     -2280.452 5        35.505    28491337.940 5 114723245.13505     -2339.732 5        34.810
G28         7.000    24583108.337 6 129185112.64806      2098.445 6        39.165                                    24583104.453 3 100663704.98503      1635.158 3        23.314    24583104.956 6 100663712.99406      1635.146 6        40.052
G03         8.000    21408284.880 7 112501393.31007      1900.207 7        46.239                                    21408282.351 7  87663465.06707      1480.683 7        46.834    21408282.649 7  87663463.07007      1480.589 7        43.592
G02         9.000    20816249.507 8 109390185.38008         2.700 8        49.951                                    20816242.887 7  85239100.89207         2.102 7        43.532
R12        10.000    24519055.601 6 130976429.29806     -3275.139 6        41.878                                                                    24519055.606 6 101870589.90106     -2547.274 6        36.363
C30        11.000                                                                                                                                    22354562.119 8 116406089.15708       848.385 8        50.125                                                                    22354562.500 8  94589485.97208       689.268 8        48.836
S27        12.000    39187322.808 5 205930797.66605      -448.292 5        35.552
R20        13.000    20739275.544 6 110902275.71806     -3238.585 6        37.992                                                                    20739277.092 7  86257392.53207     -2518.920 7        45.424
S36        14.000    38296056.086 7 201247666.15007      -471.579 7        43.556
S45        17.000    63498492.329 6 333688134.32306      -514.110 6        37.845
E08        18.000    28124047.701 6 147792902.03506     -3191.160 6        36.250                                                                    28124046.980 6 110364829.22806     -2383.058 6        40.465    28124046.642 6 113243907.68906     -2445.154 6        40.749
E12        19.000    27741617.787 5 145783190.52305      2081.293 5        35.810                                                                    27741614.386 6 108864058.50206      1554.200 6        38.802    27741613.887 6 111703990.03306      1594.775 6        39.279
G17        20.000    23599370.099 7 124015550.78607      2098.160 7        43.192                                    23599366.011 6  96635483.63206      1634.928 6        38.631    23599366.280 6  96635482.63906      1634.852 6        39.012
E26        21.000    24273442.336 7 127558149.43807     -1883.491 7        47.064                                                                    24273439.746 8  95254659.80908     -1406.538 8        49.624    24273439.543 8  97739539.47408     -1443.200 8        50.858
I06        22.000    38396106.248 7 150674804.88207      -245.633 7        42.525
S28        23.000    40974712.503 5 215323592.69005      -464.354 5        34.186
G08        24.000    23256834.607 7 122215499.52107     -3990.043 7        42.402                                    23256832.684 6  95232856.25006     -3109.127 6        39.306    23256832.975 6  95232857.25906     -3109.083 6        39.997
S23        25.000    38248315.581 7 200996239.18007      -469.252 7        44.778
C13        26.000                                                                                                                                    40871186.309 6 212827190.66606     -1218.026 6        36.779    40871188.147 6 164571594.50506      -941.993 6        38.613    40871186.608 6 172939612.37906      -989.979 6        36.885
E24        27.000    27915151.697 6 146695150.95106     -1066.565 6        38.730                                                                    27915150.754 6 109545092.99406      -796.469 6        41.111    27915150.154 7 112402787.60207      -817.363 7        42.347
R21        29.000    19392009.298 8 103770565.96908       611.681 8        51.169                                                                    19392007.769 7  80710443.76707       475.775 7        46.067
E19        30.000    27493482.110 5 144479238.51705      2782.921 5        34.186                                                                    27493481.132 6 107890337.81306      2078.033 6        36.612    27493480.255 6 110704865.70906      2132.556 6        36.612
R05        31.000    20416732.466 8 109139178.19908     -3237.502 8        50.115                                                                    20416730.998 7  84886037.77207     -2518.056 7        45.818
R13        32.000    23895733.016 6 127601901.40506     -1079.091 6        38.297
E29        33.000    24750531.413 7 130064999.61907      1778.577 7        46.631                                                                    24750529.613 8  97126474.55108      1328.182 8        48.799    24750529.491 8  99660203.29308      1362.833 8        49.590
C16        35.000                                                                                                                                    39741366.467 6 206943748.82706       841.517 6        40.758    39741365.599 7 160022044.74407       650.721 7        42.368    39741363.265 6 168158746.67206       683.861 6        37.516
C32        36.000                                                                                                                                    22924032.823 8 119371510.48508      1639.690 8        50.034                                                                    22924032.601 8  96999151.49308      1332.299 8        49.339
G32        37.000    22546751.791 7 118484022.64407     -2399.002 7        47.225                                    22546749.173 7  92325215.02507     -1869.352 7        45.713    22546750.264 7  92325224.02107     -1869.387 7        42.061
E07        38.000    24600513.168 7 129276589.54107     -1103.850 7        45.278                                                                    24600513.515 8  96537751.14108      -824.294 8        48.861    24600513.202 8  99056119.60908      -845.846 8        50.034
C41        39.000                                                                                                                                    22301315.677 8 116128834.81008     -1596.539 8        50.496                                                                    22301320.414 8  94364220.32008     -1297.458 8        50.292
C39        40.000                                                                                                                                    39401880.919 7 205175957.48207       467.219 7        42.921                                                                    39401876.126 7 166722267.33007       379.512 7        42.263
E33        41.000    23609413.807 7 124068395.35307       478.956 7        47.849                                                                    23609411.536 8  92648510.36708       357.661 8        50.706    23609411.350 8  95065423.91908       366.970 8        51.815
S44        42.000    40627114.523 6 213497118.17106      -530.962 6        38.153
R06        43.000    19901705.619 6 106199379.47906      1737.906 6        41.657
C05        44.000                                                                                                                                    39216569.364 6 204211005.26306      -449.306 6        38.571    39216563.204 7 157908928.52207      -347.504 7        43.693    39216565.431 6 165938273.81106      -365.090 6        40.384
C29        45.000                                                                                                                                    26412925.814 6 137539034.03706      2753.443 6        41.061                                                                    26412922.817 6 111761725.99606      2237.247 6        39.571
G04        46.000    25201214.891 6 132433286.63006      3378.081 6        37.762                                    25201212.799 3 103194748.70403      2632.270 3        20.452    25201212.837 6 103194750.71306      2632.308 6        38.012
R22        48.000    22785293.619 7 121629463.74707      3391.119 7        46.121                                                                    22785291.912 7  94600689.61507      2637.645 7        43.170
I05        49.000  -497591644.109 5-876871292.89105       251.101 5        32.635
C06        50.000                                                                                                                                    39448617.505 6 205419328.14006       955.191 6        38.910    39448612.485 7 158843236.60707       738.639 7        43.479    39448612.009 6 166920010.17506       776.068 6        39.568
S48        51.000    77284588.619 6 406133848.30606      -482.571 6        37.826
G21        52.000    20965606.392 7 110175079.58707     -1496.894 7        44.600                                    20965600.692 6  85850733.73306     -1166.413 6        37.584
C09        53.000                                                                                                                                    40443188.220 6 210598303.08606      1227.638 6        39.057    40443185.224 7 162847954.60807       949.181 7        43.213    40443183.322 6 171128349.37006       997.323 6        38.808
C60        54.000                                                                                                                                    40627113.582 6 211556254.80406      -526.083 6        40.162                                                                    40627097.490 6 171906757.96906      -427.641 6        39.763
C27        55.000                                                                                                                                    22062188.830 8 114883624.94808     -2153.460 8        51.174                                                                    22062186.762 8  93352360.03808     -1749.959 8        48.818
R04        56.000    24572991.925 5 131587252.09505     -4780.065 5        34.324                                                                    24572990.538 4 102345628.35804     -3718.067 4        29.782
C02        57.000                                                                                                                                    40619625.770 5 211517110.28405      -491.112 5        33.934    40619618.635 6 163558443.43706      -379.762 6        40.577    40619622.699 6 171874983.66606      -399.244 6        36.533
I03        58.000   105608341.469 6 338644586.30806       961.563 6        40.789
R07        59.000    23423322.847 7 125386929.14207      3757.677 7        44.725                                                                    23423322.157 6  97523216.67306      2922.511 6        39.544
C28        60.000                                                                                                                                    25167472.298 7 131053941.05407     -3725.729 7        42.226                                                                    25167471.574 7 106492196.57307     -3027.516 7        42.743
> 2025 01 01 23 46 20.0000000  0 55
G10         1.000    24813408.686 6 130395439.37706     -3578.182 6        40.412                                    24813406.852 5 101606896.90705     -2788.193 5        32.856    24813407.085 6 101606873.92106     -2788.278 6        36.181
G14         2.000    24525867.632 6 128884350.65006     -2240.165 6        36.760                                    24525862.725 3 100429366.12003     -1745.586 3        19.791    24525863.887 6 100429362.09606     -1745.617 6        36.938
C33         3.000                                                                                                                                    25750529.934 7 134089792.23807     -3558.197 7        42.123                                                                    25750541.524 7 108958998.57507     -2891.239 7        43.012
E31         4.000    27708990.726 6 145611771.38206     -2912.743 6        37.777                                                                    27708990.835 6 108736074.79706     -2174.912 6        40.584    27708990.400 6 111572664.64406     -2231.712 6        41.044
S21         5.000    38528674.944 6 202469357.92606      -472.241 6        41.862
E13         6.000    28494243.282 5 149738592.21505     -3054.120 5        33.671                                                                    28494243.939 5 111817983.89405     -2280.211 5        34.986    28494243.329 5 114734944.73405     -2340.035 5        34.724
G28         7.000    24581112.347 6 129174622.76206      2097.160 6        39.102                                    24581108.195 3 100655531.05703      1634.158 3        23.867    24581108.496 6 100655539.04506      1634.179 6        40.348
G03         8.000    21406477.113 7 112491895.51707      1898.482 7        46.707                                    21406474.997 7  87656064.19207      1479.334 7        46.806    21406475.715 7  87656062.19407      1479.426 7        43.706
G02         9.000    20816247.589 8 109390175.18708         0.889 8        50.038                                    20816240.947 7  85239092.94807         0.691 7        43.471
R12        10.000    24522122.107 6 130992809.38406     -3277.292 6        41.564                                                                    24522121.860 6 101883330.03006     -2549.286 6        36.102
C30        11.000                                                                                                                                    22353748.416 8 116401851.23208       846.309 8        50.265                                                                    22353748.722 8  94586042.30508       687.830 8        48.826
S27        12.000    39187748.127 5 205933036.29205      -448.104 5        35.762
R20        13.000    20742304.388 6 110918473.85106     -3241.021 6        38.129                                                                    20742306.383 7  86269991.06007     -2520.886 7        45.568
S36        14.000    38296503.391 7 201250023.04607      -471.489 7        43.659
S45        17.000    63498937.202 6 333690702.76906      -513.786 6        37.909
E08        18.000    28127084.375 6 147808859.03306     -3192.007 6        36.699                                                                    28127083.402 6 110376745.14606     -2383.624 6        40.675    28127083.271 6 113256134.47706     -2445.977 6        40.977
E12        19.000    27739636.850 5 145772782.01205      2081.320 5        35.243                                                                    27739633.657 6 108856285.90206      1554.349 6        38.790    27739633.176 6 111696014.66806      1595.110 6        39.228
G17        20.000    23597375.463 7 124005063.35907      2096.383 7        42.897                                    23597370.294 6  96627311.61206      1633.546 6        38.526    23597370.337 6  96627310.62506      1633.459 6        39.474
E26        21.000    24275234.763 7 127567568.44407     -1884.621 7        47.129                                                                    24275232.165 8  95261693.47908     -1407.308 8        49.625    24275231.946 8  97746756.64008     -1444.068 8        50.804
I06        22.000    38396418.810 7 150676032.01407      -245.600 7        42.722
S28        23.000    40975160.023 5 215325913.98305      -464.126 5        34.043
G08        24.000    23260631.138 7 122235450.46007     -3990.684 7        42.427                                    23260629.105 6  95248402.43306     -3109.625 6        39.246    23260629.996 6  95248403.45606     -3109.749 6        39.913
S23        25.000    38248765.015 7 200998583.98307      -469.207 7        44.939
C13        26.000                                                                                                                                    40872356.217 6 212833280.09306     -1217.837 6        36.843    40872357.223 6 164576303.21506      -941.868 6        38.670    40872355.982 6 172944560.51606      -989.493 6        36.983
E24        27.000    27916167.747 6 146700488.64006     -1069.089 6        38.462                                                                    27916166.510 6 109549078.93206      -798.226 6        41.089    27916165.956 7 112406877.51707      -818.963 7        42.519
R21        29.000    19391438.884 8 103767514.61408       608.425 8        51.120                                                                    19391437.315 7  80708070.49207       473.238 7        46.088
E19        30.000    27490833.915 5 144465323.07105      2782.701 5        34.086                                                                    27490833.052 6 107879946.39306      2078.220 6        36.998    27490832.000 6 110694203.21506      2132.399 6        36.779
R05        31.000    20419761.521 8 109155371.25108     -3240.144 8        50.030                                                                    20419761.239 7  84898632.36507     -2520.094 7        46.685
R13        32.000    23896745.280 6 127607306.41806     -1083.122 6        37.943
E29        33.000    24748839.491 7 130056109.30207      1777.022 7        46.362                                                                    24748837.902 8  97119835.68208      1327.012 8        48.792    24748837.757 8  99653391.23308      1361.680 8        49.556
C16        35.000                                                                                                                                    39740558.300 6 206939541.60606       840.791 6        40.760    39740557.837 7 160018791.44507       650.222 7        42.442    39740555.401 6 168155327.95306       683.431 6        37.645
C32        36.000                                                                                                                                    22922458.835 8 119363315.43108      1637.881 8        49.905                                                                    22922458.846 8  96992492.33508      1331.065 8        49.383
G32        37.000    22549035.485 7 118496022.42207     -2401.356 7        47.374                                    22549032.629 7  92334565.50007     -1871.187 7        45.622    22549033.772 6  92334574.50306     -1870.999 6        41.969
E07        38.000    24601564.807 7 129282113.09407     -1106.021 7        45.463                                                                    24601564.673 8  96541875.86808      -825.887 8        48.837    24601564.297 8  99060351.94108      -847.481 8        49.995
C41        39.000                                                                                                                                    22302849.535 8 116136821.34608     -1598.548 8        50.594                                                                    22302854.157 8  94370710.02908     -1298.800 8        50.376
C39        40.000                                                                                                                                    39401432.134 7 205173622.41607       466.358 7        43.024                                                                    39401427.599 7 166720369.89407       379.076 7        42.463
E33        41.000    23608958.335 7 124066001.81007       477.966 7        47.906                                                                    23608956.049 8  92646722.97108       356.894 8        50.705    23608955.865 8  95063589.89808       366.230 8        51.848
S44        42.000    40627619.535 6 213499771.67606      -530.805 6        38.345
R06        43.000    19900078.487 6 106190696.97106      1734.724 6        41.454
C05        44.000                                                                                                                                    39217000.339 6 204213250.15106      -449.297 6        38.426    39216994.519 7 157910664.40807      -347.371 7        43.848    39216996.585 6 165940097.95506      -364.836 6        40.553
C29        45.000                                                                                                                                    26410281.342 6 137525266.70206      2752.960 6        41.383                                                                    26410279.173 6 111750538.90706      2237.469 6        39.943
G04        46.000    25198000.451 6 132416394.26406      3378.351 6        38.117                                    25197998.311 3 103181585.85303      2632.493 3        20.833    25197998.137 6 103181587.86506      2632.363 6        37.977
R22        48.000    22782116.607 7 121612507.65107      3390.741 7        45.929                                                                    22782115.569 7  94587501.56707      2637.234 7        43.257
I05        49.000  -497591967.326 4-876872549.96004       251.377 4        28.938
C06        50.000                                                                                                                                    39447700.617 6 205414552.50706       954.489 6        39.102    39447695.330 7 158839543.79107       737.994 7        43.462    39447694.630 6 166916129.57006       775.816 6        39.814
S48        51.000    77285043.517 6 406136260.29406      -482.716 6        38.553
G21        52.000    20967031.219 7 110182566.82707     -1498.628 7        44.569                                    20967025.458 6  85856567.94306     -1167.762 6        37.437
C09        53.000                                                                                                                                    40442009.990 6 210592165.37706      1227.072 6        39.003    40442006.586 7 162843208.53407       948.884 7        43.240    40442004.647 6 171123361.96006       997.255 6        39.066
C60        54.000                                                                                                                                    40627618.934 6 211558884.18706      -526.133 6        40.384                                                                    40627602.323 6 171908894.55106      -427.397 6        40.002
C27        55.000                                                                                                                                    22064257.226 8 114894396.37008     -2155.552 8        50.951                                                                    22064255.350 8  93361112.68908     -1751.510 8        48.935
R04        56.000    24577454.922 5 131611150.98705     -4779.925 5        33.449                                                                    24577454.189 4 102364216.38304     -3717.941 4        29.507
C02        57.000                                                                                                                                    40620097.629 5 211519564.47305      -491.147 5        34.029    40620089.756 6 163560341.15406      -379.585 6        40.496    40620094.200 6 171876977.85406      -398.835 6        36.518
I03        58.000   105607116.404 6 338639777.47306       961.555 6        40.815
R07        59.000    23419813.043 7 125368141.78907      3756.674 7        45.272                                                                    23419812.411 6  97508604.29906      2922.006 6        40.589
C28        60.000                                                                                                                                    25171050.214 7 131072569.72407     -3726.425 7        42.629                                                                    25171049.084 7 106507333.88007     -3027.723 7        42.808
> 2025 01 01 23 46 25.0000000  0 55
G10         1.000    24816812.616 6 130413329.63206     -3578.271 6        39.054                                    24816811.268 5 101620837.37005     -2788.261 5        32.467    24816811.773 6 101620814.37806     -2788.252 6        36.299
G14         2.000    24527999.609 6 128895555.38606     -2242.162 6        37.724                                    24527995.197 3 100438097.07303     -1747.155 3        20.167    24527995.578 6 100438093.06506     -1747.116 6        36.741
C33         3.000                                                                                                                                    25753946.528 7 134107583.60307     -3558.572 7        42.347                                                                    25753958.245 7 108973455.52907     -2891.597 7        42.914
E31         4.000    27711761.944 6 145626335.69106     -2913.496 6        38.078                                                                    27711762.605 6 108746950.74906     -2175.655 6        40.513    27711762.014 6 111583824.30506     -2232.132 6        40.892
S21         5.000    38529137.364 7 202471717.98207      -472.058 7        42.639
E13         6.000    28497148.947 5 149753862.72705     -3054.191 5        33.916                                                                    28497149.419 5 111829387.22305     -2280.617 5        35.048    28497148.942 5 114746645.52805     -2340.313 5        34.438
G28         7.000    24579117.252 6 129164139.92106      2095.865 6        39.312                                    24579113.632 3 100647362.60803      1633.141 3        23.638    24579113.728 6 100647370.60506      1633.097 6        40.160
G03         8.000    21404671.428 7 112482406.24307      1896.908 7        46.306                                    21404669.267 7  87648669.95107      1478.110 7        46.907    21404670.124 7  87648667.96007      1478.034 7        43.936
G02         9.000    20816248.228 8 109390174.63108        -0.932 8        50.378                                    20816240.826 7  85239092.51507        -0.724 7        43.553
R12        10.000    24525190.413 6 131009200.95306     -3279.549 6        40.291                                                                    24525190.811 6 101896078.99506     -2550.659 6        37.123
C30        11.000                                                                                                                                    22352936.598 8 116397624.29008       844.203 8        50.302                                                                    22352937.032 8  94582607.57808       685.979 8        48.817
S27        12.000    39188174.558 5 205935274.89005      -447.889 5        35.652
R20        13.000    20745336.929 6 110934684.94506     -3243.600 6        37.633                                                                    20745338.186 7  86282599.69107     -2522.912 7        45.862
S36        14.000    38296951.796 7 201252380.24307      -471.685 7        43.627
S45        17.000    63499379.745 6 333691670.86016      -513.718 6        38.108
E08        18.000    28130121.597 6 147824820.53006     -3192.865 6        36.510                                                                    28130120.864 6 110388664.44906     -2384.398 6        40.858    28130120.495 6 113268364.70406     -2446.571 6        41.287
E12        19.000    27737655.767 5 145762373.54505      2081.759 5        35.767                                                                    27737652.873 6 108848513.36506      1554.512 6        38.766    27737652.514 6 111688039.38506      1594.935 6        39.273
G17        20.000    23595381.031 7 123994585.04007      2094.625 7        43.369                                    23595376.309 6  96619146.69006      1632.173 6        38.586    23595376.624 6  96619145.69906      1632.213 6        40.057
E26        21.000    24277028.005 7 127576993.28907     -1885.617 7        47.172                                                                    24277025.694 8  95268731.51508     -1408.126 8        49.475    24277025.412 8  97753978.27308     -1444.888 8        50.772
I06        22.000    38396731.269 7 150677259.01807      -245.466 7        42.385
S28        23.000    40975597.951 5 215328235.23305      -464.248 5        34.495
G08        24.000    23264428.466 7 122255405.88407     -3991.552 7        43.041                                    23264426.398 6  95263952.10906     -3110.300 6        39.285    23264427.389 6  95263953.10906     -3110.341 6        40.081
S23        25.000    38249213.317 7 201000928.45907      -468.906 7        44.990
C13        26.000                                                                                                                                    40873526.688 6 212839368.44506     -1217.660 6        37.172    40873526.149 6 164581011.10606      -941.509 6        38.811    40873525.329 6 172949507.81206      -989.445 6        36.805
E24        27.000    27917185.588 6 146705837.62206     -1071.058 6        39.129                                                                    27917184.330 6 109553073.32006      -799.848 6        41.042    27917183.930 7 112410976.10007      -820.664 7        42.375
R21        29.000    19390872.405 8 103764479.67808       605.266 8        51.584                                                                    19390870.474 7  80705709.97707       470.801 7        46.056
E19        30.000    27488185.703 5 144451408.01605      2782.849 5        34.486                                                                    27488184.952 6 107869555.30306      2078.067 6        36.624    27488184.282 6 110683541.03406      2132.370 6        36.450
R05        31.000    20422793.789 8 109171578.01608     -3242.843 8        50.201                                                                    20422792.668 7  84911237.61707     -2522.240 7        46.678
R13        32.000    23897760.211 6 127612731.49406     -1087.238 6        37.278
E29        33.000    24747149.366 7 130047227.12707      1775.512 7        46.395                                                                    24747147.741 8  97113202.89708      1325.857 8        48.668    24747147.586 8  99646585.42208      1360.426 8        49.542
C16        35.000                                                                                                                                    39739751.059 6 206935338.21206       840.090 6        40.953    39739750.321 7 160015541.12007       649.682 7        42.453    39739748.218 6 168151912.36206       682.796 6        37.406
C32        36.000                                                                                                                                    22920886.847 8 119355129.68408      1636.117 8        49.845                                                                    22920886.898 8  96985840.75308      1329.499 8        49.318
G32        37.000    22551321.161 7 118508034.57207     -2403.695 7        47.383                                    22551318.483 7  92343925.61607     -1873.008 7        45.720    22551319.734 7  92343934.61907     -1873.007 7        42.504
E07        38.000    24602618.149 7 129287648.03107     -1108.221 7        45.804                                                                    24602617.898 8  96546009.10608      -827.593 8        48.723    24602617.529 8  99064592.99908      -849.167 8        50.002
C41        39.000                                                                                                                                    22304385.193 8 116144818.17208     -1600.492 8        50.633                                                                    22304389.898 8  94377208.11508     -1300.511 8        50.342
C39        40.000                                                                                                                                    39400984.239 7 205171291.95607       465.521 7        42.980                                                                    39400980.073 7 166718476.20607       378.309 7        42.438
E33        41.000    23608503.907 8 124063613.79108       476.979 8        48.294                                                                    23608501.580 8  92644939.71708       356.151 8        50.558    23608501.441 8  95061760.12308       365.404 8        51.774
S44        42.000    40628122.512 6 213502425.06406      -530.698 6        38.553
R06        43.000    19898454.863 6 106182031.61406      1731.352 6        41.290
C05        44.000                                                                                                                                    39217430.800 6 204215494.92306      -448.795 6        38.595    39217425.463 7 157912400.22007      -347.310 7        43.873    39217427.707 6 165941922.04206      -364.898 6        40.412
C29        45.000                                                                                                                                    26407636.450 6 137511500.91806      2752.851 6        40.775                                                                    26407635.944 6 111739353.11506      2236.875 6        40.493
G04        46.000    25194786.244 6 132399501.30906      3378.577 6        37.762                                    25194783.563 3 103168422.54003      2632.653 3        20.786    25194783.770 6 103168424.54906      2632.489 6        38.012
R22        48.000    22778940.542 7 121595554.18907      3390.277 7        46.357                                                                    22778939.306 7  94574315.55807      2636.892 7        43.376
I05        49.000  -497592287.724 5-876873807.15305       251.371 5        31.849
C06        50.000                                                                                                                                    39446784.429 6 205409780.53606       954.000 6        39.213    39446778.676 7 158835853.80007       737.681 7        43.223    39446778.159 6 166912251.96106       775.217 6        39.898
S48        51.000    77285490.174 6 406138671.92806      -482.508 6        38.408
G21        52.000    20968457.741 7 110190062.98307     -1500.204 7        44.640                                    20968451.923 6  85862409.10006     -1168.987 6        37.520
C09        53.000                                                                                                                                    40440831.930 6 210586030.06406      1226.937 6        39.189    40440828.378 7 162838464.32207       948.610 7        43.403    40440826.504 6 171118376.53806       996.792 6        39.114
C60        54.000                                                                                                                                    40628123.646 6 211561513.45306      -525.837 6        40.198                                                                    40628107.098 6 171911031.05606      -427.386 6        39.799
C27        55.000                                                                                                                                    22066327.743 8 114905178.71708     -2157.652 8        51.021                                                                    22066325.934 8  93369874.24008     -1753.296 8        48.887
R04        56.000    24581916.957 5 131635049.26705     -4779.758 5        33.952                                                                    24581916.952 4 102382803.85904     -3717.780 4        29.592
C02        57.000                                                                                                                                    40620569.313 5 211522018.61505      -490.962 5        33.916    40620561.137 6 163562238.84806      -379.438 6        40.367    40620565.456 6 171878972.07406      -398.844 6        36.439
I03        58.000   105605891.063 6 338634968.68606       961.703 6        41.058
R07        59.000    23416304.671 7 125349359.31807      3755.953 7        44.745                                                                    23416303.930 6  97493995.73506      2921.330 6        40.703
C28        60.000                                                                                                                                    25174628.343 7 131091201.99107     -3726.885 7        42.480                                                                    25174627.407 7 106522474.14807     -3028.524 7        42.840
> 2025 01 01 23 46 30.0000000  0 55
G10         1.000    24820217.201 6 130431220.54806     -3578.181 6        38.120                                    24820215.823 5 101634778.34405     -2788.191 5        32.006    24820216.208 5 101634755.35905     -2788.337 5        35.671
G14         2.000    24530134.657 6 128906770.76006     -2244.171 6        38.444                                    24530129.824 3 100446836.32503     -1748.703 3        20.262    24530130.055 5 100446832.33705     -1748.734 5        35.867
C33         3.000                                                                                                                                    25757364.027 7 134125377.38507     -3559.121 7        42.603                                                                    25757375.250 7 108987914.42407     -2892.052 7        43.003
E31         4.000    27714534.475 6 145640904.71906     -2914.219 6        37.550                                                                    27714535.033 6 108757830.20606     -2176.329 6        40.746    27714534.603 6 111594987.58206     -2233.039 6        40.844
S21         5.000    38529579.799 7 202474078.33007      -472.127 7        42.226
E13         6.000    28500055.100 5 149769135.04405     -3054.696 5        32.880                                                                    28500055.922 5 111840791.86805     -2280.997 5        35.595    28500055.403 5 114758347.69505     -2340.845 5        34.557
G28         7.000    24577123.591 6 129153664.34906      2094.398 6        39.108                                    24577120.197 3 100639199.81703      1631.998 3        23.524    24577119.914 6 100639207.82306      1631.932 6        39.625
G03         8.000    21402867.080 7 112472925.67407      1895.228 7        46.134                                    21402865.204 7  87641282.49507      1476.805 7        46.783    21402865.530 7  87641280.50607      1476.662 7        43.310
G02         9.000    20816249.995 8 109390183.92508        -2.919 8        50.328                                    20816242.597 7  85239099.75807        -2.273 7        43.481
R12        10.000    24528261.419 6 131025604.22406     -3281.947 6        40.517                                                                    24528261.084 6 101908837.08306     -2552.677 6        37.690
C30        11.000                                                                                                                                    22352126.840 8 116393408.53708       841.936 8        50.305                                                                    22352127.357 8  94579181.92108       684.105 8        48.853
S27        12.000    39188600.659 5 205937513.38205      -447.712 5        35.762
R20        13.000    20748370.908 6 110950909.12406     -3246.062 6        37.448                                                                    20748372.186 7  86295218.51207     -2524.770 7        45.770
S36        14.000    38297396.691 7 201254738.16507      -471.696 7        43.391
S45        17.000    63499829.559 6 333694239.01506      -513.631 6        38.048
E08        18.000    28133159.548 6 147840786.73406     -3193.759 6        36.507                                                                    28133159.104 6 110400587.25006     -2384.973 6        40.722    28133158.832 6 113280598.54106     -2447.203 6        41.054
E12        19.000    27735676.099 5 145751965.36105      2081.556 5        35.919                                                                    27735672.238 6 108840741.01006      1554.474 6        38.850    27735672.025 6 111680064.28206      1594.822 6        39.282
G17        20.000    23593388.454 7 123984115.96507      2092.829 7        43.718                                    23593384.120 6  96610988.97706      1630.778 6        38.568    23593384.273 6  96610987.97306      1630.759 6        39.601
E26        21.000    24278822.656 7 127586424.19807     -1886.918 7        47.091                                                                    24278820.308 8  95275774.06808     -1408.985 8        49.688    24278820.117 8  97761204.54808     -1445.791 8        50.774
I06        22.000    38397043.648 7 150678486.06407      -245.520 7        42.576
S28        23.000    40976041.053 5 215330556.27905      -464.166 5        34.114
G08        24.000    23268226.696 7 122275365.96807     -3992.462 7        43.067                                    23268224.581 6  95279505.42406     -3111.002 6        39.090    23268225.162 6  95279506.44306     -3111.223 6        39.700
S23        25.000    38249656.115 7 201003272.90807      -468.934 7        44.898
C13        26.000                                                                                                                                    40874694.798 6 212845455.90806     -1217.425 6        37.675    40874695.956 6 164585718.30706      -941.460 6        38.739    40874694.262 6 172954454.35406      -989.238 6        36.991
E24        27.000    27918205.985 6 146711198.13206     -1073.346 6        39.366                                                                    27918204.507 6 109557076.31606      -801.533 6        41.242    27918203.975 7 112415083.52107      -822.494 7        42.273
R21        29.000    19390308.406 8 103761461.47708       601.856 8        51.291                                                                    19390306.370 7  80703362.50107       468.115 7        46.019
E19        30.000    27485537.965 5 144437493.59805      2782.726 5        33.497                                                                    27485537.266 6 107859164.65906      2077.941 6        37.372    27485536.419 6 110672879.34006      2132.448 6        36.597
R05        31.000    20425828.049 8 109187798.50408     -3245.617 8        49.660                                                                    20425827.199 7  84923853.54907     -2524.301 7        46.983
R13        32.000    23898779.816 6 127618176.86806     -1091.108 6        38.312
E29        33.000    24745460.886 7 130038353.33307      1773.827 7        46.589                                                                    24745459.073 8  97106576.35908      1324.624 8        48.838    24745459.010 8  99639786.01608      1359.219 8        49.489
C16        35.000                                                                                                                                    39738944.227 6 206931138.84606       839.439 6        40.946    39738944.263 7 160012293.89707       649.086 7        42.178    39738941.763 6 168148500.02806       681.951 6        37.338
C32        36.000                                                                                                                                    22919316.914 8 119346953.44908      1634.225 8        49.875                                                                    22919316.735 8  96979196.88108      1327.943 8        49.352
G32        37.000    22553609.442 7 118520059.27607     -2406.227 7        47.448                                    22553606.737 7  92353295.51507     -1874.981 7        45.613    22553607.905 7  92353304.50507     -1874.974 7        42.641
E07        38.000    24603673.483 7 129293194.55307     -1110.555 7        45.740                                                                    24603673.367 8  96550150.99508      -829.283 8        48.897    24603673.016 8  99068842.93308      -850.926 8        50.008
C41        39.000                                                                                                                                    22305923.029 8 116152825.50908     -1602.534 8        50.723                                                                    22305927.635 8  94383714.72008     -1302.247 8        50.327
C39        40.000                                                                                                                                    39400537.367 7 205168966.32107       464.483 7        43.029                                                                    39400533.640 7 166716586.41807       377.520 7        42.351
E33        41.000    23608050.373 8 124061231.51608       475.787 8        48.089                                                                    23608048.287 8  92643160.74308       355.316 8        50.707    23608048.092 8  95059934.73808       364.593 8        51.762
S44        42.000    40628623.369 6 213505078.56406      -530.731 6        38.309
R06        43.000    19896834.471 6 106173383.59706      1727.794 6        41.440
C05        44.000                                                                                                                                    39217862.240 6 204217739.83006      -449.172 6        38.420    39217856.635 7 157914136.11307      -347.309 7        43.827    39217859.000 6 165943746.19306      -364.899 6        40.667
C29        45.000                                                                                                                                    26404992.961 6 137497736.88406      2752.497 6        40.207                                                                    26404992.647 6 111728168.67906      2236.745 6        40.429
G04        46.000    25191571.384 6 132382607.97906      3378.554 6        37.800                                    25191568.918 3 103155258.92903      2632.614 3        20.762    25191569.129 6 103155260.93006      2632.637 6        38.186
R22        48.000    22775765.162 7 121578603.57207      3389.798 7        45.512                                                                    22775764.001 7  94561131.73407      2636.546 7        42.878
I05        49.000  -497592605.138 5-876875064.17305       251.393 5        33.479
C06        50.000                                                                                                                                    39445868.733 6 205405012.50906       953.133 6        39.315    39445863.281 7 158832166.85507       737.042 7        43.316    39445862.720 6 166908377.53506       774.518 6        39.715
S48        51.000    77285935.105 6 406141083.45806      -482.488 6        38.294
G21        52.000    20969885.987 7 110197568.26407     -1502.031 7        44.653                                    20969880.137 6  85868257.37406     -1170.415 6        37.414
C09        53.000                                                                                                                                    40439654.053 6 210579897.41106      1226.323 6        39.042    40439650.349 7 162833722.17207       948.087 7        43.202    40439648.816 6 171113393.24806       996.311 6        39.024
C60        54.000                                                                                                                                    40628628.429 6 211564142.81106      -525.886 6        40.145                                                                    40628611.752 6 171913167.61606      -427.305 6        39.862
C27        55.000                                                                                                                                    22068400.793 8 114915972.18708     -2159.892 8        50.992                                                                    22068398.745 8  93378644.80308     -1755.160 8        48.900
R04        56.000    24586379.586 5 131658947.12205     -4779.591 5        34.210                                                                    24586379.012 4 102401391.10804     -3717.350 4        29.754
C02        57.000                                                                                                                                    40621039.464 5 211524472.91105      -490.884 5        34.090    40621032.620 6 163564136.67706      -379.703 6        40.377    40621036.684 6 171880966.37306      -398.768 6        36.461
I03        58.000   105604665.299 6 338630160.13906       961.653 6        40.839
R07        59.000    23412796.921 7 125330581.78307      3754.937 7        44.430                                                                    23412795.707 6  97479390.99806      2920.563 6        40.689
C28        60.000                                                                                                                                    25178207.040 7 131109838.06907     -3727.729 7        42.660                                                                    25178206.405 7 106537617.46207     -3029.049 7        42.946
> 2025 01 01 23 46 35.0000000  0 55
G10         1.000    24823621.664 6 130449111.39106     -3578.190 6        37.535                                    24823620.351 5 101648719.25005     -2788.199 5        31.170    24823620.381 6 101648696.24806     -2788.095 6        36.147
G14         2.000    24532269.987 6 128917995.98206     -2246.032 6        38.084                                    24532266.084 3 100455583.24803     -1750.159 3        19.761    24532266.676 6 100455579.25606     -1750.297 6        36.064
C33         3.000                                                                                                                                    25760781.743 7 134143172.78507     -3559.376 7        42.332                                                                    25760792.677 7 109002374.64607     -2892.336 7        43.077
E31         4.000    27717308.192 6 145655477.65006     -2914.971 6        38.180                                                                    27717308.020 6 108768712.58506     -2176.716 6        40.934    27717307.627 6 111606153.86406     -2233.637 6        40.758
S21         5.000    38530025.428 6 202476438.10906      -471.906 6        41.692
E13         6.000    28502961.315 5 149784408.30705     -3054.880 5        32.940                                                                    28502962.535 5 111852197.22905     -2280.923 5        35.762    28502961.735 5 114770050.62005     -2340.916 5        34.876
G28         7.000    24575131.367 6 129143195.29306      2093.129 6        39.057                                    24575128.133 3 100631042.11903      1631.014 3        23.352    24575127.569 6 100631050.09706      1631.056 6        39.550
G03         8.000    21401064.595 7 112463453.05607      1893.707 7        46.478                                    21401062.639 7  87633901.23507      1475.621 7        46.716    21401063.135 7  87633899.23807      1475.516 7        43.807
G02         9.000    20816253.174 8 109390202.29508        -4.584 8        50.234                                    20816246.103 7  85239114.07607        -3.570 7        43.424
R12        10.000    24531334.801 6 131042018.27606     -3283.750 6        41.282                                                                    24531333.815 6 101921603.57506     -2554.206 6        37.637
C30        11.000                                                                                                                                    22351319.301 8 116389203.20608       840.046 8        50.229                                                                    22351319.816 8  94575764.75708       682.489 8        48.837
S27        12.000    39189026.778 6 205939751.37906      -447.428 6        36.083
R20        13.000    20751406.043 6 110967145.67906     -3248.433 6        38.024                                                                    20751408.618 7  86307846.93807     -2526.637 7        45.583
S36        14.000    38297848.531 7 201257095.61207      -471.282 7        43.390
S45        17.000    63500275.894 6 333696806.42606      -513.438 6        37.928
E08        18.000    28136199.113 6 147856756.88006     -3194.212 6        36.915                                                                    28136198.216 6 110412513.01106     -2385.445 6        41.163    28136197.794 6 113292835.40206     -2447.600 6        41.414
E12        19.000    27733695.187 5 145741556.69205      2081.831 5        35.648                                                                    27733691.451 6 108832968.29006      1554.477 6        39.117    27733691.394 6 111672088.78306      1595.133 6        39.432
G17        20.000    23591398.233 7 123973655.42307      2091.246 7        43.158                                    23591393.555 6  96602837.91206      1629.541 6        38.504    23591393.576 6  96602836.91006      1629.485 6        39.868
E26        21.000    24280618.307 7 127595860.36107     -1887.789 7        47.252                                                                    24280615.944 8  95282820.56408     -1409.714 8        49.802    24280615.780 8  97768434.86008     -1446.493 8        50.801
I06        22.000    38397356.648 7 150679712.54407      -245.290 7        42.705
S28        23.000    40976481.964 5 215332876.59105      -463.904 5        34.190
G08        24.000    23272025.613 7 122295329.90707     -3993.145 7        42.899                                    23272023.421 6  95295061.74006     -3111.542 6        38.910    23272024.318 6  95295062.75606     -3111.552 6        39.562
S23        25.000    38250104.583 7 201005616.59007      -468.687 7        44.816
C13        26.000                                                                                                                                    40875863.488 6 212851541.76206     -1217.029 6        37.588    40875865.029 6 164590424.28006      -941.064 6        39.075    40875862.791 6 172959399.60906      -989.038 6        37.138
E24        27.000    27919227.859 6 146716569.41206     -1075.483 6        38.619                                                                    27919226.694 6 109561087.34406      -803.057 6        41.459    27919226.267 7 112419199.18007      -823.984 7        42.392
R21        29.000    19389747.047 8 103758459.25608       598.872 8        51.694                                                                    19389745.496 7  80701027.43607       465.706 7        46.137
E19        30.000    27482890.196 5 144423579.05005      2783.017 5        33.605                                                                    27482889.419 6 107848773.96606      2077.873 6        37.259    27482888.522 6 110662217.56706      2132.396 6        36.646
R05        31.000    20428864.763 8 109204032.06408     -3247.978 8        50.126                                                                    20428863.682 7  84936479.66307     -2526.275 7        46.277
R13        32.000    23899804.180 6 127623641.78806     -1094.878 6        38.249
E29        33.000    24743773.783 7 130029487.10707      1772.568 7        46.435                                                                    24743771.821 8  97099955.49308      1323.573 8        49.019    24743771.757 8  99632992.42808      1358.162 8        49.424
C16        35.000                                                                                                                                    39738138.314 6 206926942.73206       838.986 6        40.307    39738138.395 7 160009049.20407       648.773 7        42.136    39738135.865 6 168145090.34706       681.490 6        37.701
C32        36.000                                                                                                                                    22917748.667 8 119338785.94308      1632.627 8        49.874                                                                    22917748.307 8  96972560.13208      1326.485 8        49.368
G32        37.000    22555899.781 7 118532095.75407     -2408.557 7        47.079                                    22555897.245 7  92362674.59107     -1876.795 7        45.549    22555897.806 7  92362683.58307     -1876.706 7        42.445
E07        38.000    24604730.827 7 129298751.89507     -1112.638 7        45.804                                                                    24604730.873 8  96554300.95308      -830.856 8        49.006    24604730.581 8  99073101.15608      -852.547 8        49.971
C41        39.000                                                                                                                                    22307462.295 8 116160842.55408     -1604.360 8        50.545                                                                    22307467.241 8  94390229.23008     -1303.788 8        50.342
C39        40.000                                                                                                                                    39400091.737 7 205166644.71807       463.828 7        42.580                                                                    39400087.693 7 166714699.94407       376.859 7        42.391
E33        41.000    23607597.957 8 124058854.21008       475.009 8        48.186                                                                    23607595.910 8  92641385.48908       354.641 8        50.845    23607595.673 8  95058113.17608       363.909 8        51.799
S44        42.000    40629130.420 6 213507731.38106      -530.433 6        38.279
R06        43.000    19895216.680 6 106164752.17006      1724.574 6        41.688
C05        44.000                                                                                                                                    39218293.206 6 204219984.06906      -448.759 6        38.399    39218287.739 7 157915871.49907      -346.982 7        43.848    39218290.060 6 165945569.83006      -364.665 6        40.501
C29        45.000                                                                                                                                    26402351.441 6 137483973.83006      2752.585 6        40.334                                                                    26402349.312 6 111716985.09206      2236.375 6        40.195
G04        46.000    25188356.384 6 132365713.51006      3379.016 6        38.144                                    25188354.197 3 103142094.43803      2632.996 3        20.881    25188353.644 6 103142096.44106      2632.939 6        38.066
R22        48.000    22772590.219 7 121561654.98907      3389.557 7        46.353                                                                    22772588.828 7  94547949.51807      2636.305 7        42.906
I05        49.000  -497592926.129 5-876876321.54205       251.230 5        30.400
C06        50.000                                                                                                                                    39444953.413 6 205400247.56806       952.762 6        39.129    39444948.439 7 158828482.31707       736.651 7        43.295    39444947.647 6 166904505.65306       774.004 6        39.871
S48        51.000    77286380.447 6 406143494.26106      -481.998 6        38.162
G21        52.000    20971315.440 7 110205081.84007     -1503.502 7        44.838                                    20971309.939 6  85874112.10706     -1171.558 6        37.312
C09        53.000                                                                                                                                    40438476.758 6 210573766.61706      1225.890 6        38.874    40438473.124 7 162828981.45407       947.946 7        43.492    40438471.486 6 171108411.48106       995.956 6        39.300
C60        54.000                                                                                                                                    40629133.597 6 211566771.51406      -525.551 6        39.994                                                                    40629116.880 6 171915303.66706      -427.319 6        40.081
C27        55.000                                                                                                                                    22070475.525 8 114926775.99608     -2161.854 8        50.954                                                                    22070473.499 8  93387423.78708     -1756.786 8        48.888
R04        56.000    24590841.351 5 131682843.71305     -4779.208 5        32.742                                                                    24590842.389 4 102419977.35204     -3717.496 4        29.678
C02        57.000                                                                                                                                    40621511.712 5 211526926.58605      -490.476 5        34.057    40621503.652 6 163566034.01906      -379.367 6        40.296    40621507.899 6 171882960.19606      -398.964 6        36.488
I03        58.000   105603439.435 6 338625351.28106       961.668 6        40.880
R07        59.000    23409289.330 7 125311808.22707      3754.218 7        44.960                                                                    23409289.262 6  97464789.36206      2919.993 6        39.787
C28        60.000                                                                                                                                    25181786.116 7 131128477.17007     -3728.074 7        42.792                                                                    25181785.553 7 106552763.27207     -3029.503 7        42.756
> 2025 01 01 23 46 40.0000000  0 55
G10         1.000    24827026.350 6 130467002.70606     -3578.264 6        37.792                                    24827024.995 5 101662660.53805     -2788.258 5        31.034    24827024.632 5 101662637.53905     -2788.483 5        35.914
G14         2.000    24534407.721 6 128929231.60706     -2248.051 6        38.787                                    24534404.060 3 100464338.27203     -1751.720 3        19.582    24534405.174 6 100464334.27906     -1751.784 6        37.493
C33         3.000                                                                                                                                    25764199.261 7 134160970.38107     -3559.800 7        42.245                                                                    25764210.527 7 109016836.63407     -2892.691 7        43.132
E31         4.000    27720081.758 6 145670055.07406     -2915.964 6        38.685                                                                    27720081.767 6 108779598.33006     -2177.507 6        40.543    27720081.412 6 111617323.57806     -2234.262 6        40.741
S21         5.000    38530477.719 7 202478797.83407      -471.982 7        42.317
E13         6.000    28505867.844 5 149799683.16305     -3054.898 5        32.521                                                                    28505869.193 5 111863603.80005     -2281.510 5        35.710    28505868.521 5 114781754.71005     -2340.923 5        34.990
G28         7.000    24573140.464 6 129132733.31706      2091.577 6        39.237                                    24573137.233 3 100622889.92003      1629.812 3        23.105    24573137.377 6 100622897.92306      1629.865 6        39.817
G03         8.000    21399263.827 7 112453988.95507      1891.882 7        46.341                                    21399261.684 7  87626526.61307      1474.194 7        46.696    21399262.501 7  87626524.62107      1474.179 7        43.820
G02         9.000    20816258.272 8 109390230.36008        -6.659 8        50.178                                    20816251.451 7  85239135.94407        -5.188 7        43.397
R12        10.000    24534409.505 7 131058443.79807     -3286.256 7        42.495                                                                    24534409.087 6 101934378.98806     -2555.980 6        37.539
C30        11.000                                                                                                                                    22350514.041 8 116385008.87408       837.745 8        50.269                                                                    22350514.330 8  94572356.51308       680.549 8        48.858
S27        12.000    39189452.798 5 205941988.97505      -447.565 5        35.762
R20        13.000    20754444.824 6 110983395.17506     -3251.372 6        37.811                                                                    20754447.208 7  86320485.43507     -2528.757 7        45.773
S36        14.000    38298295.479 7 201259452.40007      -471.468 7        43.609
S45        17.000    63500713.594 6 333699373.56906      -513.570 6        38.045
E08        18.000    28139238.655 6 147872731.57006     -3195.334 6        36.866                                                                    28139238.093 6 110424442.18006     -2386.162 6        41.447    28139237.693 6 113305075.77206     -2448.420 6        41.747
E12        19.000    27731714.428 5 145731148.03205      2081.714 5        35.443                                                                    27731710.889 6 108825195.60406      1554.376 6        39.057    27731710.834 6 111664113.31906      1595.103 6        39.450
G17        20.000    23589408.827 7 123963204.10407      2089.312 7        42.633                                    23589404.765 6  96594694.02906      1628.030 6        38.429    23589404.945 6  96594693.02106      1628.142 6        40.021
E26        21.000    24282415.199 7 127605302.38207     -1889.001 7        47.192                                                                    24282412.676 8  95289871.41808     -1410.620 8        49.934    24282412.586 8  97775669.65008     -1447.434 8        50.825
I06        22.000    38397669.139 7 150680938.89107      -245.372 7        42.434
S28        23.000    40976930.593 5 215335196.88405      -464.100 5        34.348
G08        24.000    23275825.551 7 122315298.29907     -3994.028 7        43.617                                    23275823.106 6  95310621.52306     -3112.229 6        38.892    23275824.522 6  95310622.53606     -3112.154 6        39.763
S23        25.000    38250550.104 7 201007960.02107      -468.759 7        44.871
C13        26.000                                                                                                                                    40877032.318 6 212857626.66006     -1217.036 6        38.087    40877033.489 6 164595129.50406      -940.973 6        38.943    40877031.326 6 172964344.08406      -989.216 6        36.930
E24        27.000    27920252.175 6 146721952.02406     -1077.830 6        38.396                                                                    27920251.013 6 109565106.81606      -804.808 6        41.523    27920250.523 7 112423323.50507      -825.804 7        42.334
R21        29.000    19389189.179 8 103755473.43908       595.512 8        51.474                                                                    19389187.366 7  80698705.13507       463.152 7        46.054
E19        30.000    27480242.542 5 144409664.99205      2782.902 5        32.677                                                                    27480241.492 6 107838383.57406      2078.145 6        37.255    27480240.622 6 110651556.15606      2131.926 6        36.832
R05        31.000    20431904.080 8 109220279.14308     -3250.892 8        50.057                                                                    20431902.514 7  84949116.27407     -2528.510 7        45.675
R13        32.000    23900831.024 6 127629126.81506     -1098.936 6        38.240
E29        33.000    24742088.003 7 130020629.07707      1770.713 7        46.397                                                                    24742086.191 8  97093340.72608      1322.279 8        49.002    24742086.067 8  99626205.10608      1356.794 8        49.573
C16        35.000                                                                                                                                    39737333.241 6 206922750.48506       837.956 6        40.532    39737333.173 7 160005807.48407       648.036 7        42.184    39737330.779 6 168141683.78406       680.976 6        37.652
C32        36.000                                                                                                                                    22916181.676 8 119330627.76908      1630.661 8        49.916                                                                    22916181.559 8  96965930.94208      1324.959 8        49.326
G32        37.000    22558192.526 7 118544144.54207     -2411.008 7        47.767                                    22558190.070 7  92372063.25807     -1878.706 7        45.530    22558190.630 7  92372072.26007     -1878.724 7        42.294
E07        38.000    24605790.550 7 129304320.61007     -1114.889 7        45.634                                                                    24605790.593 8  96558459.41408      -832.605 8        49.073    24605790.268 8  99077368.09708      -854.292 8        50.034
C41        39.000                                                                                                                                    22309003.921 8 116168869.88808     -1606.551 8        50.607                                                                    22309008.786 8  94396752.09508     -1305.550 8        50.299
C39        40.000                                                                                                                                    39399646.539 7 205164327.73807       462.960 7        42.495                                                                    39399642.795 7 166712817.20107       376.012 7        42.402
E33        41.000    23607146.653 7 124056482.46407       473.738 7        47.968                                                                    23607144.567 8  92639614.37608       353.754 8        50.878    23607144.374 8  95056295.86008       362.980 8        51.793
S44        42.000    40629637.421 6 213510384.09306      -530.518 6        38.468
R06        43.000    19893602.459 6 106156137.71806      1721.042 6        41.812
C05        44.000                                                                                                                                    39218724.145 6 204222228.24406      -448.895 6        38.538    39218718.817 7 157917606.83507      -347.092 7        43.968    39218721.048 6 165947393.39406      -364.885 6        40.510
C29        45.000                                                                                                                                    26399708.767 6 137470212.36406      2752.245 6        40.832                                                                    26399706.268 6 111705802.76306      2236.151 6        40.057
G04        46.000    25185141.063 6 132348818.45406      3379.149 6        38.024                                    25185139.132 3 103128929.48903      2633.094 3        21.167    25185139.468 6 103128931.49906      2633.027 6        38.171
R22        48.000    22769415.789 7 121544709.02907      3388.931 7        45.875                                                                    22769414.299 7  94534769.34707      2635.768 7        42.857
I05        49.000  -497593250.601 4-876877578.87304       251.233 4        26.216
C06        50.000                                                                                                                                    39444039.025 6 205395486.35106       951.898 6        39.108    39444033.876 7 158824800.63507       736.048 7        43.253    39444033.275 6 166900636.76906       773.279 6        39.856
S48        51.000    77286834.742 6 406145904.59006      -482.021 6        38.414
G21        52.000    20972747.342 7 110212604.37407     -1505.502 7        45.052                                    20972741.417 6  85879973.82406     -1173.116 6        37.365
C09        53.000                                                                                                                                    40437299.474 6 210567638.25606      1225.506 6        38.814    40437296.425 7 162824242.61707       947.545 7        43.382    40437294.669 6 171103431.68006       995.487 6        39.246
C60        54.000                                                                                                                                    40629638.247 6 211569400.11406      -525.686 6        39.676                                                                    40629621.824 6 171917439.61506      -427.336 6        39.931
C27        55.000                                                                                                                                    22072552.224 8 114937590.72508     -2164.108 8        50.852                                                                    22072550.316 8  93396211.63108     -1758.650 8        48.839
R04        56.000    24595305.357 5 131706739.63805     -4779.343 5        32.587                                                                    24595305.976 4 102438563.11504     -3716.994 4        28.919
C02        57.000                                                                                                                                    40621982.775 5 211529380.24705      -490.822 5        34.171    40621974.760 6 163567931.32806      -379.383 6        40.427    40621979.034 6 171884953.98106      -398.688 6        36.567
I03        58.000   105602214.251 6 338620542.45506       961.690 6        41.135
R07        59.000    23405783.357 7 125293039.70507      3753.184 7        44.764                                                                    23405782.855 6  97450191.63206      2919.039 6        38.880
C28        60.000                                                                                                                                    25185366.526 7 131147119.87707     -3728.955 7        42.758                                                                    25185365.581 7 106567911.98107     -3030.101 7        42.478
> 2025 01 01 23 46 45.0000000  0 55
G10         1.000    24830431.469 6 130484894.65906     -3578.320 6        38.159                                    24830429.747 5 101676602.31105     -2788.301 5        31.049    24830429.753 6 101676579.31906     -2788.215 6        36.348
G14         2.000    24536548.020 6 128940477.79106     -2250.083 6        37.607                                    24536544.264 3 100473101.53503     -1753.317 3        19.881    24536544.285 6 100473097.55106     -1753.491 6        37.312
C33         3.000                                                                                                                                    25767617.441 7 134178770.27207     -3560.024 7        42.040                                                                    25767628.779 7 109031300.51207     -2892.974 7        42.959
E31         4.000    27722856.329 6 145684637.12806     -2916.680 6        38.541                                                                    27722856.547 6 108790487.53506     -2178.260 6        40.431    27722856.398 6 111628496.83806     -2234.956 6        40.977
S21         5.000    38530928.052 7 202481157.60607      -471.890 7        42.569
E13         6.000    28508775.353 5 149814959.77405     -3055.181 5        32.928                                                                    28508776.239 5 111875011.63105     -2281.606 5        35.843    28508775.474 5 114793460.11805     -2341.159 5        34.957
G28         7.000    24571151.250 6 129122278.59106      2090.369 6        39.679                                    24571147.714 3 100614743.39203      1628.856 3        23.105    24571147.486 6 100614751.39506      1628.866 6        39.264
G03         8.000    21397464.621 7 112444533.54507      1890.361 7        46.191                                    21397462.357 7  87619158.76007      1473.008 7        46.702    21397462.765 7  87619156.76707      1472.951 7        44.089
G02         9.000    20816265.623 8 109390268.23608        -8.467 8        50.301                                    20816258.654 7  85239165.45707        -6.600 7        43.359
R12        10.000    24537485.944 6 131074880.89306     -3288.402 6        41.976                                                                    24537485.709 6 101947163.42806     -2557.685 6        38.147
C30        11.000                                                                                                                                    22349710.779 8 116380825.70308       835.578 8        50.204                                                                    22349710.984 8  94568957.34108       678.982 8        48.912
S27        12.000    39189877.276 5 205944226.73505      -447.309 5        35.890
R20        13.000    20757485.775 6 110999657.82006     -3253.903 6        37.845                                                                    20757488.379 7  86333134.13907     -2530.630 7        45.353
S36        14.000    38298748.396 7 201261809.01707      -471.032 7        44.129
S45        17.000    63501158.605 6 333701940.55306      -513.192 6        37.974
E08        18.000    28142279.398 6 147888710.80806     -3196.137 6        37.297                                                                    28142278.838 6 110436374.70806     -2386.846 6        41.414    28142278.412 6 113317319.58806     -2449.040 6        41.907
E12        19.000    27729733.737 5 145720739.60105      2081.741 5        35.424                                                                    27729730.111 6 108817423.06506      1554.612 6        39.108    27729729.908 6 111656138.03206      1595.115 6        39.411
G17        20.000    23587421.838 7 123952762.00607      2087.652 7        42.756                                    23587417.643 6  96586557.33506      1626.740 6        38.417    23587417.217 6  96586556.33906      1626.502 6        39.622
E26        21.000    24284213.092 7 127614750.39107     -1890.145 7        46.905                                                                    24284210.597 8  95296926.74508     -1411.457 8        49.850    24284210.435 8  97782909.02908     -1448.269 8        50.871
I06        22.000    38397981.346 7 150682165.22707      -245.127 7        42.430
S28        23.000    40977365.574 5 215337517.04005      -463.994 5        34.581
G08        24.000    23279626.016 7 122335271.26807     -3994.865 7        43.236                                    23279623.869 6  95326184.87606     -3112.885 6        39.099    23279625.003 6  95326185.89206     -3112.969 6        40.453
S23        25.000    38250990.984 7 201010303.40707      -468.544 7        44.933
C13        26.000                                                                                                                                    40878200.553 6 212863710.66906     -1216.580 6        37.996    40878201.408 6 164599834.04306      -940.849 6        38.727    40878199.661 6 172969287.81806      -988.425 6        36.843
E24        27.000    27921278.607 6 146727346.11106     -1079.911 6        38.348                                                                    27921277.447 6 109569134.88606      -806.430 6        41.385    27921276.903 7 112427456.65807      -827.502 7        42.336
R21        29.000    19388633.955 8 103752504.32508       592.288 8        51.278                                                                    19388632.411 7  80696395.82907       460.605 7        46.126
E19        30.000    27477594.550 5 144395751.51105      2782.688 5        32.862                                                                    27477593.868 6 107827993.63706      2078.098 6        37.270    27477593.136 6 110640895.13506      2132.320 6        36.930
R05        31.000    20434946.436 8 109236540.07308     -3253.374 8        50.217                                                                    20434945.351 7  84961763.65907     -2530.462 7        46.375
R13        32.000    23901861.715 6 127634632.12506     -1103.130 6        37.274
E29        33.000    24740404.007 7 130011779.36607      1769.188 7        46.392                                                                    24740402.098 8  97086732.18008      1321.149 8        49.022    24740402.013 8  99619424.16308      1355.623 8        49.567
C16        35.000                                                                                                                                    39736528.781 6 206918562.20106       837.437 6        40.067    39736528.957 7 160002568.86107       647.325 7        42.172    39736526.812 6 168138280.48206       680.307 6        37.841
C32        36.000                                                                                                                                    22914616.670 8 119322479.05508      1628.924 8        49.853                                                                    22914616.644 8  96959309.43808      1323.634 8        49.383
G32        37.000    22560487.958 7 118556205.84107     -2413.416 7        47.588                                    22560485.273 7  92381461.67207     -1880.585 7        45.490    22560486.061 7  92381470.67407     -1880.685 7        42.387
E07        38.000    24606852.412 7 129309900.85407     -1117.106 7        45.916                                                                    24606852.411 8  96562626.48708      -834.225 8        49.104    24606852.160 8  99081643.87208      -856.008 8        50.067
C41        39.000                                                                                                                                    22310547.760 8 116176907.63208     -1608.488 8        50.665                                                                    22310552.363 8  94403283.41608     -1307.039 8        50.408
C39        40.000                                                                                                                                    39399202.534 7 205162015.51107       462.075 7        42.305                                                                    39399198.774 7 166710938.33107       375.363 7        42.546
E33        41.000    23606696.640 7 124054116.41807       472.728 7        47.963                                                                    23606694.310 8  92637847.52608       353.029 8        50.901    23606694.133 8  95054482.91808       362.241 8        51.806
S44        42.000    40630139.625 6 213513036.84706      -530.338 6        38.679
R06        43.000    19891991.561 7 106147540.65707      1717.859 7        42.229
C05        44.000                                                                                                                                    39219155.125 6 204224472.45906      -448.714 6        38.411    39219149.537 7 157919342.21507      -347.086 7        43.706    39219151.947 6 165949217.00206      -364.584 6        40.522
C29        45.000                                                                                                                                    26397065.836 6 137456452.67406      2752.054 6        40.651                                                                    26397063.768 6 111694621.88906      2236.129 6        40.145
G04        46.000    25181926.231 6 132331922.99606      3379.357 6        38.210                                    25181924.031 3 103115764.23703      2633.260 3        21.071    25181923.784 6 103115766.22806      2633.233 6        38.462
R22        48.000    22766241.638 7 121527765.88407      3388.472 7        45.824                                                                    22766240.544 7  94521591.35107      2635.488 7        43.736
I05        49.000  -497593569.813 5-876878836.22105       251.612 5        33.461
C06        50.000                                                                                                                                    39443125.717 6 205390728.96706       951.161 6        38.946    39443120.402 7 158821121.92307       735.607 7        43.092    39443119.549 6 166896771.00206       772.993 6        39.775
S48        51.000    77287278.613 6 406148314.76106      -481.875 6        38.447
G21        52.000    20974180.236 7 110220136.00407     -1507.152 7        44.805                                    20974174.643 6  85885842.63006     -1174.404 6        37.304
C09        53.000                                                                                                                                    40436123.890 6 210561512.49706      1224.940 6        38.844    40436120.117 7 162819505.79407       947.269 7        43.439    40436118.201 6 171098453.99606       995.348 6        39.015
C60        54.000                                                                                                                                    40630142.923 6 211572028.76206      -525.579 6        39.925                                                                    40630126.398 6 171919575.59706      -427.151 6        39.982
C27        55.000                                                                                                                                    22074631.058 8 114948416.50108     -2166.168 8        50.943                                                                    22074629.286 8  93405008.45608     -1760.189 8        48.896
R04        56.000    24599767.608 5 131730635.08505     -4778.894 5        31.728                                                                    24599768.143 4 102457148.44304     -3717.058 4        28.976
C02        57.000                                                                                                                                    40622454.187 5 211531833.96605      -491.037 5        34.548    40622446.230 6 163569828.69806      -379.345 6        40.157    40622450.459 6 171886947.81806      -398.593 6        36.522
I03        58.000   105600988.640 6 338615733.83206       961.780 6        41.185
R07        59.000    23402278.371 7 125274275.96907      3752.350 7        44.578                                                                    23402277.281 6  97435597.58706      2918.558 6        38.871
C28        60.000                                                                                                                                    25188947.258 7 131165766.30007     -3729.530 7        42.512                                                                    25188946.227 7 106583063.72807     -3030.509 7        42.381
> 2025 01 01 23 46 50.0000000  0 55
G10         1.000    24833836.627 6 130502786.64906     -3578.387 6        39.204                                    24833834.588 5 101690544.12505     -2788.350 5        31.706    24833834.715 6 101690521.12906     -2788.461 6        36.181
G14         2.000    24538690.152 6 128951733.92306     -2252.112 6        37.471                                    24538685.809 3 100481872.55003     -1754.906 3        19.851    24538685.622 6 100481868.56606     -1755.030 6        37.055
C33         3.000                                                                                                                                    25771035.810 7 134196571.92907     -3560.370 7        42.299                                                                    25771047.327 7 109045765.79507     -2893.117 7        42.790
E31         4.000    27725632.045 6 145699223.25706     -2917.567 6        38.342                                                                    27725632.276 6 108801379.75706     -2178.740 6        40.389    27725632.166 6 111639673.21006     -2235.508 6        40.863
S21         5.000    38531380.182 7 202483516.95307      -471.657 7        42.645
E13         6.000    28511683.146 5 149830237.48405     -3055.727 5        33.180                                                                    28511683.673 6 111886420.32406     -2281.877 6        36.284    28511682.831 5 114805166.43305     -2341.306 5        34.771
G28         7.000    24569163.423 6 129111830.58206      2089.056 6        39.216                                    24569159.251 3 100606602.08303      1627.854 3        23.143    24569159.233 6 100606610.09806      1627.664 6        38.943
G03         8.000    21395666.792 7 112435086.23507      1888.666 7        46.126                                    21395664.573 7  87611797.22207      1471.689 7        46.870    21395665.049 7  87611795.22707      1471.707 7        44.268
G02         9.000    20816274.672 8 109390315.34608       -10.305 8        50.273                                    20816267.634 7  85239202.16807        -8.029 7        43.560
R12        10.000    24540564.787 6 131091329.08806     -3290.727 6        40.088                                                                    24540565.159 6 101959956.42306     -2559.343 6        36.291
C30        11.000                                                                                                                                    22348909.311 8 116376653.11908       833.505 8        50.251                                                                    22348909.637 8  94565566.76608       677.377 8        48.869
S27        12.000    39190300.734 5 205946463.56605      -447.278 5        35.833
R20        13.000    20760529.537 6 111015932.91006     -3256.138 6        37.724                                                                    20760531.707 7  86345792.55207     -2532.642 7        45.619
S36        14.000    38299197.016 7 201264163.88007      -471.086 7        43.954
S45        17.000    63501600.370 6 333704506.89206      -513.046 6        38.144
E08        18.000    28145321.076 6 147904694.06406     -3196.889 6        37.410                                                                    28145320.326 6 110448310.24206     -2387.528 6        41.056    28145320.065 6 113329566.47306     -2449.584 6        41.409
E12        19.000    27727753.159 5 145710330.82105      2081.676 5        35.910                                                                    27727749.394 6 108809650.27406      1554.616 6        39.195    27727749.445 6 111648162.46706      1595.200 6        39.306
G17        20.000    23585437.072 7 123942328.61407      2085.904 7        42.971                                    23585432.216 6  96578427.42506      1625.380 6        38.667    23585431.909 6  96578426.42106      1625.431 6        40.000
E26        21.000    24286011.843 7 127624203.81707     -1891.164 7        46.831                                                                    24286009.445 8  95303986.12308     -1412.176 8        50.009    24286009.389 8  97790152.56908     -1449.069 8        50.843
I06        22.000    38398293.666 7 150683391.14407      -245.053 7        42.576
S28        23.000    40977802.291 5 215339836.50105      -463.655 5        34.452
G08        24.000    23283427.338 7 122355248.24807     -3995.708 7        43.261                                    23283425.415 6  95341751.35506     -3113.537 6        39.210    23283426.529 6  95341752.36206     -3113.597 6        39.877
S23        25.000    38251440.601 7 201012646.19307      -468.393 7        45.172
C13        26.000                                                                                                                                    40879369.062 6 212869793.24906     -1216.287 6        37.924    40879369.227 6 164604537.47806      -940.578 6        37.939    40879367.837 6 172974230.41406      -988.316 6        36.847
E24        27.000    27922307.313 6 146732751.07906     -1081.992 6        39.024                                                                    27922305.866 6 109573171.07506      -807.866 6        41.447    27922305.376 7 112431598.14907      -829.184 7        42.214
R21        29.000    19388082.215 8 103749551.38108       589.034 8        51.537                                                                    19388080.648 7  80694099.09007       458.068 7        46.181
E19        30.000    27474946.732 5 144381838.06205      2783.100 5        32.533                                                                    27474946.140 6 107817603.77006      2078.028 6        37.229    27474945.327 6 110630234.24406      2132.143 6        36.949
R05        31.000    20437990.030 8 109252813.95608     -3256.077 8        49.358                                                                    20437989.664 7  84974421.13407     -2532.455 7        46.906
R13        32.000    23902896.306 6 127640157.15906     -1106.968 6        37.380
E29        33.000    24738721.516 7 130002937.42307      1767.702 7        46.549                                                                    24738719.508 8  97080129.43508      1320.020 8        49.088    24738719.432 8  99612649.17508      1354.461 8        49.543
C16        35.000                                                                                                                                    39735725.800 6 206914377.35506       836.661 6        40.479    39735724.796 6 159999332.85706       646.996 6        41.983    39735722.996 6 168134879.93406       679.921 6        37.962
C32        36.000                                                                                                                                    22913053.578 8 119314339.24908      1627.110 8        49.725                                                                    22913053.436 8  96952695.17808      1322.225 8        49.345
G32        37.000    22562785.199 7 118568279.01507     -2415.702 7        47.628                                    22562782.721 7  92390869.33807     -1882.363 7        45.661    22562783.871 7  92390878.33507     -1882.285 7        42.569
E07        38.000    24607916.280 7 129315492.05507     -1119.266 7        45.771                                                                    24607916.387 8  96566801.73408      -835.821 8        49.150    24607916.100 8  99085928.04108      -857.609 8        49.978
C41        39.000                                                                                                                                    22312092.992 8 116184955.24808     -1610.462 8        50.516                                                                    22312097.815 8  94409822.75108     -1308.529 8        50.379
C39        40.000                                                                                                                                    39398759.559 7 205159707.49307       461.181 7        42.148                                                                    39398755.688 7 166709062.86507       374.889 7        42.732
E33        41.000    23606247.430 8 124051755.52408       471.709 8        48.120                                                                    23606245.077 8  92636084.52408       352.259 8        50.957    23606244.935 8  95052673.92508       361.404 8        51.688
S44        42.000    40630648.737 6 213515689.06906      -530.456 6        38.411
R06        43.000    19890384.016 7 106138960.33307      1714.471 7        42.157
C05        44.000                                                                                                                                    39219586.185 6 204226716.18106      -448.683 6        38.544    39219580.450 7 157921077.20407      -346.997 7        43.782    39219582.810 6 165951040.21806      -364.431 6        40.446
C29        45.000                                                                                                                                    26394423.509 6 137442694.16006      2751.484 6        40.834                                                                    26394421.368 6 111683441.97106      2235.927 6        39.676
G04        46.000    25178710.693 6 132315026.61106      3379.553 6        38.264                                    25178708.710 3 103102598.24303      2633.408 3        21.429    25178708.464 6 103102600.22806      2633.340 6        38.198
R22        48.000    22763068.181 7 121510824.99307      3387.942 7        45.901                                                                    22763067.264 7  94508415.09907      2634.984 7        43.022
I05        49.000  -497593885.346 5-876880093.84705       251.974 5        33.180
C06        50.000                                                                                                                                    39442212.480 6 205385974.90406       950.560 6        38.652    39442207.287 7 158817445.78707       735.032 7        42.944    39442206.569 6 166892907.93506       772.378 6        39.961
S48        51.000    77287726.969 6 406150724.38206      -482.035 6        38.489
G21        52.000    20975615.115 7 110227676.13607     -1508.848 7        44.674                                    20975609.475 6  85891718.05406     -1175.726 6        37.433
C09        53.000                                                                                                                                    40434946.795 6 210555388.74806      1224.632 6        38.832    40434944.181 7 162814770.52207       946.924 7        43.600    40434942.107 6 171093477.95106       994.996 6        39.057
C60        54.000                                                                                                                                    40630647.559 6 211574656.87506      -525.441 6        39.976                                                                    40630631.168 6 171921711.15406      -426.901 6        39.901
C27        55.000                                                                                                                                    22076712.283 8 114959252.76908     -2168.229 8        51.239                                                                    22076710.231 8  93413813.80608     -1761.768 8        48.862
R04        56.000    24604228.727 5 131754529.46805     -4778.760 5        33.084                                                                    24604226.438 4 102475732.96304     -3717.034 4        28.938
C02        57.000                                                                                                                                    40622924.472 5 211534287.25205      -490.832 5        34.133    40622917.440 6 163571725.74506      -379.349 6        40.200    40622921.581 6 171888941.32406      -398.694 6        36.620
I03        58.000   105599763.733 6 338610924.98306       961.827 6        41.111
R07        59.000    23398773.410 7 125255516.77907      3751.483 7        44.761                                                                    23398773.204 6  97421007.11506      2917.823 6        39.045
C28        60.000                                                                                                                                    25192528.940 7 131184415.88607     -3730.119 7        42.493                                                                    25192527.763 7 106598218.04807     -3030.932 7        42.258
