     3.04           OBSERVATION DATA    M                   RINEX VERSION / TYPE
ssrcrin-15.6.1x                         20250101 121500 UTC PGM / RUN BY / DATE 
(00000000023479385599111004) Septentrio proprietary         COMMENT             
rref                                                        MARKER NAME         
01                                                          MARKER NUMBER       
geodetic                                                    MARKER TYPE         
NFB                 CLIMERS@TUW                             OBSERVER / AGENCY   
3297213             SEPT ASTERX SB3 PROB4.14.4              REC # / TYPE / VERS 
Unknown             Unknown                                 ANT # / TYPE        
  4127831.7165  1207193.5498  4695246.4935                  APPROX POSITION XYZ 
        0.0000        0.0000        0.0000                  ANTENNA: DELTA H/E/N
G   23 X1  C1C L1C D1C S1C C1W S1W C2W L2W D2W S2W C2L L2L  SYS / # / OBS TYPES 
       D2L S2L C5Q L5Q D5Q S5Q C1L L1L D1L S1L              SYS / # / OBS TYPES 
E   21 X1  C1C L1C D1C S1C C6C L6C D6C S6C C5Q L5Q D5Q S5Q  SYS / # / OBS TYPES 
       C7Q L7Q D7Q S7Q C8Q L8Q D8Q S8Q                      SYS / # / OBS TYPES 
S    9 X1  C1C L1C D1C S1C C5I L5I D5I S5I                  SYS / # / OBS TYPES 
R   17 X1  C1C L1C D1C S1C C2P L2P D2P S2P C2C L2C D2C S2C  SYS / # / OBS TYPES 
       C3Q L3Q D3Q S3Q                                      SYS / # / OBS TYPES 
C   25 X1  C1P L1P D1P S1P C5P L5P D5P S5P C2I L2I D2I S2I  SYS / # / OBS TYPES 
       C7I L7I D7I S7I C6I L6I D6I S6I C7D L7D D7D S7D      SYS / # / OBS TYPES 
J   17 X1  C1C L1C D1C S1C C2L L2L D2L S2L C5Q L5Q D5Q S5Q  SYS / # / OBS TYPES 
       C1L L1L D1L S1L                                      SYS / # / OBS TYPES 
I    5 X1  C5A L5A D5A S5A                                  SYS / # / OBS TYPES 
SEPTENTRIO RECEIVERS OUTPUT ALIGNED CARRIER PHASES.         COMMENT             
NO FURTHER PHASE SHIFT APPLIED IN THE RINEX ENCODER.        COMMENT             
G L1C                                                       SYS / PHASE SHIFT   
G L2W                                                       SYS / PHASE SHIFT   
G L2L  0.00000                                              SYS / PHASE SHIFT   
G L5Q  0.00000                                              SYS / PHASE SHIFT   
G L1L  0.00000                                              SYS / PHASE SHIFT   
E L1C  0.00000                                              SYS / PHASE SHIFT   
E L6C  0.00000                                              SYS / PHASE SHIFT   
E L5Q  0.00000                                              SYS / PHASE SHIFT   
E L7Q  0.00000                                              SYS / PHASE SHIFT   
E L8Q  0.00000                                              SYS / PHASE SHIFT   
S L1C                                                       SYS / PHASE SHIFT   
S L5I                                                       SYS / PHASE SHIFT   
R L1C                                                       SYS / PHASE SHIFT   
R L2P  0.00000                                              SYS / PHASE SHIFT   
R L2C                                                       SYS / PHASE SHIFT   
R L3Q  0.00000                                              SYS / PHASE SHIFT   
C L1P  0.00000                                              SYS / PHASE SHIFT   
C L5P  0.00000                                              SYS / PHASE SHIFT   
C L2I                                                       SYS / PHASE SHIFT   
C L7I                                                       SYS / PHASE SHIFT   
C L6I                                                       SYS / PHASE SHIFT   
C L7D                                                       SYS / PHASE SHIFT   
J L1C                                                       SYS / PHASE SHIFT   
J L2L  0.00000                                              SYS / PHASE SHIFT   
J L5Q  0.00000                                              SYS / PHASE SHIFT   
J L1L  0.00000                                              SYS / PHASE SHIFT   
I L5A                                                       SYS / PHASE SHIFT   
  2025     1     1    12    15    0.0000000     GPS         TIME OF FIRST OBS   
 C1C    0.000 C2C    0.000 C2P    0.000                     GLONASS COD/PHS/BIS 
DBHZ                                                        SIGNAL STRENGTH UNIT
    18                                                      LEAP SECONDS        
 24 R01  1 R02 -4 R03  5 R04  6 R05  1 R06 -4 R07  5 R08  6 GLONASS SLOT / FRQ #
    R09 -2 R10 -7 R11  0 R12 -1 R13 -2 R14 -7 R15  0 R16 -1 GLONASS SLOT / FRQ #
    R17  4 R18 -3 R19  3 R20  2 R21  4 R22 -3 R23  3 R24  2 GLONASS SLOT / FRQ #
                                                            END OF HEADER       
> 2025 01 01 12 15  0.0000000  0 54
G19         1.000    21447348.684 7 112706719.43307     -2133.521 7        46.237                                    21447350.307 6  87823502.10606     -1662.480 6        36.091
G25         2.000    22535606.757 7 118425443.50607      2531.673 7        42.893                                    22535616.274 6  92279626.47206      1972.727 6        38.435    22535616.778 6  92279636.49406      1972.697 6        39.589
G24         3.000    20143614.648 8 105855420.24108     -1732.575 8        50.483                                    20143618.819 8  82484774.40408     -1350.058 8        52.745    20143619.421 7  82484771.39907     -1350.025 7        46.244
R02         4.000    24162744.578 5 128936687.69505     -5131.509 5        35.100                                                                    24162764.956 5 100284018.20405     -3991.172 5        31.170
S21         5.000    38321624.699 7 201381116.63407      -589.179 7        43.285
G06         6.000    23725400.719 6 124677888.12006      1696.151 6        40.465                                    23725411.265 6  97151679.08206      1321.671 6        36.042    23725412.115 6  97151670.10206      1321.641 6        39.829
G17         7.000    24047501.615 6 126370542.80406     -3718.875 6        41.199                                    24047509.853 5  98470618.42405     -2897.825 5        34.567    24047509.951 6  98470614.42906     -2897.755 6        37.754
R21         8.000    23786774.118 7 127287872.90807     -4105.805 7        42.013                                                                    23786786.615 6  99001749.54706     -3193.506 6        39.132
E30        10.000    23957767.608 8 125899048.96708       518.928 8        48.570                                                                    23957774.983 8  94015628.65508       387.566 8        50.814    23957773.756 8  96468199.41408       397.637 8        51.247
C26        11.000                                                                                                                                    22584940.657 8 117605689.60708     -2311.088 8        49.421                                                                    22584945.375 8  95564265.67008     -1878.090 8        48.482
S27        12.000    39094221.713 6 205441304.35606      -613.483 6        37.051
G15        13.000    24228981.815 6 127323912.46406     -4474.406 6        40.801                                    24228993.838 5  99213360.29405     -3486.538 5        33.437    24228993.642 6  99213352.29406     -3486.756 6        37.637
S36        14.000    38093469.436 7 200182900.68607      -589.641 7        45.118
G12        15.000    20362070.950 8 107003537.73608       663.021 8        50.096                                    20362072.504 8  83379452.88708       516.638 8        50.625    20362072.919 7  83379452.89107       516.617 7        45.947
E29        16.000    27092205.886 6 142370367.28106      1783.546 6        39.715                                                                    27092223.093 7 106315523.42907      1331.898 7        43.391    27092220.929 7 109088972.15307      1366.530 7        43.500
S45        17.000    63284552.217 6 332563723.83206      -651.417 6        36.707
R03        18.000    21153179.383 8 113234527.09208     -3643.003 8        48.954                                                                    21153187.306 7  88071288.16907     -2833.361 7        44.953
C35        19.000                                                                                                                                    22941788.336 8 119464037.57508      -139.369 8        48.380                                                                    22941793.547 7  97074389.93007      -113.419 7        47.374
E11        20.000    27206776.573 5 142972606.19405      -521.717 5        35.605                                                                    27206788.827 6 106765324.39506      -389.823 6        37.667    27206786.515 6 109550497.30806      -399.699 6        37.637
R14        21.000    21716439.549 8 115760857.18308      2275.854 8        48.563                                                                    21716451.771 7  90036278.12907      1770.167 7        43.972
I06        22.000    38283017.774 7 150230800.08307      -550.509 7        42.220
S28        23.000    40787471.657 5 214339358.57205      -598.450 5        35.329
S23        25.000    38030878.673 7 199853414.80007      -593.970 7        45.785
E08        26.000    25293044.911 7 132915712.22507     -3291.271 7        45.178                                                                    25293054.034 7  99255197.67007     -2457.732 7        47.733    25293052.635 8 101844466.02808     -2521.823 8        48.149
C07        27.000                                                                                                                                    39731797.238 6 206893791.02806     -1484.446 6        39.003    39731803.302 7 159983389.86207     -1147.813 7        42.863    39731798.789 6 168118130.78906     -1206.559 6        38.835
I02        29.000    36810528.854 7 144452397.00307      -533.346 7        43.117
G10        30.000    25048597.928 6 131631040.84606     -2641.571 6        38.039                                    25048614.019 4 102569588.92204     -2058.366 4        28.777    25048614.435 5 102569580.91905     -2058.429 5        34.705
E07        31.000    24220715.544 7 127280639.98407      -734.154 7        46.775                                                                    24220724.814 8  95047226.46008      -548.257 8        50.321    24220723.357 8  97526717.58708      -562.484 8        50.449
C12        32.000                                                                                                                                    25483046.868 6 132696940.34606      2873.204 6        38.288    25483060.340 7 102609755.41007      2221.759 7        45.804    25483055.375 7 107827174.86907      2334.740 7        42.684
E10        33.000    28286288.006 5 148645490.08605     -1782.197 5        35.086                                                                    28286301.636 6 111001586.13606     -1330.624 6        41.862    28286299.798 6 113897266.67006     -1365.284 6        41.137
R23        34.000    21400299.196 7 114477267.15107      2745.227 7        46.066
C24        35.000                                                                                                                                    21434510.212 8 111615155.73008       310.047 8        51.652                                                                    21434511.913 8  90696478.45508       251.827 8        50.027
R05        36.000    23773158.393 7 127081092.89807      2955.381 7        42.660                                                                    23773171.769 6  98840867.45606      2298.689 6        41.528
E27        37.000    27628410.644 6 145188273.35706      1922.009 6        39.628                                                                    27628428.327 6 108419895.69906      1435.079 6        41.235    27628426.113 6 111248229.20206      1472.642 6        41.204
R04        38.000    21009770.884 8 112506277.55108        20.956 8        49.969                                                                    21009778.455 7  87504868.21207        16.266 7        45.085
C33        39.000                                                                                                                                    24642938.912 7 128322175.39707     -2605.439 7        45.127                                                                    24642959.916 7 104272337.52707     -2117.244 7        44.989
E25        40.000    27876320.025 6 146490890.82906     -3172.327 6        36.684                                                                    27876336.685 6 109392504.08006     -2368.938 6        40.889    27876334.324 6 112246219.15706     -2430.835 6        41.008
S44        42.000    40689451.647 6 213824444.10906      -524.360 6        38.580
R22        43.000    21083162.275 8 112543475.32908      -666.965 8        48.705                                                                    21083169.299 7  87533899.96607      -518.810 7        46.222
C05        44.000                                                                                                                                    39344121.325 6 204874998.42606      -599.182 6        38.535    39344129.041 7 158422316.74407      -463.267 7        43.012    39344127.775 6 166477779.76206      -486.948 6        39.565
C40        45.000                                                                                                                                    40156782.006 6 209106791.26206     -1767.772 6        39.486                                                                    40156791.163 6 169916388.21006     -1436.664 6        39.315
G32        46.000    23858809.035 7 125378752.83207      1960.577 7        43.010                                    23858821.112 6  97697721.46406      1527.720 6        37.879    23858821.762 6  97697723.46606      1527.747 6        39.991
E36        47.000    27039550.783 6 142093841.92306      1624.677 6        40.164                                                                    27039565.818 7 106109138.47207      1213.309 7        43.498    27039564.199 7 108877187.65607      1244.972 7        43.875
C41        48.000                                                                                                                                    25305393.335 7 131771807.46507       -24.020 7        43.213                                                                    25305410.468 7 107075456.27407       -19.705 7        43.920
C10        49.000                                                                                                                                    38854270.297 6 202324348.40206     -1205.699 6        41.061    38854277.419 7 156450026.02907      -932.276 7        43.494    38854273.033 6 164405101.29306      -979.834 6        40.749
C42        50.000                                                                                                                                    26405656.375 6 137500888.87806     -3843.792 6        39.447                                                                    26405678.754 6 111730710.80606     -3123.436 6        40.288
S48        51.000    77029784.736 6 404795273.54806      -595.398 6        38.814
E02        53.000    23763941.873 7 124880413.03307     -1979.994 7        47.786                                                                    23763948.665 8  93254922.67308     -1478.539 8        50.636    23763947.361 8  95687642.26408     -1517.108 8        50.986
C60        54.000                                                                                                                                    40689450.715 6 211880602.71406      -519.649 6        40.167                                                                    40689447.121 6 172170263.00306      -422.341 6        38.526
R12        56.000    21404308.933 8 114337996.05008     -3317.109 8        48.059                                                                    21404318.078 7  88929571.96007     -2580.039 7        45.004
C02        57.000                                                                                                                                    40850072.891 5 212716853.86705      -555.932 5        32.150    40850082.377 6 164486095.81506      -430.083 6        36.998    40850080.942 5 172849820.93205      -451.993 5        31.615
I03        58.000   120259267.920 5 396137614.75805       893.465 5        32.551
C14        59.000                                                                                                                                    25205245.812 6 131250135.60006     -3505.428 6        41.571    25205254.952 7 101490870.04407     -2710.686 7        45.704    25205250.202 7 106651431.26807     -2848.606 7        43.327
R13        60.000    19361630.118 7 103390094.94307      -857.435 7        46.565
> 2025 01 01 12 15  5.0000000  0 54
G19         1.000    21449380.117 7 112717395.24507     -2136.603 7        46.324                                    21449381.855 6  87831820.91006     -1664.883 6        36.057
G25         2.000    22533198.134 7 118412788.35807      2530.673 7        43.365                                    22533208.051 6  92269765.34906      1971.948 6        38.486    22533209.002 6  92269775.37706      1971.842 6        39.429
G24         3.000    20145264.833 8 105864091.12708     -1735.565 8        50.346                                    20145268.835 8  82491530.93308     -1352.386 8        52.736    20145269.299 7  82491527.93007     -1352.330 7        46.074
R02         4.000    24167551.480 5 128962345.98605     -5131.520 5        34.533                                                                    24167572.838 5 100303974.57905     -3991.267 5        30.641
S21         5.000    38322183.678 7 201384063.56007      -589.384 7        43.422
G06         6.000    23723788.075 6 124669413.63506      1693.871 6        40.417                                    23723798.556 6  97145075.61206      1319.894 6        36.004    23723798.944 6  97145066.63406      1319.705 6        39.330
G17         7.000    24051040.714 6 126389140.95706     -3720.095 6        40.818                                    24051048.924 5  98485110.47805     -2898.776 5        34.443    24051049.223 6  98485106.47906     -2898.778 6        37.860
R21         8.000    23790612.091 7 127308409.12307     -4108.433 7        42.823                                                                    23790623.701 6  99017722.23706     -3195.386 6        39.186
E30        10.000    23957274.533 8 125896458.09208       517.645 8        48.518                                                                    23957282.008 8  94013693.91608       386.501 8        50.815    23957280.765 8  96466214.20408       396.572 8        51.181
C26        11.000                                                                                                                                    22587160.587 8 117617249.33008     -2312.538 8        49.383                                                                    22587165.318 8  95573658.88708     -1879.121 8        48.581
S27        12.000    39094805.180 6 205444373.20806      -613.678 6        36.991
G15        13.000    24233239.208 6 127346285.91006     -4474.697 6        40.553                                    24233251.221 5  99230794.07005     -3486.762 5        33.180    24233250.422 6  99230786.05106     -3486.697 6        37.331
S36        14.000    38094031.908 7 200185849.88107      -589.826 7        44.918
G12        15.000    20361441.267 8 107000229.25408       660.563 8        50.018                                    20361442.931 8  83376874.85308       514.721 8        50.604    20361443.476 7  83376874.85707       514.756 7        45.750
E29        16.000    27090509.380 6 142361454.06006      1782.064 6        38.979                                                                    27090527.106 7 106308867.47407      1330.667 7        43.371    27090524.748 7 109082142.56207      1365.409 7        43.426
S45        17.000    63285119.585 6 332566981.83206      -651.669 6        36.817
R03        18.000    21156584.137 8 113252750.87508     -3646.361 8        49.089                                                                    21156591.704 7  88085462.18607     -2836.008 7        45.041
C35        19.000                                                                                                                                    22941923.592 8 119464742.49308      -142.506 8        48.196                                                                    22941928.998 7  97074962.73707      -115.747 7        47.329
E11        20.000    27207274.923 5 142975222.96805      -524.635 5        35.748                                                                    27207287.079 6 106767278.47206      -391.535 6        37.652    27207284.455 6 109552502.35806      -401.857 6        37.554
R14        21.000    21714305.435 8 115749480.85508      2274.834 8        48.777                                                                    21714316.801 7  90027429.91307      1769.257 7        44.498
I06        22.000    38283719.665 7 150233553.54707      -550.687 7        42.220
S28        23.000    40788039.370 5 214342352.08705      -598.908 5        35.805
S23        25.000    38031443.971 7 199856385.44207      -594.105 7        45.771
E08        26.000    25296177.192 7 132932172.57607     -3292.684 7        45.044                                                                    25296186.466 7  99267489.46407     -2458.859 7        47.760    25296185.128 8 101857078.47608     -2522.988 8        48.099
C07        27.000                                                                                                                                    39733223.142 6 206901214.95906     -1484.902 6        38.904    39733229.047 7 159989130.51207     -1148.128 7        42.821    39733224.370 6 168124163.33906     -1206.595 6        39.102
I02        29.000    36811209.232 7 144455065.72307      -533.890 7        43.346
G10        30.000    25051112.383 6 131644253.92906     -2643.505 6        39.351                                    25051128.296 4 102579884.79504     -2059.876 4        29.062    25051127.235 5 102579876.79105     -2059.618 5        33.120
E07        31.000    24221415.260 7 127284317.94807      -736.779 7        46.702                                                                    24221424.683 8  95049972.98608      -550.166 8        50.280    24221423.283 8  97529535.76808      -564.512 8        50.403
C12        32.000                                                                                                                                    25480288.350 6 132682575.49206      2872.898 6        38.486    25480301.941 7 102598647.67407      2221.498 7        45.660    25480296.548 7 107815502.32907      2334.363 7        42.597
E10        33.000    28287984.772 5 148654406.89505     -1784.458 5        35.895                                                                    28287998.207 6 111008244.88306     -1332.457 6        41.547    28287996.670 6 113904099.12206     -1367.289 6        40.994
R23        34.000    21397735.250 7 114463549.36807      2742.213 7        46.147
C24        35.000                                                                                                                                    21434213.354 8 111613610.13008       308.412 8        51.553                                                                    21434215.112 8  90695222.53008       250.625 8        50.067
R05        36.000    23770396.244 7 127066323.24507      2952.730 7        43.736                                                                    23770408.391 6  98829379.79806      2296.799 6        40.827
E27        37.000    27626582.227 6 145178665.80206      1921.367 6        39.324                                                                    27626600.197 6 108412721.22706      1434.655 6        41.318    27626597.815 6 111240867.56206      1472.248 6        41.137
R04        38.000    21009754.310 8 112506185.20308        16.166 8        49.764                                                                    21009761.008 7  87504796.38307        12.578 7        44.746
C33        39.000                                                                                                                                    24645442.304 7 128335208.75607     -2607.664 7        45.198                                                                    24645462.871 7 104282928.17307     -2118.962 7        45.059
E25        40.000    27879338.318 6 146506753.25406     -3172.511 6        36.053                                                                    27879355.092 6 109404349.38906     -2369.144 6        40.570    27879353.031 6 112258373.45806     -2430.813 6        41.006
S44        42.000    40689947.496 6 213827066.81506      -524.528 6        38.598
R22        43.000    21083789.703 8 112546822.79008      -671.752 8        48.685                                                                    21083796.733 7  87536503.57207      -522.485 7        45.625
C05        44.000                                                                                                                                    39344697.011 6 204877994.91506      -599.304 6        38.339    39344704.364 7 158424633.81907      -463.365 7        43.033    39344703.188 6 166480214.65006      -487.015 6        39.604
C40        45.000                                                                                                                                    40158479.206 6 209115631.61906     -1768.116 6        39.508                                                                    40158488.917 6 169923571.73506     -1436.820 6        39.177
G32        46.000    23856945.479 7 125368956.98907      1958.063 7        43.054                                    23856956.995 6  97690088.34806      1525.767 6        37.966    23856957.530 6  97690090.35006      1525.801 6        39.883
E36        47.000    27038005.689 6 142085723.13006      1622.948 6        40.243                                                                    27038020.910 7 106103075.75507      1212.076 7        43.492    27038019.149 7 108870966.78507      1243.643 7        44.014
C41        48.000                                                                                                                                    25305418.271 7 131771935.85707       -27.082 7        42.821                                                                    25305435.094 7 107075560.59207       -22.009 7        43.996
C10        49.000                                                                                                                                    38855428.242 6 202330378.18706     -1206.174 6        41.077    38855435.319 7 156454688.61907      -932.498 7        43.399    38855430.947 6 164410000.97706      -980.078 6        40.815
C42        50.000                                                                                                                                    26409347.544 6 137520108.25206     -3843.945 6        39.646                                                                    26409369.770 6 111746328.07406     -3123.363 6        40.241
S48        51.000    77030343.671 6 404798251.67606      -595.522 6        38.598
E02        53.000    23765826.153 7 124890316.24707     -1981.155 7        47.678                                                                    23765833.194 8  93262317.92508     -1479.385 8        50.659    23765831.930 8  95695230.43808     -1518.022 8        50.923
C60        54.000                                                                                                                                    40689949.806 6 211883201.57706      -519.729 6        40.241                                                                    40689946.244 6 172172374.79706      -422.251 6        38.688
R12        56.000    21407414.182 7 114354584.84907     -3318.239 7        47.880                                                                    21407423.347 7  88942474.34607     -2580.935 7        44.382
C02        57.000                                                                                                                                    40850606.767 5 212719635.08705      -555.919 5        31.668    40850616.504 6 164488246.42906      -430.083 6        36.741    40850614.992 5 172852080.90805      -451.766 5        31.517
I03        58.000   120258129.108 5 396133148.20405       893.330 5        32.629
C14        59.000                                                                                                                                    25208611.933 6 131267666.28306     -3506.687 6        40.934    25208621.541 7 101504425.82307     -2711.491 7        45.500    25208617.210 7 106665676.34507     -2849.399 7        43.185
R13        60.000    19362434.017 7 103394388.34007      -859.734 7        46.715
> 2025 01 01 12 15 10.0000000  0 54
G19         1.000    21451414.518 7 112728085.88307     -2139.687 7        46.100                                    21451416.242 6  87840151.26906     -1667.281 6        36.068
G25         2.000    22530791.145 7 118400138.74907      2529.374 7        42.646                                    22530800.860 6  92259908.53806      1970.938 6        38.429    22530801.606 6  92259918.54706      1970.968 6        39.598
G24         3.000    20146917.432 8 105872775.79208     -1738.315 8        50.373                                    20146921.479 8  82498298.20008     -1354.528 8        52.730    20146922.068 7  82498295.20607     -1354.552 7        45.953
R02         4.000    24172360.420 5 128988002.52005     -5130.963 5        34.433                                                                    24172380.949 5 100323929.58605     -3990.918 5        30.189
S21         5.000    38322745.256 7 201387010.39207      -589.325 7        43.325
G06         6.000    23722177.437 6 124660949.48406      1691.799 6        40.908                                    23722187.712 6  97138480.20306      1318.279 6        36.147    23722188.480 6  97138471.21306      1318.267 6        39.658
G17         7.000    24054580.705 6 126407745.16006     -3721.628 6        40.269                                    24054589.219 5  98499607.24105     -2899.965 5        34.200    24054589.661 6  98499603.23706     -2899.909 6        38.120
R21         8.000    23794453.061 7 127328957.74707     -4111.008 7        43.227                                                                    23794462.913 6  99033704.59606     -3197.523 6        39.111
E30        10.000    23956782.649 8 125893873.40308       516.267 8        48.584                                                                    23956790.110 8  94011763.79208       385.567 8        50.834    23956788.833 8  96464233.72908       395.576 8        51.343
C26        11.000                                                                                                                                    22589381.712 8 117628815.19908     -2313.808 8        49.952                                                                    22589386.423 8  95583057.10208     -1880.129 8        48.378
S27        12.000    39095387.640 6 205447441.72306      -613.998 6        36.805
G15        13.000    24237496.615 6 127368659.63406     -4474.868 6        40.150                                    24237508.689 5  99248228.06605     -3486.893 5        32.880    24237509.024 6  99248220.01706     -3486.803 6        37.051
S36        14.000    38094593.875 7 200188798.75707      -589.872 7        45.010
G12        15.000    20360813.878 8 106996932.08508       658.242 8        49.938                                    20360815.505 8  83374305.63208       512.914 8        50.629    20360815.941 7  83374305.62907       512.924 7        45.684
E29        16.000    27088814.942 6 142352547.67106      1780.581 6        39.700                                                                    27088832.373 7 106302216.59307      1329.590 7        43.361    27088830.011 7 109075318.18807      1364.329 7        43.490
S45        17.000    63285686.180 6 332568539.88616      -651.887 6        36.397
R03        18.000    21159991.732 8 113270990.35908     -3649.532 8        49.259                                                                    21159999.330 7  88099648.41507     -2838.558 7        45.539
C35        19.000                                                                                                                                    22942061.720 8 119465461.71008      -145.307 8        48.135                                                                    22942067.138 7  97075547.15907      -117.990 7        47.163
E11        20.000    27207774.619 5 142977852.27005      -526.951 5        35.886                                                                    27207787.228 6 106769241.96106      -393.774 6        37.894    27207784.963 6 109554517.06506      -403.937 6        37.750
R14        21.000    21712172.231 8 115738109.04908      2273.804 8        49.070                                                                    21712183.401 7  90018585.17907      1768.472 7        44.084
I06        22.000    38284421.222 7 150236306.96007      -550.719 7        42.275
S28        23.000    40788609.189 5 214345345.82805      -598.764 5        35.405
S23        25.000    38032008.424 7 199859355.94207      -594.257 7        45.657
E08        26.000    25299310.842 7 132948639.42007     -3294.122 7        44.780                                                                    25299320.087 7  99279786.09707     -2459.910 7        47.772    25299318.673 8 101869695.90208     -2524.044 8        48.256
C07        27.000                                                                                                                                    39734648.440 6 206908639.54906     -1485.116 6        38.859    39734654.888 7 159994871.68607     -1148.299 7        42.863    39734650.204 6 168130196.42806     -1206.667 6        38.952
I02        29.000    36811889.535 7 144457735.42707      -534.045 7        43.390
G10        30.000    25053628.663 6 131657476.26306     -2645.394 6        38.345                                    25053644.402 4 102590187.88604     -2061.335 4        28.938    25053644.565 5 102590179.89305     -2061.454 5        34.329
E07        31.000    24222117.491 7 127288008.04507      -739.292 7        47.046                                                                    24222126.897 8  95052728.56608      -552.105 8        50.290    24222125.460 8  97532363.23408      -566.471 8        50.573
C12        32.000                                                                                                                                    25477530.396 6 132668211.94406      2872.568 6        39.120    25477543.331 7 102587540.94207      2221.224 7        45.791    25477538.128 7 107803830.80807      2334.313 7        42.413
E10        33.000    28289683.701 5 148663335.09605     -1786.869 5        35.614                                                                    28289697.151 6 111014912.13306     -1334.414 6        41.418    28289695.630 6 113910940.27506     -1369.106 6        41.273
R23        34.000    21395173.867 7 114449845.90207      2739.172 7        46.160
C24        35.000                                                                                                                                    21433917.938 8 111612071.68808       306.917 8        51.645                                                                    21433919.677 8  90693972.42408       249.473 8        49.919
R05        36.000    23767636.433 7 127051565.25807      2950.355 7        44.196                                                                    23767647.528 6  98817901.21206      2294.664 6        40.787
E27        37.000    27624754.302 6 145169060.42106      1920.849 6        38.748                                                                    27624772.638 6 108405548.38106      1434.278 6        41.318    27624769.934 6 111233507.60406      1471.734 6        41.128
R04        38.000    21009740.644 8 112506116.02808        11.442 8        49.759                                                                    21009747.789 7  87504742.59507         8.882 7        44.953
C33        39.000                                                                                                                                    24647947.100 7 128348252.46107     -2609.839 7        45.210                                                                    24647967.767 7 104293527.23307     -2120.664 7        44.849
E25        40.000    27882356.788 5 146522615.32505     -3172.270 5        35.629                                                                    27882373.463 6 109416194.43406     -2369.038 6        40.446    27882371.344 6 112270527.51406     -2430.863 6        40.975
S44        42.000    40690447.526 6 213829689.42206      -524.470 6        38.372
R22        43.000    21084420.786 8 112550193.12308      -676.442 8        49.051                                                                    21084427.650 7  87539124.94107      -526.131 7        46.143
C05        44.000                                                                                                                                    39345272.071 6 204880991.24506      -599.138 6        38.471    39345280.005 7 158426950.79007      -463.392 7        42.978    39345278.610 6 166482649.41506      -486.715 6        39.565
C40        45.000                                                                                                                                    40160177.109 6 209124472.67406     -1768.302 6        39.787                                                                    40160186.803 6 169930755.79906     -1436.654 6        39.126
G32        46.000    23855082.893 7 125359172.01007      1955.936 7        42.779                                    23855094.949 6  97682463.68306      1524.106 6        37.936    23855095.658 6  97682465.68006      1524.044 6        40.017
E36        47.000    27036462.126 6 142077611.80906      1621.390 6        40.489                                                                    27036477.479 7 106097018.63207      1210.840 7        43.475    27036475.566 7 108864751.65207      1242.366 7        44.123
C41        48.000                                                                                                                                    25305446.094 7 131772078.24307       -29.936 7        43.175                                                                    25305462.513 7 107075676.26807       -24.249 7        43.699
C10        49.000                                                                                                                                    38856586.195 6 202336409.15006     -1206.523 6        41.037    38856593.656 7 156459352.14907      -932.870 7        43.486    38856589.141 6 164414901.60206      -980.124 6        40.696
C42        50.000                                                                                                                                    26413037.938 6 137539326.49906     -3843.531 6        39.856                                                                    26413060.460 6 111761944.41806     -3123.104 6        40.069
S48        51.000    77030907.010 6 404801229.75606      -595.864 6        38.468
E02        53.000    23767711.760 7 124900224.25407     -1982.157 7        47.811                                                                    23767718.651 8  93269716.75508     -1480.177 8        50.641    23767717.302 8  95702822.28308     -1518.823 8        51.080
C60        54.000                                                                                                                                    40690449.009 6 211885800.35606      -519.782 6        40.043                                                                    40690445.465 6 172174486.50406      -422.343 6        38.411
R12        56.000    21410520.939 7 114371178.88507     -3319.423 7        47.877                                                                    21410529.872 7  88955380.79307     -2581.696 7        44.379
C02        57.000                                                                                                                                    40851140.223 5 212722416.18205      -555.907 5        31.909    40851150.366 6 164490396.96306      -430.187 6        36.911    40851149.346 5 172854340.81405      -451.873 5        31.396
I03        58.000   120256990.424 5 396128681.44305       893.522 5        32.659
C14        59.000                                                                                                                                    25211980.087 6 131285201.72006     -3507.527 6        41.356    25211989.407 7 101517985.28207     -2712.256 7        46.218    25211984.715 7 106679925.27707     -2850.145 7        43.071
R13        60.000    19363239.813 7 103398692.18507      -861.866 7        46.877
> 2025 01 01 12 15 15.0000000  0 54
G19         1.000    21453451.655 7 112738791.63707     -2142.772 7        46.085                                    21453453.469 6  87848493.40306     -1669.689 6        36.060
G25         2.000    22528384.690 7 118387494.92007      2528.167 7        42.711                                    22528394.787 6  92250056.22306      1969.994 6        38.459    22528395.589 6  92250066.24206      1969.824 6        40.036
G24         3.000    20148572.899 8 105881474.49308     -1741.279 8        50.511                                    20148576.798 8  82505076.40108     -1356.840 8        52.751    20148577.592 7  82505073.40107     -1356.815 7        46.139
R02         4.000    24177168.538 5 129013657.45305     -5130.991 5        33.856                                                                    24177188.674 5 100343883.27305     -3990.742 5        30.664
S21         5.000    38323308.104 7 201389957.35207      -589.630 7        43.090
G06         6.000    23720569.128 6 124652495.95506      1689.468 6        41.323                                    23720578.930 6  97131893.05706      1316.465 6        36.325    23720579.842 6  97131884.05606      1316.523 6        39.231
G17         7.000    24058122.157 6 126426355.59606     -3722.829 6        40.441                                    24058130.735 5  98514108.87005     -2900.902 5        33.952    24058130.620 6  98514104.86306     -2900.863 6        38.111
R21         8.000    23798295.130 7 127349518.86407     -4113.616 7        43.640                                                                    23798305.182 6  99049696.62506     -3199.576 6        38.826
E30        10.000    23956291.940 8 125891295.11508       514.953 8        48.768                                                                    23956299.506 8  94009838.45408       384.514 8        50.635    23956298.254 8  96462258.16208       394.550 8        51.128
C26        11.000                                                                                                                                    22591604.194 8 117640387.50508     -2315.200 8        49.981                                                                    22591608.777 8  95592460.54608     -1881.258 8        48.367
S27        12.000    39095974.339 6 205450510.58006      -614.098 6        36.790
G15        13.000    24241754.300 6 127391033.88706     -4474.902 6        40.205                                    24241766.205 5  99265662.46405     -3486.919 5        32.832    24241766.444 6  99265654.43306     -3486.919 6        37.157
S36        14.000    38095155.837 7 200191747.96207      -590.005 7        44.868
G12        15.000    20360188.668 8 106993646.50308       655.836 8        50.025                                    20360190.282 8  83371745.44108       511.043 8        50.662    20360190.880 7  83371745.44407       511.107 7        45.937
E29        16.000    27087121.559 6 142343648.37706      1779.063 6        40.255                                                                    27087138.740 7 106295571.02707      1328.449 7        43.219    27087136.589 7 109068499.24507      1363.210 7        43.348
S45        17.000    63286257.157 6 332571798.21506      -651.691 6        36.450
R03        18.000    21163401.289 8 113289245.82308     -3652.780 8        48.486                                                                    21163408.724 7  88113847.07507     -2841.032 7        45.392
C35        19.000                                                                                                                                    22942202.727 8 119466195.51708      -148.378 8        48.043                                                                    22942208.016 7  97076143.44407      -120.562 7        47.204
E11        20.000    27208277.613 5 142980494.40705      -529.636 5        35.786                                                                    27208289.916 6 106771215.00906      -395.636 6        37.917    27208287.677 6 109556541.58706      -406.074 6        37.554
R14        21.000    21710039.632 8 115726741.88508      2272.849 8        49.178                                                                    21710050.809 7  90009744.06407      1767.809 7        44.230
I06        22.000    38285122.741 7 150239060.54207      -550.797 7        42.354
S28        23.000    40789178.663 5 214348339.21005      -598.854 5        35.319
S23        25.000    38032574.643 7 199862326.62207      -594.151 7        45.371
E08        26.000    25302445.658 7 132965112.99007     -3295.505 7        44.802                                                                    25302455.004 7  99292087.74807     -2460.973 7        47.580    25302453.370 8 101882318.47308     -2525.139 8        48.036
C07        27.000                                                                                                                                    39736074.302 6 206916065.16606     -1485.347 6        38.886    39736080.901 7 160000613.64507     -1148.616 7        42.993    39736076.266 6 168136230.34106     -1206.954 6        38.772
I02        29.000    36812569.939 7 144460406.07407      -534.250 7        43.414
G10        30.000    25056146.547 6 131670708.07506     -2647.572 6        39.099                                    25056162.257 4 102600498.36804     -2063.032 4        28.815    25056162.632 5 102600490.36705     -2062.994 5        34.252
E07        31.000    24222822.573 7 127291710.53107      -741.870 7        47.046                                                                    24222831.477 8  95055493.39808      -554.012 8        50.151    24222830.060 8  97535200.18908      -568.433 8        50.347
C12        32.000                                                                                                                                    25474773.258 6 132653849.97306      2872.141 6        38.964    25474785.193 7 102576435.43607      2220.846 7        45.982    25474780.007 7 107792160.60107      2333.818 7        42.432
E10        33.000    28291385.283 5 148672274.93105     -1789.153 5        35.905                                                                    28291398.245 6 111021588.06906     -1336.195 6        41.037    28291396.748 6 113917790.36406     -1370.988 6        41.132
R23        34.000    21392614.025 7 114436157.20907      2736.138 7        45.666
C24        35.000                                                                                                                                    21433623.991 8 111610540.67408       305.394 8        51.689                                                                    21433625.682 8  90692728.35308       248.116 8        49.872
R05        36.000    23764877.395 7 127036819.69607      2947.875 7        43.642                                                                    23764889.729 6  98806432.37206      2292.758 6        40.989
E27        37.000    27622927.305 6 145159457.46606      1920.314 6        39.480                                                                    27622945.134 6 108398377.34506      1433.941 6        41.066    27622942.465 6 111226149.50906      1471.322 6        41.106
R04        38.000    21009732.079 8 112506070.02908         6.719 8        49.404                                                                    21009739.190 7  87504706.82007         5.244 7        44.694
C33        39.000                                                                                                                                    24650454.009 7 128361306.78907     -2612.036 7        44.795                                                                    24650474.795 7 104304134.90307     -2122.480 7        44.882
E25        40.000    27885374.862 6 146538477.35206     -3172.629 6        36.253                                                                    27885391.655 6 109428039.42706     -2369.158 6        40.312    27885389.803 6 112282681.52406     -2430.997 6        41.159
S44        42.000    40690947.154 6 213832312.20806      -524.705 6        38.246
R22        43.000    21085056.643 8 112553586.63408      -681.109 8        48.990                                                                    21085063.683 7  87541764.34407      -529.804 7        46.215
C05        44.000                                                                                                                                    39345847.282 6 204883987.72306      -599.379 6        38.432    39345855.275 7 158429267.86407      -463.542 7        43.041    39345853.987 6 166485084.30806      -487.083 6        39.520
C40        45.000                                                                                                                                    40161875.131 6 209133314.60306     -1768.488 6        39.868                                                                    40161884.776 6 169937940.62106     -1437.011 6        39.093
G32        46.000    23853222.865 7 125349398.16607      1953.557 7        42.997                                    23853235.022 6  97674847.70606      1522.254 6        38.021    23853235.599 6  97674849.70406      1522.282 6        40.102
E36        47.000    27034920.007 6 142069508.25006      1619.876 6        40.472                                                                    27034935.468 7 106090967.30207      1209.630 7        43.433    27034933.398 7 108858542.45707      1241.152 7        43.934
C41        48.000                                                                                                                                    25305475.773 7 131772234.92607       -32.927 7        42.993                                                                    25305492.632 7 107075803.56807       -26.672 7        43.793
C10        49.000                                                                                                                                    38857744.399 6 202342441.52906     -1206.833 6        41.113    38857751.810 7 156464016.74407      -933.181 7        43.481    38857747.604 6 164419803.40206      -980.650 6        40.701
C42        50.000                                                                                                                                    26416728.069 6 137558543.90906     -3843.470 6        39.928                                                                    26416751.020 6 111777560.08306     -3123.232 6        40.007
S48        51.000    77031468.592 6 404804208.17006      -595.816 6        38.432
E02        53.000    23769598.256 7 124910137.30607     -1983.227 7        47.963                                                                    23769605.071 8  93277119.35608     -1481.025 8        50.418    23769603.725 8  95710417.99208     -1519.629 8        50.834
C60        54.000                                                                                                                                    40690947.971 6 211888399.27006      -519.955 6        40.217                                                                    40690944.395 6 172176598.33306      -422.433 6        38.480
R12        56.000    21413628.782 8 114387778.36108     -3320.552 8        48.359                                                                    21413637.836 7  88968291.46607     -2582.681 7        44.361
C02        57.000                                                                                                                                    40851674.568 5 212725197.35105      -556.300 5        31.675    40851684.734 6 164492547.54806      -430.330 6        36.904    40851683.169 5 172856600.71805      -452.183 5        31.268
I03        58.000   120255852.378 5 396124214.58005       893.275 5        32.976
C14        59.000                                                                                                                                    25215348.831 6 131302742.17506     -3508.725 6        41.035    25215358.746 7 101531548.62007     -2713.189 7        46.704    25215353.092 7 106694178.28307     -2851.126 7        43.024
R13        60.000    19364047.615 7 103403006.64407      -864.098 7        46.869
> 2025 01 01 12 15 20.0000000  0 54
G19         1.000    21455491.726 7 112749512.04707     -2145.518 7        46.127                                    21455493.526 6  87856846.96106     -1671.833 6        36.023
G25         2.000    22525979.655 7 118374856.44007      2527.279 7        43.039                                    22525989.734 6  92240208.08706      1969.305 6        38.369    22525990.472 6  92240218.08806      1969.232 6        39.613
G24         3.000    20150230.661 8 105890186.79208     -1743.781 8        50.929                                    20150234.710 8  82511865.20108     -1358.789 8        52.685    20150235.182 7  82511862.20007     -1358.821 7        46.106
R02         4.000    24181976.727 5 129039310.10405     -5130.264 5        33.126                                                                    24181995.873 4 100363835.26004     -3990.528 4        29.109
S21         5.000    38323868.657 7 201392904.17707      -589.281 7        43.048
G06         6.000    23718962.377 6 124644052.59706      1687.646 6        41.082                                    23718972.101 6  97125313.83806      1315.043 6        36.439    23718972.409 6  97125304.85906      1314.997 6        39.093
G17         7.000    24061664.763 6 126444971.86806     -3723.804 6        40.591                                    24061673.387 5  98528615.03405     -2901.659 5        33.862    24061673.563 6  98528611.02206     -2901.530 6        37.694
R21         8.000    23802140.076 7 127370092.18207     -4115.889 7        43.439                                                                    23802150.454 6  99065698.19206     -3201.286 6        38.610
E30        10.000    23955802.356 8 125888722.84308       513.840 8        48.890                                                                    23955810.049 8  94007917.59908       383.705 8        50.727    23955808.787 8  96460287.19608       393.759 8        51.099
C26        11.000                                                                                                                                    22593827.641 8 117651965.80208     -2316.183 8        50.067                                                                    22593832.193 8  95601868.85908     -1882.234 8        48.370
S27        12.000    39096557.282 6 205453579.44406      -613.703 6        36.412
G15        13.000    24246012.533 6 127413408.25606     -4474.790 6        40.925                                    24246023.838 5  99283096.96705     -3486.836 5        32.772    24246024.814 6  99283088.95306     -3486.865 6        37.425
S36        14.000    38095716.538 7 200194697.54707      -589.799 7        44.781
G12        15.000    20359565.370 8 106990372.07208       653.842 8        50.208                                    20359567.171 8  83369193.94008       509.486 8        50.595    20359567.996 7  83369193.94107       509.446 7        46.096
E29        16.000    27085429.348 6 142334755.75106      1777.927 6        40.203                                                                    27085446.370 7 106288930.44207      1327.630 7        43.118    27085444.434 7 109061685.42707      1362.365 7        43.391
S45        17.000    63286824.364 6 332575056.32406      -651.769 6        36.416
R03        18.000    21166814.536 8 113307516.76808     -3655.721 8        48.282                                                                    21166822.151 7  88128057.78307     -2843.333 7        45.175
C35        19.000                                                                                                                                    22942346.728 8 119466943.46408      -150.946 8        48.072                                                                    22942351.616 7  97076751.21907      -122.750 7        47.203
E11        20.000    27208782.699 6 142983148.97606      -532.273 6        36.004                                                                    27208794.894 6 106773197.34306      -397.389 6        37.750    27208792.995 6 109558575.62806      -407.950 6        37.342
R14        21.000    21707908.328 8 115715378.93108      2272.270 8        49.230                                                                    21707918.873 7  90000906.24107      1767.230 7        43.839
I06        22.000    38285824.385 7 150241813.95207      -550.656 7        42.235
S28        23.000    40789746.537 5 214351332.57805      -598.431 5        35.271
S23        25.000    38033139.754 7 199865297.06207      -594.138 7        45.440
E08        26.000    25305581.696 7 132981592.84207     -3296.546 7        45.079                                                                    25305590.957 7  99304394.10007     -2461.746 7        47.539    25305589.279 8 101894945.85808     -2525.922 8        48.003
C07        27.000                                                                                                                                    39737500.868 6 206923491.31906     -1485.391 6        38.736    39737506.924 7 160006356.02607     -1148.581 7        42.834    39737502.596 6 168142264.68406     -1206.797 6        39.072
I02        29.000    36813250.916 7 144463077.36007      -534.298 7        43.202
G10        30.000    25058666.107 6 131683948.89506     -2649.023 6        38.195                                    25058681.846 4 102610815.85804     -2064.173 4        28.720    25058682.528 5 102610807.85205     -2064.227 5        34.710
E07        31.000    24223528.961 7 127295424.95907      -744.010 7        47.134                                                                    24223538.290 8  95058267.15608      -555.586 8        50.212    24223536.930 8  97538046.30608      -570.064 8        50.381
C12        32.000                                                                                                                                    25472014.463 6 132639489.20506      2872.078 6        38.751    25472027.265 7 102565330.84707      2220.863 7        46.100    25472022.303 7 107780491.34607      2333.692 7        42.373
E10        33.000    28293088.343 5 148681225.96505     -1791.192 5        35.752                                                                    28293101.455 6 111028272.34506     -1337.628 6        40.801    28293100.017 6 113924649.01606     -1372.488 6        40.930
R23        34.000    21390057.688 7 114422482.82407      2733.540 7        46.304
C24        35.000                                                                                                                                    21433331.486 8 111609016.64308       304.130 8        51.990                                                                    21433332.985 8  90691489.95608       246.976 8        49.887
R05        36.000    23762121.361 7 127022085.60507      2945.657 7        43.960                                                                    23762133.426 6  98794972.41206      2291.112 6        40.393
E27        37.000    27621100.534 6 145149856.52106      1920.169 6        38.565                                                                    27621117.703 6 108391207.82206      1433.762 6        41.228    27621115.644 6 111218792.95406      1471.208 6        41.189
R04        38.000    21009728.578 8 112506046.92808         2.385 8        49.820                                                                    21009734.929 7  87504688.84407         1.871 7        44.643
C33        39.000                                                                                                                                    24652962.607 7 128374371.27407     -2613.843 7        44.993                                                                    24652983.633 7 104314750.82807     -2123.995 7        44.841
E25        40.000    27888393.321 6 146554338.82106     -3172.032 6        36.537                                                                    27888410.104 6 109439884.04506     -2368.771 6        40.379    27888408.164 6 112294835.11506     -2430.662 6        41.051
S44        42.000    40691446.983 6 213834934.68206      -524.405 6        38.189
R22        43.000    21085696.370 8 112557002.84308      -685.446 8        49.128                                                                    21085703.645 7  87544421.40207      -533.199 7        45.711
C05        44.000                                                                                                                                    39346422.811 6 204886983.90506      -599.079 6        38.544    39346430.706 7 158431584.69807      -463.285 7        43.060    39346429.297 6 166487518.95906      -486.977 6        39.763
C40        45.000                                                                                                                                    40163573.609 6 209142157.07106     -1768.501 6        39.877                                                                    40163582.899 6 169945125.87706     -1437.219 6        38.889
G32        46.000    23851365.177 7 125339635.04407      1951.573 7        43.464                                    23851377.179 6  97667240.07606      1520.707 6        37.992    23851377.596 6  97667242.09906      1520.647 6        39.610
E36        47.000    27033379.671 6 142061412.04306      1618.505 6        40.548                                                                    27033394.492 7 106084921.47107      1208.478 7        43.312    27033392.681 7 108852338.88507      1240.250 7        43.932
C41        48.000                                                                                                                                    25305508.175 7 131772405.43307       -35.463 7        43.329                                                                    25305525.375 7 107075942.12607       -28.947 7        43.765
C10        49.000                                                                                                                                    38858903.603 6 202348474.89606     -1206.857 6        41.151    38858910.383 7 156468682.12007      -933.224 7        43.530    38858906.339 6 164424705.99006      -980.703 6        40.636
C42        50.000                                                                                                                                    26420418.616 6 137577760.01106     -3843.001 6        40.045                                                                    26420441.256 6 111793174.69006     -3123.046 6        40.117
S48        51.000    77032026.284 6 404807186.33706      -595.501 6        38.168
E02        53.000    23771485.464 7 124920054.95807     -1983.978 7        47.861                                                                    23771492.290 8  93284525.39108     -1481.589 8        50.459    23771490.982 8  95718017.22908     -1520.178 8        50.821
C60        54.000                                                                                                                                    40691447.214 6 211890997.92806      -519.757 6        40.253                                                                    40691443.647 6 172178709.94106      -422.301 6        38.724
R12        56.000    21416737.248 8 114404382.69608     -3321.345 8        48.280                                                                    21416746.364 7  88981205.92807     -2583.309 7        44.343
C02        57.000                                                                                                                                    40852208.829 5 212727978.14805      -555.777 5        31.977    40852218.708 6 164494697.83306      -429.790 6        36.790    40852217.040 5 172858860.36105      -452.095 5        30.951
I03        58.000   120254714.086 5 396119747.39105       893.381 5        32.569
C14        59.000                                                                                                                                    25218717.325 6 131320287.21806     -3509.468 6        40.596    25218727.887 7 101545115.49907     -2713.730 7        46.478    25218722.656 7 106708435.02407     -2851.918 7        43.136
R13        60.000    19364857.218 7 103407331.30207      -865.892 7        46.661
> 2025 01 01 12 15 25.0000000  0 54
G19         1.000    21457534.811 7 112760247.71407     -2148.431 7        45.613                                    21457536.485 5  87865212.40305     -1674.102 5        35.924
G25         2.000    22523576.205 7 118362223.90107      2526.081 7        42.802                                    22523585.808 6  92230364.57206      1968.368 6        38.372    22523586.211 6  92230374.58806      1968.346 6        39.691
G24         3.000    20151891.359 8 105898913.26408     -1746.553 8        50.890                                    20151895.314 8  82518665.04208     -1360.952 8        52.639    20151895.867 7  82518662.04507     -1360.952 7        46.562
R02         4.000    24186782.887 5 129064961.22105     -5129.916 5        32.659                                                                    24186802.786 4 100383786.02304     -3989.900 4        28.825
S21         5.000    38324429.224 7 201395851.51407      -589.555 7        42.893
G06         6.000    23717357.253 6 124635619.98406      1685.662 6        40.820                                    23717367.406 6  97118743.00106      1313.497 6        36.560    23717368.525 6  97118734.01906      1313.515 6        39.778
G17         7.000    24065208.818 6 126463594.51906     -3724.968 6        41.342                                    24065217.175 5  98543126.17105     -2902.569 5        33.988    24065217.418 6  98543122.16006     -2902.540 6        37.864
R21         8.000    23805985.951 7 127390678.13207     -4118.334 7        43.477                                                                    23805996.846 6  99081709.61006     -3203.262 6        39.324
E30        10.000    23955314.234 8 125886157.10608       512.681 8        48.764                                                                    23955321.791 8  94006001.62608       382.832 8        50.408    23955320.536 8  96458321.24308       392.827 8        51.238
C26        11.000                                                                                                                                    22596052.344 8 117663550.64408     -2317.403 8        49.790                                                                    22596056.942 8  95611282.50208     -1883.104 8        48.418
S27        12.000    39097139.152 6 205456648.60506      -613.742 6        36.499
G15        13.000    24250270.490 6 127435783.28606     -4474.921 6        41.166                                    24250281.708 5  99300531.97605     -3486.936 5        33.156    24250282.335 6  99300523.94706     -3486.918 6        37.497
S36        14.000    38096277.897 7 200197647.07307      -589.792 7        44.557
G12        15.000    20358944.688 8 106987109.34808       651.573 8        50.259                                    20358946.295 8  83366651.56608       507.720 8        50.545    20358946.615 7  83366651.57007       507.717 7        46.116
E29        16.000    27083738.281 6 142325870.33606      1776.543 6        39.721                                                                    27083755.508 7 106282295.22607      1326.746 7        42.675    27083753.452 7 109054877.13007      1361.217 7        43.486
S45        17.000    63287393.803 6 332578314.85506      -651.568 6        36.102
R03        18.000    21170231.368 8 113325803.89508     -3658.797 8        49.036                                                                    21170238.177 7  88142281.06307     -2845.766 7        44.906
C35        19.000                                                                                                                                    22942493.349 8 119467706.11308      -153.822 8        48.124                                                                    22942498.083 7  97077370.95207      -124.968 7        47.235
E11        20.000    27209290.433 5 142985816.44305      -534.752 5        35.700                                                                    27209302.381 6 106775189.31806      -399.190 6        37.244    27209300.483 6 109560619.54906      -409.730 6        37.611
R14        21.000    21705777.377 8 115704020.67508      2271.408 8        49.154                                                                    21705788.330 7  89992072.05507      1766.563 7        43.020
I06        22.000    38286526.190 7 150244567.61807      -550.585 7        42.292
S28        23.000    40790317.809 5 214354326.42705      -598.766 5        35.129
S23        25.000    38033705.584 7 199868267.86407      -593.992 7        45.133
E08        26.000    25308719.156 7 132998079.55207     -3297.903 7        45.022                                                                    25308728.280 7  99316705.56607     -2462.720 7        47.316    25308726.620 8 101907578.50108     -2526.911 8        48.161
C07        27.000                                                                                                                                    39738927.084 6 206930918.53306     -1485.447 6        38.604    39738933.340 7 160012099.20107     -1148.625 7        42.794    39738929.027 6 168148299.92906     -1207.012 6        39.183
I02        29.000    36813931.856 7 144465749.67607      -534.460 7        43.335
G10        30.000    25061188.338 6 131697199.31706     -2650.995 6        38.348                                    25061203.358 4 102621140.84304     -2065.698 4        28.891    25061203.215 5 102621132.83605     -2065.800 5        32.814
E07        31.000    24224237.841 7 127299151.92307      -746.539 7        47.186                                                                    24224247.491 8  95061050.26608      -557.425 8        49.868    24224246.118 8  97540902.02108      -571.959 8        50.478
C12        32.000                                                                                                                                    25469256.051 6 132625130.15606      2871.742 6        38.285    25469269.783 7 102554227.60107      2220.611 7        46.276    25469264.819 7 107768823.52207      2333.617 7        42.730
E10        33.000    28294793.653 5 148690188.71405     -1793.442 5        35.829                                                                    28294806.965 6 111034965.37306     -1339.316 6        40.670    28294805.456 6 113931516.62006     -1374.273 6        41.132
R23        34.000    21387504.921 7 114408823.29707      2730.500 7        46.114
C24        35.000                                                                                                                                    21433040.328 8 111607500.17508       302.668 8        52.084                                                                    21433041.776 8  90690257.71608       245.953 8        49.941
R05        36.000    23759367.789 7 127007363.97107      2943.283 7        43.352                                                                    23759379.280 6  98783522.07606      2289.127 6        40.122
E27        37.000    27619273.515 6 145140258.14706      1919.617 6        39.105                                                                    27619291.028 6 108384040.22406      1433.340 6        40.777    27619289.046 6 111211438.35306      1470.876 6        41.313
R04        38.000    21009728.636 8 112506047.36208        -2.335 8        49.826                                                                    21009734.916 7  87504689.18907        -1.805 7        44.780
C33        39.000                                                                                                                                    24655473.513 7 128387446.44707     -2615.936 7        45.469                                                                    24655494.685 7 104325375.49007     -2125.675 7        44.962
E25        40.000    27891412.073 6 146570200.36206     -3172.041 6        36.945                                                                    27891428.517 6 109451728.69506     -2368.810 6        40.195    27891426.930 6 112306988.75506     -2430.432 6        41.406
S44        42.000    40691944.415 6 213837557.45206      -524.440 6        37.989
R22        43.000    21086341.109 8 112560442.35108      -690.066 8        49.182                                                                    21086347.998 7  87547096.56407      -536.695 7        45.797
C05        44.000                                                                                                                                    39346997.978 6 204889980.32306      -599.206 6        38.483    39347006.235 7 158433901.71807      -463.326 7        43.039    39347004.759 6 166489953.80506      -486.966 6        39.513
C40        45.000                                                                                                                                    40165271.490 6 209151000.53106     -1768.575 6        40.083                                                                    40165281.043 6 169952311.92506     -1437.119 6        38.931
G32        46.000    23849509.704 7 125329883.24407      1949.365 7        43.566                                    23849521.510 6  97659641.27506      1518.985 6        37.974    23849521.498 6  97659643.27406      1518.933 6        39.757
E36        47.000    27031840.474 6 142053323.73206      1617.049 6        40.470                                                                    27031855.234 7 106078881.51907      1207.600 7        42.973    27031853.378 7 108846141.38007      1239.064 7        44.093
C41        48.000                                                                                                                                    25305543.889 7 131772590.37307       -38.293 7        43.357                                                                    25305560.836 7 107076092.40207       -31.002 7        43.860
C10        49.000                                                                                                                                    38860062.749 6 202354509.80906     -1206.911 6        41.259    38860069.590 7 156473348.69307      -933.293 7        43.649    38860065.101 6 164429609.88306      -980.788 6        40.651
C42        50.000                                                                                                                                    26424109.286 6 137596975.38006     -3842.873 6        40.083                                                                    26424131.521 6 111808788.69806     -3122.676 6        40.288
S48        51.000    77032587.482 6 404810164.98906      -595.635 6        38.195
E02        53.000    23773373.743 7 124929977.78107     -1984.966 7        47.632                                                                    23773380.591 8  93291935.28208     -1482.216 8        50.290    23773379.213 8  95725620.42308     -1520.904 8        50.954
C60        54.000                                                                                                                                    40691946.140 6 211893596.85106      -519.671 6        40.188                                                                    40691942.716 6 172180821.79906      -422.371 6        38.456
R12        56.000    21419846.312 8 114420992.76508     -3322.362 8        48.272                                                                    21419855.837 7  88994124.85507     -2584.033 7        44.576
C02        57.000                                                                                                                                    40852742.942 5 212730759.23005      -556.177 5        31.932    40852752.660 6 164496848.32406      -429.935 6        36.907    40852751.363 5 172861120.20605      -451.583 5        31.253
I03        58.000   120253575.574 5 396115280.19705       893.114 5        32.976
C14        59.000                                                                                                                                    25222087.247 6 131337837.32406     -3510.436 6        40.849    25222097.834 7 101558686.30007     -2714.451 7        46.213    25222093.163 7 106722695.88807     -2852.380 7        43.291
R13        60.000    19365669.619 7 103411666.70907      -868.034 7        46.803
> 2025 01 01 12 15 30.0000000  0 54
G19         1.000    21459580.751 7 112770998.52607     -2151.560 7        46.082                                    21459582.315 5  87873589.65005     -1676.533 5        35.876
G25         2.000    22521173.307 7 118349597.20607      2524.887 7        42.535                                    22521182.981 6  92220525.60806      1967.438 6        38.441    22521183.926 6  92220535.62806      1967.434 6        40.141
G24         3.000    20153554.386 8 105907653.82108     -1749.355 8        50.677                                    20153558.597 8  82525475.86108     -1363.132 8        52.639    20153559.056 7  82525472.86307     -1363.152 7        46.426
R02         4.000    24191587.823 5 129090610.79805     -5129.557 5        32.784                                                                    24191611.408 4 100403735.57404     -3989.805 4        28.209
S21         5.000    38324990.471 7 201398799.12507      -589.619 7        43.037
G06         6.000    23715754.919 6 124627198.11106      1683.330 6        41.311                                    23715764.839 6  97112180.53606      1311.680 6        36.677    23715765.987 6  97112171.55806      1311.596 6        39.979
G17         7.000    24068753.454 7 126482223.45207     -3726.351 7        42.087                                    24068762.152 5  98557642.19805     -2903.644 5        34.276    24068762.452 6  98557638.18706     -2903.633 6        37.664
R21         8.000    23809835.911 7 127411276.72707     -4120.790 7        43.507                                                                    23809846.123 6  99097730.86206     -3205.272 6        39.273
E30        10.000    23954827.382 8 125883597.87208       511.303 8        48.766                                                                    23954834.752 8  94004090.51408       381.775 8        50.546    23954833.540 8  96456360.27708       391.759 8        51.042
C26        11.000                                                                                                                                    22598278.333 8 117675141.97008     -2318.818 8        49.647                                                                    22598282.917 8  95620701.37308     -1884.373 8        48.474
S27        12.000    39097723.428 6 205459717.63706      -613.588 6        36.646
G15        13.000    24254528.042 6 127458158.86206     -4475.056 6        41.194                                    24254539.807 5  99317967.41205     -3487.040 5        33.210    24254539.925 6  99317959.38006     -3487.160 6        37.705
S36        14.000    38096838.464 7 200200597.31607      -589.880 7        44.600
G12        15.000    20358325.870 8 106983858.30708       649.169 8        50.276                                    20358327.637 8  83364118.28608       505.846 8        50.565    20358327.766 7  83364118.28607       505.839 7        45.982
E29        16.000    27082049.225 6 142316992.10006      1775.032 6        39.213                                                                    27082066.250 7 106275665.39207      1325.484 7        42.938    27082063.929 7 109048074.33407      1360.041 7        43.509
S45        17.000    63287960.018 6 332581573.77806      -651.875 6        36.302
R03        18.000    21173650.367 8 113344106.92108     -3662.102 8        48.456                                                                    21173656.954 7  88156516.70807     -2848.322 7        44.378
C35        19.000                                                                                                                                    22942642.714 8 119468483.40208      -156.827 8        48.435                                                                    22942647.287 7  97078002.54307      -127.552 7        47.173
E11        20.000    27209800.709 5 142988496.83805      -537.271 5        35.862                                                                    27209812.392 6 106777190.93006      -401.290 6        37.422    27209810.722 6 109562673.39006      -411.843 6        37.463
R14        21.000    21703647.485 8 115692667.23308      2270.336 8        48.924                                                                    21703658.700 7  89983241.61407      1765.836 7        43.300
I06        22.000    38287227.864 7 150247321.47607      -550.654 7        42.334
S28        23.000    40790887.816 5 214357320.57505      -598.672 5        35.195
S23        25.000    38034270.752 7 199871239.07707      -594.113 7        45.174
E08        26.000    25311857.690 7 133014573.03607     -3299.276 7        44.861                                                                    25311866.931 7  99329022.09107     -2463.740 7        47.406    25311865.341 7 101920216.33007     -2528.022 7        47.915
C07        27.000                                                                                                                                    39740353.012 6 206938346.76406     -1485.705 6        38.661    39740359.438 7 160017843.17707     -1148.696 7        42.637    39740355.577 6 168154335.94306     -1207.244 6        39.120
I02        29.000    36814612.818 7 144468423.16307      -534.568 7        43.325
G10        30.000    25063710.889 6 131710459.20206     -2652.823 6        39.321                                    25063726.749 4 102631473.17904     -2067.128 4        29.156    25063726.158 5 102631465.21205     -2067.219 5        33.886
E07        31.000    24224949.434 7 127302891.33307      -749.019 7        46.741                                                                    24224959.155 8  95063842.67408      -559.339 8        50.025    24224957.690 8  97543767.27708      -573.918 8        50.259
C12        32.000                                                                                                                                    25466499.342 6 132610772.75506      2871.361 6        38.204    25466512.620 7 102543125.63707      2220.288 7        46.127    25466507.530 7 107757157.01607      2333.066 7        42.878
E10        33.000    28296501.351 6 148699163.22406     -1795.969 6        36.023                                                                    28296514.586 6 111041667.19206     -1341.280 6        40.801    28296513.069 6 113938393.27006     -1376.289 6        40.884
R23        34.000    21384953.460 7 114395178.59007      2727.582 7        46.488
C24        35.000                                                                                                                                    21432750.391 8 111605991.19008       301.183 8        52.126                                                                    21432751.954 8  90689031.51608       244.630 8        49.990
R05        36.000    23756615.157 7 126992654.64107      2940.727 7        43.642                                                                    23756627.756 6  98772081.46606      2287.113 6        40.553
E27        37.000    27617447.646 6 145130662.28706      1919.063 6        38.871                                                                    27617465.308 6 108376874.47606      1433.055 6        40.789    27617463.133 6 111204085.69306      1470.359 6        41.149
R04        38.000    21009732.258 8 112506071.21208        -6.957 8        49.316                                                                    21009739.839 7  87504707.75107        -5.512 7        45.386
C33        39.000                                                                                                                                    24657987.110 7 128400532.25907     -2618.103 7        46.143                                                                    24658007.674 7 104336008.74307     -2127.557 7        44.935
E25        40.000    27894430.459 6 146586061.88206     -3172.193 6        37.251                                                                    27894447.062 6 109463573.33106     -2368.853 6        40.517    27894445.258 6 112319142.38106     -2430.623 6        41.385
S44        42.000    40692443.569 6 213840180.43906      -524.475 6        38.060
R22        43.000    21086989.596 8 112563905.07508      -694.713 8        49.101                                                                    21086996.732 7  87549789.80007      -540.387 7        46.158
C05        44.000                                                                                                                                    39347573.762 6 204892976.95006      -599.233 6        38.513    39347581.545 7 158436218.88107      -463.332 7        43.117    39347580.270 6 166492388.76806      -487.143 6        39.568
C40        45.000                                                                                                                                    40166970.085 6 209159844.97906     -1768.825 6        40.248                                                                    40166979.528 6 169959498.77206     -1437.549 6        38.955
G32        46.000    23847655.717 7 125320142.68707      1947.105 7        43.446                                    23847667.946 6  97652051.23206      1517.221 6        37.958    23847668.821 6  97652053.24106      1517.144 6        39.438
E36        47.000    27030302.542 6 142045243.28006      1615.422 6        40.567                                                                    27030317.630 7 106072847.44107      1206.327 7        43.052    27030315.887 7 108839949.88507      1237.806 7        43.979
C41        48.000                                                                                                                                    25305582.053 7 131772789.62207       -41.170 7        43.352                                                                    25305599.013 7 107076254.28307       -33.581 7        43.881
C10        49.000                                                                                                                                    38861221.997 6 202360546.23706     -1207.315 6        41.399    38861228.699 7 156478016.42207      -933.597 7        43.420    38861224.398 6 164434514.93306      -981.222 6        40.734
C42        50.000                                                                                                                                    26427799.047 6 137616189.89906     -3842.639 6        40.033                                                                    26427821.559 6 111824401.98106     -3122.584 6        40.262
S48        51.000    77033149.922 6 404813143.93606      -595.866 6        38.057
E02        53.000    23775263.207 7 124939905.69907     -1985.960 7        47.525                                                                    23775269.831 8  93299348.98008     -1483.027 8        50.321    23775268.447 8  95733227.52208     -1521.713 8        50.776
C60        54.000                                                                                                                                    40692445.387 6 211896195.99006      -519.759 6        40.138                                                                    40692441.834 6 172182933.76506      -422.314 6        38.595
R12        56.000    21422956.813 8 114437608.26108     -3323.524 8        48.185                                                                    21422966.368 7  89007047.99507     -2584.983 7        45.047
C02        57.000                                                                                                                                    40853276.388 5                      -556.086 5        31.879    40853286.559 6 164498998.93506      -430.020 6        36.870    40853285.575 5 172863380.14205      -452.133 5        31.419
I03        58.000   120252437.201 5 396110813.02705       893.637 5        32.922
C14        59.000                                                                                                                                    25225458.631 6 131355392.46806     -3511.437 6        40.868    25225469.080 7 101572260.99607     -2715.249 7        46.239    25225464.401 7 106736960.81307     -2853.424 7        43.181
R13        60.000    19366483.169 7 103416012.93907      -870.181 7        46.751
> 2025 01 01 12 15 35.0000000  0 54
G19         1.000    21461629.416 7 112781764.38807     -2154.762 7        46.466                                    21461630.939 5  87881978.62305     -1679.034 5        35.929
G25         2.000    22518771.163 7 118336976.29407      2523.459 7        42.836                                    22518781.282 6  92210691.15906      1966.329 6        38.393    22518781.880 6  92210701.17006      1966.342 6        40.017
G24         3.000    20155220.278 8 105916408.41608     -1752.483 8        50.506                                    20155224.567 8  82532297.61808     -1365.570 8        52.649    20155225.032 7  82532294.62007     -1365.571 7        46.473
R02         4.000    24196395.187 5 129116258.52405     -5129.434 5        33.251                                                                    24196414.909 4 100423683.74004     -3989.403 4        28.597
S21         5.000    38325550.891 7 201401747.16007      -589.684 7        42.870
G06         6.000    23714154.094 6 124618786.87306      1681.078 6        41.526                                    23714164.320 6  97105626.35206      1309.926 6        36.794    23714165.110 6  97105617.37206      1309.857 6        39.799
G17         7.000    24072300.167 7 126500858.66607     -3727.823 7        42.521                                    24072308.350 5  98572163.13805     -2904.798 5        34.576    24072308.846 6  98572159.14706     -2904.865 6        37.682
R21         8.000    23813688.269 7 127431887.86907     -4123.691 7        43.606                                                                    23813697.950 6  99113761.84106     -3207.411 6        38.880
E30        10.000    23954341.610 8 125881045.05008       509.844 8        48.574                                                                    23954348.972 8  94002184.18308       380.705 8        50.523    23954347.721 8  96454404.21508       390.662 8        51.066
C26        11.000                                                                                                                                    22600505.621 8 117686739.71708     -2320.370 8        49.322                                                                    22600510.175 8  95630125.49608     -1885.347 8        48.517
S27        12.000    39098307.193 6 205462787.22106      -614.186 6        36.389
G15        13.000    24258786.005 6 127480534.94206     -4475.364 6        41.225                                    24258797.972 5  99335403.23305     -3487.280 5        33.347    24258798.254 6  99335395.19306     -3487.192 6        37.675
S36        14.000    38097399.393 7 200203547.51907      -590.198 7        44.585
G12        15.000    20357709.357 8 106980618.86008       646.612 8        50.306                                    20357711.170 8  83361594.04608       503.853 8        50.579    20357711.430 7  83361594.04607       503.875 7        45.994
E29        16.000    27080361.480 6 142308120.97306      1773.401 6        39.535                                                                    27080378.115 7 106269040.84107      1324.216 7        42.971    27080375.885 7 109041276.96907      1358.761 7        43.545
S45        17.000    63288526.264 6 332584832.96906      -652.051 6        36.280
R03        18.000    21177072.795 8 113362425.97408     -3665.512 8        49.542                                                                    21177079.576 7  88170764.81507     -2850.911 7        44.494
C35        19.000                                                                                                                                    22942794.525 8 119469275.26208      -159.908 8        48.210                                                                    22942799.360 7  97078646.01907      -129.840 7        47.295
E11        20.000    27210312.957 5 142991190.03305      -539.915 5        35.690                                                                    27210324.636 6 106779202.12706      -403.318 6        37.130    27210323.139 6 109564737.04006      -413.734 6        37.701
R14        21.000    21701517.719 8 115681318.37608      2269.187 8        49.028                                                                    21701529.910 7  89974414.75007      1764.952 7        43.558
I06        22.000    38287929.814 7 150250075.50107      -550.884 7        42.461
S28        23.000    40791453.704 5 214360315.05805      -599.077 5        34.781
S23        25.000    38034835.415 7 199874210.73307      -594.510 7        45.210
E08        26.000    25314997.701 7 133031073.20807     -3300.843 7        44.948                                                                    25315006.856 7  99341343.60307     -2464.770 7        47.371    25315005.325 7 101932859.28607     -2529.164 7        47.945
C07        27.000                                                                                                                                    39741779.442 6 206945775.97706     -1486.034 6        38.757    39741786.097 7 160023587.91407     -1149.012 7        42.379    39741782.207 6 168160372.79906     -1207.539 6        39.276
I02        29.000    36815294.446 7 144471097.68707      -534.954 7        43.479
G10        30.000    25066236.344 6 131723728.51506     -2654.958 6        39.670                                    25066252.048 4 102641812.88004     -2068.790 4        29.223    25066252.819 5 102641804.89005     -2068.787 5        34.329
E07        31.000    24225663.820 7 127306643.13907      -751.694 7        46.693                                                                    24225673.089 8  95066644.33208      -561.299 8        49.983    24225671.714 8  97546642.02408      -575.970 8        50.332
C12        32.000                                                                                                                                    25463742.558 6 132596416.98706      2870.759 6        38.165    25463755.684 7 102532024.90907      2219.993 7        45.636    25463750.659 7 107745491.85607      2332.831 7        43.010
E10        33.000    28298211.414 5 148708149.37505     -1798.477 5        35.929                                                                    28298224.623 6 111048377.73406     -1343.022 6        40.968    28298222.868 6 113945278.85106     -1378.056 6        40.927
R23        34.000    21382405.860 7 114381548.63707      2724.424 7        45.853
C24        35.000                                                                                                                                    21432461.995 8 111604489.64008       299.425 8        51.950                                                                    21432463.572 8  90687811.40408       243.421 8        50.035
R05        36.000    23753866.129 7 126977957.42607      2938.058 7        43.475                                                                    23753878.873 6  98760650.21106      2285.117 6        41.476
E27        37.000    27615622.319 6 145121068.86306      1918.311 6        39.547                                                                    27615640.115 6 108369710.56206      1432.472 6        40.822    27615637.539 6 111196734.89106      1469.848 6        41.027
R04        38.000    21009741.021 8 112506118.38608       -11.857 8        49.639                                                                    21009749.296 7  87504744.44907        -9.201 7        45.466
C33        39.000                                                                                                                                    24660501.961 7 128413628.63707     -2620.462 7        46.036                                                                    24660522.686 7 104346650.61307     -2129.284 7        45.028
E25        40.000    27897448.477 6 146601923.33806     -3172.577 6        37.032                                                                    27897465.404 6 109475417.88406     -2368.834 6        40.627    27897463.668 6 112331295.94006     -2430.726 6        41.480
S44        42.000    40692944.109 6 213842803.57906      -524.751 6        37.750
R22        43.000    21087642.898 8 112567390.93008      -699.531 8        49.091                                                                    21087649.532 7  87552501.00907      -544.116 7        45.741
C05        44.000                                                                                                                                    39348148.992 6 204895973.67606      -599.525 6        38.429    39348156.980 7 158438536.15007      -463.590 7        42.936    39348155.813 6 166494823.88206      -487.047 6        39.742
C40        45.000                                                                                                                                    40168669.046 6 209168690.33706     -1769.282 6        40.215                                                                    40168678.255 6 169966686.38006     -1437.665 6        39.159
G32        46.000    23845804.528 7 125310413.31807      1944.580 7        43.613                                    23845816.533 6  97644469.91206      1515.257 6        37.962    23845817.331 6  97644471.91006      1515.232 6        39.048
E36        47.000    27028766.683 6 142037170.60506      1613.656 6        40.567                                                                    27028781.604 7 106066819.17107      1204.960 7        43.031    27028779.775 7 108833764.36007      1236.378 7        44.175
C41        48.000                                                                                                                                    25305623.298 7 131773003.17107       -44.270 7        43.585                                                                    25305640.131 7 107076427.81007       -35.816 7        43.757
C10        49.000                                                                                                                                    38862381.502 6 202366584.04706     -1207.817 6        41.259    38862388.186 7 156482685.22207      -933.973 7        43.382    38862383.938 6 164439421.14506      -981.317 6        40.825
C42        50.000                                                                                                                                    26431488.638 6 137635403.51706     -3842.717 6        40.169                                                                    26431511.442 6 111840014.57806     -3122.414 6        40.355
S48        51.000    77033711.272 6 404816123.09706      -595.817 6        37.913
E02        53.000    23777153.342 7 124949838.65107     -1987.225 7        47.402                                                                    23777160.012 8  93306766.43608     -1483.902 8        50.253    23777158.613 8  95740838.47408     -1522.639 8        50.793
C60        54.000                                                                                                                                    40692944.452 6 211898795.27906      -519.926 6        40.126                                                                    40692940.907 6 172185045.92406      -422.436 6        38.610
R12        56.000    21426068.038 7 114454229.19207     -3324.850 7        47.662                                                                    21426077.565 7  89019975.37407     -2585.973 7        45.065
C02        57.000                                                                                                                                    40853810.716 5                      -556.355 5        31.887    40853820.654 6 164501149.55606      -430.211 6        36.820    40853819.826 5 172865640.15105      -452.186 5        31.902
I03        58.000   120251298.983 5 396106345.80205       893.639 5        33.036
C14        59.000                                                                                                                                    25228830.784 6 131372952.54306     -3512.671 6        41.204    25228841.381 7 101585839.50607     -2716.165 7        46.317    25228836.604 7 106751229.79107     -2854.195 7        43.316
R13        60.000    19367299.600 7 103420369.79507      -872.590 7        46.417
> 2025 01 01 12 15 40.0000000  0 54
G19         1.000    21463680.669 7 112792545.22107     -2157.888 7        46.308                                    21463682.493 5  87890379.25705     -1681.469 5        35.986
G25         2.000    22516370.982 7 118324361.07807      2522.296 7        42.828                                    22516380.660 6  92200861.14406      1965.422 6        38.538    22516381.424 6  92200871.15306      1965.433 6        39.736
G24         3.000    20156888.935 8 105925176.91708     -1755.317 8        50.226                                    20156893.166 8  82539130.21008     -1367.776 8        52.700    20156893.411 7  82539127.21007     -1367.768 7        46.267
R02         4.000    24201201.538 5 129141904.31005     -5129.284 5        32.790                                                                    24201222.287 4 100443630.36304     -3989.343 4        28.057
S21         5.000    38326112.433 7 201404695.37307      -589.906 7        43.045
G06         6.000    23712554.995 6 124610386.19906      1678.890 6        40.749                                    23712565.737 6  97099080.40706      1308.215 6        36.877    23712566.645 6  97099071.43006      1308.239 6        39.841
G17         7.000    24075847.129 7 126519499.95107     -3729.085 7        42.193                                    24075855.701 5  98586688.79205     -2905.777 5        34.614    24075855.934 6  98586684.79806     -2905.806 6        37.418
R21         8.000    23817541.015 7 127452511.30107     -4126.283 7        42.629                                                                    23817552.172 6  99129802.38706     -3209.313 6        38.435
E30        10.000    23953856.965 8 125878498.54308       508.420 8        48.611                                                                    23953864.371 8  94000282.57208       379.734 8        50.471    23953863.134 8  96452453.00208       389.585 8        51.054
C26        11.000                                                                                                                                    22602733.782 8 117698343.74808     -2321.615 8        49.202                                                                    22602738.618 8  95639554.70308     -1886.413 8        48.421
S27        12.000    39098889.815 6 205465857.01106      -614.054 6        36.847
G15        13.000    24263044.196 6 127502911.36106     -4475.587 6        40.908                                    24263056.159 5  99352839.32805     -3487.458 5        33.365    24263056.428 6  99352831.29906     -3487.423 6        37.316
S36        14.000    38097962.420 7 200206497.88007      -590.366 7        44.650
G12        15.000    20357095.169 8 106977390.90108       644.221 8        50.067                                    20357096.903 8  83359078.75208       501.990 8        50.639    20357097.412 7  83359078.74807       502.010 7        46.016
E29        16.000    27078674.261 6 142299256.84606      1772.084 6        39.598                                                                    27078691.235 7 106262421.52407      1323.200 7        42.942    27078689.222 7 109034484.97707      1357.705 7        43.395
S45        17.000    63289094.388 6 332586492.30916      -652.150 6        36.631
R03        18.000    21180498.486 8 113380760.68708     -3668.792 8        49.838                                                                    21180505.423 7  88185025.10607     -2853.494 7        44.977
C35        19.000                                                                                                                                    22942949.316 8 119470081.61208      -162.963 8        48.199                                                                    22942954.240 7  97079301.22907      -132.202 7        47.302
E11        20.000    27210827.900 5 142993895.94905      -542.807 5        35.767                                                                    27210839.443 6 106781222.77606      -405.100 6        37.248    27210838.125 6 109566810.40506      -415.761 6        37.603
R14        21.000    21699390.169 8 115669974.02308      2268.213 8        49.047                                                                    21699401.627 7  89965591.37607      1764.131 7        43.289
I06        22.000    38288631.754 7 150252829.59807      -551.044 7        42.205
S28        23.000    40792027.185 5 214363309.47205      -599.423 5        35.186
S23        25.000    38035402.211 7 199877182.42707      -594.510 7        45.260
E08        26.000    25318138.732 7 133047579.96607     -3302.279 7        44.998                                                                    25318148.060 7  99353670.05307     -2465.935 7        47.348    25318146.464 7 101945507.28907     -2530.301 7        47.833
C07        27.000                                                                                                                                    39743206.764 6 206953205.97406     -1486.254 6        38.781    39743212.982 7 160029333.28107     -1149.417 7        42.216    39743208.970 6 168166410.27006     -1207.547 6        39.486
I02        29.000    36815976.257 7 144473773.07507      -535.388 7        43.321
G10        30.000    25068763.554 6 131737007.13706     -2656.859 6        38.553                                    25068779.132 4 102652159.83304     -2070.274 4        28.834    25068778.624 5 102652151.86405     -2070.441 5        33.174
E07        31.000    24226380.037 7 127310407.22107      -754.229 7        46.905                                                                    24226389.347 8  95069455.16708      -563.262 8        49.950    24226388.012 8  97549526.18708      -577.908 8        50.280
C12        32.000                                                                                                                                    25460985.931 6 132582062.74706      2870.476 6        38.195    25460998.956 7 102520925.38907      2219.551 7        45.226    25460993.958 7 107733827.89807      2332.574 7        42.973
E10        33.000    28299923.325 5 148717146.97805     -1800.757 5        35.819                                                                    28299936.914 6 111055096.83406     -1345.015 6        40.713    28299934.939 6 113952173.20106     -1379.881 6        40.734
R23        34.000    21379859.492 7 114367933.37807      2721.380 7        45.693
C24        35.000                                                                                                                                    21432174.991 8 111602995.40208       297.913 8        51.880                                                                    21432176.623 8  90686597.19508       242.208 8        49.960
R05        36.000    23751120.056 7 126963272.37107      2935.556 7        44.319                                                                    23751132.559 6  98749228.36206      2283.092 6        41.807
E27        37.000    27613797.020 6 145111477.75406      1917.696 6        39.090                                                                    27613814.910 6 108362548.38506      1432.027 6        40.944    27613812.343 6 111189385.87406      1469.449 6        41.049
R04        38.000    21009754.712 8 112506188.82808       -16.650 8        49.369                                                                    21009761.580 7  87504799.22507       -12.893 7        45.157
C33        39.000                                                                                                                                    24663018.786 7 128426735.44907     -2622.537 7        45.902                                                                    24663039.762 7 104357300.92507     -2130.904 7        44.944
E25        40.000    27900466.842 6 146617784.56206     -3172.538 6        37.062                                                                    27900483.618 6 109487262.32206     -2369.028 6        40.541    27900481.809 6 112343449.35306     -2430.880 6        41.201
S44        42.000    40693442.655 6 213845426.73706      -524.804 6        38.072
R22        43.000    21088299.366 8 112570899.82208      -704.326 8        48.890                                                                    21088306.738 7  87555230.17207      -547.806 7        45.938
C05        44.000                                                                                                                                    39348724.356 6 204898970.39906      -599.554 6        38.411    39348732.679 7 158440853.42007      -463.673 7        42.952    39348731.270 6 166497258.95606      -487.133 6        39.640
C40        45.000                                                                                                                                    40170367.711 6 209177536.45506     -1769.484 6        40.279                                                                    40170377.201 6 169973874.56106     -1437.605 6        39.174
G32        46.000    23843954.858 7 125300695.02507      1942.362 7        44.101                                    23843967.191 6  97636897.21706      1513.532 6        37.958    23843967.824 6  97636899.21506      1513.528 6        39.441
E36        47.000    27027231.580 6 142029105.62306      1611.915 6        40.625                                                                    27027247.038 7 106060796.65407      1203.764 7        43.181    27027245.035 7 108827584.72407      1235.206 7        43.977
C41        48.000                                                                                                                                    25305667.180 7 131773230.86007       -47.125 7        43.494                                                                    25305683.873 7 107076612.81707       -38.213 7        43.829
C10        49.000                                                                                                                                    38863541.458 6 202372623.08806     -1208.155 6        41.201    38863548.046 7 156487354.99607      -934.174 7        43.534    38863543.792 6 164444328.34206      -981.627 6        40.887
C42        50.000                                                                                                                                    26435178.232 6 137654616.10506     -3842.546 6        40.620                                                                    26435200.992 6 111855626.30706     -3122.317 6        40.417
S48        51.000    77034273.968 6 404819102.55306      -596.104 6        38.132
E02        53.000    23779044.342 7 124959776.49907     -1988.253 7        47.558                                                                    23779051.136 8  93314187.55508     -1484.767 8        50.263    23779049.729 8  95748453.19208     -1523.506 8        50.770
C60        54.000                                                                                                                                    40693443.458 6 211901394.58906      -520.129 6        40.045                                                                    40693440.204 6 172187158.05906      -422.466 6        38.492
R12        56.000    21429180.414 7 114470855.36507     -3326.029 7        47.693                                                                    21429189.645 7  89032906.82207     -2586.879 7        44.524
C02        57.000                                                                                                                                    40854344.069 5 212739102.93115      -557.061 5        31.894    40854354.852 6 164503300.17706      -430.241 6        36.590    40854353.648 5 172867900.11205      -452.073 5        31.796
I03        58.000   120250159.882 5 396101878.47405       893.288 5        32.814
C14        59.000                                                                                                                                    25232204.767 6 131390517.43906     -3513.599 6        41.197    25232214.465 7 101599421.75507     -2716.944 7        45.992    25232209.775 7 106765502.66207     -2854.964 7        43.245
R13        60.000    19368116.905 7 103424737.18807      -874.746 7        46.849
> 2025 01 01 12 15 45.0000000  0 54
G19         1.000    21465735.219 7 112803341.31707     -2160.694 7        46.510                                    21465736.935 5  87898791.79005     -1683.656 5        35.871
G25         2.000    22513971.733 7 118311751.89507      2521.170 7        42.967                                    22513981.165 6  92191035.83006      1964.545 6        38.414    22513982.143 6  92191045.82706      1964.702 6        39.604
G24         3.000    20158560.208 8 105933959.64108     -1757.929 8        50.640                                    20158564.471 8  82545973.88508     -1369.812 8        52.600    20158564.801 7  82545970.88907     -1369.764 7        45.815
R02         4.000    24206006.516 5 129167548.78005     -5128.588 5        32.329
S21         5.000    38326675.061 7 201407644.00807      -589.715 7        43.156
G06         6.000    23710958.128 6 124601996.41406      1676.880 6        40.548                                    23710969.323 6  97092542.94706      1306.652 6        36.654    23710970.636 6  97092533.98006      1306.665 6        40.002
G17         7.000    24079395.409 7 126538147.61407     -3730.100 7        42.140                                    24079404.292 5  98601219.40905     -2906.562 5        34.352    24079404.205 6  98601215.41306     -2906.671 6        37.164
R21         8.000    23821396.279 7 127473147.51607     -4128.457 7        42.169                                                                    23821407.706 6  99145852.89106     -3211.071 6        38.150
E30        10.000    23953373.707 8 125875958.66108       507.379 8        48.740                                                                    23953381.074 8  93998385.90108       378.883 8        50.530    23953379.831 8  96450506.85208       388.735 8        51.009
C26        11.000                                                                                                                                    22604963.605 8 117709954.40008     -2322.718 8        49.423                                                                    22604968.325 8  95648989.31108     -1887.274 8        48.405
S27        12.000    39099476.957 6 205468927.10706      -613.893 6        36.730
G15        13.000    24267302.325 6 127525288.45506     -4475.313 6        41.516                                    24267314.387 5  99370275.94205     -3487.237 5        33.257    24267315.091 6  99370267.91306     -3487.254 6        36.881
S36        14.000    38098523.063 7 200209448.94707      -590.137 7        44.783
G12        15.000    20356483.235 8 106974174.73808       642.116 8        50.521                                    20356484.886 8  83356572.65008       500.352 8        50.554    20356485.271 7  83356572.64607       500.328 7        45.649
E29        16.000    27076988.519 6 142290400.07506      1770.663 6        38.970                                                                    27077005.703 7 106255807.70807      1322.202 7        43.020    27077003.829 7 109027698.61307      1356.808 7        43.450
S45        17.000    63289662.347 6 332589752.07206      -651.766 6        36.578
R03        18.000    21183925.536 8 113399111.53308     -3671.615 8        49.217                                                                    21183933.293 7  88199297.95107     -2855.805 7        44.922
C35        19.000                                                                                                                                    22943106.893 8 119470902.73408      -165.705 8        48.013                                                                    22943111.858 7  97079968.47007      -134.514 7        47.238
E11        20.000    27211344.913 5 142996614.82105      -544.781 5        35.352                                                                    27211357.179 6 106783253.15806      -406.966 6        37.051    27211355.307 6 109568893.75406      -417.580 6        37.784
R14        21.000    21697263.121 8 115658634.65408      2267.438 8        49.387                                                                    21697274.148 7  89956771.87507      1763.683 7        43.761
I06        22.000    38289333.514 7 150255584.00107      -550.841 7        42.326
S28        23.000    40792595.032 5 214366304.48105      -599.066 5        35.410
S23        25.000    38035967.250 7 199880154.65807      -594.468 7        45.481
E08        26.000    25321280.943 7 133064093.60507     -3303.351 7        45.076                                                                    25321290.501 7  99366001.62807     -2466.802 7        47.215    25321288.904 7 101958160.56607     -2531.135 7        47.918
C07        27.000                                                                                                                                    39744633.776 6 206960637.12906     -1486.366 6        38.550    39744640.229 7 160035079.51307     -1149.185 7        42.343    39744635.934 6 168172448.71806     -1207.585 6        39.330
I02        29.000    36816658.659 7 144476449.68407      -535.425 7        43.295
G10        30.000    25071291.367 6 131750295.35306     -2658.495 6        39.429                                    25071307.942 4 102662514.25904     -2071.549 4        28.654    25071307.180 5 102662506.21705     -2071.342 5        32.970
E07        31.000    24227098.778 7 127314183.88507      -756.532 7        46.784                                                                    24227108.053 8  95072275.39508      -564.944 8        49.969    24227106.679 8  97552419.98708      -579.680 8        50.284
C12        32.000                                                                                                                                    25458230.037 6 132567710.36306      2870.531 6        38.676    25458242.340 7 102509827.28807      2219.568 7        45.041    25458237.677 7 107722165.48707      2332.469 7        42.976
E10        33.000    28301637.605 6 148726156.44906     -1803.151 6        36.253                                                                    28301651.223 6 111061824.76506     -1346.443 6        41.092    28301649.317 6 113959076.65906     -1381.605 6        40.777
R23        34.000    21377317.381 7 114354333.14807      2718.597 7        46.096
C24        35.000                                                                                                                                    21431889.398 8 111601508.78708       296.648 8        51.651                                                                    21431891.173 8  90685389.21308       241.099 8        49.936
R05        36.000    23748374.056 7 126948599.92307      2933.417 7        42.882                                                                    23748387.368 6  98737816.36506      2281.624 6        40.648
E27        37.000    27611972.203 6 145101889.28006      1917.486 6        39.111                                                                    27611990.269 6 108355388.16706      1431.944 6        40.820    27611987.626 6 111182038.85306      1469.323 6        40.875
R04        38.000    21009772.329 8 112506282.89208       -21.076 8        50.238                                                                    21009778.731 7  87504872.38707       -16.400 7        44.594
C33        39.000                                                                                                                                    24665538.028 7 128439853.01407     -2624.494 7        45.549                                                                    24665558.882 7 104367959.99907     -2132.465 7        44.810
E25        40.000    27903485.024 6 146633645.88806     -3172.317 6        36.733                                                                    27903501.998 6 109499106.81906     -2368.859 6        40.436    27903499.900 6 112355602.84306     -2430.727 6        41.282
S44        42.000    40693939.644 6 213848050.26606      -524.708 6        38.207
R22        43.000    21088961.304 8 112574432.07108      -708.752 8        48.747                                                                    21088968.728 7  87557977.47707      -551.161 7        45.260
C05        44.000                                                                                                                                    39349299.849 6 204901967.43706      -599.326 6        38.318    39349308.191 7 158443170.92907      -463.575 7        42.895    39349306.768 6 166499694.30406      -486.803 6        39.529
C40        45.000                                                                                                                                    40172066.882 6 209186383.68806     -1769.557 6        40.153                                                                    40172076.210 6 169981063.69906     -1437.925 6        38.883
G32        46.000    23842107.828 7 125290988.15507      1940.302 7        43.846                                    23842120.071 6  97629333.42806      1511.923 6        37.890    23842121.235 6  97629335.42406      1511.927 6        39.399
E36        47.000    27025698.223 6 142021048.64806      1610.625 6        40.102                                                                    27025713.919 7 106054780.11407      1202.784 7        43.075    27025711.847 7 108821411.22407      1234.179 7        44.017
C41        48.000                                                                                                                                    25305713.626 7 131773473.02907       -49.865 7        43.615                                                                    25305730.446 7 107076809.58207       -40.395 7        43.809
C10        49.000                                                                                                                                    38864701.216 6 202378663.77306     -1208.280 6        41.128    38864708.298 7 156492026.02307      -934.309 7        43.492    38864703.868 6 164449236.88006      -981.619 6        40.782
C42        50.000                                                                                                                                    26438867.839 6 137673827.95906     -3842.232 6        40.610                                                                    26438890.482 6 111871237.46506     -3121.927 6        40.427
S48        51.000    77034834.307 6 404822082.66806      -596.009 6        38.541
E02        53.000    23780936.197 7 124969719.58207     -1989.084 7        47.472                                                                    23780943.236 8  93321612.57908     -1485.363 8        50.256    23780941.844 8  95756071.90708     -1524.065 8        50.764
C60        54.000                                                                                                                                    40693942.880 6 211903994.25306      -519.813 6        40.133                                                                    40693939.479 6 172189270.51206      -422.296 6        38.652
R12        56.000    21432294.190 7 114487487.18007     -3326.846 7        47.060                                                                    21432303.162 7  89045842.65207     -2587.476 7        44.614
C02        57.000                                                                                                                                    40854879.206 5 212741884.36705      -556.211 5        31.540    40854888.929 6 164505451.03506      -430.125 6        36.575    40854887.708 5                      -451.823 5        31.260
I03        58.000   120249021.757 5 396097411.19505       893.450 5        32.593
C14        59.000                                                                                                                                    25235579.413 6 131408087.46406     -3514.581 6        41.066    25235588.380 7 101613007.94207     -2717.579 7        45.428    25235583.853 7 106779779.69107     -2855.623 7        43.111
R13        60.000    19368936.841 7 103429115.50907      -876.710 7        46.332
> 2025 01 01 12 15 50.0000000  0 54
G19         1.000    21467792.381 7 112814152.34307     -2163.771 7        46.557                                    21467794.222 5  87907215.95505     -1686.053 5        35.729
G25         2.000    22511573.245 7 118299148.39507      2519.939 7        42.736                                    22511582.770 6  92181214.94806      1963.582 6        38.267    22511583.500 6  92181224.94906      1963.569 6        39.342
G24         3.000    20160234.453 8 105942756.28608     -1760.882 8        50.508                                    20160238.419 8  82552828.40908     -1372.115 8        52.484    20160238.840 7  82552825.40907     -1372.092 7        46.417
R02         4.000    24210813.281 5 129193191.23005     -5128.577 5        31.940                                                                    24210832.827 4 100483520.02404     -3989.200 4        26.850
S21         5.000    38327235.016 7 201410592.78707      -589.981 7        43.211
G06         6.000    23709364.466 6 124593617.22506      1674.651 6        40.472                                    23709374.904 6  97086013.74306      1304.916 6        36.359    23709375.627 6  97086004.76206      1304.838 6        40.195
G17         7.000    24082944.870 7 126556801.38307     -3731.536 7        42.076                                    24082953.977 5  98615754.79505     -2907.685 5        33.940    24082953.620 6  98615750.77806     -2907.590 6        36.953
R21         8.000    23825255.296 7 127493796.06507     -4131.043 7        42.055                                                                    23825266.331 6  99161913.02006     -3213.083 6        38.456
E30        10.000    23952891.754 8 125873425.08308       505.965 8        48.697                                                                    23952898.943 8  93996493.94508       377.853 8        50.405    23952897.667 8  96448565.54008       387.645 8        50.994
C26        11.000                                                                                                                                    22607194.494 8 117721571.34708     -2324.134 8        49.544                                                                    22607199.271 8  95658429.03308     -1888.571 8        48.462
S27        12.000    39100060.400 6 205471996.85006      -614.292 6        36.590
G15        13.000    24271560.914 6 127547665.90406     -4475.669 6        41.883                                    24271572.722 5  99387712.84305     -3487.519 5        33.371    24271573.132 6  99387704.79306     -3487.273 6        36.571
S36        14.000    38099085.669 7 200212399.98307      -590.444 7        44.718
G12        15.000    20355873.603 8 106970970.07308       639.692 8        50.313                                    20355875.050 8  83354075.51108       498.460 8        50.441    20355875.416 7  83354075.50707       498.451 7        45.923
E29        16.000    27075304.368 6 142281550.32506      1769.228 6        39.372                                                                    27075321.719 7 106249199.12807      1321.065 7        42.815    27075319.561 7 109020917.64007      1355.617 7        43.287
S45        17.000    63290228.159 6 332593011.99706      -652.301 6        36.484
R03        18.000    21187356.056 8 113417478.10908     -3675.031 8        48.888                                                                    21187364.029 7  88213583.03807     -2858.412 7        45.074
C35        19.000                                                                                                                                    22943267.260 7 119471738.32507      -168.687 7        47.976                                                                    22943272.288 7  97080647.47107      -137.077 7        47.186
E11        20.000    27211864.644 5 142999346.45305      -547.657 5        35.586                                                                    27211876.748 6 106785293.03406      -408.903 6        36.991    27211875.233 6 109570986.83706      -419.655 6        37.626
R14        21.000    21695136.203 8 115647299.65408      2266.414 8        48.896                                                                    21695148.218 7  89947955.79607      1762.867 7        44.194
I06        22.000    38290035.486 7 150258338.46907      -550.995 7        42.263
S28        23.000    40793168.656 5 214369299.42205      -599.050 5        35.252
S23        25.000    38036532.821 7 199883126.94507      -594.555 7        45.461
E08        26.000    25324424.832 7 133080613.81807     -3304.874 7        44.977                                                                    25324434.166 7  99378338.11707     -2467.873 7        47.150    25324432.649 7 101970818.87407     -2532.221 7        47.763
C07        27.000                                                                                                                                    39746060.738 6 206968069.15606     -1486.712 6        38.489    39746067.498 7 160040826.43007     -1149.540 7        42.315    39746063.425 6 168178487.84206     -1207.997 6        39.393
I02        29.000    36817340.761 7 144479127.27707      -535.640 7        43.223
G10        30.000    25073822.330 6 131763592.82606     -2660.549 6        39.456                                    25073838.299 4 102672875.90204     -2073.152 4        28.645    25073839.092 5 102672867.88005     -2072.974 5        34.252
E07        31.000    24227819.791 7 127317972.83707      -759.174 7        46.918                                                                    24227829.110 8  95075104.79808      -566.918 8        49.809    24227827.754 8  97555323.19808      -581.671 8        50.266
C12        32.000                                                                                                                                    25455474.553 6 132553359.55606      2869.968 6        38.988    25455486.311 7 102498730.39907      2219.266 7        45.081    25455481.723 7 107710504.33807      2332.028 7        43.084
E10        33.000    28303353.989 6 148735177.40306     -1805.479 6        36.132                                                                    28303367.840 6 111068561.29006     -1348.262 6        41.352    28303365.967 6 113965988.91106     -1383.381 6        40.980
R23        34.000    21374778.044 7 114340747.61407      2715.526 7        46.121
C24        35.000                                                                                                                                    21431605.320 8 111600029.51608       295.021 8        51.650                                                                    21431607.094 8  90684187.18508       239.677 8        49.934
R05        36.000    23745630.206 6 126933939.66306      2930.662 6        41.995                                                                    23745644.851 6  98726413.94306      2279.365 6        41.056
E27        37.000    27610147.961 6 145092303.16706      1916.957 6        39.796                                                                    27610166.130 6 108348229.70706      1431.412 6        40.832    27610163.495 6 111174693.64706      1468.779 6        40.787
R04        38.000    21009794.874 8 112506400.11208       -25.911 8        49.588                                                                    21009801.378 7  87504963.57807       -20.165 7        45.067
C33        39.000                                                                                                                                    24668059.017 7 128452980.99507     -2626.810 7        45.308                                                                    24668079.933 7 104378627.53407     -2134.554 7        44.886
E25        40.000    27906503.420 6 146649507.00206     -3172.187 6        36.888                                                                    27906520.265 6 109510951.17006     -2368.985 6        40.389    27906518.087 6 112367756.17306     -2430.775 6        41.077
S44        42.000    40694439.281 6 213850673.83306      -524.965 6        38.192
R22        43.000    21089628.128 8 112577987.38308      -713.543 8        49.174                                                                    21089634.740 7  87560742.70207      -554.937 7        45.087
C05        44.000                                                                                                                                    39349875.892 6 204904964.50606      -599.356 6        38.198    39349883.630 7 158445488.45107      -463.575 7        42.959    39349882.391 6 166502129.68506      -487.297 6        39.730
C40        45.000                                                                                                                                    40173766.559 6 209195231.70606     -1769.841 6        40.215                                                                    40173775.340 6 169988253.45706     -1438.298 6        38.922
G32        46.000    23840262.446 7 125281292.38607      1938.007 7        42.681                                    23840275.030 6  97621778.28406      1510.129 6        37.720    23840275.762 6  97621780.28506      1510.199 6        39.483
E36        47.000    27024166.492 6 142012999.39406      1609.023 6        39.937                                                                    27024182.078 7 106048769.33607      1201.509 7        43.143    27024180.077 7 108815243.64407      1232.858 7        43.850
C41        48.000                                                                                                                                    25305762.644 7 131773729.36807       -52.735 7        42.936                                                                    25305779.833 7 107077017.87207       -42.957 7        43.657
C10        49.000                                                                                                                                    38865862.086 6 202384705.77406     -1208.548 6        41.161    38865868.230 7 156496698.07507      -934.570 7        43.591    38865864.197 6 164454146.50306      -982.060 6        40.717
C42        50.000                                                                                                                                    26442557.152 6 137693038.77006     -3842.149 6        40.527                                                                    26442579.836 6 111886847.78506     -3122.230 6        40.536
S48        51.000    77035396.367 6 404825062.90306      -596.321 6        38.264
E02        53.000    23782829.247 7 124979667.56207     -1990.199 7        47.566                                                                    23782836.310 8  93329041.26508     -1486.208 8        50.258    23782834.929 8  95763694.38808     -1524.963 8        50.599
C60        54.000                                                                                                                                    40694441.864 6 211906593.98306      -520.021 6        40.036                                                                    40694438.543 6 172191382.98606      -422.531 6        38.550
R12        56.000    21435408.893 7 114504124.30207     -3328.024 7        47.469                                                                    21435417.866 7  89058782.61807     -2588.440 7        44.530
C02        57.000                                                                                                                                    40855413.596 5 212744665.86605      -556.285 5        31.638    40855423.319 6 164507601.88006      -430.339 6        36.926    40855422.102 5                      -451.980 5        31.592
I03        58.000   120247883.128 5 396092943.81205       893.240 5        32.497
C14        59.000                                                                                                                                    25238954.205 6 131425662.29206     -3515.580 6        40.832    25238963.928 7 101626597.86907     -2718.493 7        45.752    25238959.136 7 106794060.64107     -2856.751 7        43.270
R13        60.000    19369758.425 7 103433504.32507      -878.946 7        46.580
> 2025 01 01 12 15 55.0000000  0 54
G19         1.000    21469852.689 7 112824978.37807     -2166.823 7        46.552                                    21469854.365 5  87915651.81605     -1688.432 5        35.886
G25         2.000    22509175.998 7 118286550.65207      2518.859 7        42.974                                    22509185.488 6  92171398.55006      1962.740 6        38.351    22509186.481 6  92171408.55506      1962.782 6        39.976
G24         3.000    20161911.164 8 105951566.88708     -1763.625 8        50.687                                    20161915.013 8  82559693.80808     -1374.252 8        52.596    20161915.339 7  82559690.80507     -1374.237 7        46.105
R02         4.000    24215616.322 5 129218831.68405     -5128.010 5        32.557                                                                    24215638.572 4 100503462.36504     -3988.289 4        27.413
S21         5.000    38327796.705 7 201413541.62607      -589.873 7        43.221
G06         6.000    23707771.341 6 124585248.68106      1672.497 6        40.453                                    23707782.519 6  97079492.83606      1303.238 6        36.318    23707783.088 6  97079483.85906      1303.224 6        40.482
G17         7.000    24086496.082 6 126575461.27406     -3732.692 6        41.697                                    24086504.777 5  98630294.95205     -2908.591 5        33.647    24086504.859 6  98630290.94906     -2908.465 6        36.628
R21         8.000    23829116.083 7 127514457.00507     -4133.547 7        42.091                                                                    23829128.002 6  99177982.74906     -3214.838 6        38.105
E30        10.000    23952410.732 8 125870897.87408       504.725 8        48.859                                                                    23952418.023 8  93994606.74908       376.839 8        50.408    23952416.802 8  96446629.10508       386.717 8        50.969
C26        11.000                                                                                                                                    22609426.685 8 117733194.64508     -2325.401 8        49.556                                                                    22609431.438 8  95667873.91708     -1889.624 8        48.271
S27        12.000    39100646.599 6 205475066.79906      -613.993 6        36.873
G15        13.000    24275819.297 6 127570043.73606     -4475.706 6        41.905                                    24275831.084 5  99405150.03905     -3487.548 5        33.689    24275831.797 6  99405142.00506     -3487.525 6        36.858
S36        14.000    38099646.983 7 200215351.08007      -590.337 7        44.858
G12        15.000    20355265.498 8 106967776.92408       637.439 8        50.317                                    20355267.411 8  83351587.34408       496.706 8        50.550    20355267.745 7  83351587.34207       496.773 7        45.871
E29        16.000    27073622.155 6 142272707.67906      1767.764 6        39.991                                                                    27073639.142 7 106242595.84107      1320.103 7        42.872    27073636.785 7 109014142.10107      1354.548 7        43.348
S45        17.000    63290800.088 6 332596272.22006      -652.317 6        36.688
R03        18.000    21190790.297 8 113435860.53408     -3678.116 8        49.014                                                                    21190797.883 7  88227880.43107     -2860.734 7        45.133
C35        19.000                                                                                                                                    22943430.925 8 119472588.45508      -171.595 8        48.232                                                                    22943435.562 7  97081338.27707      -139.391 7        47.034
E11        20.000    27212387.023 5 143002090.83305      -550.401 5        35.490                                                                    27212398.851 6 106787342.43006      -411.045 6        36.847    27212397.298 6 109573089.69006      -421.735 6        37.750
R14        21.000    21693011.003 8 115635969.43908      2265.492 8        49.569                                                                    21693022.610 7  89939143.41807      1762.090 7        44.721
I06        22.000    38290737.195 7 150261093.03407      -551.013 7        42.313
S28        23.000    40793734.241 5 214372294.59805      -598.826 5        35.429
S23        25.000    38037098.566 7 199886099.41507      -594.551 7        45.479
E08        26.000    25327569.870 7 133097140.63707     -3306.136 7        45.023                                                                    25327579.168 7  99390679.54007     -2468.939 7        47.166    25327577.589 7 101983482.25607     -2533.260 7        47.829
C07        27.000                                                                                                                                    39747488.306 6 206975502.07806     -1486.693 6        38.829    39747494.682 7 160046574.04907     -1149.624 7        42.000    39747490.761 6 168184527.72806     -1208.143 6        39.186
I02        29.000    36818023.175 7 144481805.80607      -535.913 7        43.308
G10        30.000    25076353.753 6 131776899.58806     -2662.299 6        39.583                                    25076370.458 4 102683244.78304     -2074.513 4        28.739    25076370.560 5 102683236.77105     -2074.562 5        33.695
E07        31.000    24228543.055 7 127321774.12407      -761.559 7        47.132                                                                    24228552.471 8  95077943.40608      -568.706 8        49.924    24228551.065 8  97558235.86108      -583.550 8        50.247
C12        32.000                                                                                                                                    25452718.550 6 132539010.31706      2869.782 6        39.078    25452730.798 7 102487634.74707      2218.986 7        45.087    25452725.941 7 107698844.46107      2331.783 7        43.101
E10        33.000    28305073.006 6 148744209.86506     -1807.915 6        36.321                                                                    28305086.701 6 111075306.39406     -1349.882 6        41.313    28305084.921 6 113972909.96406     -1385.190 6        41.049
R23        34.000    21372241.797 7 114327176.93007      2712.596 7        46.372
C24        35.000                                                                                                                                    21431322.935 8 111598557.61908       293.561 8        51.596                                                                    21431324.408 8  90682991.15108       238.536 8        49.738
R05        36.000    23742889.801 7 126919291.82207      2928.191 7        42.290                                                                    23742904.479 6  98715021.17406      2277.708 6        41.173
E27        37.000    27608324.443 6 145082719.42406      1916.452 6        39.520                                                                    27608342.471 6 108341073.00806      1431.156 6        40.949    27608339.859 6 111167350.25506      1468.428 6        40.791
R04        38.000    21009820.547 8 112506540.72208       -30.569 8        49.976                                                                    21009827.788 7  87505072.93307       -23.694 7        45.213
C33        39.000                                                                                                                                    24670582.392 7 128466119.43807     -2628.884 7        45.133                                                                    24670603.038 7 104389303.56607     -2136.159 7        44.677
E25        40.000    27909521.859 6 146665368.00006     -3172.079 6        37.077                                                                    27909538.490 6 109522795.40906     -2368.913 6        40.210    27909536.349 6 112379909.38606     -2430.682 6        40.918
S44        42.000    40694939.119 6 213853297.48806      -524.807 6        38.363
R22        43.000    21090298.436 8 112581565.77408      -718.047 8        49.125                                                                    21090305.093 7  87563525.90907      -558.463 7        45.336
C05        44.000                                                                                                                                    39350451.466 6 204907961.67606      -599.712 6        38.417    39350459.365 7 158447806.03007      -463.532 7        42.847    39350457.920 6 166504565.11006      -487.146 6        39.583
C40        45.000                                                                                                                                    40175465.367 6 209204080.58706     -1769.902 6        40.076                                                                    40175474.681 6 169995443.90906     -1438.214 6        38.898
G32        46.000    23838419.858 7 125271607.80307      1935.647 7        43.196                                    23838432.078 6  97614231.86506      1508.302 6        37.728    23838432.537 6  97614233.85606      1508.280 6        39.730
E36        47.000    27022636.354 6 142004957.90806      1607.392 6        40.172                                                                    27022651.567 7 106042764.35007      1200.313 7        43.115    27022649.832 7 108809082.00407      1231.560 7        43.801
C41        48.000                                                                                                                                    25305814.473 7 131773999.96107       -55.647 7        42.760                                                                    25305831.786 7 107077237.74807       -45.188 7        43.632
C10        49.000                                                                                                                                    38867022.658 6 202390749.12606     -1208.942 6        41.251    38867029.011 7 156501371.16907      -934.747 7        43.524    38867024.708 6 164459057.22706      -982.309 6        40.551
C42        50.000                                                                                                                                    26446246.826 6 137712248.59406     -3841.939 6        40.393                                                                    26446269.029 6 111902457.27206     -3121.799 6        40.265
S48        51.000    77035956.179 6 404828043.38706      -596.153 6        38.393
E02        53.000    23784723.445 7 124989620.50407     -1991.196 7        47.809                                                                    23784730.264 8  93336473.64508     -1486.901 8        50.229    23784728.888 8  95771320.66308     -1525.737 8        50.690
C60        54.000                                                                                                                                    40694941.425 6 211909193.78206      -519.931 6        40.005                                                                    40694937.818 6 172193495.55106      -422.632 6        38.553
R12        56.000    21438524.676 7 114520766.78507     -3329.100 7        47.407                                                                    21438533.489 7  89071726.75307     -2589.273 7        44.913
C02        57.000                                                                                                                                    40855948.442 5 212747447.40705      -556.666 5        31.781    40855957.660 6 164509752.71506      -430.240 6        36.594    40855956.215 5 172874680.73915      -452.031 5        31.117
I03        58.000   120246744.809 5 396088476.35905       893.142 5        32.635
C14        59.000                                                                                                                                    25242329.749 6 131443241.93806     -3516.359 6        40.539    25242340.825 7 101640191.51507     -2719.143 7        46.577    25242335.378 7 106808345.51407     -2857.483 7        43.221
R13        60.000    19370582.897 7 103437903.82507      -880.997 7        46.445
> 2025 01 01 12 16  0.0000000  0 54
G19         1.000    21471915.652 7 112835819.50807     -2169.798 7        47.017                                    21471917.460 5  87924099.43805     -1690.748 5        35.714
G25         2.000    22506779.939 7 118273958.79407      2517.640 7        42.821                                    22506789.316 6  92161586.73106      1961.793 6        38.426    22506790.180 6  92161596.73206      1961.882 6        39.742
G24         3.000    20163590.361 8 105960391.56908     -1766.392 8        50.889                                    20163594.295 8  82566570.17408     -1376.408 8        52.518    20163594.581 7  82566567.18007     -1376.401 7        46.222
R02         4.000    24220422.635 5 129244470.58005     -5127.750 5        32.874                                                                    24220446.305 4 100523403.68304     -3988.207 4        27.413
S21         5.000    38328356.856 7 201416490.57107      -589.866 7        43.270
G06         6.000    23706180.937 6 124576890.91806      1670.368 6        40.651                                    23706192.106 6  97072980.33206      1301.579 6        36.246    23706192.878 6  97072971.34406      1301.594 6        40.543
G17         7.000    24090048.227 6 126594127.36606     -3734.004 6        41.194                                    24090056.663 5  98644839.95205     -2909.604 5        33.287    24090057.204 6  98644835.95806     -2909.594 6        36.915
R21         8.000    23832980.762 7 127535130.46107     -4135.931 7        42.466                                                                    23832991.586 6  99194062.26006     -3216.990 6        39.234
E30        10.000    23951930.746 8 125868377.13208       503.427 8        48.912                                                                    23951938.303 8  93992724.36908       375.933 8        50.591    23951937.096 8  96444697.62608       385.752 8        50.975
C26        11.000                                                                                                                                    22611660.057 8 117744824.40708     -2326.664 8        49.635                                                                    22611664.765 8  95677324.05208     -1890.645 8        48.315
S27        12.000    39101232.444 6 205478137.60306      -614.125 6        36.507
G15        13.000    24280077.914 6 127592422.03506     -4475.711 6        41.437                                    24280089.629 5  99422587.59505     -3487.555 5        33.719    24280090.756 6  99422579.56406     -3487.578 6        37.077
S36        14.000    38100208.529 7 200218303.22007      -590.651 7        44.849
G12        15.000    20354660.324 8 106964595.40808       635.071 8        50.169                                    20354661.989 8  83349108.24508       494.861 8        50.483    20354662.289 7  83349108.24507       494.803 7        45.696
E29        16.000    27071940.672 6 142263872.24106      1766.255 6        39.790                                                                    27071957.769 7 106235997.96107      1318.899 7        42.933    27071955.599 7 109007372.09307      1353.443 7        43.331
S45        17.000    63291366.303 6 332599532.83306      -652.260 6        36.541
R03        18.000    21194227.326 8 113454258.77208     -3681.287 8        48.416                                                                    21194234.963 7  88242190.14507     -2863.308 7        45.278
C35        19.000                                                                                                                                    22943596.811 7 119473453.22607      -174.522 7        47.988                                                                    22943601.623 7  97082040.98707      -141.877 7        47.035
E11        20.000    27212911.628 5 143004848.09005      -552.764 5        35.652                                                                    27212923.665 6 106789401.43906      -412.792 6        36.938    27212921.979 6 109575202.41906      -423.604 6        37.822
R14        21.000    21690886.434 8 115624643.82408      2264.588 8        49.052                                                                    21690897.344 7  89930334.63107      1761.315 7        44.600
I06        22.000    38291439.504 7 150263847.81407      -551.099 7        42.027
S28        23.000    40794304.238 5 214375289.83205      -599.278 5        35.643
S23        25.000    38037663.506 7 199889072.24507      -594.728 7        45.667
E08        26.000    25330716.106 7 133113674.17607     -3307.404 7        44.897                                                                    25330725.373 7  99403025.97607     -2469.833 7        47.319    25330723.818 7 101996150.78207     -2534.313 7        47.890
C07        27.000                                                                                                                                    39748916.046 6 206982935.97806     -1486.901 6        38.568    39748922.424 6 160052322.42406     -1149.716 6        41.919    39748918.340 6 168190568.37706     -1208.214 6        39.201
I02        29.000    36818706.159 7 144484485.45307      -536.211 7        43.003
G10        30.000    25078888.017 6 131790215.80706     -2664.356 6        38.504                                    25078904.549 4 102693621.03404     -2076.119 4        28.559    25078903.791 5 102693612.99505     -2075.938 5        34.443
E07        31.000    24229268.740 7 127325587.84907      -764.012 7        47.320                                                                    24229278.236 8  95080791.31208      -570.577 8        50.074    24229276.780 8  97561158.05808      -585.419 8        50.318
C12        32.000                                                                                                                                    25449963.306 6 132524662.84506      2869.139 6        38.877    25449975.386 7 102476540.43307      2218.655 7        45.094    25449970.722 7 107687186.02507      2331.512 7        43.227
E10        33.000    28306794.638 6 148753253.92806     -1810.078 6        36.125                                                                    28306807.454 6 111082060.15506     -1351.723 6        41.564    28306805.816 6 113979839.90406     -1386.896 6        41.378
R23        34.000    21369707.943 7 114313621.12607      2709.629 7        45.556
C24        35.000                                                                                                                                    21431041.687 8 111597093.22008       292.051 8        51.422                                                                    21431043.197 8  90681801.20708       237.291 8        49.812
R05        36.000    23740153.736 7 126904656.18807      2925.813 7        43.029                                                                    23740166.612 6  98703637.83006      2275.664 6        40.670
E27        37.000    27606501.197 6 145073138.16306      1915.972 6        38.925                                                                    27606519.278 6 108333918.18606      1430.766 6        41.035    27606516.709 6 111160008.77906      1468.092 6        40.984
R04        38.000    21009851.266 8 112506704.72208       -35.260 8        49.886                                                                    21009858.298 7  87505200.49807       -27.404 7        44.885
C33        39.000                                                                                                                                    24673107.384 7 128479268.43207     -2630.915 7        44.876                                                                    24673128.271 7 104399988.18007     -2137.857 7        44.661
E25        40.000    27912540.126 6 146681228.93806     -3172.371 6        37.021                                                                    27912556.551 6 109534639.61606     -2369.031 6        40.062    27912554.688 6 112392062.57806     -2430.716 6        40.958
S44        42.000    40695436.730 6 213855921.35106      -524.994 6        38.123
R22        43.000    21090973.164 8 112585167.37208      -722.706 8        49.358                                                                    21090979.916 7  87566327.13707      -562.113 7        45.821
C05        44.000                                                                                                                                    39351026.392 6 204910958.96306      -599.595 6        38.159    39351034.854 7 158450123.73807      -463.674 7        42.760    39351033.503 6 166507000.66806      -487.241 6        39.489
C40        45.000                                                                                                                                    40177165.102 6 209212930.36406     -1770.098 6        40.122                                                                    40177173.970 6 170002635.10106     -1438.468 6        38.877
G32        46.000    23836579.196 7 125261934.51707      1933.446 7        42.772                                    23836591.326 6  97606694.23906      1506.582 6        37.705    23836592.306 6  97606696.24606      1506.490 6        40.083
E36        47.000    27021107.712 6 141996924.29706      1605.832 6        40.253                                                                    27021122.669 7 106036765.26507      1199.129 7        43.132    27021121.049 7 108802926.41807      1230.394 7        43.691
C41        48.000                                                                                                                                    25305869.458 7 131774284.85707       -58.442 7        42.840                                                                    25305886.529 7 107077469.23507       -47.485 7        43.585
C10        49.000                                                                                                                                    38868183.452 6 202396793.93706     -1209.260 6        41.116    38868189.751 7 156506045.39707      -935.070 7        43.630    38868185.579 6 164463969.11506      -982.521 6        40.672
C42        50.000                                                                                                                                    26449935.481 6 137731457.51806     -3841.845 6        40.150                                                                    26449958.076 6 111918066.02206     -3121.643 6        40.501
S48        51.000    77036518.378 6 404831024.21706      -596.468 6        38.444
E02        53.000    23786618.576 7 124999578.50307     -1992.171 7        47.704                                                                    23786625.224 8  93343909.81308     -1487.676 8        50.344    23786623.863 8  95778950.81408     -1526.467 8        50.785
C60        54.000                                                                                                                                    40695440.936 6 211911793.80206      -520.247 6        39.730                                                                    40695437.146 6 172195608.26006      -422.640 6        38.565
R12        56.000    21441641.530 8 114537414.76408     -3330.223 8        48.486                                                                    21441650.512 7  89084675.16207     -2590.242 7        45.353
C02        57.000                                                                                                                                    40856482.085 5 212750229.05205      -556.713 5        31.630    40856491.286 6 164511903.66106      -430.132 6        36.692    40856490.279 5 172876941.07205      -451.894 5        31.260
I03        58.000   120245606.471 5 396084008.85105       893.409 5        32.407
C14        59.000                                                                                                                                    25245705.960 6 131460826.52906     -3517.444 6        40.620    25245717.766 7 101653788.99107     -2719.956 7        46.512    25245712.103 7 106822634.39007     -2858.303 7        43.026
R13        60.000    19371408.567 7 103442313.94507      -883.130 7        46.354
> 2025 01 01 12 16  5.0000000  0 54
G19         1.000    21473981.553 7 112846675.63507     -2172.633 7        46.844                                    21473983.336 5  87932558.75205     -1692.962 5        35.938
G25         2.000    22504384.643 7 118261372.73407      2516.610 7        42.864                                    22504394.221 6  92151779.43306      1960.988 6        38.523    22504395.222 6  92151789.44106      1961.121 6        40.138
G24         3.000    20165272.242 8 105969230.22708     -1769.151 8        50.790                                    20165276.234 8  82573457.43808     -1378.559 8        52.617    20165276.815 7  82573454.44807     -1378.561 7        46.301
R02         4.000    24225228.160 5 129270107.54005     -5127.283 5        32.533                                                                    24225249.945 4 100543343.45104     -3987.673 4        27.174
S21         5.000    38328918.371 7 201419439.56307      -589.882 7        43.139
G06         6.000    23704592.218 6 124568543.86906      1668.521 6        40.543                                    23704603.633 6  97066476.16506      1300.139 6        36.185    23704604.192 6  97066467.18706      1300.156 6        40.164
G17         7.000    24093601.460 6 126612799.58906     -3735.034 6        40.560                                    24093609.850 5  98659389.71605     -2910.412 5        33.305    24093610.606 6  98659385.69806     -2910.399 6        37.380
R21         8.000    23836847.011 7 127555816.22307     -4138.415 7        42.311                                                                    23836856.302 6  99210151.29406     -3218.682 6        38.976
E30        10.000    23951452.167 8 125865862.79008       502.291 8        49.049                                                                    23951459.891 8  93990846.77408       375.103 8        50.508    23951458.654 8  96442771.04708       384.889 8        50.993
C26        11.000                                                                                                                                    22613894.704 8 117756460.55408     -2327.807 8        49.679                                                                    22613899.401 8  95686779.35708     -1891.509 8        48.241
S27        12.000    39101814.810 6 205481208.44706      -614.083 6        36.749
G15        13.000    24284336.458 6 127614800.71906     -4475.782 6        40.572                                    24284348.278 5  99440025.45605     -3487.609 5        33.617    24284349.348 6  99440017.43106     -3487.452 6        37.270
S36        14.000    38100770.398 7 200221256.02607      -590.708 7        44.900
G12        15.000    20354057.103 8 106961425.46208       632.934 8        50.035                                    20354058.749 8  83346638.15608       493.194 8        50.588    20354059.431 7  83346638.15807       493.172 7        45.667
E29        16.000    27070260.287 6 142255043.92506      1764.892 6        39.877                                                                    27070277.786 7 106229405.37607      1318.037 7        42.830    27070275.684 7 109000607.54607      1352.371 7        43.289
S45        17.000    63291932.996 6 332602793.61006      -651.985 6        36.817
R03        18.000    21197667.837 8 113472672.74408     -3684.343 8        49.131                                                                    21197674.268 7  88256512.07707     -2865.600 7        44.411
C35        19.000                                                                                                                                    22943765.517 8 119474332.57208      -177.199 8        48.145                                                                    22943770.499 7  97082755.51507      -143.992 7        47.091
E11        20.000    27213439.072 5 143007618.14105      -555.064 5        35.305                                                                    27213450.564 6 106791470.01806      -414.664 6        36.854    27213449.121 6 109577324.96606      -425.687 6        37.448
R14        21.000    21688762.242 8 115613322.86908      2263.827 8        48.566                                                                    21688773.517 7  89921529.45907      1760.730 7        44.439
I06        22.000    38292141.313 7 150266602.71007      -550.924 7        42.154
S28        23.000    40794876.052 5 214378285.67605      -599.335 5        35.257
S23        25.000    38038228.026 7 199892045.45707      -594.557 7        45.684
E08        26.000    25333863.593 7 133130214.34307     -3308.577 7        45.022                                                                    25333872.904 7  99415377.36907     -2470.700 7        47.170    25333871.347 7 102008824.38907     -2535.222 7        47.878
C07        27.000                                                                                                                                    39750343.522 6 206990370.80206     -1487.042 6        38.946    39750350.350 6 160058071.50506     -1149.801 6        41.819    39750346.090 6 168196609.76106     -1208.218 6        39.198
I02        29.000    36819389.219 7 144487166.07407      -536.252 7        43.160
G10        30.000    25081423.551 6 131803541.31406     -2666.182 6        37.735                                    25081440.380 4 102704004.51404     -2077.548 4        28.626    25081439.848 5 102703996.48105     -2077.251 5        34.567
E07        31.000    24229996.915 7 127329413.95607      -766.337 7        47.233                                                                    24230006.345 8  95083648.46208      -572.250 8        49.997    24230004.874 8  97564089.74808      -587.240 8        50.266
C12        32.000                                                                                                                                    25447207.772 6 132510317.02406      2869.073 6        38.453    25447220.080 7 102465447.41607      2218.515 7        44.895    25447215.820 7 107675528.93607      2331.351 7        43.242
E10        33.000    28308517.173 6 148762309.53606     -1812.096 6        36.457                                                                    28308530.617 6 111088822.50806     -1353.218 6        40.977    28308529.123 6 113986778.66706     -1388.431 6        41.159
R23        34.000    21367175.756 7 114300080.27207      2706.752 7        45.421
C24        35.000                                                                                                                                    21430761.808 8 111595636.23208       290.727 8        51.603                                                                    21430763.370 8  90680617.26908       236.263 8        49.782
R05        36.000    23737418.516 7 126890032.73507      2923.570 7        42.991                                                                    23737431.368 6  98692263.92306      2273.720 6        40.412
E27        37.000    27604678.550 6 145063559.34606      1915.543 6        39.357                                                                    27604696.214 6 108326765.17206      1430.402 6        41.058    27604693.937 6 111152669.17806      1467.798 6        40.937
R04        38.000    21009885.569 8 112506892.08008       -39.746 8        49.821                                                                    21009893.213 7  87505346.22707       -30.919 7        44.700
C33        39.000                                                                                                                                    24675634.718 7 128492427.90607     -2632.867 7        45.442                                                                    24675655.436 7 104410681.29107     -2139.455 7        44.725
E25        40.000    27915558.224 6 146697089.76806     -3172.143 6        37.327                                                                    27915574.840 6 109546483.72706     -2368.826 6        39.781    27915573.039 6 112404215.66606     -2430.500 6        41.004
S44        42.000    40695937.767 6 213858545.33606      -524.634 6        38.318
R22        43.000    21091652.282 8 112588792.09308      -727.165 8        50.044                                                                    21091658.655 7  87569146.37607      -565.648 7        45.204
C05        44.000                                                                                                                                    39351602.413 6 204913956.34306      -599.510 6        38.228    39351610.294 7 158452441.50507      -463.533 7        42.895    39351609.310 6 166509436.28406      -487.145 6        39.327
C40        45.000                                                                                                                                    40178864.435 6 209221781.02506     -1770.232 6        40.048                                                                    40178873.828 6 170009827.00606     -1438.305 6        38.988
G32        46.000    23834740.641 7 125252272.46707      1931.387 7        42.817                                    23834752.648 6  97599165.37806      1504.972 6        37.864    23834753.209 6  97599167.39006      1504.900 6        39.640
E36        47.000    27019580.529 6 141988898.54706      1604.410 6        40.098                                                                    27019595.300 7 106030772.03307      1198.173 7        42.955    27019593.603 7 108796776.82407      1229.370 7        43.445
C41        48.000                                                                                                                                    25305927.336 7 131774584.05707       -61.238 7        42.667                                                                    25305943.931 7 107077712.33307       -49.647 7        43.678
C10        49.000                                                                                                                                    38869344.147 6 202402840.16306     -1209.332 6        41.271    38869350.763 7 156510720.71807      -935.107 7        43.585    38869346.840 6 164468882.15606      -982.590 6        40.596
C42        50.000                                                                                                                                    26453624.029 6 137750665.43906     -3841.490 6        40.031                                                                    26453646.735 6 111933673.97606     -3121.496 6        40.493
S48        51.000    77037080.098 6 404834005.23906      -596.331 6        38.535
E02        53.000    23788514.213 7 125009541.49907     -1993.099 7        47.981                                                                    23788521.083 8  93351349.70708     -1488.371 8        50.278    23788519.775 8  95786584.79208     -1527.161 8        50.727
C60        54.000                                                                                                                                    40695940.117 6 211914393.93306      -519.967 6        40.079                                                                    40695936.550 6 172197721.08106      -422.643 6        38.501
R12        56.000    21444759.265 8 114554068.10208     -3331.145 8        48.494                                                                    21444768.108 7  89097627.73507     -2590.915 7        45.511
C02        57.000                                                                                                                                    40857015.657 5 212753010.74005      -556.453 5        31.525    40857025.667 6 164514054.66206      -430.183 6        36.658    40857024.240 5 172879201.38905      -451.878 5        31.215
I03        58.000   120244467.922 5 396079541.29405       893.414 5        32.545
C14        59.000                                                                                                                                    25249085.436 6 131478415.97306     -3518.261 6        41.046    25249094.913 7 101667390.22407     -2720.583 7        46.039    25249089.785 7 106836927.20607     -2858.924 7        42.823
R13        60.000    19372236.813 7 103446734.73407      -885.143 7        46.803
> 2025 01 01 12 16 10.0000000  0 54
G19         1.000    21476049.890 7 112857546.46707     -2175.669 7        46.432                                    21476052.030 5  87941029.52005     -1695.323 5        35.910
G25         2.000    22501990.606 7 118248792.16707      2515.484 7        42.811                                    22502000.208 6  92141976.41706      1960.112 6        38.498    22502001.231 6  92141986.42006      1960.225 6        40.219
G24         3.000    20166956.635 8 105978082.56408     -1771.872 8        50.623                                    20166960.783 8  82580355.36108     -1380.679 8        52.575    20166961.332 7  82580352.36107     -1380.672 7        46.362
R02         4.000    24230032.595 5 129295742.22505     -5126.848 5        33.257                                                                    24230052.615 4 100563281.40604     -3987.658 4        27.725
S21         5.000    38329479.444 7 201422388.58507      -589.686 7        43.230
G06         6.000    23703005.789 6 124560207.24206      1666.169 6        40.605                                    23703017.102 5  97059980.12505      1298.305 5        35.981    23703017.356 6  97059971.14106      1298.333 6        39.952
G17         7.000    24097156.095 6 126631477.62106     -3736.407 6        40.515                                    24097164.204 5  98673944.00805     -2911.482 5        33.479    24097165.032 6  98673939.97006     -2911.343 6        37.921
R21         8.000    23840712.390 6 127576514.02706     -4140.753 6        41.433                                                                    23840724.056 6  99226249.73906     -3220.594 6        38.715
E30        10.000    23950975.054 8 125863354.52508       500.968 8        48.998                                                                    23950982.573 8  93988973.71708       374.106 8        50.636    23950981.364 8  96440849.13108       383.884 8        50.969
C26        11.000                                                                                                                                    22616130.433 8 117768102.76208     -2329.028 8        49.495                                                                    22616135.143 8  95696239.61508     -1892.597 8        48.359
S27        12.000    39102395.848 6 205484279.00106      -614.030 6        36.930
G15        13.000    24288595.070 6 127637179.49106     -4475.791 6        39.405                                    24288607.011 5  99457463.37805     -3487.611 5        33.084    24288607.953 6  99457455.33806     -3487.591 6        37.758
S36        14.000    38101332.861 7 200224209.06107      -590.831 7        44.948
G12        15.000    20353455.959 8 106958266.78008       630.624 8        50.186                                    20353457.673 8  83344176.84808       491.395 8        50.528    20353458.189 7  83344176.84707       491.370 7        45.421
E29        16.000    27068581.822 6 142246222.45306      1763.541 6        39.252                                                                    27068599.047 7 106222817.91607      1316.994 7        42.897    27068597.040 7 108993848.23607      1351.273 7        43.338
S45        17.000    63292502.077 6 332604354.30716      -652.181 6        36.681
R03        18.000    21201110.494 8 113491102.27008     -3687.457 8        49.479                                                                    21201117.683 7  88270846.12207     -2868.042 7        44.302
C35        19.000                                                                                                                                    22943937.301 8 119475226.16408      -180.122 8        48.217                                                                    22943942.119 7  97083481.66407      -146.485 7        47.106
E11        20.000    27213967.868 5 143010400.71405      -557.720 5        35.500                                                                    27213979.995 6 106793547.93506      -416.716 6        36.749    27213978.409 6 109579457.06106      -427.576 6        37.316
R14        21.000    21686639.156 8 115602006.27608      2262.871 8        48.513                                                                    21686650.818 7  89912727.69107      1759.999 7        44.420
I06        22.000    38292843.272 7 150269357.53407      -551.086 7        42.150
S28        23.000    40795448.276 5 214381281.47705      -599.250 5        35.329
S23        25.000    38038794.885 7 199895018.50907      -594.667 7        45.639
E08        26.000    25337012.231 7 133146760.83307     -3309.961 7        44.798                                                                    25337021.654 7  99427733.46907     -2471.688 7        47.301    25337020.171 7 102021502.83007     -2536.238 7        47.802
C07        27.000                                                                                                                                    39751771.962 6 206997806.21906     -1487.237 6        39.120    39751778.013 6 160063821.05006     -1149.980 6        41.721    39751773.950 6 168202651.68206     -1208.514 6        39.225
I02        29.000    36820072.787 7 144489847.62807      -536.426 7        43.293
G10        30.000    25083961.475 6 131816875.79906     -2667.662 6        39.402                                    25083977.860 4 102714394.99804     -2078.689 4        28.370    25083978.017 5 102714386.97205     -2078.505 5        33.449
E07        31.000    24230727.121 7 127333252.11707      -768.899 7        47.289                                                                    24230736.706 8  95086514.61108      -574.176 8        50.083    24230735.260 8  97567030.66308      -589.139 8        50.208
C12        32.000                                                                                                                                    25444452.904 6 132495972.57706      2868.592 6        38.321    25444465.389 7 102454355.43907      2218.293 7        45.062    25444461.109 7 107663872.96207      2330.967 7        43.445
E10        33.000    28310242.424 6 148771376.41906     -1814.731 6        36.370                                                                    28310256.010 6 111095593.27906     -1354.918 6        41.263    28310254.431 6 113993726.06406     -1390.423 6        41.454
R23        34.000    21364647.032 7 114286554.00407      2703.846 7        45.889
C24        35.000                                                                                                                                    21430483.469 8 111594186.36008       289.244 8        51.614                                                                    21430484.948 8  90679439.14908       234.991 8        49.821
R05        36.000    23734684.558 7 126875421.38707      2921.011 7        43.137                                                                    23734698.159 6  98680899.48006      2271.810 6        40.248
E27        37.000    27602855.965 6 145053982.64606      1915.012 6        39.976                                                                    27602873.872 6 108319613.74206      1430.074 6        41.220    27602871.525 6 111145331.17406      1467.446 6        41.094
R04        38.000    21009924.757 8 112507102.48508       -44.343 8        49.857                                                                    21009932.424 7  87505509.88407       -34.525 7        45.216
C33        39.000                                                                                                                                    24678163.716 7 128505597.52707     -2634.986 7        45.457                                                                    24678184.483 7 104421382.67407     -2141.198 7        44.831
E25        40.000    27918576.287 6 146712950.13106     -3171.953 6        37.138                                                                    27918592.826 6 109558327.51406     -2368.774 6        39.766    27918591.323 6 112416368.40906     -2430.506 6        40.934
S44        42.000    40696436.715 6 213861169.14406      -524.908 6        38.309
R22        43.000    21092335.397 8 112592439.62008      -731.853 8        49.387                                                                    21092342.141 7  87571983.32907      -569.113 7        45.144
C05        44.000                                                                                                                                    39352177.937 6 204916953.53606      -599.490 6        38.297    39352186.198 7 158454759.14107      -463.573 7        42.916    39352184.696 6 166511871.75406      -487.161 6        39.468
C40        45.000                                                                                                                                    40180564.261 6 209230632.25606     -1770.255 6        39.916                                                                    40180573.558 6 170017019.38106     -1438.557 6        38.928
G32        46.000    23832903.972 7 125242621.33707      1929.229 7        42.318                                    23832916.072 6  97591645.02906      1503.294 6        37.887    23832915.633 6  97591647.03706      1503.282 6        39.255
E36        47.000    27018054.083 6 141980880.27806      1602.866 6        40.055                                                                    27018069.626 7 106024784.39807      1196.937 7        43.166    27018067.752 7 108790632.99807      1228.257 7        43.437
C41        48.000                                                                                                                                    25305987.648 7 131774897.18807       -64.055 7        42.127                                                                    25306004.056 7 107077966.79407       -52.174 7        43.829
C10        49.000                                                                                                                                    38870505.437 6 202408887.39406     -1209.667 6        41.175    38870511.919 7 156515396.81707      -935.294 7        43.681    38870508.074 6 164473796.05106      -983.019 6        40.756
C42        50.000                                                                                                                                    26457312.360 6 137769872.03206     -3841.211 6        39.676                                                                    26457335.030 6 111949280.87806     -3121.350 6        40.448
S48        51.000    77037642.687 6 404836986.29106      -596.030 6        38.634
E02        53.000    23790410.818 8 125019509.14808     -1994.038 8        48.020                                                                    23790417.886 8  93358793.08108     -1489.071 8        50.348    23790416.569 8  95794222.34208     -1527.914 8        50.714
C60        54.000                                                                                                                                    40696439.387 6 211916993.86006      -519.879 6        40.062                                                                    40696435.785 6 172199833.74706      -422.569 6        38.547
R12        56.000    21447876.744 8 114570726.53108     -3332.244 8        48.115                                                                    21447886.203 7  89110584.26807     -2591.709 7        45.208
C02        57.000                                                                                                                                    40857549.663 5 212755792.20305      -556.562 5        31.826    40857559.686 6 164516205.48106      -430.268 6        36.405    40857558.510 5 172881461.59505      -452.116 5        31.615
I03        58.000   120243329.194 5 396075073.42605       893.521 5        32.539
C14        59.000                                                                                                                                    25252464.574 6 131496009.98906     -3519.180 6        40.703    25252473.488 7 101680994.97207     -2721.354 7        45.926    25252468.597 7 106851223.75107     -2859.845 7        43.064
R13        60.000    19373066.334 7 103451165.79007      -887.317 7        46.610
> 2025 01 01 12 16 15.0000000  0 54
G19         1.000    21478121.216 7 112868432.01207     -2178.689 7        46.504                                    21478123.531 5  87949511.75005     -1697.678 5        35.900
G25         2.000    22499597.438 7 118236217.13907      2514.300 7        43.088                                    22499607.286 6  92132177.72106      1959.189 6        38.541    22499608.206 6  92132187.73206      1959.244 6        40.350
G24         3.000    20168643.743 8 105986948.61308     -1774.673 8        50.679                                    20168647.935 8  82587263.96508     -1382.862 8        52.561    20168648.385 7  82587260.97407     -1382.937 7        46.716
R02         4.000    24234835.960 5 129321374.73605     -5126.364 5        33.353                                                                    24234854.767 4 100583217.70104     -3987.022 4        26.719
S21         5.000    38330041.871 7 201425337.85707      -589.857 7        43.312
G06         6.000    23701421.863 6 124551881.05806      1664.022 6        40.486                                    23701432.538 6  97053492.23006      1296.634 6        36.008    23701433.467 6  97053483.24806      1296.608 6        39.973
G17         7.000    24100711.198 6 126650161.45706     -3737.444 6        40.782                                    24100719.725 5  98688502.82405     -2912.289 5        33.760    24100720.261 6  98688498.81306     -2912.488 6        37.887
R21         8.000    23844582.436 6 127597223.82006     -4143.261 6        41.990                                                                    23844593.840 6  99242357.51206     -3222.529 6        38.547
E30        10.000    23950499.033 8 125860852.38208       499.710 8        48.856                                                                    23950506.461 8  93987105.23708       373.199 8        50.591    23950505.210 8  96438931.90608       382.934 8        51.021
C26        11.000                                                                                                                                    22618367.344 8 117779751.09308     -2330.342 8        49.553                                                                    22618372.136 8  95705704.81908     -1893.604 8        48.383
S27        12.000    39102981.738 6 205487349.00306      -613.941 6        37.002
G15        13.000    24292854.046 6 127659558.37006     -4475.884 6        38.628                                    24292865.766 5  99474901.38705     -3487.684 5        32.563    24292866.323 6  99474893.34806     -3487.662 6        38.186
S36        14.000    38101895.565 7 200227162.36107      -590.617 7        45.025
G12        15.000    20352857.354 8 106955119.43208       628.220 8        50.298                                    20352858.758 8  83341724.37408       489.520 8        50.540    20352859.297 7  83341724.37507       489.492 7        45.756
E29        16.000    27066904.587 6 142237407.89706      1762.111 6        39.306                                                                    27066921.580 7 106216235.62107      1316.056 7        42.863    27066919.585 7 108987094.23207      1350.171 7        43.412
S45        17.000    63293069.638 6 332607615.00306      -652.110 6        36.715
R03        18.000    21204555.716 8 113509547.21608     -3690.656 8        49.248                                                                    21204563.806 7  88285192.14807     -2870.474 7        44.847
C35        19.000                                                                                                                                    22944111.638 8 119476134.05908      -183.059 8        48.523                                                                    22944116.455 7  97084219.39207      -148.754 7        47.157
E11        20.000    27214500.402 5 143013195.79205      -560.343 5        34.986                                                                    27214512.046 6 106795635.16006      -418.498 6        36.726    27214510.231 6 109581598.75606      -429.255 6        37.403
R14        21.000    21684517.292 8 115590694.12408      2261.919 8        49.184                                                                    21684528.599 7  89903929.36607      1759.347 7        44.764
I06        22.000    38293545.574 7 150272112.26907      -551.009 7        42.246
S28        23.000    40796017.912 5 214384277.04105      -599.175 5        35.467
S23        25.000    38039361.109 7 199897991.65107      -594.739 7        45.622
E08        26.000    25340162.344 7 133163313.63807     -3311.263 7        45.196                                                                    25340171.581 7  99440094.30507     -2472.719 7        47.247    25340170.091 7 102034186.12107     -2537.211 7        47.835
C07        27.000                                                                                                                                    39753199.559 6 207005242.26806     -1487.144 6        39.105    39753205.983 6 160069571.09706     -1150.072 6        41.683    39753202.043 6 168208694.06406     -1208.498 6        39.132
I02        29.000    36820755.890 7 144492529.80207      -536.688 7        43.115
G10        30.000    25086501.570 6 131830219.30806     -2669.692 6        37.871                                    25086516.955 4 102724792.51604     -2080.276 4        28.246    25086515.999 5 102724784.51605     -2080.120 5        33.293
E07        31.000    24231459.622 7 127337102.36607      -771.381 7        47.130                                                                    24231469.361 8  95089389.78908      -575.999 8        50.059    24231467.984 8  97569980.85008      -591.083 8        50.333
C12        32.000                                                                                                                                    25441697.702 6 132481629.54706      2868.499 6        38.207    25441710.934 7 102443264.60307      2217.941 7        45.258    25441706.423 7 107652218.14307      2330.823 7        43.234
E10        33.000    28311969.392 5 148780454.58305     -1816.807 5        35.881                                                                    28311983.416 6 111102372.52406     -1356.798 6        41.223    28311981.738 6 114000682.14306     -1392.161 6        41.337
R23        34.000    21362121.631 7 114273042.37707      2700.836 7        46.201
C24        35.000                                                                                                                                    21430206.505 8 111592743.63608       287.748 8        51.680                                                                    21430207.897 8  90678266.80408       233.774 8        49.892
R05        36.000    23731953.780 7 126860822.20907      2918.389 7        43.962                                                                    23731966.750 6  98669544.51306      2269.951 6        40.660
E27        37.000    27601033.816 6 145044408.06906      1914.569 6        39.712                                                                    27601051.807 6 108312463.90506      1429.706 6        41.030    27601049.520 6 111137994.82706      1467.048 6        41.192
R04        38.000    21009968.966 8 112507335.93808       -49.059 8        50.021                                                                    21009976.271 7  87505691.45007       -38.179 7        45.163
C33        39.000                                                                                                                                    24680694.397 7 128518777.33307     -2637.007 7        45.735                                                                    24680715.546 7 104432092.31207     -2142.814 7        44.737
E25        40.000    27921594.267 6 146728810.11906     -3172.109 6        37.040                                                                    27921610.942 6 109570170.99706     -2368.724 6        39.592    27921609.278 6 112428520.86006     -2430.455 6        41.118
S44        42.000    40696936.427 6 213863792.78506      -524.779 6        38.501
R22        43.000    21093022.501 8 112596109.97608      -736.484 8        48.748                                                                    21093029.644 7  87574838.08307      -572.925 7        45.807
C05        44.000                                                                                                                                    39352753.462 6 204919950.54406      -599.595 6        38.279    39352761.593 7 158457076.60107      -463.597 7        42.916    39352760.386 6 166514307.05606      -487.221 6        39.661
C40        45.000                                                                                                                                    40182264.617 6 209239484.07806     -1770.628 6        39.802                                                                    40182273.266 6 170024212.21206     -1438.556 6        39.051
G32        46.000    23831069.522 7 125232981.16607      1926.830 7        42.766                                    23831081.576 6  97584133.20906      1501.424 6        37.955    23831082.187 6  97584135.21906      1501.385 6        40.002
E36        47.000    27016529.975 6 141972869.59906      1601.192 6        40.205                                                                    27016545.481 7 106018802.43007      1195.788 7        43.075    27016543.336 7 108784494.96807      1226.978 7        43.390
C41        48.000                                                                                                                                    25306050.450 7 131775224.30607       -66.930 7        42.265                                                                    25306066.863 7 107078232.57107       -54.354 7        43.784
C10        49.000                                                                                                                                    38871667.530 6 202414935.74306     -1209.856 6        41.156    38871673.602 7 156520073.78607      -935.490 7        43.860    38871669.577 6 164478710.81206      -983.134 6        40.682
C42        50.000                                                                                                                                    26461000.691 6 137789077.36106     -3841.019 6        39.393                                                                    26461023.355 6 111964886.68706     -3121.043 6        40.522
S48        51.000    77038201.286 6 404839967.34006      -596.141 6        38.465
E02        53.000    23792308.707 7 125029481.49407     -1994.985 7        47.757                                                                    23792315.557 8  93366239.96108     -1489.788 8        50.289    23792314.209 8  95801863.49308     -1528.643 8        50.746
C60        54.000                                                                                                                                    40696938.550 6 211919593.68206      -520.045 6        40.155                                                                    40696935.202 6 172201946.29406      -422.597 6        38.592
R12        56.000    21450996.317 8 114587389.97308     -3333.268 8        48.397                                                                    21451005.065 7  89123544.72007     -2592.584 7        44.751
C02        57.000                                                                                                                                    40858083.754 5 212758573.44605      -556.044 5        31.872    40858093.969 6 164518356.12906      -430.133 6        36.820    40858092.502 5 172883721.61005      -452.389 5        31.472
I03        58.000   120242191.443 5 396070605.29205       893.417 5        32.737
C14        59.000                                                                                                                                    25255842.916 6 131513608.55406     -3520.206 6        41.306    25255853.432 7 101694603.24207     -2722.057 7        46.421    25255848.631 7 106865523.96207     -2860.382 7        43.175
R13        60.000    19373897.805 7 103455607.22407      -889.440 7        46.338
> 2025 01 01 12 16 20.0000000  0 54
G19         1.000    21480196.036 7 112879332.52907     -2181.495 7        46.430                                    21480197.836 5  87958005.65205     -1699.862 5        35.981
G25         2.000    22497205.745 7 118223647.90507      2513.422 7        42.931                                    22497215.451 6  92122383.53606      1958.505 6        38.462    22497216.186 6  92122393.55206      1958.493 6        40.806
G24         3.000    20170333.674 8 105995828.63208     -1777.341 8        50.665                                    20170337.753 8  82594183.45608     -1384.941 8        52.678    20170338.172 7  82594180.45707     -1384.964 7        46.556
R02         4.000    24239639.370 5 129347005.36905     -5125.676 5        32.904                                                                    24239660.507 4 100603152.59304     -3986.880 4        27.114
S21         5.000    38330603.449 7 201428287.13607      -589.904 7        43.323
G06         6.000    23699839.909 6 124543565.61406      1662.119 6        39.871                                    23699850.039 6  97047012.70106      1295.148 6        36.261    23699851.019 6  97047003.72006      1295.107 6        40.112
G17         7.000    24104268.168 6 126668851.43806     -3738.461 6        41.039                                    24104276.413 5  98703066.42905     -2913.082 5        34.109    24104276.906 6  98703062.43106     -2913.083 6        37.335
R21         8.000    23848456.016 7 127617946.03707     -4145.520 7        42.265                                                                    23848465.801 6  99258474.93206     -3224.330 6        38.480
E30        10.000    23950024.183 8 125858356.59808       498.564 8        48.675                                                                    23950031.510 8  93985241.49908       372.373 8        50.630    23950030.280 8  96437019.55308       382.026 8        51.133
C26        11.000                                                                                                                                    22620605.671 8 117791405.75608     -2331.522 8        49.514                                                                    22620610.250 8  95715175.18508     -1894.391 8        48.305
S27        12.000    39103568.983 6 205490419.53506      -614.204 6        36.760
G15        13.000    24297112.645 6 127681937.58406     -4475.874 6        38.565                                    24297124.633 5  99492339.64505     -3487.672 5        32.311    24297125.187 6  99492331.61306     -3487.619 6        38.027
S36        14.000    38102456.539 7 200230115.17707      -590.385 7        44.941
G12        15.000    20352260.617 8 106951983.67208       626.066 8        50.223                                    20352262.038 8  83339280.92408       487.843 8        50.672    20352262.538 7  83339280.92207       487.920 7        46.001
E29        16.000    27065228.813 6 142228600.43706      1760.989 6        39.294                                                                    27065245.561 7 106209658.64407      1315.018 7        43.001    27065243.620 7 108980345.67007      1349.193 7        43.604
S45        17.000    63293639.350 6 332610875.87806      -652.037 6        36.715
R03        18.000    21208004.422 8 113528008.00608     -3693.600 8        49.170                                                                    21208012.090 7  88299550.50407     -2872.790 7        45.332
C35        19.000                                                                                                                                    22944288.704 8 119477056.48008      -185.800 8        48.725                                                                    22944293.627 7  97084968.94507      -150.809 7        47.124
E11        20.000    27215034.990 5 143016003.63705      -562.732 5        35.338                                                                    27215046.513 6 106797731.95206      -420.166 6        36.987    27215044.734 6 109583750.23206      -431.229 6        37.440
R14        21.000    21682396.550 8 115579386.68108      2261.116 8        49.599                                                                    21682407.210 7  89895134.70907      1758.637 7        44.439
I06        22.000    38294247.456 7 150274867.11307      -550.918 7        42.068
S28        23.000    40796583.232 5 214387272.67705      -599.173 5        35.586
S23        25.000    38039926.308 7 199900964.92607      -594.417 7        45.744
E08        26.000    25343313.579 7 133179873.04607     -3312.535 7        45.242                                                                    25343322.779 7  99452460.05607     -2473.618 7        47.362    25343321.294 7 102046874.46007     -2538.124 7        47.896
C07        27.000                                                                                                                                    39754627.875 6 207012679.22006     -1487.273 6        39.102    39754634.016 6 160075321.83506     -1150.267 6        41.697    39754630.188 6 168214737.22606     -1208.482 6        39.096
I02        29.000    36821439.931 7 144495213.11607      -536.545 7        43.139
G10        30.000    25089042.053 6 131843572.08606     -2671.334 6        39.523                                    25089057.900 4 102735197.25804     -2081.555 4        28.123    25089058.044 5 102735189.24105     -2081.491 5        33.389
E07        31.000    24232195.070 7 127340964.94907      -773.651 7        47.308                                                                    24232204.420 8  95092274.17008      -577.700 8        50.015    24232202.960 8  97572940.47708      -592.770 8        50.336
C12        32.000                                                                                                                                    25438944.404 6 132467288.17306      2868.406 6        38.652    25438956.901 7 102432175.01407      2217.833 7        45.562    25438952.125 7 107640564.67007      2330.719 7        43.041
E10        33.000    28313699.479 5 148789544.28105     -1819.027 5        35.276                                                                    28313712.928 6 111109160.34706     -1358.214 6        40.903    28313711.412 6 114007647.03206     -1393.712 6        41.113
R23        34.000    21359598.759 7 114259545.57107      2697.945 7        46.463
C24        35.000                                                                                                                                    21429930.793 8 111591308.30608       286.382 8        51.690                                                                    21429932.315 8  90677100.48108       232.836 8        49.801
R05        36.000    23729225.729 7 126846235.39607      2916.180 7        44.158                                                                    23729238.332 6  98658199.13606      2268.133 6        40.634
E27        37.000    27599212.313 6 145034835.89506      1914.287 6        39.628                                                                    27599229.995 6 108305315.84806      1429.460 6        41.013    27599228.015 6 111130660.30506      1466.790 6        41.294
R04        38.000    21010016.584 8 112507592.65808       -53.667 8        49.431                                                                    21010023.734 7  87505891.13507       -41.720 7        44.494
C33        39.000                                                                                                                                    24683227.769 7 128531967.55507     -2638.990 7        45.612                                                                    24683248.772 7 104442810.41607     -2144.238 7        44.761
E25        40.000    27924612.305 6 146744669.92506     -3171.781 6        37.081                                                                    27924628.827 6 109582014.37206     -2368.473 6        39.604    27924627.202 6 112440673.18906     -2430.436 6        41.025
S44        42.000    40697436.212 6 213866416.55106      -524.826 6        38.252
R22        43.000    21093714.176 8 112599803.44408      -740.886 8        49.498                                                                    21093721.898 7  87577710.76707      -576.195 7        45.427
C05        44.000                                                                                                                                    39353329.156 6 204922947.59106      -599.313 6        38.483    39353337.037 7 158459394.11107      -463.291 7        42.933    39353335.879 6 166516742.40406      -486.774 6        39.414
C40        45.000                                                                                                                                    40183964.450 6 209248336.70906     -1770.463 6        39.742                                                                    40183973.285 6 170031405.72306     -1438.450 6        38.907
G32        46.000    23829237.588 7 125223352.23907      1924.821 7        43.361                                    23829249.199 6  97576630.15806      1499.861 6        37.898    23829249.836 6  97576632.16206      1499.884 6        39.778
E36        47.000    27015007.423 6 141964866.73806      1599.786 6        40.362                                                                    27015022.584 7 106012826.29507      1194.655 7        43.071    27015020.335 7 108778362.93107      1225.890 7        43.384
C41        48.000                                                                                                                                    25306116.068 7 131775565.64607       -69.610 7        42.950                                                                    25306132.425 7 107078509.93207       -56.481 7        43.678
C10        49.000                                                                                                                                    38872828.952 6 202420985.44806     -1210.053 6        41.077    38872835.350 7 156524751.77907      -935.589 7        43.816    38872831.364 6 164483626.68206      -983.083 6        40.877
C42        50.000                                                                                                                                    26464688.734 6 137808281.62506     -3840.732 6        39.063                                                                    26464711.396 6 111980491.67606     -3120.763 6        40.358
S48        51.000    77038766.777 6 404842948.54406      -596.315 6        38.580
E02        53.000    23794207.403 7 125039458.78907     -1995.826 7        47.605                                                                    23794214.189 8  93373690.53108     -1490.420 8        50.359    23794212.780 8  95809508.42208     -1529.291 8        50.759
C60        54.000                                                                                                                                    40697437.806 6 211922193.57206      -519.903 6        40.045                                                                    40697434.374 6 172204058.91806      -422.159 6        38.489
R12        56.000    21454116.913 8 114604058.78008     -3334.255 8        48.076                                                                    21454126.180 7  89136509.32507     -2593.223 7        44.644
C02        57.000                                                                                                                                    40858618.099 5 212761354.76105      -556.322 5        31.615    40858628.439 6 164520506.80006      -430.153 6        36.529    40858626.789 5 172885981.62405      -451.944 5        31.147
I03        58.000   120241051.917 5 396066137.04505       894.007 5        32.509
C14        59.000                                                                                                                                    25259224.098 6 131531211.84906     -3521.034 6        41.242    25259234.400 7 101708215.18407     -2722.724 7        46.655    25259228.975 7 106879828.05407     -2861.019 7        42.883
R13        60.000    19374731.393 7 103460059.30707      -891.369 7        46.110
> 2025 01 01 12 16 25.0000000  0 54
G19         1.000    21482273.189 7 112890248.28707     -2184.562 7        46.269                                    21482275.048 5  87966511.42805     -1702.252 5        35.952
G25         2.000    22494815.311 7 118211084.73007      2512.098 7        42.817                                    22494824.738 6  92112594.07406      1957.476 6        38.550    22494825.079 6  92112604.08706      1957.327 6        40.574
G24         3.000    20172026.246 8 106004722.87108     -1780.283 8        50.705                                    20172030.280 8  82601114.02808     -1387.233 8        52.679    20172030.630 7  82601111.03107     -1387.289 7        46.631
R02         4.000    24244442.056 5 129372634.40305     -5125.838 5        32.563                                                                    24244463.782 4 100623086.15504     -3986.346 4        27.701
S21         5.000    38331163.112 7 201431236.96707      -589.944 7        43.251
G06         6.000    23698259.947 6 124535261.19506      1659.814 6        40.288                                    23698269.741 6  97040541.75706      1293.353 6        36.650    23698270.632 6  97040532.76606      1293.371 6        40.193
G17         7.000    24107825.842 6 126687547.73606     -3739.757 6        41.032                                    24107834.246 5  98717634.96605     -2914.095 5        34.014    24107834.191 6  98717630.96906     -2914.004 6        36.968
R21         8.000    23852330.942 7 127638680.69607     -4148.188 7        42.679                                                                    23852340.826 6  99274602.00106     -3226.423 6        38.363
E30        10.000    23949550.288 8 125855867.47208       497.145 8        48.793                                                                    23949557.802 8  93983382.73408       371.288 8        50.569    23949556.595 8  96435112.29908       380.922 8        51.078
C26        11.000                                                                                                                                    22622844.884 8 117803067.05108     -2332.951 8        49.554                                                                    22622849.682 8  95724650.94108     -1895.746 8        48.274
S27        12.000    39104151.144 6 205493490.80006      -614.457 6        36.703
G15        13.000    24301371.662 6 127704317.38806     -4475.960 6        39.592                                    24301383.572 5  99509778.36705     -3487.748 5        32.317    24301384.026 6  99509770.34106     -3487.689 6        38.117
S36        14.000    38103018.895 7 200233068.78307      -590.917 7        44.816
G12        15.000    20351666.149 8 106948859.73408       623.661 8        50.214                                    20351667.571 8  83336846.68508       485.969 8        50.688    20351668.082 7  83336846.68507       486.016 7        46.048
E29        16.000    27063554.251 6 142219800.45406      1759.136 6        39.249                                                                    27063571.096 7 106203087.24807      1313.700 7        42.908    27063569.069 7 108973602.85807      1347.905 7        43.589
S45        17.000    63294209.549 6 332614137.31506      -652.344 6        36.560
R03        18.000    21211456.223 8 113546484.56508     -3696.904 8        48.892                                                                    21211464.219 7  88313921.11907     -2875.346 7        45.275
C35        19.000                                                                                                                                    22944468.592 8 119477993.74608      -188.962 8        48.598                                                                    22944473.628 7  97085730.56107      -153.530 7        47.160
E11        20.000    27215571.845 5 143018824.53405      -565.408 5        35.329                                                                    27215583.558 6 106799838.48906      -422.287 6        36.862    27215581.460 6 109585911.72406      -433.356 6        37.429
R14        21.000    21680275.913 8 115568084.01508      2259.962 8        49.108                                                                    21680286.719 7  89886343.75507      1757.768 7        44.897
I06        22.000    38294949.828 7 150277622.29707      -551.100 7        42.263
S28        23.000    40797158.752 5 214390268.87805      -599.221 5        35.362
S23        25.000    38040491.848 7 199903938.57007      -594.779 7        45.524
E08        26.000    25346465.696 7 133196439.29807     -3313.941 7        45.196                                                                    25346475.301 7  99464830.92807     -2474.709 7        47.295    25346473.790 7 102059568.05107     -2539.199 7        47.858
C07        27.000                                                                                                                                    39756056.684 6 207020117.34306     -1487.766 6        39.051    39756062.625 6 160081073.45206     -1150.396 6        41.628    39756058.463 6 168220781.32206     -1209.010 6        39.024
I02        29.000    36822124.166 7 144497897.51007      -537.004 7        43.255
G10        30.000    25091585.072 6 131856934.39506     -2673.534 6        38.168                                    25091600.899 4 102745609.42204     -2083.264 4        28.142    25091600.562 5 102745601.41305     -2083.245 5        34.105
E07        31.000    24232932.792 7 127344840.16007      -776.280 7        47.207                                                                    24232941.873 8  95095167.98808      -579.673 8        50.014    24232940.409 8  97575909.78708      -594.756 8        50.293
C12        32.000                                                                                                                                    25436191.630 6 132452948.78506      2867.619 6        39.384    25436202.923 7 102421086.94607      2217.549 7        45.910    25436198.196 7 107628912.79507      2330.227 7        42.851
E10        33.000    28315431.649 5 148798645.75805     -1821.318 5        35.471                                                                    28315444.728 6 111115956.97906     -1360.135 6        40.560    28315443.566 6 114014620.96106     -1395.748 6        41.020
R23        34.000    21357078.501 7 114246064.09107      2694.813 7        46.202
C24        35.000                                                                                                                                    21429656.566 8 111589880.66108       284.764 8        51.608                                                                    21429658.124 8  90675940.40708       231.351 8        49.889
R05        36.000    23726499.354 7 126831661.19107      2913.618 7        44.585                                                                    23726511.536 6  98646863.62806      2266.140 6        41.547
E27        37.000    27597390.883 6 145025266.39406      1913.664 6        40.079                                                                    27597408.952 6 108298169.79606      1429.039 6        40.942    27597406.891 6 111123327.84806      1466.192 6        41.335
R04        38.000    21010068.673 8 112507872.98908       -58.415 8        49.744                                                                    21010076.444 7  87506109.16907       -45.404 7        45.213
C33        39.000                                                                                                                                    24685763.108 7 128545168.46407     -2641.251 7        45.538                                                                    24685783.826 7 104453537.20907     -2146.213 7        44.844
E25        40.000    27927630.536 6 146760529.86806     -3171.936 6        37.637                                                                    27927646.780 6 109593857.83206     -2368.684 6        39.204    27927645.138 6 112452825.61506     -2430.317 6        40.894
S44        42.000    40697934.538 6 213869040.68006      -524.883 6        38.069
R22        43.000    21094411.328 8 112603520.32008      -745.644 8        49.202                                                                    21094417.902 7  87580601.66807      -579.950 7        45.071
C05        44.000                                                                                                                                    39353905.240 6 204925945.01606      -599.594 6        38.432    39353912.933 7 158461711.92207      -463.592 7        42.955    39353911.484 6 166519178.06306      -487.168 6        39.589
C40        45.000                                                                                                                                    40185664.409 6 209257190.45806     -1770.803 6        39.664                                                                    40185673.448 6 170038600.14406     -1439.024 6        38.982
G32        46.000    23827407.681 7 125213734.84307      1922.262 7        43.439                                    23827419.075 6  97569136.08606      1497.871 6        38.108    23827419.834 6  97569138.07306      1498.049 6        39.718
E36        47.000    27013485.845 6 141956871.98106      1598.126 6        40.403                                                                    27013501.195 7 106006856.22307      1193.422 7        43.336    27013498.954 7 108772237.11407      1224.544 7        43.727
C41        48.000                                                                                                                                    25306184.012 7 131775921.49007       -72.436 7        42.935                                                                    25306200.813 7 107078799.07907       -59.062 7        43.683
C10        49.000                                                                                                                                    38873990.840 6 202427036.74106     -1210.377 6        40.932    38873997.664 7 156529431.02907      -936.014 7        43.886    38873993.473 6 164488543.85406      -983.505 6        40.715
C42        50.000                                                                                                                                    26468376.588 6 137827485.10806     -3840.704 6        38.799                                                                    26468399.310 6 111996096.02506     -3120.938 6        40.534
S48        51.000    77039325.881 6 404845930.42006      -596.588 6        38.465
E02        53.000    23796106.934 7 125049441.31007     -1997.027 7        47.566                                                                    23796113.789 8  93381145.00708     -1491.268 8        50.324    23796112.409 8  95817157.36608     -1530.210 8        50.806
C60        54.000                                                                                                                                    40697937.287 6 211924793.86006      -520.068 6        39.997                                                                    40697933.818 6 172206171.85006      -422.557 6        38.474
R12        56.000    21457238.078 8 114620733.19908     -3335.420 8        48.048                                                                    21457247.775 7  89149478.30107     -2594.233 7        45.099
C02        57.000                                                                                                                                    40859152.579 5 212764136.30305      -556.326 5        31.721    40859162.271 6 164522657.73006      -430.259 6        36.518    40859161.202 5 172888241.87905      -452.149 5        30.921
I03        58.000   120239913.244 5 396061668.98205       893.400 5        32.635
C14        59.000                                                                                                                                    25262605.690 6 131548820.22306     -3522.240 6        40.932    25262615.738 7 101721831.05207     -2723.652 7        46.250    25262610.201 7 106894136.26207     -2862.055 7        42.885
R13        60.000    19375567.612 7 103464522.20607      -893.643 7        46.631
> 2025 01 01 12 16 30.0000000  0 55
G19         1.000    21484353.061 7 112901178.61707     -2187.650 7        46.006                                    21484355.023 6  87975028.56006     -1704.663 6        36.087
G25         2.000    22492425.409 7 118198526.98707      2510.865 7        42.565                                    22492435.032 6  92102808.83206      1956.514 6        38.703    22492435.604 6  92102818.84706      1956.560 6        40.231
G24         3.000    20173721.288 8 106013630.68308     -1783.080 8        50.776                                    20173725.387 8  82608055.17408     -1389.413 8        52.755    20173725.611 7  82608052.17707     -1389.375 7        46.420
R02         4.000    24249242.555 5 129398260.99705     -5125.271 5        32.479                                                                    24249266.020 4 100643017.86304     -3986.423 4        27.521
S21         5.000    38331724.838 7 201434186.69307      -590.104 7        42.991
G06         6.000    23696681.778 6 124526967.14506      1657.508 6        41.220                                    23696691.527 6  97034078.90206      1291.552 6        37.350    23696692.397 6  97034069.90306      1291.673 6        40.696
G17         7.000    24111384.848 6 126706249.72106     -3741.112 6        40.765                                    24111393.036 5  98732207.93405     -2915.157 5        33.784    24111392.837 6  98732203.94606     -2915.303 6        36.416
R21         8.000    23856207.374 7 127659427.28407     -4150.622 7        42.948                                                                    23856217.831 6  99290738.36006     -3228.444 6        38.661
G11         9.000    25136207.884 5 132091662.28515      2555.880 5        33.006
E30        10.000    23949077.685 8 125853384.32708       495.863 8        48.835                                                                    23949085.258 8  93981528.43308       370.326 8        50.553    23949084.091 8  96433209.62408       379.980 8        51.199
C26        11.000                                                                                                                                    22625085.660 8 117814734.30708     -2334.188 8        49.693                                                                    22625090.298 8  95734131.52708     -1896.661 8        48.401
S27        12.000    39104734.959 6 205496561.82206      -614.134 6        36.733
G15        13.000    24305630.710 6 127726697.11106     -4476.047 6        40.703                                    24305642.395 5  99527217.03005     -3487.814 5        32.383    24305642.318 6  99527209.00506     -3487.846 6        37.762
S36        14.000    38103579.931 7 200236022.15707      -590.776 7        44.813
G12        15.000    20351073.562 8 106945746.97008       621.315 8        50.315                                    20351075.233 8  83334421.15408       484.142 8        50.779    20351075.560 7  83334421.15507       484.161 7        45.810
E29        16.000    27061880.672 6 142211007.18506      1757.947 6        39.586                                                                    27061897.688 7 106196520.87507      1312.647 7        42.828    27061895.728 7 108966865.17307      1346.911 7        43.831
S45        17.000    63294774.851 6 332617398.65806      -652.447 6        36.401
R03        18.000    21214911.308 8 113564976.55608     -3700.033 8        49.203                                                                    21214917.782 7  88328303.72707     -2877.731 7        44.959
C35        19.000                                                                                                                                    22944650.881 8 119478945.17808      -191.865 8        48.297                                                                    22944656.385 7  97086503.67607      -155.912 7        47.197
E11        20.000    27216110.442 5 143021657.83405      -567.899 5        35.652                                                                    27216122.756 6 106801954.29606      -424.057 6        36.764    27216120.443 6 109588082.69706      -435.109 6        37.259
R14        21.000    21678156.014 8 115556785.62208      2259.125 8        49.009                                                                    21678167.104 7  89877556.14607      1757.041 7        44.152
I06        22.000    38295651.511 7 150280377.29707      -551.038 7        42.135
S28        23.000    40797728.813 5 214393264.83005      -599.198 5        35.371
S23        25.000    38041057.705 7 199906911.97507      -594.740 7        45.418
E08        26.000    25349619.311 7 133213011.72907     -3315.224 7        45.347                                                                    25349628.995 7  99477206.39907     -2475.554 7        47.331    25349627.423 8 102072266.37308     -2540.196 8        48.025
C07        27.000                                                                                                                                    39757484.979 6 207027555.93206     -1487.923 6        39.000    39757490.889 6 160086825.45306     -1150.495 6        41.490    39757486.794 6 168226825.77306     -1208.981 6        39.051
I02        29.000    36822808.509 7 144500582.58507      -536.973 7        43.166
G10        30.000    25094129.033 6 131870305.54306     -2675.332 6        38.492                                    25094145.346 4 102756028.47804     -2084.670 4        28.199    25094144.201 5 102756020.47305     -2084.737 5        32.940
E07        31.000    24233672.247 7 127348727.32907      -778.764 7        47.234                                                                    24233681.548 8  95098070.72808      -581.545 8        50.081    24233680.082 8  97578888.25308      -596.704 8        50.430
C12        32.000                                                                                                                                    25433437.962 6 132438610.72406      2867.236 6        39.447    25433449.460 7 102409999.91107      2217.249 7        45.931    25433444.738 7 107617261.98707      2329.850 7        42.789
E10        33.000    28317165.703 6 148807758.43006     -1823.731 6        36.068                                                                    28317178.854 6 111122761.98406     -1361.801 6        41.066    28317177.556 6 114021603.46006     -1397.409 6        41.685
R23        34.000    21354560.233 7 114232596.99007      2691.905 7        45.732
C24        35.000                                                                                                                                    21429383.864 8 111588460.03508       283.317 8        51.620                                                                    21429385.238 8  90674786.00808       230.304 8        49.922
R05        36.000    23723775.136 7 126817098.85307      2911.082 7        43.970                                                                    23723787.717 6  98635537.28706      2264.324 6        41.232
E27        37.000    27595569.764 6 145015698.92506      1913.242 6        39.523                                                                    27595588.525 6 108291025.25806      1428.716 6        40.894    27595586.371 6 111115996.91706      1466.006 6        41.487
R04        38.000    21010125.169 8 112508176.39308       -63.058 8        48.783                                                                    21010133.397 7  87506345.16007       -49.101 7        45.014
C33        39.000                                                                                                                                    24688299.918 7 128558379.40407     -2643.330 7        45.034                                                                    24688320.811 7 104464272.12107     -2147.810 7        44.807
E25        40.000    27930648.447 6 146776389.27406     -3172.037 6        37.274                                                                    27930664.804 6 109605700.90906     -2368.633 6        39.120    27930662.992 6 112464977.61406     -2430.351 6        40.768
S44        42.000    40698431.796 6 213871664.52806      -524.898 6        38.138
R22        43.000    21095111.991 8 112607259.89208      -750.358 8        49.064                                                                    21095118.496 7  87583510.24207      -583.661 7        45.443
C05        44.000                                                                                                                                    39354480.680 6 204928942.10106      -599.440 6        38.336    39354488.342 7 158464029.45407      -463.581 7        42.764    39354487.031 6 166521613.43706      -487.210 6        39.547
C40        45.000                                                                                                                                    40187365.058 6 209266044.67106     -1771.073 6        39.426                                                                    40187373.887 6 170045794.92406     -1439.074 6        39.021
G32        46.000    23825579.174 7 125204128.31307      1920.083 7        42.709                                    23825591.009 6  97561650.46806      1496.168 6        38.177    23825591.543 6  97561652.45406      1496.118 6        39.414
E36        47.000    27011965.516 6 141948884.68606      1596.651 6        40.269                                                                    27011981.320 7 106000891.71207      1192.363 7        43.384    27011979.120 7 108766117.01107      1223.327 7        44.045
C41        48.000                                                                                                                                    25306255.205 7 131776291.23907       -75.429 7        43.289                                                                    25306271.850 7 107079099.51107       -61.299 7        43.801
C10        49.000                                                                                                                                    38875153.127 6 202433089.06006     -1210.745 6        40.827    38875159.913 7 156534111.05107      -936.122 7        43.761    38875155.791 6 164493461.83106      -983.718 6        40.851
C42        50.000                                                                                                                                    26472064.214 6 137846687.13306     -3840.242 6        38.610                                                                    26472087.030 6 112011699.15306     -3120.545 6        40.722
S48        51.000    77039887.669 6 404848912.26006      -596.406 6        38.183
E02        53.000    23798007.375 7 125059428.36907     -1997.965 7        47.529                                                                    23798014.301 8  93388602.86908     -1491.989 8        50.361    23798012.871 8  95824809.77808     -1530.889 8        50.845
C60        54.000                                                                                                                                    40698436.543 6 211927393.85006      -520.087 6        39.988                                                                    40698433.070 6 172208284.55506      -422.625 6        38.562
R12        56.000    21460361.181 8 114637412.55808     -3336.461 8        48.287                                                                    21460369.699 7  89162451.10107     -2595.006 7        44.850
C02        57.000                                                                                                                                    40859686.303 5 212766917.58105      -556.521 5        31.011    40859696.303 6 164524808.33306      -430.065 6        36.662    40859695.028 5                      -452.196 5        31.396
I03        58.000   120238775.290 5 396057200.47405       893.516 5        32.946
C14        59.000                                                                                                                                    25265987.746 6 131566432.97406     -3523.061 6        41.056    25265997.386 7 101735450.28807     -2724.258 7        45.547    25265992.740 7 106908448.00807     -2862.764 7        42.935
R13        60.000    19376405.465 7 103468995.36307      -895.769 7        46.747
> 2025 01 01 12 16 35.0000000  0 55
G19         1.000    21486436.022 7 112912124.28107     -2190.530 7        46.461                                    21486437.928 5  87983557.64205     -1706.906 5        35.910
G25         2.000    22490036.509 7 118185975.45907      2509.719 7        42.899                                    22490046.519 6  92093028.44706      1955.621 6        38.616    22490047.070 6  92093038.46706      1955.553 6        40.122
G24         3.000    20175419.028 8 106022552.85108     -1785.669 8        50.381                                    20175423.231 8  82615007.50608     -1391.430 8        52.730    20175423.640 7  82615004.50607     -1391.423 7        46.277
R02         4.000    24254046.016 5 129423886.01505     -5124.486 5        32.126                                                                    24254066.501 4 100662948.38704     -3985.710 4        27.317
S21         5.000    38332287.028 7 201437137.06207      -590.031 7        42.946
G06         6.000    23695105.501 7 124518684.27307      1655.603 7        42.102                                    23695115.405 6  97027624.75306      1290.077 6        37.762    23695116.264 6  97027615.76206      1290.040 6        40.319
G17         7.000    24114944.767 6 126724958.14406     -3742.116 6        39.775                                    24114953.052 5  98746785.93305     -2915.936 5        33.281    24114953.299 6  98746781.92406     -2915.929 6        36.885
R21         8.000    23860087.556 7 127680186.62207     -4152.991 7        43.215                                                                    23860096.730 6  99306884.67006     -3230.210 6        38.934
G11         9.000    25133775.351 5 132078883.67405      2555.597 5        32.868
E30        10.000    23948606.436 8 125850907.93908       494.780 8        48.851                                                                    23948614.129 8  93979679.17908       369.503 8        50.610    23948612.890 8  96431312.12708       379.104 8        51.172
C26        11.000                                                                                                                                    22627327.528 8 117826408.32708     -2335.312 8        49.524                                                                    22627332.200 8  95743617.62908     -1897.618 8        48.412
S27        12.000    39105321.246 6 205499632.85706      -614.019 6        36.529
G15        13.000    24309889.365 6 127749077.48806     -4475.953 6        41.299                                    24309901.262 5  99544656.21005     -3487.744 5        32.515    24309900.749 6  99544648.18706     -3487.695 6        37.664
S36        14.000    38104141.657 7 200238975.87807      -590.661 7        44.638
G12        15.000    20350483.452 8 106942646.16708       619.143 8        50.192                                    20350485.171 8  83332004.94508       482.450 8        50.751    20350485.667 7  83332004.94507       482.451 7        46.006
E29        16.000    27060208.755 6 142202221.47006      1756.594 6        39.841                                                                    27060225.787 7 106189960.08607      1311.772 7        42.836    27060223.826 7 108960133.23207      1345.938 7        43.835
S45        17.000    63295343.999 6 332620660.54106      -652.337 6        36.280
R03        18.000    21218369.155 8 113583484.53208     -3702.995 8        49.595                                                                    21218375.605 7  88342698.78607     -2880.090 7        45.011
C35        19.000                                                                                                                                    22944836.568 8 119479911.57708      -194.636 8        48.220                                                                    22944841.909 7  97087288.96007      -158.055 7        47.309
E11        20.000    27216652.335 5 143024504.34705      -570.395 5        35.405                                                                    27216664.241 6 106804079.95706      -426.007 6        37.006    27216662.293 6 109590263.82806      -437.289 6        37.490
R14        21.000    21676037.162 8 115545492.25908      2258.404 8        48.617                                                                    21676049.113 7  89868772.42007      1756.503 7        44.122
I06        22.000    38296353.941 7 150283132.74207      -550.977 7        42.267
S28        23.000    40798298.090 5 214396261.42905      -599.279 5        35.229
S23        25.000    38041623.937 7 199909886.02207      -594.663 7        45.291
E08        26.000    25352774.375 7 133229591.13207     -3316.470 7        45.166                                                                    25352784.049 7  99489587.08907     -2476.543 7        47.143    25352782.427 8 102084970.03408     -2541.136 8        48.023
C07        27.000                                                                                                                                    39758913.698 6 207034995.85006     -1488.015 6        38.955    39758919.905 6 160092578.48006     -1150.587 6        41.471    39758915.695 6 168232871.32306     -1209.142 6        39.039
I02        29.000    36823492.926 7 144503268.98207      -537.304 7        43.263
G10        30.000    25096675.097 6 131883686.28406     -2676.913 6        37.195                                    25096691.635 4 102766455.01004     -2085.903 4        28.104    25096691.120 5 102766446.98205     -2086.051 5        34.052
E07        31.000    24234414.132 7 127352627.24007      -781.071 7        46.926                                                                    24234423.701 8  95100982.98808      -583.271 8        49.985    24234422.261 8  97581876.48408      -598.483 8        50.438
C12        32.000                                                                                                                                    25430684.631 6 132424274.74706      2867.262 6        39.811    25430696.518 7 102398914.49707      2217.050 7        45.694    25430691.639 7 107605612.88107      2329.723 7        42.868
E10        33.000    28318902.217 5 148816882.96305     -1826.080 5        35.881                                                                    28318915.099 6 111129575.82106     -1363.401 6        40.749    28318913.696 6 114028595.04906     -1399.103 6        41.573
R23        34.000    21352045.937 7 114219145.33507      2688.992 7        45.971
C24        35.000                                                                                                                                    21429112.427 8 111587047.23008       281.953 8        51.748                                                                    21429113.981 8  90673638.00408       229.123 8        49.998
R05        36.000    23721053.370 7 126802549.54707      2908.767 7        44.065                                                                    23721066.545 6  98624221.11006      2262.331 6        40.760
E27        37.000    27593750.047 6 145006134.27006      1912.765 6        39.168                                                                    27593768.581 6 108283882.81206      1428.406 6        40.920    27593766.314 6 111108668.14906      1465.731 6        41.321
R04        38.000    21010186.285 8 112508503.40608       -67.668 8        49.708                                                                    21010193.637 7  87506599.50107       -52.597 7        45.251
C33        39.000                                                                                                                                    24690839.041 7 128571601.11207     -2645.260 7        45.484                                                                    24690859.991 7 104475015.83207     -2149.422 7        44.882
E25        40.000    27933666.599 6 146792248.91306     -3171.779 6        37.319                                                                    27933682.892 6 109617544.13606     -2368.463 6        39.024    27933680.741 6 112477129.82206     -2430.413 6        40.653
S44        42.000    40698931.522 6 213874288.89006      -524.709 6        38.012
R22        43.000    21095816.014 8 112611023.00508      -754.770 8        48.689                                                                    21095823.408 7  87586437.10807      -587.062 7        45.484
C05        44.000                                                                                                                                    39355056.017 6 204931939.69306      -599.484 6        38.351    39355064.018 7 158466347.37707      -463.443 7        42.779    39355062.627 6 166524049.22406      -486.930 6        39.643
C40        45.000                                                                                                                                    40189065.423 6 209274900.13306     -1771.001 6        39.577                                                                    40189074.496 6 170052990.73906     -1439.085 6        39.114
G32        46.000    23823752.864 7 125194533.47307      1917.946 7        43.120                                    23823765.192 6  97554173.96806      1494.500 6        38.087    23823765.908 6  97554175.96506      1494.469 6        39.964
E36        47.000    27010447.685 6 141940905.65806      1595.107 6        40.327                                                                    27010462.935 7 105994933.37507      1191.179 7        43.314    27010460.839 7 108760003.23007      1222.300 7        44.325
C41        48.000                                                                                                                                    25306328.831 7 131776675.60807       -78.155 7        43.192                                                                    25306345.766 7 107079411.85907       -63.543 7        43.801
C10        49.000                                                                                                                                    38876315.574 6 202439143.11706     -1210.956 6        40.851    38876322.504 7 156538792.42407      -936.352 7        43.772    38876318.453 6 164498381.25206      -983.852 6        40.877
C42        50.000                                                                                                                                    26475751.286 6 137865888.50306     -3840.015 6        38.850                                                                    26475774.686 6 112027301.78606     -3120.351 6        40.853
S48        51.000    77040451.389 6 404850294.75816      -596.671 6        38.213
E02        53.000    23799908.779 7 125069420.77507     -1998.842 7        47.488                                                                    23799915.832 8  93396064.72808     -1492.667 8        50.306    23799914.332 8  95832466.29808     -1531.618 8        50.925
C60        54.000                                                                                                                                    40698936.100 6 211929994.35306      -519.913 6        40.091                                                                    40698932.448 6 172210397.68706      -422.487 6        38.625
R12        56.000    21463484.772 8 114654097.68608     -3337.386 8        48.322                                                                    21463493.243 7  89175428.40607     -2595.728 7        44.387
C02        57.000                                                                                                                                    40860220.599 5 212769699.30305      -556.469 5        31.668    40860230.421 6 164526959.35406      -430.178 6        36.329    40860229.504 5                      -452.011 5        31.381
I03        58.000   120237635.913 5 396052732.22205       893.689 5        32.826
C14        59.000                                                                                                                                    25269371.191 6 131584050.92006     -3523.894 6        40.739    25269381.016 7 101749073.53507     -2724.943 7        45.895    25269376.385 7 106922763.99007     -2863.442 7        42.950
R13        60.000    19377245.447 7 103473479.61307      -897.771 7        46.709
> 2025 01 01 12 16 40.0000000  0 55
G19         1.000    21488521.897 7 112923084.79107     -2193.810 7        46.322                                    21488523.631 5  87992098.28605     -1709.455 5        35.867
G25         2.000    22487649.804 7 118173429.64407      2508.411 7        42.419                                    22487659.075 6  92083252.51406      1954.605 6        38.547    22487659.624 6  92083262.53106      1954.613 6        40.434
G24         3.000    20177119.436 8 106031488.91408     -1788.828 8        50.490                                    20177123.708 8  82621970.66908     -1393.888 8        52.599    20177124.037 7  82621967.67107     -1393.915 7        46.320
R02         4.000    24258847.732 5 129449508.96005     -5124.761 5        30.921                                                                    24258870.177 4 100682877.21904     -3985.665 4        27.114
S21         5.000    38332847.774 7 201440087.70007      -590.525 7        43.039
G06         6.000    23693530.655 6 124510412.14106      1653.055 6        40.939                                    23693541.246 6  97021178.97306      1288.097 6        37.493    23693542.084 6  97021169.96406      1288.201 6        39.955
G17         7.000    24118506.040 6 126743672.55306     -3743.775 6        39.171                                    24118514.274 5  98761368.57605     -2917.223 5        32.844    24118514.163 6  98761364.59306     -2917.155 6        36.987
R21         8.000    23863969.253 7 127700958.00707     -4155.678 7        42.633                                                                    23863978.524 6  99323040.35806     -3232.271 6        39.108
G11         9.000    25131343.613 5 132066105.89605      2555.391 5        33.066                                                                                                    25131357.939 5                      1991.511 5        32.509
E30        10.000    23948136.412 8 125848437.87208       493.165 8        48.764                                                                    23948144.086 8  93977834.65008       368.271 8        50.611    23948142.889 8  96429419.48108       377.857 8        51.163
C26        11.000                                                                                                                                    22629570.364 8 117838088.64308     -2336.964 8        49.457                                                                    22629575.251 8  95753108.83408     -1898.838 8        48.448
S27        12.000    39105902.799 6 205502703.84306      -614.423 6        36.752
G15        13.000    24314147.709 6 127771458.09606     -4476.464 6        41.495                                    24314160.111 5  99562095.56505     -3488.137 5        32.629    24314159.983 6  99562087.53206     -3488.034 6        37.395
S36        14.000    38104705.662 7 200241929.72407      -591.077 7        44.686
G12        15.000    20349895.738 8 106939556.87608       616.451 8        50.392                                    20349897.305 8  83329597.70808       480.352 8        50.638    20349897.729 7  83329597.70807       480.345 7        45.989
E29        16.000    27058537.978 6 142193442.90406      1754.940 6        39.153                                                                    27058555.417 7 106183404.68407      1310.454 7        42.897    27058553.203 7 108953406.81807      1344.623 7        43.647
S45        17.000    63295912.208 6 332622322.52316      -652.557 6        36.491
R03        18.000    21221828.864 8 113602007.93808     -3706.501 8        48.989                                                                    21221835.836 7  88357105.84107     -2882.810 7        44.644
C35        19.000                                                                                                                                    22945025.061 8 119480892.44808      -197.902 8        48.053                                                                    22945030.221 7  97088086.01707      -160.786 7        47.390
E11        20.000    27217196.506 5 143027363.58105      -573.335 5        35.448                                                                    27217208.162 6 106806215.14106      -428.105 6        37.081    27217206.049 6 109592454.71406      -439.326 6        37.399
R14        21.000    21673919.805 8 115534203.62008      2257.067 8        48.979                                                                    21673931.266 7  89859992.38807      1755.535 7        44.731
I06        22.000    38297055.761 6 150285888.25506      -551.339 6        41.962
S28        23.000    40798864.877 5 214399258.39505      -599.225 5        35.233
S23        25.000    38042191.029 7 199912860.22307      -595.052 7        45.357
E08        26.000    25355930.432 7 133246177.03207     -3318.094 7        45.053                                                                    25355940.224 7  99501972.62907     -2477.720 7        47.274    25355938.585 7 102097678.68407     -2542.458 7        47.939
C07        27.000                                                                                                                                    39760342.111 6 207042436.58406     -1488.434 6        38.685    39760348.967 6 160098332.14106     -1151.040 6        41.366    39760344.455 6 168238917.54506     -1209.384 6        39.024
I02        29.000    36824177.748 7 144505956.42807      -537.869 7        43.333
G10        30.000    25099222.981 6 131897076.19706     -2679.281 6        38.907                                    25099239.615 4 102776888.68204     -2087.751 4        28.265    25099239.399 5 102776880.67605     -2087.646 5        34.167
E07        31.000    24235158.588 7 127356539.43707      -783.863 7        46.922                                                                    24235168.185 8  95103904.43108      -585.401 8        50.023    24235166.725 8  97584874.13808      -600.614 8        50.395
C12        32.000                                                                                                                                    25427931.686 6 132409940.44106      2866.543 6        39.468    25427943.500 7 102387830.36407      2216.463 7        45.771    25427938.843 7 107593965.14207      2329.291 7        42.635
E10        33.000    28320640.386 5 148826018.98905     -1828.701 5        35.667                                                                    28320653.593 6 111136398.28506     -1365.591 6        40.856    28320652.097 6 114035595.46406     -1401.096 6        41.189
R23        34.000    21349533.429 7 114205708.69907      2685.608 7        46.033
C24        35.000                                                                                                                                    21428842.648 8 111585641.77708       280.121 8        51.771                                                                    21428844.063 8  90672495.96208       227.701 8        50.010
R05        36.000    23718332.464 7 126788012.59807      2905.927 7        44.254                                                                    23718346.318 6  98612914.55806      2260.302 6        40.977
E27        37.000    27591931.153 6 144996571.95106      1912.036 6        38.952                                                                    27591948.970 6 108276742.13806      1427.732 6        41.037    27591946.461 6 111101341.18106      1465.024 6        41.347
R04        38.000    21010252.550 8 112508853.84408       -72.606 8        49.873                                                                    21010259.071 7  87506872.06307       -56.597 7        44.719
C33        39.000                                                                                                                                    24693380.253 7 128584833.14407     -2647.646 7        45.240                                                                    24693401.080 7 104485767.92207     -2151.351 7        44.903
E25        40.000    27936684.221 6 146808108.35106     -3171.936 6        36.934                                                                    27936700.768 6 109629387.23306     -2368.823 6        39.351    27936698.705 6 112489281.86306     -2430.589 6        40.670
S44        42.000    40699434.334 6 213876913.29606      -525.026 6        38.078
R22        43.000    21096525.267 8 112614809.14008      -759.756 8        48.481                                                                    21096532.794 7  87589381.87807      -590.940 7        45.375
C05        44.000                                                                                                                                    39355631.823 6 204934937.29306      -599.721 6        38.306    39355639.601 7 158468665.31307      -463.685 7        42.847    39355638.273 6 166526485.02806      -487.295 6        39.504
C40        45.000                                                                                                                                    40190766.204 6 209283756.33006     -1771.620 6        39.766                                                                    40190775.391 6 170060187.15706     -1439.480 6        39.171
G32        46.000    23821929.730 7 125184949.89207      1915.432 7        43.022                                    23821941.517 6  97546706.26206      1492.542 6        37.977    23821941.999 6  97546708.28206      1492.483 6        40.112
E36        47.000    27008930.706 6 141932934.43006      1593.234 6        39.985                                                                    27008945.833 7 105988980.87007      1189.711 7        43.429    27008944.017 7 108753895.44207      1220.774 7        44.552
C41        48.000                                                                                                                                    25306405.205 7 131777074.19907       -81.258 7        43.031                                                                    25306422.357 7 107079735.73007       -66.003 7        43.839
C10        49.000                                                                                                                                    38877478.431 6 202445198.42806     -1211.488 6        40.779    38877485.297 7 156543474.79607      -936.801 7        43.746    38877481.223 6 164503301.70406      -984.228 6        41.080
C42        50.000                                                                                                                                    26479438.440 6 137885088.70506     -3840.173 6        38.892                                                                    26479461.976 6 112042903.46706     -3120.314 6        40.932
S48        51.000    77041012.730 6 404853277.59606      -596.947 6        38.141
E02        53.000    23801811.181 7 125079418.06507     -2000.205 7        47.381                                                                    23801818.209 8  93403530.23908     -1493.681 8        50.358    23801816.785 8  95840126.55708     -1532.577 8        50.810
C60        54.000                                                                                                                                    40699435.320 6 211932594.91306      -520.405 6        40.045                                                                    40699431.910 6 172212510.85806      -422.869 6        38.658
R12        56.000    21466608.502 7 114670788.05507     -3338.855 7        47.920                                                                    21466617.700 7  89188409.79307     -2596.868 7        44.140
C02        57.000                                                                                                                                    40860755.392 5 212772480.96005      -556.703 5        31.343    40860764.923 6 164529110.31706      -430.540 6        36.435    40860763.129 5                      -452.166 5        31.532
I03        58.000   120236497.021 5 396048263.82805       893.561 5        33.000
C14        59.000                                                                                                                                    25272755.326 6 131601673.53706     -3525.126 6        40.837    25272765.977 7 101762700.40907     -2725.875 7        46.160    25272760.571 7 106937083.76807     -2864.387 7        42.918
R13        60.000    19378086.690 7 103477974.36007      -900.252 7        46.239
> 2025 01 01 12 16 45.0000000  0 55
G19         1.000    21490610.165 7 112934060.32907     -2196.420 7        46.766                                    21490612.236 5  88000650.64405     -1711.495 5        35.538
G25         2.000    22485263.142 7 118160889.81307      2507.680 7        42.908                                    22485272.785 6  92073481.23606      1954.031 6        38.309    22485273.725 6  92073491.23906      1954.005 6        39.895
G24         3.000    20178822.753 8 106040439.05008     -1791.267 8        50.759                                    20178826.864 8  82628944.79808     -1395.792 8        52.357    20178827.201 7  82628941.79507     -1395.810 7        46.195
R02         4.000    24263650.526 5 129475130.17805     -5123.469 5        30.430                                                                    24263670.559 4 100702804.74304     -3984.980 4        26.551
S21         5.000    38333408.471 7 201443038.90007      -589.996 7        42.957
G06         6.000    23691958.297 6 124502150.89906      1651.345 6        40.224                                    23691969.091 6  97014741.67306      1286.754 6        36.733    23691970.036 6  97014732.68506      1286.830 6        39.952
G17         7.000    24122068.578 6 126762393.11306     -3744.533 6        39.318                                    24122076.767 5  98775956.02405     -2917.817 5        32.808    24122076.551 6  98775952.03806     -2917.977 6        37.467
R21         8.000    23867851.228 7 127721741.66607     -4157.805 7        42.406                                                                    23867862.464 6  99339205.56406     -3233.791 6        39.300
G11         9.000    25128912.224 5 132053329.19205      2555.495 5        33.934                                                                                                    25128926.744 5                      1991.184 5        33.024
E30        10.000    23947667.818 8 125845974.30508       492.244 8        48.597                                                                    23947675.247 8  93975994.97408       367.582 8        50.579    23947674.043 8  96427531.81308       377.154 8        51.037
C26        11.000                                                                                                                                    22631814.829 8 117849775.41208     -2337.836 8        49.370                                                                    22631819.504 8  95762605.30708     -1899.726 8        48.246
S27        12.000    39106492.288 6 205505775.95906      -614.018 6        36.420
G15        13.000    24318406.586 6 127793839.09806     -4476.135 6        41.795                                    24318418.978 5  99579535.23205     -3487.884 5        32.353    24318418.974 6  99579527.21906     -3487.994 6        36.646
S36        14.000    38105266.234 7 200244884.19707      -590.950 7        44.569
G12        15.000    20349309.960 8 106936479.30408       614.539 8        50.410                                    20349311.666 8  83327199.60308       478.861 8        50.404    20349312.027 7  83327199.60307       478.897 7        45.792
E29        16.000    27056868.869 6 142184671.64906      1753.807 6        39.060                                                                    27056886.316 7 106176854.75307      1309.575 7        42.853    27056884.100 7 108946686.01707      1343.668 7        43.397
S45        17.000    63296479.791 6 332625584.79506      -652.281 6        36.514
R03        18.000    21225291.621 8 113620547.06308     -3709.204 8        48.904                                                                    21225299.323 7  88371525.12807     -2884.975 7        44.042
C35        19.000                                                                                                                                    22945216.285 8 119481888.01608      -200.413 8        48.095                                                                    22945221.392 7  97088895.01607      -162.904 7        47.127
E11        20.000    27217742.926 5 143030235.72405      -575.688 5        35.609                                                                    27217754.662 6 106808359.95006      -430.006 6        37.077    27217752.833 6 109594655.44906      -441.059 6        37.561
R14        21.000    21671803.187 8 115522919.62608      2256.546 8        48.847                                                                    21671813.906 7  89851215.97507      1755.035 7        44.597
I06        22.000    38297758.060 7 150288643.98207      -551.169 7        42.002
S28        23.000    40799435.962 5 214402255.29705      -599.103 5        35.148
S23        25.000    38042756.170 7 199915834.72407      -594.722 7        45.415
E08        26.000    25359088.124 7 133262769.59807     -3318.954 7        44.853                                                                    25359097.670 7  99514363.15607     -2478.490 7        47.219    25359096.016 7 102110392.44507     -2543.175 7        47.878
C07        27.000                                                                                                                                    39761771.653 6 207049878.30806     -1488.238 6        38.775    39761777.978 6 160104086.56306     -1150.903 6        41.404    39761773.556 6 168244964.58406     -1209.304 6        38.676
I02        29.000    36824863.004 7 144508644.77907      -537.685 7        43.175
G10        30.000    25101774.068 6 131910475.43306     -2680.610 6        38.495                                    25101789.491 4 102787329.62904     -2088.786 4        28.104    25101789.145 5 102787321.63305     -2088.757 5        34.195
E07        31.000    24235905.454 7 127360464.12407      -785.986 7        46.794                                                                    24235915.027 8  95106835.18908      -586.984 8        50.001    24235913.613 8  97587881.35408      -602.288 8        50.336
C12        32.000                                                                                                                                    25425179.067 6 132395607.98306      2866.543 6        39.063    25425190.848 7 102376747.65607      2216.578 7        45.779    25425186.257 7 107582318.90807      2329.198 7        42.432
E10        33.000    28322381.270 5 148835166.62605     -1830.475 5        35.986                                                                    28322394.233 6 111143229.39306     -1366.957 6        41.125    28322392.430 6 114042604.78206     -1402.652 6        41.242
R23        34.000    21347024.610 7 114192287.13007      2682.996 7        46.410
C24        35.000                                                                                                                                    21428574.207 8 111584243.86608       279.022 8        51.746                                                                    21428575.590 8  90671360.05708       226.702 8        49.703
R05        36.000    23715616.542 7 126773488.08807      2903.881 7        43.788                                                                    23715629.495 6  98601617.61606      2258.724 6        40.610
E27        37.000    27590111.832 6 144987012.16106      1911.963 6        38.414                                                                    27590129.793 6 108269603.34206      1427.719 6        40.939    27590127.429 6 111094016.17006      1464.909 6        41.108
R04        38.000    21010322.178 8 112509227.68408       -76.911 8        50.033                                                                    21010329.371 7  87507162.83807       -59.860 7        45.100
C33        39.000                                                                                                                                    24695923.374 7 128598075.67107     -2649.387 7        45.217                                                                    24695944.261 7 104496528.54807     -2152.907 7        44.682
E25        40.000    27939702.102 6 146823967.75306     -3171.642 6        36.416                                                                    27939718.968 6 109641230.29506     -2368.492 6        39.568    27939716.673 6 112501433.86206     -2430.191 6        40.329
S44        42.000    40699931.735 6 213879537.94306      -524.762 6        38.234
R22        43.000    21097239.354 8 112618618.50808      -764.014 8        48.933                                                                    21097246.502 7  87592344.72907      -594.191 7        45.937
C05        44.000                                                                                                                                    39356207.473 6 204937935.07306      -599.383 6        38.330    39356215.363 7 158470983.40107      -463.559 7        42.933    39356213.958 6 166528920.99306      -487.205 6        39.249
C40        45.000                                                                                                                                    40192467.077 6 209292613.48006     -1771.323 6        39.766                                                                    40192476.037 6 170067384.34606     -1439.394 6        38.754
G32        46.000    23820108.249 7 125175377.70507      1913.499 7        42.853                                    23820119.988 6  97539247.42306      1491.031 6        37.705    23820120.640 6  97539249.43406      1491.211 6        40.069
E36        47.000    27007415.179 6 141924971.20706      1591.947 6        40.217                                                                    27007430.456 7 105983034.34007      1188.904 7        43.249    27007428.797 7 108747793.78507      1219.852 7        44.569
C41        48.000                                                                                                                                    25306484.677 7 131777487.15007       -83.806 7        43.166                                                                    25306501.628 7 107080071.29207       -68.146 7        43.585
C10        49.000                                                                                                                                    38878641.712 6 202451255.23606     -1211.430 6        40.589    38878648.329 7 156548158.29207      -936.641 7        43.928    38878644.329 6 164508223.36006      -984.266 6        40.746
C42        50.000                                                                                                                                    26483125.443 6 137904287.92606     -3839.583 6        39.153                                                                    26483148.995 6 112058504.35006     -3120.021 6        40.763
S48        51.000    77041572.170 6 404856260.76706      -596.570 6        38.147
E02        53.000    23803714.709 7 125089420.40707     -2000.758 7        47.290                                                                    23803721.608 8  93410999.51608     -1494.128 8        50.358    23803720.149 8  95847790.68708     -1533.083 8        50.740
C60        54.000                                                                                                                                    40699934.944 6 211935195.70506      -520.100 6        39.979                                                                    40699931.444 6 172214624.23006      -422.692 6        38.303
R12        56.000    21469734.258 8 114687483.96008     -3339.508 8        48.521                                                                    21469743.897 7  89201395.47507     -2597.383 7        44.780
C02        57.000                                                                                                                                    40861288.950 5 212775262.74405      -556.262 5        31.170    40861298.718 6 164531261.39106      -430.010 6        36.828    40861297.488 5                      -451.683 5        31.464
I03        58.000   120235358.434 5 396043795.40805       893.731 5        32.569
C14        59.000                                                                                                                                    25276140.753 6 131619300.99406     -3525.803 6        41.311    25276150.998 7 101776331.02907     -2726.386 7        46.033    25276145.591 7 106951407.49607     -2864.942 7        42.737
R13        60.000    19378930.348 7 103482479.88807      -901.901 7        46.537
> 2025 01 01 12 16 50.0000000  0 55
G19         1.000    21492701.868 7 112945050.61007     -2199.628 7        46.363                                    21492703.650 5  88009214.49105     -1713.994 5        35.619
G25         2.000    22482878.018 7 118148355.59907      2506.269 7        42.271                                    22482887.590 6  92063714.34206      1952.932 6        38.396    22482888.495 6  92063724.36106      1952.831 6        40.279
G24         3.000    20180528.514 8 106049402.93508     -1794.181 8        50.728                                    20180532.650 8  82635929.64008     -1398.062 8        52.422    20180533.006 7  82635926.64107     -1398.078 7        46.532
R02         4.000    24268451.917 5 129500748.98505     -5123.420 5        30.174                                                                    24268470.885 4 100722730.41704     -3985.058 4        27.090
S21         5.000    38333969.691 7 201445990.15207      -590.324 7        43.153
G06         6.000    23690388.237 6 124493900.29506      1649.035 6        40.746                                    23690398.992 6  97008312.67106      1284.957 6        36.416    23690399.847 6  97008303.68806      1284.808 6        40.319
G17         7.000    24125632.423 6 126781119.53806     -3745.971 6        39.712                                    24125640.467 5  98790548.04005     -2918.940 5        33.162    24125641.175 6  98790544.03806     -2918.967 6        38.237
R21         8.000    23871737.559 6 127742537.39206     -4160.312 6        41.812                                                                    23871748.975 6  99355380.15606     -3235.743 6        39.339
G11         9.000    25126482.175 5 132040553.19505      2555.062 5        34.095                                    25126496.100 1 102888801.88711      1990.886 1        11.185    25126496.784 5                      1990.958 5        33.365
E30        10.000    23947200.298 8 125843516.90208       490.768 8        48.657                                                                    23947207.623 8  93974159.90508       366.423 8        50.570    23947206.390 8  96425648.86808       376.048 8        51.074
C26        11.000                                                                                                                                    22634060.355 8 117861468.34308     -2339.303 8        49.340                                                                    22634065.057 8  95772106.76708     -1900.949 8        48.489
S27        12.000    39107075.482 6 205508847.58806      -614.519 6        36.669
G15        13.000    24322665.504 6 127816220.13606     -4476.164 6        41.652                                    24322677.796 5  99596974.92605     -3487.901 5        32.491    24322677.617 6  99596966.90506     -3487.861 6        36.352
S36        14.000    38105828.241 7 200247838.83707      -590.935 7        44.886
G12        15.000    20348726.449 8 106933413.13108       612.008 8        50.031                                    20348728.195 8  83324810.37608       476.892 8        50.444    20348728.581 7  83324810.37007       476.938 7        45.986
E29        16.000    27055201.532 6 142175907.40006      1752.028 6        39.979                                                                    27055218.549 7 106170310.04407      1308.290 7        42.887    27055216.424 7 108939970.57607      1342.479 7        43.672
S45        17.000    63297050.227 6 332628847.01606      -652.458 6        36.749
R03        18.000    21228757.527 8 113639101.60408     -3712.563 8        48.965                                                                    21228766.014 7  88385956.40707     -2887.544 7        44.530
C35        19.000                                                                                                                                    22945410.226 8 119482897.95408      -203.515 8        48.113                                                                    22945415.361 7  97089715.68507      -165.445 7        47.279
E11        20.000    27218291.609 6 143033120.42706      -578.370 6        36.023                                                                    27218303.669 6 106810514.11506      -431.850 6        37.002    27218301.933 6 109596865.81206      -442.991 6        37.180
R14        21.000    21669686.730 8 115511640.06608      2255.379 8        48.748                                                                    21669698.152 7  89842442.99407      1754.180 7        44.254
I06        22.000    38298460.714 6 150291399.67506      -551.304 6        41.919
S28        23.000    40800009.121 5 214405251.93505      -599.475 5        35.514
S23        25.000    38043321.960 7 199918809.18007      -595.034 7        45.591
E08        26.000    25362246.559 7 133279368.51407     -3320.473 7        44.802                                                                    25362256.348 7  99526758.40907     -2479.558 7        47.182    25362254.791 7 102123111.05907     -2544.301 7        47.944
C07        27.000                                                                                                                                    39763200.871 6 207057320.77406     -1488.580 6        38.706    39763207.134 6 160109841.56406     -1151.138 6        41.387    39763202.904 6 168251012.20906     -1209.870 6        38.883
I02        29.000    36825548.080 7 144511334.04007      -538.078 7        43.134
G10        30.000    25104324.302 6 131923883.63906     -2682.514 6        38.814                                    25104340.972 4 102797777.56004     -2090.261 4        28.190    25104341.036 5 102797769.53505     -2090.374 5        34.881
E07        31.000    24236654.783 7 127364400.96307      -788.667 7        46.882                                                                    24236664.166 8  95109775.02708      -588.950 8        49.899    24236662.773 8  97590897.88408      -604.288 8        50.367
C12        32.000                                                                                                                                    25422426.339 6 132381277.06706      2865.865 6        38.508    25422438.651 7 102365666.16107      2216.082 7        45.956    25422433.894 7 107570673.91707      2328.768 7        42.499
E10        33.000    28324124.065 6 148844325.58906     -1833.154 6        36.106                                                                    28324137.153 6 111150068.95506     -1368.703 6        41.054    28324135.244 6 114049622.75006     -1404.561 6        41.120
R23        34.000    21344519.583 7 114178880.51707      2679.779 7        46.909
C24        35.000                                                                                                                                    21428306.992 8 111582853.17208       277.368 8        51.657                                                                    21428308.557 8  90670230.00708       225.292 8        49.991
R05        36.000    23712901.150 7 126758975.74407      2901.153 7        43.249                                                                    23712914.603 6  98590330.17706      2256.593 6        40.625
E27        37.000    27588293.232 6 144977454.59806      1911.375 6        39.135                                                                    27588311.164 6 108262466.20406      1427.226 6        41.092    27588308.646 6 111086692.84606      1464.419 6        41.232
R04        38.000    21010396.460 8 112509624.68408       -81.817 8        49.393                                                                    21010403.542 7  87507471.60607       -63.600 7        44.769
C33        39.000                                                                                                                                    24698468.561 7 128611328.36007     -2651.650 7        45.278                                                                    24698489.331 7 104507297.41507     -2154.713 7        44.918
E25        40.000    27942720.274 6 146839826.78106     -3171.903 6        36.718                                                                    27942736.848 6 109653073.08206     -2368.584 6        39.574    27942734.430 6 112513585.59706     -2430.451 6        40.148
S44        42.000    40700427.276 6 213882162.48506      -524.930 6        38.075
R22        43.000    21097957.367 8 112622450.78108      -768.804 8        48.938                                                                    21097964.627 7  87595325.38407      -597.978 7        46.411
C05        44.000                                                                                                                                    39356783.203 6 204940932.73506      -599.519 6        38.462    39356790.950 7 158473301.38207      -463.657 7        42.929    39356789.711 6 166531356.83606      -487.300 6        39.532
C40        45.000                                                                                                                                    40194167.690 6 209301471.26406     -1771.562 6        40.005                                                                    40194177.132 6 170074582.04806     -1439.696 6        39.111
G32        46.000    23818288.498 7 125165816.61807      1910.944 7        43.685                                    23818300.583 6  97531797.24006      1489.053 6        37.875    23818301.224 6  97531799.21806      1489.154 6        39.922
E36        47.000    27005901.621 6 141917015.66306      1590.338 6        40.250                                                                    27005916.471 7 105977093.54307      1187.558 7        43.048    27005914.805 7 108741698.00807      1218.479 7        44.697
C41        48.000                                                                                                                                    25306566.928 7 131777914.16807       -86.916 7        42.959                                                                    25306583.657 7 107080418.26007       -70.717 7        43.852
C10        49.000                                                                                                                                    38879805.185 6 202457313.19206     -1211.849 6        40.698    38879811.505 7 156552842.69007      -937.116 7        43.822    38879807.849 6 164513145.95606      -984.783 6        40.958
C42        50.000                                                                                                                                    26486812.237 6 137923485.82806     -3839.464 6        39.291                                                                    26486835.707 6 112074104.18206     -3120.096 6        40.906
S48        51.000    77042137.785 6 404859244.07706      -596.712 6        38.411
E02        53.000    23805619.106 7 125099427.48307     -2001.979 7        47.530                                                                    23805625.860 8  93418472.32608     -1494.976 8        50.272    23805624.451 8  95855458.44008     -1533.938 8        50.733
C60        54.000                                                                                                                                    40700433.972 6 211937796.37106      -520.201 6        40.052                                                                    40700430.866 6 172216737.47806      -422.802 6        38.670
R12        56.000    21472860.910 8 114704184.97408     -3340.795 8        48.458                                                                    21472870.594 7  89214385.13607     -2598.408 7        44.986
C02        57.000                                                                                                                                    40861823.081 5 212778044.48105      -556.318 5        31.826    40861833.247 6 164533412.39206      -430.189 6        36.386    40861831.910 5 172899543.43115      -452.049 5        31.781
I03        58.000   120234220.347 5 396039326.80405       893.621 5        32.389
C14        59.000                                                                                                                                    25279526.832 6 131636932.99806     -3526.920 6        41.261    25279537.020 7 101789965.15407     -2727.203 7        46.332    25279531.827 7 106965734.91107     -2865.969 7        43.014
R13        60.000    19379776.617 7 103486995.68107      -904.273 7        46.647
