     3.04           OBSERVATION DATA    M                   RINEX VERSION / TYPE
ssrcrin-15.6.1x                         20250101 063000 UTC PGM / RUN BY / DATE 
(00000000023479385599111004) Septentrio proprietary         COMMENT             
rref                                                        MARKER NAME         
01                                                          MARKER NUMBER       
geodetic                                                    MARKER TYPE         
NFB                 CLIMERS@TUW                             OBSERVER / AGENCY   
3297213             SEPT ASTERX SB3 PROB4.14.4              REC # / TYPE / VERS 
Unknown             Unknown                                 ANT # / TYPE        
  4127831.6257  1207192.7079  4695247.4469                  APPROX POSITION XYZ 
        0.0000        0.0000        0.0000                  ANTENNA: DELTA H/E/N
G   23 X1  C1C L1C D1C S1C C1W S1W C2W L2W D2W S2W C2L L2L  SYS / # / OBS TYPES 
       D2L S2L C5Q L5Q D5Q S5Q C1L L1L D1L S1L              SYS / # / OBS TYPES 
E   21 X1  C1C L1C D1C S1C C6C L6C D6C S6C C5Q L5Q D5Q S5Q  SYS / # / OBS TYPES 
       C7Q L7Q D7Q S7Q C8Q L8Q D8Q S8Q                      SYS / # / OBS TYPES 
S    9 X1  C1C L1C D1C S1C C5I L5I D5I S5I                  SYS / # / OBS TYPES 
R   17 X1  C1C L1C D1C S1C C2P L2P D2P S2P C2C L2C D2C S2C  SYS / # / OBS TYPES 
       C3Q L3Q D3Q S3Q                                      SYS / # / OBS TYPES 
C   25 X1  C1P L1P D1P S1P C5P L5P D5P S5P C2I L2I D2I S2I  SYS / # / OBS TYPES 
       C7I L7I D7I S7I C6I L6I D6I S6I C7D L7D D7D S7D      SYS / # / OBS TYPES 
J   17 X1  C1C L1C D1C S1C C2L L2L D2L S2L C5Q L5Q D5Q S5Q  SYS / # / OBS TYPES 
       C1L L1L D1L S1L                                      SYS / # / OBS TYPES 
I    5 X1  C5A L5A D5A S5A                                  SYS / # / OBS TYPES 
SEPTENTRIO RECEIVERS OUTPUT ALIGNED CARRIER PHASES.         COMMENT             
NO FURTHER PHASE SHIFT APPLIED IN THE RINEX ENCODER.        COMMENT             
G L1C                                                       SYS / PHASE SHIFT   
G L2W                                                       SYS / PHASE SHIFT   
G L2L  0.00000                                              SYS / PHASE SHIFT   
G L5Q  0.00000                                              SYS / PHASE SHIFT   
G L1L  0.00000                                              SYS / PHASE SHIFT   
E L1C  0.00000                                              SYS / PHASE SHIFT   
E L6C  0.00000                                              SYS / PHASE SHIFT   
E L5Q  0.00000                                              SYS / PHASE SHIFT   
E L7Q  0.00000                                              SYS / PHASE SHIFT   
E L8Q  0.00000                                              SYS / PHASE SHIFT   
S L1C                                                       SYS / PHASE SHIFT   
S L5I                                                       SYS / PHASE SHIFT   
R L1C                                                       SYS / PHASE SHIFT   
R L2P  0.00000                                              SYS / PHASE SHIFT   
R L2C                                                       SYS / PHASE SHIFT   
R L3Q  0.00000                                              SYS / PHASE SHIFT   
C L1P  0.00000                                              SYS / PHASE SHIFT   
C L5P  0.00000                                              SYS / PHASE SHIFT   
C L2I                                                       SYS / PHASE SHIFT   
C L7I                                                       SYS / PHASE SHIFT   
C L6I                                                       SYS / PHASE SHIFT   
C L7D                                                       SYS / PHASE SHIFT   
J L1C                                                       SYS / PHASE SHIFT   
J L2L  0.00000                                              SYS / PHASE SHIFT   
J L5Q  0.00000                                              SYS / PHASE SHIFT   
J L1L  0.00000                                              SYS / PHASE SHIFT   
I L5A                                                       SYS / PHASE SHIFT   
  2025     1     1     6    30    0.0000000     GPS         TIME OF FIRST OBS   
 C1C    0.000 C2C    0.000 C2P    0.000                     GLONASS COD/PHS/BIS 
DBHZ                                                        SIGNAL STRENGTH UNIT
    18                                                      LEAP SECONDS        
 24 R01  1 R02 -4 R03  5 R04  6 R05  1 R06 -4 R07  5 R08  6 GLONASS SLOT / FRQ #
    R09 -2 R10 -7 R11  0 R12 -1 R13 -2 R14 -7 R15  0 R16 -1 GLONASS SLOT / FRQ #
    R17  4 R18 -3 R19  3 R20  2 R21  4 R22 -3 R23  3 R24  2 GLONASS SLOT / FRQ #
                                                            END OF HEADER       
> 2025 01 01 06 30  0.0000000  0 53
G08         1.000    25343239.599 5                      1850.483 5        33.994                                                                                                    25343250.489 5 103776375.14205      1441.987 5        31.117
R01         2.000    21916762.268 7 117157646.73607      2988.456 7        44.840                                                                    21916762.107 6  91122682.59406      2324.308 6        38.973
G09         3.000    22955945.485 7 120634287.10407     -3317.219 7        42.861                                    22955947.121 6  94000738.11606     -2584.839 6        41.569    22955946.647 6  94000739.10606     -2584.865 6        41.583
E34         4.000    27531612.620 6 144679572.33406     -3527.661 6        39.571                                                                    27531615.291 7 108039936.91407     -2634.324 7        42.144    27531615.033 7 110858370.67407     -2703.007 7        43.173
S21         5.000    38575711.284 7 202716513.17807      -401.841 7        43.960
E05         6.000    22406927.058 8 117749224.13708     -1406.268 8        48.429                                                                    22406928.051 8  87929640.19908     -1050.118 8        50.721    22406927.736 8  90223449.53108     -1077.490 8        51.959
E15         7.000    26025706.777 7 136766023.24407     -1980.537 7        43.359                                                                    26025708.086 7 102130492.76207     -1478.850 7        46.127    26025707.613 7 104794764.56107     -1517.455 7        46.617
R10         8.000    19578712.971 7 104365554.07507       155.868 7        47.284
E31         9.000    26999910.304 6 141885471.38906     -2097.846 6        39.201                                                                    26999912.765 7 105953453.27807     -1566.313 7        42.663    26999912.317 7 108717455.22707     -1607.162 7        43.344
G04        10.000    25557665.181 4 134306267.65004     -3621.395 4        28.626                                    25557673.656 1 104654190.78301     -2821.720 1         2.800    25557672.740 4 104654185.80804     -2821.787 4        28.550
E09        11.000    27909172.035 6 146663614.98106     -2808.926 6        39.640                                                                    27909180.125 6 109521511.73406     -2097.608 6        41.774    27909179.261 7 112378598.09307     -2152.339 7        43.183
S27        12.000    39229970.197 6 206154828.48506      -425.314 6        36.518
G06        13.000    25767132.647 4                     -3838.939 4        25.143                                                                                                    25767141.376 4 105512075.52604     -2993.411 4        29.763
S36        14.000    38344195.266 7 201500611.99607      -402.460 7        44.841
G20        15.000    20799647.713 8 109302886.38408      -513.698 8        48.594                                    20799643.530 6  85171059.85906      -400.282 6        40.060
R11        16.000    21806407.098 8 116526833.43608      3674.333 8        48.878                                                                    21806407.030 7  90631981.31707      2857.952 7        45.375
S45        17.000    63526703.259 6 333836487.62606      -445.304 6        36.715
E13        18.000    27227127.793 6 143079541.68406       661.014 6        39.856                                                                    27227128.355 7 106845103.65607       493.670 7        43.117    27227127.895 7 109632367.84007       506.601 7        44.319
E24        19.000    25386230.396 7 133405514.97507       536.008 7        45.664                                                                    25386231.105 8  99621008.48008       400.254 8        48.505    25386230.238 8 102219814.47808       410.703 8        49.134
G30        21.000    20652214.092 8 108528134.88108       360.765 8        51.114                                    20652212.658 8  84567384.11308       281.117 8        52.433    20652213.245 7  84567388.10707       281.190 7        45.351
I06        22.000    38103199.821 7 149525328.42307      -323.267 7        43.280
S28        23.000    41006358.801 5 215489733.40205      -406.068 5        35.500
G14        24.000    23709413.915 7 124593809.79007      3087.149 7        42.053                                    23709413.111 4  97086087.27204      2405.566 4        28.834    23709413.797 7  97086089.28607      2405.533 7        42.011
S23        25.000    38279455.790 7 201159854.96607      -399.519 7        44.971
E08        26.000    28241560.863 6 148410409.66706      2059.306 6        37.773                                                                    28241559.968 6 110825954.55906      1537.887 6        39.345    28241559.676 6 113717063.95406      1577.806 6        40.358
G13        28.000    23000586.887 7 120868910.58907      2631.730 7        43.846                                    23000582.626 4  94183548.16404      2050.698 4        26.204
R09        29.000    21137051.421 8 112870666.34108     -3303.308 8        48.549                                                                    21137051.153 7  87788296.15207     -2569.264 7        47.402
C22        30.000                                                                                                                                    21701539.881 8 113005626.18908     -1141.157 8        52.376                                                                    21701534.312 8  91826311.89108      -927.187 8        50.411
I01        31.000   343999873.938 6  46788498.11706     -3001.670 6        40.841
E03        32.000    24181847.113 7 127076479.19407       923.191 7        47.607                                                                    24181847.304 8  94894791.60008       689.442 8        50.478    24181847.001 8  97370301.86408       707.410 8        51.395
G05        33.000    22006351.692 7 115644183.91507      1896.434 7        46.147                                    22006347.698 7  90112349.73307      1477.744 7        44.691    22006348.166 7  90112352.73507      1477.652 7        43.162
R24        34.000    23246438.511 7 124309168.19807     -2789.050 7        45.976                                                                    23246437.302 6  96684911.08306     -2169.243 6        40.133
C36        35.000                                                                                                                                    22036567.978 8 114750189.22708      -642.532 8        51.287                                                                    22036573.226 8  93243948.62708      -522.057 8        50.668
G11        36.000    24060377.854 7 126438140.69207     -3359.344 7        43.422                                    24060375.327 4  98523219.56104     -2617.678 4        27.988    24060375.504 6  98523219.54706     -2617.649 6        41.893
I09        38.000    38916224.563 6 152715545.01806      -857.840 6        41.642
R08        39.000    19443780.705 8 104120567.89808      -204.097 8        50.316                                                                    19443778.907 7  80982662.94907      -158.745 7        46.953
E25        40.000    26397217.192 7 138718326.12507      2577.189 7        42.434                                                                    26397221.228 7 103588366.76407      1924.489 7        45.594    26397220.485 7 106290663.65907      1974.723 7        46.442
G27        41.000    25270513.187 6 132797450.80306       793.526 6        36.181                                    25270516.156 4 103478545.08304       618.334 4        25.519    25270516.481 5 103478549.09405       618.062 5        32.497
S44        42.000    40988590.966 6 215396554.44206      -446.507 6        37.701
C09        43.000                                                                                                                                    40023242.216 6 208411498.92306     -1184.808 6        38.105    40023241.661 7 161156969.74107      -916.117 7        42.756    40023239.029 6 169351385.55306      -962.632 6        39.523
C05        44.000                                                                                                                                    39399736.482 6 205164738.21806      -461.587 6        38.748    39399735.505 7 158646397.23307      -356.777 7        42.863    39399736.372 6 166713245.38006      -374.896 6        40.141
C21        46.000                                                                                                                                    23311953.293 8 121391460.53608      1753.762 8        49.314                                                                    23311948.167 8  98640477.73808      1425.171 8        49.185
R17        47.000    23392417.538 7 125177562.54907       471.896 7        44.694                                                                    23392417.318 6  97360332.28806       366.968 6        41.223
C06        49.000                                                                                                                                    40856193.216 5 212748847.21805     -1388.911 5        35.338    40856194.212 6 164510862.64006     -1073.827 6        39.267    40856191.913 6 172875824.69206     -1128.386 6        36.155
C16        50.000                                                                                                                                    41399961.404 6 215580375.48706     -1332.146 6        37.251    41399967.613 6 166700403.20806     -1030.092 6        37.773    41399963.836 5 175176690.85705     -1082.753 5        33.575
S48        51.000    77302193.052 6 406225381.98306      -387.380 6        38.366
C19        52.000                                                                                                                                    25275299.451 7 131615101.06807     -3315.057 7        44.104                                                                    25275298.040 7 106948038.20607     -2693.807 7        44.584
C60        54.000                                                                                                                                    40988592.484 6 213438422.14906      -442.281 6        40.238                                                                    40988583.033 6 173436142.48606      -359.512 6        39.336
C11        56.000                                                                                                                                    26562241.539 5 138316561.33105     -1918.053 5        35.462    26562237.585 7 106955119.52707     -1483.141 7        42.163    26562236.347 6 112393513.16606     -1558.586 6        39.042
C02        57.000                                                                                                                                    40972359.265 5 213353723.76705      -476.302 5        34.595    40972362.214 6 164978588.31506      -368.128 6        40.815    40972362.705 5 173367349.45005      -386.760 5        35.490
I03        58.000   127131059.526 6 423104158.55306       904.498 6        40.236
R07        59.000    21466125.709 8 114909828.14208     -3272.848 8        49.401                                                                    21466126.459 7  89374300.92507     -2545.490 7        44.853
G07        60.000    21371192.330 8 112306389.55608     -1821.824 8        48.256                                    21371188.749 8  87511463.58408     -1419.600 8        48.445    21371188.859 7  87511464.58607     -1419.633 7        45.391
> 2025 01 01 06 30  5.0000000  0 54
G08         1.000    25341478.965 5 133170367.76315      1848.938 5        33.401                                                                                                    25341487.761 5 103769168.46305      1440.805 5        30.158
R01         2.000    21913967.422 7 117142706.53307      2987.776 7        44.909                                                                    21913967.150 6  91111062.42806      2323.766 6        38.712
G09         3.000    22959101.551 7 120650875.08407     -3318.023 7        42.643                                    22959103.729 6  94013663.77306     -2585.463 6        41.352    22959103.783 6  94013664.75606     -2585.506 6        41.466
E34         4.000    27534969.557 6 144697211.69006     -3527.913 6        39.637                                                                    27534972.124 7 108053109.12507     -2634.467 7        42.254    27534971.842 7 110871886.52507     -2703.188 7        43.397
S21         5.000    38576092.588 7 202718523.26107      -401.848 7        43.892
E05         6.000    22408265.554 8 117756258.06008     -1407.267 8        48.459                                                                    22408266.608 8  87934892.78608     -1050.840 8        50.734    22408266.239 8  90228839.14608     -1078.272 8        52.062
E15         7.000    26027591.961 7 136775930.90907     -1982.439 7        43.454                                                                    26027593.430 7 102137891.33707     -1480.384 7        46.078    26027592.925 7 104802356.13507     -1519.007 7        46.728
R10         8.000    19578568.673 7 104364785.97007       151.394 7        46.987
E31         9.000    27001907.059 6 141895964.33206     -2099.327 6        39.285                                                                    27001909.637 7 105961288.94007     -1567.913 7        42.783    27001909.076 7 108725495.28407     -1608.631 7        43.206
G04        10.000    25561110.437 4 134324375.22704     -3621.086 4        28.445                                    25561119.408 1 104668300.68701     -2821.593 1         5.000    25561119.104 4 104668295.64404     -2822.804 4        28.199
E09        11.000    27911844.970 6 146677660.95606     -2809.313 6        39.450                                                                    27911852.987 6 109532000.53806     -2097.856 6        41.554    27911852.282 7 112389360.52607     -2152.585 7        43.416
S27        12.000    39230376.668 6 206156954.53306      -425.142 6        36.798
G06        13.000    25770789.822 3                     -3840.744 3        23.124                                                                                                    25770795.280 4 105527038.28904     -2992.135 4        29.014
S36        14.000    38344577.908 7 201502624.23007      -402.385 7        44.761
G20        15.000    20800138.392 8 109305463.39208      -516.943 8        48.383                                    20800133.919 6  85173067.90406      -402.812 6        39.934
R11        16.000    21802970.183 8 116508466.25208      3672.363 8        48.454                                                                    21802969.891 7  90617695.73107      2856.418 7        44.892
S45        17.000    63527083.852 6 333838713.70806      -445.075 6        36.888
E13        18.000    27226499.702 6 143076242.24106       658.826 6        40.136                                                                    27226500.457 7 106842639.79607       491.994 7        43.001    27226500.045 7 109629839.69807       504.875 7        44.444
E24        19.000    25385721.563 7 133402840.87107       533.734 7        45.654                                                                    25385722.279 8  99619011.57008       398.618 8        48.478    25385721.312 8 102217765.47508       409.024 8        49.250
G30        21.000    20651872.055 8 108526336.75608       358.550 8        50.997                                    20651870.490 8  84565982.97208       279.389 8        52.312    20651870.999 7  84565986.98407       279.294 7        45.064
I06        22.000    38103611.963 7 149526945.36207      -323.351 7        43.363
S28        23.000    41006745.503 5 215491763.28905      -405.934 5        35.476
G14        24.000    23706476.657 7 124578375.92707      3086.511 7        42.040                                    23706476.310 4  97074060.89804      2405.073 4        28.673    23706477.264 7  97074062.89807      2405.199 7        42.076
S23        25.000    38279837.161 7 201161852.59307      -399.449 7        44.871
E08        26.000    28239602.177 6 148400113.15306      2059.365 6        38.057                                                                    28239600.435 6 110818265.61006      1537.861 6        39.390    28239600.379 6 113709174.42306      1577.950 6        40.288
G13        28.000    22998082.883 7 120855753.73407      2631.104 7        43.304                                    22998078.951 4  94173296.06904      2050.208 4        26.180
R09        29.000    21140145.252 8 112887190.65908     -3306.275 8        48.319                                                                    21140145.249 7  87801148.39307     -2571.560 7        46.695
C22        30.000                                                                                                                                    21702636.668 8 113011337.20508     -1143.193 8        52.433                                                                    21702631.012 8  91830952.55208      -928.868 8        50.339
I01        31.000   344003699.032 6  46803507.15806     -3001.691 6        40.801
E03        32.000    24180969.212 7 127071865.39507       922.387 7        47.594                                                                    24180969.328 8  94891346.21708       688.867 8        50.418    24180969.049 8  97366766.60908       706.750 8        51.523
G05        33.000    22004548.323 7 115634708.19607      1893.996 7        45.970                                    22004544.521 7  90104966.04707      1475.840 7        44.536    22004545.279 7  90104969.04807      1475.870 7        43.242
R24        34.000    23249046.785 7 124323120.86907     -2792.041 7        44.918                                                                    23249046.669 6  96695763.18606     -2171.509 6        40.226
C36        35.000                                                                                                                                    22037186.061 8 114753408.53808      -645.103 8        51.415                                                                    22037191.480 8  93246564.58508      -524.161 8        50.588
G11        36.000    24063574.410 7 126454940.34207     -3360.479 7        42.665                                    24063572.135 4  98536310.17404     -2618.559 4        27.689    24063571.550 6  98536310.16106     -2618.464 6        40.851
I09        38.000    38917317.642 6 152719834.05906      -857.775 6        41.743
R08        39.000    19443972.698 8 104121595.41708      -206.778 8        50.177                                                                    19443971.024 7  80983462.12107      -160.789 7        46.805
E25        40.000    26394765.709 7 138705442.40907      2576.436 7        42.284                                                                    26394769.515 7 103578745.80807      1924.020 7        45.541    26394769.021 7 106280791.73307      1974.115 7        46.583
G27        41.000    25269760.073 5 132793491.09505       790.672 5        35.262                                    25269762.585 4 103475459.58104       616.122 4        25.323    25269763.296 5 103475463.56705       616.085 5        32.707
S44        42.000    40989013.091 6 215398786.52506      -446.371 6        37.645
C09        43.000                                                                                                                                    40024380.063 6 208417422.65406     -1184.748 6        38.261    40024379.472 7 161161550.31807      -916.037 7        42.627    40024376.684 6 169356199.04906      -962.508 6        39.369
C05        44.000                                                                                                                                    39400179.964 6 205167045.70706      -461.503 6        38.679    39400178.745 7 158648181.51707      -356.815 7        43.058    39400179.384 6 166715120.39106      -374.920 6        40.021
C21        46.000                                                                                                                                    23310269.788 8 121382694.84308      1752.585 8        49.149                                                                    23310264.811 8  98633354.89708      1424.183 8        49.028
R17        47.000    23391977.896 7 125175213.92107       467.686 7        44.859                                                                    23391978.437 7  97358505.58507       363.720 7        42.006
C06        49.000                                                                                                                                    40857526.151 5 212755790.58505     -1388.577 5        35.324    40857526.783 6 164516231.63006     -1073.647 6        39.147    40857525.570 6 172881466.71606     -1128.396 6        36.507
C16        50.000                                                                                                                                    41401240.207 6 215587036.18606     -1332.057 6        36.964    41401246.641 6 166705553.63006     -1029.938 6        37.939    41401243.014 5 175182103.15905     -1082.530 5        33.323
S48        51.000    77302567.618 6 406227319.43606      -387.465 6        38.264
C19        52.000                                                                                                                                    25278483.214 7 131631679.09807     -3315.978 7        44.355                                                                    25278481.955 7 106961509.18507     -2694.488 7        44.673
C60        54.000                                                                                                                                    40989016.877 6 213440633.93706      -442.143 6        40.162                                                                    40989007.895 6 173437939.72206      -359.326 6        39.153
C45        55.000                                                                                                                                    23262092.163 8 121131815.98118      2228.882 8        49.476                                                                    23262085.381 8  98429495.74718      1811.229 8        48.972
C11        56.000                                                                                                                                    26564083.439 6 138326157.28906     -1920.260 6        36.110    26564080.482 6 106962539.73206     -1484.672 6        41.762    26564078.933 6 112401310.66906     -1560.102 6        38.925
C02        57.000                                                                                                                                    40972816.448 5 213356104.96105      -476.512 5        34.424    40972819.455 6 164980429.56606      -368.092 6        40.989    40972819.982 5 173369284.32505      -386.624 5        35.205
I03        58.000   127129907.349 6 423099635.65906       904.685 6        40.379
R07        59.000    21469183.329 8 114926197.16008     -3274.644 8        48.995                                                                    21469184.549 7  89387032.37507     -2547.039 7        44.957
G07        60.000    21372926.477 8 112315503.13408     -1823.498 8        48.214                                    21372923.024 8  87518565.06308     -1420.904 8        48.292    21372923.200 7  87518566.06407     -1420.893 7        45.177
> 2025 01 01 06 30 10.0000000  0 54
G08         1.000    25339719.928 5 133161127.17005      1847.161 5        33.066                                                                                                    25339730.418 5 103761968.04605      1439.400 5        31.004
R01         2.000    21911172.815 7 117127770.17907      2986.862 7        44.388                                                                    21911172.812 6  91099445.25306      2323.186 6        38.619
G09         3.000    22962259.345 7 120667467.89207     -3319.180 7        42.944                                    22962261.267 6  94026593.19706     -2586.366 6        41.232    22962261.236 6  94026594.17306     -2586.295 6        41.249
E34         4.000    27538326.480 6 144714852.28006     -3528.234 6        39.835                                                                    27538329.125 7 108066282.25207     -2634.726 7        42.243    27538328.748 7 110885403.29807     -2703.389 7        43.412
S21         5.000    38576476.853 7 202720533.32407      -402.048 7        43.922
E05         6.000    22409605.147 8 117763297.08708     -1408.382 8        48.377                                                                    22409606.120 8  87940149.18508     -1051.688 8        50.721    22409605.784 8  90234232.67008     -1079.182 8        52.021
E15         7.000    26029479.585 7 136785849.28407     -1984.929 7        43.278                                                                    26029480.884 7 102145297.89107     -1482.183 7        46.139    26029480.303 7 104809955.90707     -1520.815 7        46.745
R10         8.000    19578428.399 7 104364040.63707       146.781 7        46.964
E31         9.000    27003905.861 6 141906467.24206     -2101.540 6        39.745                                                                    27003908.249 7 105969132.00107     -1569.397 7        42.910    27003907.857 7 108733542.95607     -1610.409 7        43.348
G04        10.000    25564556.016 4 134342483.87404     -3621.416 4        29.270                                    25564565.383 1 104682411.10801     -2821.920 1         5.286    25564564.733 4 104682406.17604     -2822.095 4        28.588
E09        11.000    27914517.997 6 146691708.30106     -2809.641 6        39.339                                                                    27914526.037 6 109542490.36506     -2098.164 6        41.478    27914525.422 7 112400124.00807     -2152.925 7        43.458
S27        12.000    39230782.087 6 206159080.54506      -425.138 6        36.684
G06        13.000    25774440.526 4                     -3835.059 4        24.361                                                                                                    25774447.961 4 105541998.57204     -2991.967 4        28.720
S36        14.000    38344961.568 7 201504636.48107      -402.450 7        44.826
G20        15.000    20800631.853 8 109308057.11308      -520.484 8        48.561                                    20800627.497 6  85175088.97806      -405.570 6        39.994
R11        16.000    21799534.618 8 116490108.74408      3670.532 8        48.607                                                                    21799533.997 7  90603417.67107      2854.783 7        45.315
S45        17.000    63527465.178 6 333839339.63216      -445.282 6        36.809
E13        18.000    27225874.150 6 143072954.70806       656.223 6        40.446                                                                    27225874.828 7 106840184.81907       490.160 7        43.137    27225874.486 7 109627320.69007       502.921 7        44.418
E24        19.000    25385214.771 7 133400178.59007       531.230 7        45.714                                                                    25385215.667 8  99617023.49208       396.671 8        48.550    25385214.673 8 102215725.53408       407.058 8        49.184
G30        21.000    20651532.175 8 108524550.76508       355.991 8        51.239                                    20651530.633 8  84564591.28208       277.396 8        52.347    20651531.199 7  84564595.28107       277.377 7        45.400
I06        22.000    38104024.017 7 149528562.48607      -323.522 7        43.245
S28        23.000    41007131.064 5 215493793.08105      -405.874 5        35.319
G14        24.000    23703540.440 6 124562945.25306      3085.923 6        41.635                                    23703540.095 4  97062036.99704      2404.603 4        28.588    23703540.048 7  97062039.01707      2404.448 7        42.125
S23        25.000    38280215.675 7 201163850.38407      -399.572 7        45.038
E08        26.000    28237642.759 6 148389816.77206      2059.335 6        37.830                                                                    28237641.252 6 110810576.75906      1537.713 6        39.501    28237640.933 6 113701284.99606      1577.720 6        40.522
G13        28.000    22995580.279 7 120842600.65307      2630.200 7        43.761                                    22995575.902 4  94163046.91304      2049.505 4        26.251
R09        29.000    21143242.044 8 112903729.87308     -3309.404 8        48.532                                                                    21143242.294 7  87814012.21307     -2573.994 7        46.806
C22        30.000                                                                                                                                    21703735.489 8 113017058.76608     -1145.390 8        52.266                                                                    21703729.845 8  91835601.77308      -930.674 8        50.394
I01        31.000   344007523.676 6  46818516.82206     -3001.953 6        40.765
E03        32.000    24180091.978 7 127067255.88507       921.415 7        47.835                                                                    24180092.159 8  94887904.04408       688.082 8        50.493    24180091.835 8  97363234.63808       706.040 8        51.435
G05        33.000    22002747.724 7 115625245.27607      1891.237 7        46.300                                    22002743.798 7  90097592.34107      1473.693 7        44.576    22002744.250 7  90097595.33507      1473.769 7        43.052
R24        34.000    23251659.464 7 124337089.25407     -2795.313 7        45.401                                                                    23251658.332 6  96706627.47506     -2174.118 6        39.766
C36        35.000                                                                                                                                    22037807.161 8 114756641.13408      -647.903 8        51.440                                                                    22037812.237 8  93249191.32308      -526.386 8        50.681
G11        36.000    24066772.503 7 126471746.34007     -3361.742 7        42.823                                    24066770.364 4  98549405.73904     -2619.539 4        27.653    24066770.365 6  98549405.73906     -2619.612 6        41.306
I09        38.000    38918410.641 6 152724123.62106      -858.010 6        41.659
R08        39.000    19444167.150 8 104122636.67508      -209.721 8        50.353                                                                    19444165.338 7  80984271.97707      -163.036 7        46.855
E25        40.000    26392314.950 7 138692562.53807      2575.609 7        42.519                                                                    26392318.679 7 103569127.72407      1923.247 7        45.634    26392317.964 7 106270922.73807      1973.480 7        46.577
G27        41.000    25269008.559 5 132789545.47305       787.664 5        35.557                                    25269011.768 4 103472385.05104       613.763 4        25.744    25269012.361 5 103472389.05805       613.710 5        32.988
S44        42.000    40989437.216 6 215401018.49906      -446.523 6        37.834
C09        43.000                                                                                                                                    40025517.637 6 208423346.05106     -1184.807 6        38.246    40025516.900 7 161166130.64307      -916.172 7        42.703    40025514.157 6 169361012.26106      -962.532 6        39.306
C05        44.000                                                                                                                                    39400623.173 6 205169353.20806      -461.465 6        38.850    39400621.977 7 158649965.79407      -356.804 7        43.276    39400622.419 6 166716995.40606      -374.993 6        40.019
C21        46.000                                                                                                                                    23308587.776 8 121373935.55208      1751.202 8        49.083                                                                    23308582.664 8  98626237.24508      1423.042 8        49.090
R17        47.000    23391542.598 7 125172886.44307       463.324 7        44.176                                                                    23391543.152 6  97356695.32006       360.377 6        41.216
C06        49.000                                                                                                                                    40858860.638 5 212762733.21405     -1388.732 5        35.605    40858859.968 6 164521600.04506     -1073.681 6        39.213    40858858.837 6 172887108.08906     -1128.155 6        36.612
C16        50.000                                                                                                                                    41402519.233 6 215593695.94706     -1331.843 6        37.353    41402526.125 6 166710703.34006     -1030.041 6        38.030    41402521.630 5 175187514.71705     -1082.131 5        33.497
S48        51.000    77302942.433 6 406229256.93006      -387.469 6        38.324
C19        52.000                                                                                                                                    25281667.859 7 131648261.77307     -3317.124 7        44.361                                                                    25281666.610 7 106974983.92007     -2695.273 7        45.096
C60        54.000                                                                                                                                    40989441.632 6 213442845.62406      -442.365 6        40.124                                                                    40989432.628 6 173439736.85706      -359.279 6        39.183
C45        55.000                                                                                                                                    23259952.901 8 121120676.27508      2226.980 8        49.609                                                                    23259945.993 8  98420443.81408      1809.700 8        49.029
C11        56.000                                                                                                                                    26565928.055 6 138335763.73206     -1922.450 6        36.699    26565924.982 6 106969968.04806     -1486.541 6        41.311    26565923.499 6 112409116.68206     -1562.020 6        38.712
C02        57.000                                                                                                                                    40973273.198 5 213358486.05705      -476.194 5        34.267    40973276.683 6 164982270.76606      -368.286 6        41.192    40973277.505 5 173371219.15705      -386.936 5        35.205
I03        58.000   127128754.593 6 423095112.72906       904.437 6        40.355
R07        59.000    21472242.034 8 114942575.61208     -3276.696 8        48.540                                                                    21472243.716 7  89399771.12807     -2548.526 7        44.715
G07        60.000    21374662.547 8 112324625.54508     -1825.413 8        48.239                                    21374658.975 8  87525673.42208     -1422.397 8        48.311    21374659.112 7  87525674.41907     -1422.429 7        45.544
> 2025 01 01 06 30 15.0000000  0 54
G08         1.000    25337963.545 5 133151894.61305      1845.347 5        32.659                                                                                                    25337974.733 5 103754773.89705      1437.949 5        31.479
R01         2.000    21908379.296 7 117112837.62207      2986.007 7        43.968                                                                    21908379.683 6  91087831.05606      2322.415 6        38.541
G09         3.000    22965418.051 7 120684065.47207     -3320.050 7        42.567                                    22965419.641 6  94039526.33606     -2587.041 6        41.139    22965419.146 6  94039527.32606     -2587.194 6        41.094
E34         4.000    27541683.741 6 144732494.03406     -3528.590 6        40.160                                                                    27541686.200 7 108079456.26007     -2634.917 7        42.152    27541685.708 7 110898920.98307     -2703.588 7        43.416
S21         5.000    38576860.129 7 202722543.04207      -401.879 7        43.837
E05         6.000    22410945.465 8 117770341.18008     -1409.433 8        48.217                                                                    22410946.565 8  87945409.36908     -1052.453 8        50.735    22410946.231 8  90239630.07808     -1079.910 8        52.146
E15         7.000    26031368.999 7 136795778.27307     -1986.948 7        43.191                                                                    26031370.386 7 102152712.38707     -1483.736 7        46.185    26031369.706 7 104817563.83407     -1522.507 7        46.844
R10         8.000    19578292.993 7 104363318.03607       142.160 7        47.210
E31         9.000    27005906.070 6 141916980.01506     -2103.546 6        39.607                                                                    27005908.823 7 105976982.42207     -1571.016 7        42.804    27005908.302 7 108741598.16507     -1611.859 7        43.399
G04        10.000    25568002.976 4 134360593.50104     -3622.475 4        28.777                                    25568011.672 1 104696522.58201     -2822.762 1         5.286    25568013.331 4 104696517.46704     -2822.169 4        28.654
E09        11.000    27917191.561 6 146705756.98606     -2810.115 6        39.060                                                                    27917199.482 6 109552981.18606     -2098.256 6        41.449    27917198.806 7 112410888.51607     -2153.074 7        43.534
S27        12.000    39231185.566 6 206161206.82906      -425.079 6        36.590
G06        13.000    25778094.839 3                     -3836.427 3        22.819                                                                                                    25778101.749 4 105556956.21204     -2990.580 4        28.218
S36        14.000    38345344.827 7 201506648.83407      -402.504 7        44.837
G20        15.000    20801128.709 8 109310667.48108      -523.811 8        48.377                                    20801124.240 6  85177123.01906      -408.162 6        40.107
R11        16.000    21796101.149 8 116471760.88308      3668.615 8        48.203                                                                    21796100.811 7  90589147.11207      2853.367 7        46.183
S45        17.000    63527843.187 6 333841565.50406      -445.312 6        36.960
E13        18.000    27225250.623 6 143069679.02206       653.849 6        40.451                                                                    27225251.500 7 106837738.69807       488.236 7        43.154    27225251.123 7 109624810.74807       500.984 7        44.382
E24        19.000    25384710.247 7 133397528.08007       528.882 7        45.755                                                                    25384711.254 8  99615044.20708       394.926 8        48.601    25384710.300 8 102213694.61608       405.263 8        49.227
G30        21.000    20651194.600 8 108522776.83608       353.574 8        50.987                                    20651193.075 8  84563208.99108       275.513 8        52.490    20651193.796 7  84563212.98807       275.477 7        45.302
I06        22.000    38104436.243 7 149530179.76507      -323.560 7        43.363
S28        23.000    41007512.744 5 215495822.49605      -406.061 5        35.595
G14        24.000    23700604.870 6 124547517.76306      3085.085 6        41.342                                    23700604.426 4  97050015.59004      2403.961 4        28.720    23700604.569 6  97050017.60106      2404.006 6        41.845
S23        25.000    38280596.166 7 201165848.07207      -399.519 7        45.043
E08        26.000    28235683.300 6 148379520.48806      2059.149 6        38.066                                                                    28235681.965 6 110802887.98906      1537.647 6        39.315    28235681.559 6 113693395.63606      1577.816 6        40.515
G13        28.000    22993077.989 7 120829451.27507      2629.493 7        43.435                                    22993073.484 4  94152800.64504      2048.952 4        26.359
R09        29.000    21146342.918 8 112920283.90908     -3312.328 8        48.604                                                                    21146341.994 7  87826887.55407     -2576.217 7        46.085
C22        30.000                                                                                                                                    21704836.203 8 113022790.82408     -1147.520 8        52.347                                                                    21704830.601 8  91840259.52208      -932.409 8        50.202
I01        31.000   344011348.956 6  46833527.06406     -3002.043 6        40.808
E03        32.000    24179215.783 7 127062650.63207       920.579 7        47.504                                                                    24179215.856 8  94884465.05208       687.386 8        50.524    24179215.476 8  97359705.93108       705.353 8        51.553
G05        33.000    22000949.721 7 115615795.17107      1888.601 7        46.271                                    22000945.491 7  90090228.61607      1471.641 7        44.653    22000945.576 7  90090231.61107      1471.683 7        42.618
R24        34.000    23254274.961 7 124351073.17307     -2798.458 7        46.317                                                                    23254273.344 6  96717503.84006     -2176.499 6        39.411
C36        35.000                                                                                                                                    22038430.399 8 114759886.97608      -650.562 8        51.350                                                                    22038435.593 8  93251828.82008      -528.575 8        50.478
G11        36.000    24069971.568 7 126488558.64007     -3363.122 7        42.637                                    24069969.703 4  98562506.20004     -2620.608 4        27.772    24069969.889 6  98562506.19406     -2620.743 6        41.159
I09        38.000    38919503.656 6 152728413.71106      -858.061 6        41.771
R08        39.000    19444364.339 8 104123691.64608      -212.416 8        50.324                                                                    19444362.318 7  80985092.50007      -165.172 7        46.860
E25        40.000    26389864.795 7 138679686.47207      2574.758 7        42.883                                                                    26389868.591 7 103559512.47607      1922.663 7        45.646    26389867.544 7 106261056.65107      1972.915 7        46.366
G27        41.000    25268260.901 6 132785613.90006       784.751 6        36.798                                    25268263.684 4 103469321.48404       611.495 4        25.970    25268264.343 5 103469325.48205       611.518 5        33.719
S44        42.000    40989863.889 6 215403250.31106      -446.278 6        37.819
C09        43.000                                                                                                                                    40026654.796 6 208429269.06606     -1184.585 6        38.174    40026654.368 7 161170710.64907      -916.049 7        42.711    40026651.848 6 169365825.16406      -962.528 6        39.144
C05        44.000                                                                                                                                    39401066.275 6 205171660.71006      -461.708 6        38.565    39401064.927 7 158651750.07307      -356.853 7        43.088    39401065.629 6 166718870.39306      -374.894 6        39.751
C21        46.000                                                                                                                                    23306907.005 8 121365182.62008      1749.894 8        49.176                                                                    23306901.749 8  98619124.75508      1422.010 8        48.935
R17        47.000    23391112.230 7 125170580.03707       459.111 7        43.570                                                                    23391112.412 6  97354901.44106       357.232 6        40.372
C06        49.000                                                                                                                                    40860192.860 5 212769675.01105     -1388.608 5        35.067    40860193.145 6 164526967.83006     -1073.499 6        39.147    40860191.904 6 172892748.81706     -1127.982 6        36.446
C16        50.000                                                                                                                                    41403798.491 6 215600354.77506     -1331.931 6        37.679    41403804.908 6 166715852.30306     -1029.753 6        38.057    41403800.739 5 175192925.50805     -1082.258 5        33.186
S48        51.000    77303314.835 6 406231194.08006      -387.643 6        38.417
C19        52.000                                                                                                                                    25284853.221 7 131664849.04507     -3317.953 7        44.008                                                                    25284852.155 7 106988462.39307     -2696.144 7        45.294
C60        54.000                                                                                                                                    40989866.409 6 213445057.14506      -442.297 6        40.040                                                                    40989857.320 6 173441533.86306      -359.297 6        39.174
C45        55.000                                                                                                                                    23257815.046 8 121109545.25408      2225.294 8        49.464                                                                    23257808.353 8  98411398.93608      1808.297 8        48.857
C11        56.000                                                                                                                                    26567776.470 6 138345380.56006     -1924.527 6        36.537    26567771.826 6 106977404.38606     -1488.129 6        41.495    26567770.478 6 112416931.13106     -1563.727 6        38.667
C02        57.000                                                                                                                                    40973731.127 5                      -475.859 5        34.295    40973734.336 6 164984111.88106      -368.319 6        41.185    40973734.313 5 173373153.89705      -387.238 5        34.810
I03        58.000   127127601.901 6 423090589.72106       904.631 6        40.334
R07        59.000    21475303.876 8 114958963.57108     -3278.554 8        48.754                                                                    21475304.725 7  89412517.29607     -2550.017 7        44.343
G07        60.000    21376400.204 8 112333756.72408     -1827.154 8        48.128                                    21376396.598 8  87532788.61508     -1423.753 8        48.351    21376396.724 7  87532789.60907     -1423.725 7        45.251
> 2025 01 01 06 30 20.0000000  0 54
G08         1.000    25336209.636 5 133142670.08705      1843.967 5        32.994                                    25336217.585 3 103747575.94713      1436.833 3        19.582    25336219.132 5 103747586.01005      1437.109 5        32.234
R01         2.000    21905586.802 7 117097908.96407      2985.305 7        43.731                                                                    21905586.935 6  91076219.86706      2321.941 6        38.351
G09         3.000    22968576.829 7 120700667.87107     -3321.036 7        42.927                                    22968578.860 6  94052463.23006     -2587.814 6        40.908    22968578.648 6  94052464.22306     -2587.856 6        40.605
E34         4.000    27545041.088 6 144750136.97306     -3528.712 6        40.098                                                                    27545043.564 7 108092631.17207     -2635.145 7        42.178    27545042.707 7 110912439.58407     -2703.893 7        43.327
S21         5.000    38577241.026 7 202724552.43307      -401.840 7        43.791
E05         6.000    22412287.054 8 117777390.35108     -1410.408 8        48.079                                                                    22412288.028 8  87950673.34808     -1053.218 8        50.834    22412287.637 8  90245031.37608     -1080.673 8        52.223
E15         7.000    26033260.115 7 136805717.94207     -1989.120 7        43.310                                                                    26033261.849 7 102160134.84307     -1485.299 7        46.206    26033261.285 7 104825179.91607     -1524.082 7        46.881
R10         8.000    19578161.871 7 104362618.10207       137.585 7        47.314
E31         9.000    27007908.625 6 141927502.65006     -2105.547 6        39.577                                                                    27007911.169 7 105984840.21907     -1572.456 7        42.802    27007910.763 7 108749660.95507     -1613.368 7        43.532
G04        10.000    25571450.187 4 134378704.05404     -3622.365 4        28.521                                    25571457.978 1 104710634.73001     -2822.986 1         3.200    25571458.758 4 104710629.61804     -2822.941 4        28.199
E09        11.000    27919865.061 6 146719807.01506     -2810.340 6        38.640                                                                    27919873.122 6 109563473.03106     -2098.523 6        41.614    27919872.364 7 112421654.05707     -2153.258 7        43.708
S27        12.000    39231589.542 6 206163332.85906      -425.300 6        36.556
G06        13.000    25781746.750 3                     -3838.174 3        23.924                                                                                                    25781753.498 4 105571911.37104     -2991.055 4        28.635
S36        14.000    38345727.043 7 201508661.36707      -402.677 7        44.668
G20        15.000    20801628.438 8 109313294.58108      -527.133 8        48.418                                    20801624.181 6  85179170.09806      -410.748 6        40.100
R11        16.000    21792668.974 8 116453422.71408      3666.594 8        48.030                                                                    21792669.929 7  90574884.09307      2851.803 7        46.077
S45        17.000    63528227.899 6 333843791.50706      -445.245 6        36.669
E13        18.000    27224629.637 6 143066415.25006       651.659 6        39.480                                                                    27224630.617 7 106835301.45607       486.560 7        43.098    27224629.982 7 109622309.93107       499.215 7        44.588
E24        19.000    25384208.234 7 133394889.38107       526.536 7        45.622                                                                    25384209.099 8  99613073.74008       393.176 8        48.620    25384208.193 8 102211672.75008       403.371 8        49.316
G30        21.000    20650859.266 8 108521015.02408       351.104 8        51.006                                    20650857.815 8  84561836.14408       273.590 8        52.467    20650858.464 7  84561840.14407       273.573 7        45.193
I06        22.000    38104848.429 7 149531797.20907      -323.580 7        43.281
S28        23.000    41007902.777 5 215497852.08405      -406.186 5        35.167
G14        24.000    23697669.923 7 124532093.50107      3084.389 7        42.650                                    23697669.325 4  97037996.69404      2403.421 4        28.825    23697669.582 6  97037998.69106      2403.433 6        41.809
S23        25.000    38280976.012 7 201167845.63507      -399.577 7        44.870
E08        26.000    28233723.501 6 148369224.29906      2059.273 6        36.979                                                                    28233722.797 6 110795199.26806      1537.715 6        39.342    28233722.288 6 113685506.35906      1577.752 6        40.601
G13        28.000    22990576.484 7 120816305.64707      2628.730 7        43.604                                    22990571.951 4  94142557.29804      2048.363 4        26.323
R09        29.000    21149445.476 8 112936852.84508     -3315.323 8        48.421                                                                    21149445.219 7  87839774.49207     -2578.584 7        46.334
C22        30.000                                                                                                                                    21705939.247 8 113028533.40708     -1149.637 8        52.231                                                                    21705933.374 8  91844925.84308      -934.017 8        50.161
I01        31.000   344015174.398 6  46848537.90306     -3002.219 6        40.782
E03        32.000    24178340.208 7 127058049.66707       919.658 7        47.637                                                                    24178340.325 8  94881029.25108       686.836 8        50.582    24178339.954 8  97356180.50508       704.699 8        51.660
G05        33.000    21999153.671 7 115606357.86507      1886.117 7        46.485                                    21999149.629 7  90082874.85807      1469.704 7        44.734    21999149.921 7  90082877.85107      1469.830 7        42.741
R24        34.000    23256893.166 7 124365072.60707     -2801.476 7        46.264                                                                    23256891.641 6  96728392.28706     -2178.905 6        40.114
C36        35.000                                                                                                                                    22039056.183 8 114763146.07908      -653.202 8        51.118                                                                    22039061.474 8  93254477.11308      -530.635 8        50.442
G11        36.000    24073172.668 7 126505377.22907     -3364.448 7        42.487                                    24073170.280 4  98575611.58204     -2621.644 4        27.641    24073170.088 6  98575611.56606     -2621.501 6        40.572
I09        38.000    38920597.030 6 152732704.30406      -858.260 6        41.661
R08        39.000    19444563.632 8 104124760.22408      -215.250 8        50.666                                                                    19444561.799 7  80985923.60107      -167.404 7        46.985
E25        40.000    26387415.181 7 138666814.21807      2573.917 7        43.056                                                                    26387419.059 7 103549900.07807      1922.158 7        45.846    26387417.851 7 106251193.49707      1972.305 7        46.286
G27        41.000    25267516.306 6 132781696.43406       782.069 6        36.261                                    25267518.242 4 103466268.90504       609.405 4        25.444    25267518.779 5 103466272.88405       609.494 5        33.150
S44        42.000    40990286.471 6 215405481.98006      -446.247 6        37.550
C09        43.000                                                                                                                                    40027792.596 6 208435191.70706     -1184.713 6        38.096    40027791.702 7 161175290.36307      -915.964 7        42.789    40027789.171 6 169370637.75806      -962.266 6        39.018
C05        44.000                                                                                                                                    39401509.270 6 205173968.19406      -461.670 6        38.544    39401508.230 7 158653534.34407      -356.899 7        43.209    39401508.968 6 166720745.42506      -374.950 6        39.931
C21        46.000                                                                                                                                    23305227.533 8 121356436.09808      1748.582 8        49.231                                                                    23305222.096 8  98612017.49708      1421.042 8        48.858
R17        47.000    23390684.770 7 125168294.74907       454.749 7        43.611                                                                    23390684.499 6  97353123.98306       353.742 6        40.722
C06        49.000                                                                                                                                    40861526.049 5 212776616.04805     -1388.265 5        35.352    40861526.415 6 164532335.04006     -1073.442 6        39.456    40861525.119 6 172898388.96306     -1127.785 6        36.284
C16        50.000                                                                                                                                    41405077.243 6 215607012.65906     -1331.578 6        37.750    41405083.360 6 166721000.53906     -1029.521 6        38.078    41405079.525 5 175198335.56105     -1082.026 5        33.359
S48        51.000    77303690.768 6 406233131.02606      -387.347 6        38.309
C19        52.000                                                                                                                                    25288039.684 7 131681440.94707     -3318.948 7        43.710                                                                    25288038.510 7 107001944.64007     -2696.731 7        45.159
C60        54.000                                                                                                                                    40990291.120 6 213447268.52906      -442.329 6        39.955                                                                    40990282.057 6 173443330.78306      -359.288 6        39.051
C45        55.000                                                                                                                                    23255678.747 8 121098422.96908      2223.518 8        49.085                                                                    23255672.528 8  98402361.17608      1806.969 8        48.780
C11        56.000                                                                                                                                    26569624.757 6 138355007.85906     -1926.500 6        36.681    26569620.516 6 106984848.81806     -1489.659 6        41.440    26569619.441 6 112424754.14706     -1565.453 6        38.330
C02        57.000                                                                                                                                    40974188.753 5 213363248.02415      -476.265 5        34.700    40974191.456 6 164985952.95006      -368.259 6        41.240    40974191.845 5 173375088.58405      -386.748 5        34.957
I03        58.000   127126449.599 6 423086066.68106       904.560 6        40.336
R07        59.000    21478367.147 8 114975360.99908     -3280.530 8        48.946                                                                    21478368.707 7  89425270.81107     -2551.519 7        44.679
G07        60.000    21378139.583 8 112342896.69108     -1828.934 8        48.405                                    21378135.898 8  87539910.65208     -1425.141 8        48.396    21378136.066 7  87539911.65307     -1425.201 7        45.196
> 2025 01 01 06 30 25.0000000  0 54
G08         1.000    25334454.104 5 133133453.74305      1842.514 5        33.491                                    25334464.128 3 103740394.43703      1435.717 3        20.190    25334463.623 5 103740404.48305      1435.703 5        32.299
R01         2.000    21902794.514 7 117082984.10707      2984.525 7        44.166                                                                    21902795.235 6  91064611.62406      2321.317 6        38.532
G09         3.000    22971737.456 7 120717275.09707     -3321.981 7        42.633                                    22971738.978 6  94065403.89206     -2588.546 6        40.787    22971738.719 6  94065404.86306     -2588.571 6        40.455
E34         4.000    27548398.426 6 144767781.13506     -3528.970 6        40.186                                                                    27548401.092 7 108105806.96507     -2635.242 7        42.097    27548400.142 7 110925959.11307     -2704.074 7        43.014
S21         5.000    38577623.819 7 202726561.68607      -401.997 7        43.644
E05         6.000    22413629.566 8 117784444.64808     -1411.378 8        48.288                                                                    22413630.413 8  87955941.14608     -1053.951 8        50.699    22413630.063 8  90250436.60508     -1081.476 8        52.233
E15         7.000    26035154.157 7 136815668.26407     -1991.155 7        43.336                                                                    26035155.321 7 102167565.27507     -1486.955 7        46.086    26035154.798 7 104832804.18707     -1525.681 7        46.992
R10         8.000    19578034.902 7 104361940.66207       133.188 7        47.341
E31         9.000    27009913.180 6 141938035.22406     -2107.591 6        39.871                                                                    27009915.373 7 105992705.41507     -1573.772 7        42.609    27009915.213 7 108757731.34907     -1614.916 7        43.617
G04        10.000    25574895.716 4 134396815.68804     -3623.030 4        28.095                                    25574904.548 1 104724747.56201     -2823.006 1         3.600    25574905.859 4 104724742.46304     -2822.767 4        29.204
E09        11.000    27922538.771 6 146733858.43206     -2810.562 6        38.640                                                                    27922547.302 6 109573965.89706     -2098.700 6        41.402    27922546.315 7 112432420.65607     -2153.451 7        43.594
S27        12.000    39231990.414 6 206165458.74306      -424.984 6        36.465
G06        13.000    25785400.437 3                     -3837.655 3        23.181                                                                                                    25785403.806 4 105586863.88904     -2990.052 4        28.408
S36        14.000    38346109.572 7 201510674.09807      -402.524 7        44.647
G20        15.000    20802131.545 8 109315938.39108      -530.468 8        48.124                                    20802127.279 6  85181230.19706      -413.349 6        40.119
R11        16.000    21789238.526 7 116435094.31407      3664.630 7        47.493                                                                    21789239.216 7  90560628.66107      2850.257 7        45.246
S45        17.000    63528607.759 6 333846017.61506      -445.326 6        36.730
E13        18.000    27224010.709 6 143063163.43506       649.026 6        39.988                                                                    27224011.781 7 106832873.16507       484.697 7        43.130    27224011.111 7 109619818.28707       497.400 7        44.703
E24        19.000    25383708.507 7 133392262.52207       524.075 7        45.619                                                                    25383709.206 8  99611112.10908       391.320 8        48.466    25383708.344 8 102209659.94908       401.520 8        49.384
G30        21.000    20650526.337 8 108519265.32908       348.653 8        51.026                                    20650524.867 8  84560472.73808       271.680 8        52.483    20650525.584 7  84560476.73507       271.689 7        45.315
I06        22.000    38105260.274 7 149533414.84507      -323.538 7        43.316
S28        23.000    41008287.542 5 215499882.07905      -406.302 5        35.190
G14        24.000    23694735.278 7 124516672.48807      3083.861 7        42.703                                    23694734.840 4  97025980.32204      2403.009 4        29.071    23694735.021 6  97025982.31706      2402.960 6        41.857
S23        25.000    38281357.643 7 201169843.39807      -399.630 7        44.733
E08        26.000    28231764.405 6 148358928.24806      2059.273 6        36.873                                                                    28231763.435 6 110787510.67606      1537.690 6        39.255    28231762.991 6 113677617.17006      1577.825 6        40.508
G13        28.000    22988075.871 7 120803163.76907      2627.953 7        43.424                                    22988071.151 4  94132316.86804      2047.758 4        26.503
R09        29.000    21152550.678 8 112953436.64008     -3318.338 8        48.289                                                                    21152551.226 7  87852672.97607     -2580.927 7        46.411
C22        30.000                                                                                                                                    21707043.957 8 113034286.53508     -1151.783 8        52.199                                                                    21707038.225 8  91849600.72108      -935.840 8        50.384
I01        31.000   344018999.764 6  46863549.36606     -3002.339 6        40.744
E03        32.000    24177465.375 7 127053452.99307       918.949 7        47.695                                                                    24177465.599 8  94877596.66308       686.181 8        50.411    24177465.210 8  97352658.37408       704.073 8        51.665
G05        33.000    21997360.370 7 115596933.42707      1883.510 7        46.048                                    21997356.222 7  90075531.13407      1467.669 7        44.828    21997356.774 7  90075534.13107      1467.705 7        42.645
R24        34.000    23259513.638 7 124379087.73507     -2804.602 7        46.196                                                                    23259513.101 6  96739292.93506     -2181.354 6        40.162
C36        35.000                                                                                                                                    22039684.635 8 114766418.47008      -655.882 8        50.982                                                                    22039689.928 8  93257136.18808      -532.912 8        50.684
G11        36.000    24076374.604 7 126522202.13107     -3365.647 7        43.009                                    24076371.877 4  98588721.86904     -2622.579 4        27.940    24076372.062 6  98588721.86806     -2622.424 6        40.961
I09        38.000    38921690.724 6 152736995.44606      -858.320 6        41.681
R08        39.000    19444765.917 8 104125842.66408      -217.895 8        50.172                                                                    19444764.098 7  80986765.48307      -169.448 7        46.993
E25        40.000    26384966.245 7 138653945.83607      2573.244 7        43.308                                                                    26384970.238 7 103540290.57907      1921.579 7        45.675    26384969.089 7 106241333.31007      1971.715 7        46.374
G27        41.000    25266771.883 5 132777793.13005       779.158 5        34.952                                    25266775.541 4 103463227.36404       607.145 4        25.128    25266774.823 5 103463231.36805       607.375 5        32.419
S44        42.000    40990712.769 6 215407713.53606      -446.115 6        37.403
C09        43.000                                                                                                                                    40028929.061 6 208441113.96006     -1184.612 6        37.928    40028929.484 7 161179869.79607      -915.971 7        42.883    40028926.528 6 169375450.07706      -962.647 6        39.354
C05        44.000                                                                                                                                    39401952.426 6 205176275.68906      -461.384 6        38.480    39401951.337 7 158655318.63207      -356.894 7        43.139    39401952.021 6 166722620.44406      -375.065 6        40.150
C21        46.000                                                                                                                                    23303549.016 8 121347695.99508      1747.294 8        49.066                                                                    23303543.711 8  98604915.44508      1419.872 8        49.134
R17        47.000    23390262.181 7 125166030.72607       450.568 7        43.596                                                                    23390261.965 6  97351363.09206       350.508 6        40.980
C06        49.000                                                                                                                                    40862858.423 5 212783556.33705     -1388.076 5        34.995    40862859.902 6 164537701.65706     -1073.286 6        39.652    40862857.823 6 172904028.47906     -1127.998 6        36.590
C16        50.000                                                                                                                                    41406355.376 6 215613669.65206     -1331.554 6        37.558    41406361.829 6 166726148.10506     -1029.358 6        37.754    41406358.067 5 175203744.85405     -1081.495 5        33.677
S48        51.000    77304063.205 6 406235068.08706      -387.699 6        38.306
C19        52.000                                                                                                                                    25291227.104 7 131698037.49107     -3319.902 7        43.238                                                                    25291225.655 7 107015430.64507     -2697.634 7        45.466
C60        54.000                                                                                                                                    40990716.031 6 213449479.79806      -442.262 6        40.026                                                                    40990706.709 6 173445127.59806      -359.421 6        39.084
C45        55.000                                                                                                                                    23253544.743 8 121087309.44508      2221.772 8        48.715                                                                    23253538.281 8  98393330.52208      1805.416 8        49.051
C11        56.000                                                                                                                                    26571474.326 6 138364645.68206     -1928.856 6        36.178    26571471.706 6 106992301.38006     -1491.383 6        41.738    26571470.337 6 112432585.63506     -1567.174 6        38.724
C02        57.000                                                                                                                                    40974645.749 5 213365628.91005      -476.175 5        34.386    40974648.541 6 164987793.97206      -368.204 6        41.159    40974649.100 5 173377023.24005      -386.914 5        35.148
I03        58.000   127125297.052 6 423081543.60506       904.582 6        40.403
R07        59.000    21481432.138 8 114991767.88608     -3282.325 8        49.005                                                                    21481433.838 7  89438031.68207     -2552.854 7        44.840
G07        60.000    21379880.546 8 112352045.47408     -1830.672 8        48.264                                    21379876.880 8  87547039.56308     -1426.495 8        48.473    21379876.968 7  87547040.55907     -1426.493 7        45.357
> 2025 01 01 06 30 30.0000000  0 54
G08         1.000    25332702.087 5 133124245.24205      1840.823 5        32.323                                    25332711.873 3 103733219.04203      1434.400 3        19.940    25332711.318 5 103733229.07105      1434.742 5        32.335
R01         2.000    21900003.535 7 117068062.86107      2983.951 7        44.752                                                                    21900003.863 6  91053006.22606      2320.858 6        38.387
G09         3.000    22974898.554 7 120733886.90207     -3322.641 7        42.440                                    22974900.031 6  94078348.11306     -2589.063 6        40.515    22974900.171 6  94078349.10906     -2589.063 6        40.543
E34         4.000    27551756.313 6 144785426.25006     -3529.121 6        40.169                                                                    27551758.846 6 108118983.46806     -2635.170 6        41.940    27551758.147 7 110939479.35007     -2704.044 7        42.842
S21         5.000    38578005.879 7 202728570.78507      -401.560 7        43.617
E05         6.000    22414972.899 8 117791503.80008     -1412.257 8        48.118                                                                    22414973.715 8  87961212.57908     -1054.572 8        50.639    22414973.370 8  90255845.55008     -1082.069 8        52.191
E15         7.000    26037049.640 7 136825629.01107     -1993.107 7        42.976                                                                    26037050.757 7 102175003.48007     -1488.307 7        46.051    26037050.268 7 104840436.43907     -1527.138 7        46.812
R10         8.000    19577912.103 7 104361285.69507       128.789 7        47.225
E31         9.000    27011919.284 6 141948577.41306     -2109.275 6        39.544                                                                    27011921.610 7 106000577.82507     -1575.146 7        42.527    27011921.237 7 108765809.11407     -1616.207 7        43.689
G04        10.000    25578341.040 4 134414927.97504     -3622.736 4        28.152                                    25578351.279 1 104738860.94001     -2823.080 1         4.714    25578352.132 4 104738855.94904     -2822.145 4        29.374
E09        11.000    27925212.894 6 146747910.97106     -2810.524 6        38.069                                                                    27925221.560 6 109584459.60906     -2098.731 6        41.514    27925220.394 7 112443188.12507     -2153.526 7        43.600
S27        12.000    39232396.218 6 206167584.44106      -424.830 6        36.457
G06        13.000    25789053.211 3                     -3836.474 3        22.400                                                                                                    25789054.108 4 105601813.68904     -2989.703 4        27.425
S36        14.000    38346493.560 7 201512686.40907      -402.332 7        44.718
G20        15.000    20802637.706 8 109318598.64308      -533.571 8        48.414                                    20802633.511 6  85183303.11006      -415.769 6        40.014
R11        16.000    21785810.704 7 116416775.39007      3662.941 7        47.952                                                                    21785811.044 7  90546380.61307      2848.960 7        45.332
S45        17.000    63528987.668 6 333848243.42406      -445.170 6        36.631
E13        18.000    27223394.176 6 143059923.30906       647.016 6        39.468                                                                    27223395.102 7 106830453.61007       483.107 7        42.961    27223394.539 7 109617335.61607       495.761 7        44.495
E24        19.000    25383210.810 7 133389647.26107       521.946 7        45.314                                                                    25383211.519 8  99609159.14208       389.788 8        48.349    25383210.706 8 102207656.03308       399.970 8        49.267
G30        21.000    20650195.590 8 108517527.51208       346.536 8        50.953                                    20650194.172 8  84559118.58508       270.028 8        52.375    20650194.767 7  84559122.58907       269.963 7        45.115
I06        22.000    38105672.993 7 149535032.48907      -323.478 7        43.388
S28        23.000    41008674.574 5 215501911.73405      -405.812 5        35.181
G14        24.000    23691800.740 7 124501254.49407      3083.398 7        42.284                                    23691800.825 4  97013966.29504      2402.645 4        28.891    23691800.950 6  97013968.29206      2402.666 6        41.576
S23        25.000    38281736.072 7 201171841.02807      -399.490 7        44.840
E08        26.000    28229805.947 6 148348632.09706      2059.252 6        37.335                                                                    28229804.148 6 110779821.97806      1537.948 6        39.189    28229803.608 6 113669727.91406      1577.806 6        40.687
G13        28.000    22985575.505 7 120790025.39207      2627.512 7        43.418                                    22985570.996 4  94122079.17104      2047.412 4        26.287
R09        29.000    21155659.885 8 112970035.10208     -3321.033 8        48.879                                                                    21155659.491 7  87865582.87307     -2583.007 7        46.159
C22        30.000                                                                                                                                    21708150.733 8 113040049.97308     -1153.631 8        52.108                                                                    21708145.081 8  91854283.98908      -937.375 8        50.404
I01        31.000   344022824.870 6  46878561.26506     -3002.436 6        40.884
E03        32.000    24176591.444 7 127048860.37807       918.176 7        47.597                                                                    24176591.666 8  94874167.10308       685.676 8        50.433    24176591.295 8  97349139.34708       703.544 8        51.631
G05        33.000    21995569.569 7 115587521.65407      1881.258 7        46.461                                    21995565.216 7  90068197.28107      1465.916 7        44.679    21995565.593 7  90068200.28807      1465.787 7        42.411
R24        34.000    23262137.057 7 124393118.11807     -2807.562 7        45.923                                                                    23262135.931 6  96750205.46506     -2183.720 6        40.336
C36        35.000                                                                                                                                    22040315.637 8 114769703.88708      -658.317 8        51.034                                                                    22040320.912 8  93259805.86208      -534.813 8        50.645
G11        36.000    24079577.367 7 126539033.08007     -3366.721 7        42.679                                    24079574.659 4  98601836.88204     -2623.414 4        27.713    24079574.932 6  98601836.85706     -2623.385 6        40.856
I09        38.000    38922784.068 7 152741286.92707      -858.216 7        42.000
R08        39.000    19444970.492 8 104126938.58308      -220.434 8        50.290                                                                    19444968.502 7  80987617.86007      -171.394 7        46.931
E25        40.000    26382518.006 7 138641081.09407      2572.665 7        42.918                                                                    26382522.112 7 103530683.78307      1921.153 7        45.744    26382521.107 7 106231475.90307      1971.331 7        46.448
G27        41.000    25266032.260 5 132773903.71505       776.508 5        34.386                                    25266035.282 4 103460196.65404       605.080 4        24.331    25266034.840 5 103460200.64705       605.215 5        32.275
S44        42.000    40991135.292 6 215409944.75706      -446.158 6        37.342
C09        43.000                                                                                                                                    40030066.778 6 208447035.65206     -1184.154 6        37.939    40030066.807 7 161184448.79307      -915.574 7        42.952    40030063.670 6 169380261.90906      -962.132 6        39.144
C05        44.000                                                                                                                                    39402395.336 6 205178582.99306      -461.289 6        38.270    39402394.327 7 158657102.75107      -356.787 7        43.024    39402395.051 6 166724495.29006      -374.728 6        40.136
C21        46.000                                                                                                                                    23301871.576 8 121338962.08408      1746.255 8        49.047                                                                    23301866.366 8  98597818.42708      1419.100 8        49.075
R17        47.000    23389842.983 7 125163787.49107       446.699 7        43.386                                                                    23389843.133 6  97349618.36106       347.345 6        40.756
C06        49.000                                                                                                                                    40864191.393 5 212790495.62505     -1387.746 5        35.090    40864192.780 6 164543067.50906     -1072.989 6        39.700    40864190.788 6 172909667.17406     -1127.536 6        36.567
C16        50.000                                                                                                                                    41407633.813 6 215620325.48106     -1330.998 6        37.508    41407640.468 6 166731294.76906     -1029.199 6        37.508    41407635.988 5 175209153.23205     -1081.414 5        33.671
S48        51.000    77304441.925 6 406237006.13306      -387.532 6        38.336
C19        52.000                                                                                                                                    25294415.283 7 131714638.41007     -3320.559 7        43.395                                                                    25294413.872 7 107028920.21907     -2698.062 7        45.463
C60        54.000                                                                                                                                    40991140.491 6 213451690.72106      -442.048 6        39.937                                                                    40991131.344 6 173446924.14106      -359.253 6        39.462
C45        55.000                                                                                                                                    23251412.386 8 121076204.43508      2220.210 8        48.753                                                                    23251405.682 8  98384306.79208      1804.197 8        49.052
C11        56.000                                                                                                                                    26573327.816 5 138374293.69005     -1930.462 5        35.981    26573324.694 6 106999761.85506     -1492.866 6        41.447    26573322.999 6 112440425.45206     -1568.797 6        38.760
C02        57.000                                                                                                                                    40975102.892 5 213368009.51105      -476.091 5        34.262    40975106.028 6 164989634.76606      -367.961 6        40.949    40975106.345 5 173378957.64905      -386.646 5        35.109
I03        58.000   127124144.631 6 423077020.31106       904.744 6        40.515
R07        59.000    21484498.695 7 115008184.30807     -3284.110 7        47.931                                                                    21484500.233 7  89450799.99807     -2554.321 7        44.397
G07        60.000    21381622.969 8 112361202.81608     -1832.296 8        48.253                                    21381619.489 8  87554175.14108     -1427.762 8        48.304    21381619.797 7  87554176.13307     -1427.679 7        45.130
> 2025 01 01 06 30 35.0000000  0 54
G08         1.000    25330950.986 5 133115044.20605      1839.509 5        31.358                                    25330960.938 3 103726049.48303      1433.358 3        19.731    25330961.461 5 103726059.49705      1433.394 5        32.431
R01         2.000    21897213.033 7 117053144.72107      2983.489 7        44.728                                                                    21897213.498 6  91041403.21806      2320.429 6        38.790
G09         3.000    22978060.591 7 120750502.83307     -3323.503 7        42.210                                    22978061.884 6  94091295.55306     -2589.735 6        40.517    22978062.610 6  94091296.54206     -2589.679 6        40.427
E34         4.000    27555114.162 6 144803071.82906     -3529.084 6        40.200                                                                    27555116.735 6 108132160.34106     -2635.267 6        41.962    27555116.303 7 110952999.96807     -2704.068 7        42.923
S21         5.000    38578386.513 7 202730579.28807      -401.741 7        44.071
E05         6.000    22416316.847 8 117798567.37308     -1413.020 8        48.160                                                                    22416317.896 8  87966487.30908     -1055.187 8        50.768    22416317.525 8  90261257.88008     -1082.701 8        52.150
E15         7.000    26038946.824 7 136835599.73607     -1995.027 7        42.851                                                                    26038948.151 7 102182449.13207     -1489.780 7        46.123    26038947.655 7 104848076.32307     -1528.639 7        46.814
R10         8.000    19577793.390 7 104360652.76607       124.520 7        47.047
E31         9.000    27013926.960 6 141959128.81906     -2111.049 6        38.970                                                                    27013929.655 7 106008457.09007     -1576.395 7        42.700    27013929.106 7 108773893.92807     -1617.556 7        43.645
G04        10.000    25581788.682 4 134433040.66704     -3622.911 4        28.616                                    25581798.189 1 104752974.69001     -2823.111 1         5.429    25581798.299 4 104752969.61304     -2822.750 4        29.943
E09        11.000    27927887.277 6 146761964.20806     -2810.667 6        38.108                                                                    27927895.954 6 109594953.83106     -2098.922 6        41.683    27927894.796 7 112453956.11307     -2153.553 7        43.439
S27        12.000    39232804.352 6 206169709.93906      -424.724 6        36.401
G06        13.000    25792700.455 3                     -3835.809 3        22.552                                                                                                    25792706.468 4 105616760.44104     -2988.669 4        26.539
S36        14.000    38346877.905 7 201514698.93707      -402.387 7        44.916
G20        15.000    20803147.369 8 109321274.89508      -536.744 8        48.288                                    20803142.798 6  85185388.49106      -418.240 6        40.160
R11        16.000    21782384.431 8 116398465.51908      3661.215 8        48.239                                                                    21782385.066 7  90532139.57207      2847.615 7        45.240
S45        17.000    63529367.890 6 333850468.50806      -444.735 6        36.726
E13        18.000    27222779.472 6 143056694.41606       644.659 6        38.895                                                                    27222780.689 7 106828042.42407       481.451 7        42.895    27222780.046 7 109614861.52007       494.121 7        44.500
E24        19.000    25382715.265 7 133387043.14107       519.769 7        45.455                                                                    25382716.025 8  99607214.49208       388.212 8        48.504    25382715.207 8 102205660.65508       398.342 8        49.261
G30        21.000    20649867.207 8 108515801.11408       344.287 8        50.780                                    20649865.656 8  84557773.33708       268.279 8        52.527    20649866.277 7  84557777.32907       268.262 7        45.449
I06        22.000    38106084.922 7 149536649.80107      -323.378 7        43.287
S28        23.000    41009064.674 5 215503940.57905      -405.527 5        35.500
G14        24.000    23688867.218 6 124485839.07106      3083.042 6        41.642                                    23688867.347 4  97001954.28004      2402.373 4        28.673    23688867.486 7  97001956.27707      2402.427 7        42.085
S23        25.000    38282117.689 7 201173837.77707      -399.013 7        44.805
E08        26.000    28227846.294 6 148338335.36006      2059.662 6        37.932                                                                    28227844.724 6 110772132.86506      1538.085 6        39.153    28227844.220 6 113661838.21806      1577.986 6        40.429
G13        28.000    22983076.012 7 120776890.09307      2626.787 7        42.887                                    22983071.497 4  94111843.87004      2046.844 4        26.527
R09        29.000    21158770.756 8 112986647.69808     -3323.813 8        48.720                                                                    21158770.418 7  87878503.78107     -2585.184 7        46.317
C22        30.000                                                                                                                                    21709259.326 8 113045823.26608     -1155.514 8        52.200                                                                    21709253.786 8  91858975.25208      -938.974 8        50.538
I01        31.000   344026650.744 6  46893573.27306     -3002.280 6        40.923
E03        32.000    24175718.298 7 127044271.38207       917.513 7        47.472                                                                    24175718.437 8  94870740.24108       685.193 8        50.542    24175718.084 8  97345623.08908       703.070 8        51.627
G05        33.000    21993780.717 7 115578121.95107      1878.854 7        46.311                                    21993776.518 7  90060872.83107      1464.043 7        44.862    21993777.434 7  90060875.82707      1464.006 7        42.859
R24        34.000    23264764.257 7 124407163.37107     -2810.364 7        46.597                                                                    23264763.159 6  96761129.54606     -2185.933 6        40.143
C36        35.000                                                                                                                                    22040949.101 8 114773001.89308      -660.701 8        51.143                                                                    22040954.260 8  93262485.76208      -536.953 8        50.804
G11        36.000    24082780.736 7 126555869.60307     -3367.765 7        42.557                                    24082778.491 4  98614956.24004     -2624.223 4        27.653    24082778.769 6  98614956.21906     -2624.164 6        40.248
I09        38.000    38923878.115 7 152745578.43207      -858.285 7        42.057
R08        39.000    19445177.789 8 104128047.54908      -222.969 8        50.379                                                                    19445175.972 7  80988480.37407      -173.405 7        47.317
E25        40.000    26380070.371 7 138628219.52507      2572.149 7        42.406                                                                    26380074.648 7 103521079.37107      1920.707 7        45.753    26380073.809 7 106221620.94107      1970.875 7        46.457
G27        41.000    25265295.574 5 132770027.77905       773.915 5        34.648                                    25265297.536 4 103457176.44304       603.058 4        24.286    25265298.076 5 103457180.44005       603.000 5        32.497
S44        42.000    40991556.957 6 215412175.12406      -445.727 6        37.335
C09        43.000                                                                                                                                    40031203.629 6 208452956.29606     -1183.644 6        38.039    40031203.771 7 161189027.00107      -915.563 7        43.253    40031200.802 6 169385072.90906      -962.050 6        39.297
C05        44.000                                                                                                                                    39402838.303 6 205180889.61706      -461.166 6        38.351    39402837.389 7 158658886.35507      -356.553 7        43.014    39402838.140 6 166726369.60506      -374.894 6        40.141
C21        46.000                                                                                                                                    23300195.409 8 121330233.91708      1745.206 8        49.085                                                                    23300190.267 8  98590726.07208      1418.065 8        49.213
R17        47.000    23389427.687 7 125161564.78307       442.643 7        43.558                                                                    23389427.697 6  97347889.61606       344.285 6        41.516
C06        49.000                                                                                                                                    40865524.312 5 212797433.47705     -1387.394 5        35.005    40865524.672 6 164548432.24006     -1072.666 6        39.763    40865523.182 6 172915304.71406     -1127.438 6        36.631
C16        50.000                                                                                                                                    41408910.828 6 215626979.72306     -1330.561 6        37.357    41408918.229 6 166736440.19906     -1028.854 6        37.380    41408914.070 5 175214560.30705     -1081.176 5        33.772
S48        51.000    77304818.579 6 406238942.92706      -387.095 6        38.387
C19        52.000                                                                                                                                    25297604.029 7 131731243.28307     -3321.329 7        43.634                                                                    25297602.738 7 107042413.00907     -2698.834 7        45.553
C60        54.000                                                                                                                                    40991565.152 6 213453900.82806      -441.793 6        40.050                                                                    40991555.920 6 173448719.99906      -359.004 6        39.601
C45        55.000                                                                                                                                    23249281.819 8 121065107.49008      2218.749 8        49.111                                                                    23249274.747 8  98375289.61608      1802.846 8        49.228
C11        56.000                                                                                                                                    26575182.525 6 138383951.47206     -1932.307 6        36.106    26575179.282 6 107007229.87206     -1494.325 6        41.740    26575177.651 6 112448273.19206     -1570.282 6        39.000
C02        57.000                                                                                                                                    40975559.699 5 213370389.37405      -475.497 5        34.481    40975562.965 6 164991475.00906      -367.919 6        40.861    40975563.511 5 173380891.47705      -386.730 5        35.214
I03        58.000   127122991.687 6 423072496.44906       905.122 6        40.369
R07        59.000    21487567.937 8 115024609.32208     -3285.737 8        48.656                                                                    21487568.669 7  89463574.96607     -2555.602 7        44.396
G07        60.000    21383367.229 8 112370368.26308     -1833.767 8        48.141                                    21383363.632 8  87561317.03908     -1428.907 8        48.428    21383364.126 7  87561318.03807     -1428.929 7        45.043
> 2025 01 01 06 30 40.0000000  0 54
G08         1.000    25329201.076 5 133105851.16305      1837.647 5        32.299                                    25329211.612 3 103718886.11003      1431.933 3        20.357    25329211.213 5 103718896.11805      1431.999 5        32.593
R01         2.000    21894422.773 7 117038230.38107      2982.354 7        44.193                                                                    21894422.776 6  91029803.17506      2319.541 6        38.568
G09         3.000    22981223.462 7 120767123.37307     -3324.672 7        42.210                                    22981224.560 6  94104246.58206     -2590.647 6        40.424    22981225.678 6  94104247.56306     -2590.674 6        39.919
E34         4.000    27558472.073 6 144820718.40706     -3529.484 6        40.641                                                                    27558474.790 7 108145337.96807     -2635.771 7        42.097    27558474.706 7 110966521.35507     -2704.363 7        42.929
S21         5.000    38578771.721 7 202732587.40707      -401.645 7        43.388
E05         6.000    22417661.879 8 117805635.87908     -1414.310 8        48.340                                                                    22417663.018 8  87971765.72408     -1056.158 8        50.777    22417662.607 8  90266673.99308     -1083.654 8        52.078
E15         7.000    26040845.850 7 136845580.91707     -1997.266 7        43.302                                                                    26040847.497 7 102189902.60907     -1491.557 7        46.182    26040846.988 7 104855724.23507     -1530.506 7        46.711
R10         8.000    19577678.555 7 104360042.35007       119.735 7        47.014
E31         9.000    27015936.375 6 141969689.92206     -2113.306 6        39.186                                                                    27015939.435 7 106016343.60707     -1578.108 7        42.741    27015938.790 7 108781986.18707     -1619.253 7        43.452
G04        10.000    25585235.880 4                     -3623.080 4        27.844                                                                                                    25585244.643 4 104767083.98404     -2822.927 4        29.090
E09        11.000    27930561.948 6 146776018.64806     -2811.221 6        38.529                                                                    27930570.372 6 109605448.94906     -2099.091 6        41.893    27930569.348 7 112464725.02607     -2153.938 7        43.335
S27        12.000    39233208.327 6 206171835.22406      -425.081 6        36.457
G06        13.000    25796351.342 3                     -3834.969 3        22.095                                                                                                    25796354.657 4 105631704.42304     -2988.430 4        25.820
S36        14.000    38347259.526 7 201516711.67807      -402.550 7        44.442
G20        15.000    20803659.645 8 109323967.67808      -540.341 8        48.148                                    20803655.241 6  85187486.75206      -421.047 6        40.138
R11        16.000    21778960.067 8 116380165.24808      3659.068 8        48.202                                                                    21778960.284 7  90517906.02907      2845.863 7        44.361
S45        17.000    63529752.601 6 333852693.45706      -444.916 6        36.582
E13        18.000    27222166.846 6 143053477.30106       642.177 6        39.135                                                                    27222168.428 7 106825640.04107       479.502 7        43.300    27222167.885 7 109612396.47207       492.110 7        44.632
E24        19.000    25382221.963 7 133384450.67507       517.282 7        45.788                                                                    25382222.674 8  99605278.55708       386.182 8        48.461    25382221.848 8 102203674.21608       396.349 8        49.206
G30        21.000    20649540.904 8 108514086.65908       341.578 8        51.027                                    20649539.411 8  84556437.39008       266.165 8        52.479    20649540.057 7  84556441.38807       266.169 7        45.341
I06        22.000    38106496.993 7 149538267.15607      -323.527 7        43.382
S28        23.000    41009448.214 5 215505969.05905      -405.548 5        35.310
G14        24.000    23685934.578 6 124470426.75106      3082.229 6        41.723                                    23685934.557 4  96989944.68304      2401.730 4        28.398    23685935.087 7  96989946.71107      2401.563 7        42.436
S23        25.000    38282496.239 7 201175834.39807      -399.341 7        44.754
E08        26.000    28225886.244 6 148328038.59806      2059.146 6        38.234                                                                    28225885.094 6 110764443.72406      1537.963 6        38.958    28225884.804 6 113653948.48906      1577.849 6        40.470
G13        28.000    22980577.117 7 120763758.36207      2625.962 7        42.798                                    22980572.732 4  94101611.34504      2046.202 4        26.443
R09        29.000    21161884.575 8 113003274.96608     -3326.993 8        48.648                                                                    21161884.149 7  87891436.08107     -2587.647 7        46.985
C22        30.000                                                                                                                                    21710370.230 8 113051606.95708     -1157.856 8        52.300                                                                    21710364.478 8  91863674.97108      -940.931 8        50.392
I01        31.000   344030476.538 6  46908585.78306     -3002.641 6        41.120
E03        32.000    24174846.015 7 127039686.50807       916.488 7        47.756                                                                    24174845.984 8  94867316.46608       684.349 8        50.485    24174845.562 8  97342109.99908       702.216 8        51.496
G05        33.000    21991994.195 7 115568734.97707      1876.044 7        46.216                                    21991990.239 7  90053558.29907      1461.852 7        44.834    21991990.829 7  90053561.29307      1461.831 7        42.866
R24        34.000    23267393.300 7 124421223.92907     -2813.667 7        46.398                                                                    23267392.523 6  96772065.52206     -2188.329 6        39.760
C36        35.000                                                                                                                                    22041584.593 8 114776313.00808      -663.651 8        51.126                                                                    22041590.135 8  93265176.30508      -539.266 8        50.712
G11        36.000    24085985.985 7 126572712.22007     -3369.219 7        42.229                                    24085983.348 4  98628080.33904     -2625.362 4        27.461    24085983.578 6  98628080.34606     -2625.435 6        40.222
I09        38.000    38924972.152 7 152749870.32307      -858.535 7        42.360
R08        39.000    19445387.235 8 104129170.14308      -225.998 8        50.171                                                                    19445385.199 7  80989353.48507      -175.741 7        46.674
E25        40.000    26377623.520 7 138615361.66407      2571.076 7        42.322                                                                    26377627.895 7 103511477.72307      1920.000 7        45.735    26377627.089 7 106211768.81807      1970.050 7        46.473
G27        41.000    25264560.955 5 132766165.79505       771.033 5        35.529                                    25264562.683 4 103454167.10604       600.807 4        24.316    25264563.576 5 103454171.09305       600.771 5        33.371
S44        42.000    40991984.453 6 215414405.22106      -446.038 6        37.520
C09        43.000                                                                                                                                    40032340.407 6 208458876.45606     -1184.138 6        38.249    40032340.852 7 161193604.79207      -915.463 7        43.530    40032337.606 6 169389883.48606      -962.121 6        39.309
C05        44.000                                                                                                                                    39403281.437 6 205183196.09906      -461.334 6        38.538    39403280.222 7 158660669.85807      -356.762 7        43.060    39403281.108 6 166728243.79406      -375.022 6        40.172
C21        46.000                                                                                                                                    23298520.481 8 121321512.03408      1743.651 8        49.231                                                                    23298515.350 8  98583638.82508      1416.836 8        49.106
R17        47.000    23389016.157 7 125159363.10007       438.170 7        43.471                                                                    23389016.337 6  97346177.19106       340.847 6        41.659
C06        49.000                                                                                                                                    40866856.308 5 212804370.40805     -1387.685 5        35.090    40866856.971 6 164553796.24006     -1072.907 6        39.345    40866855.150 6 172920941.49106     -1127.583 6        36.578
C16        50.000                                                                                                                                    41410189.070 6 215633632.85606     -1330.633 6        37.478    41410196.031 6 166741584.79006     -1028.855 6        37.694    41410191.856 5 175219966.48605     -1081.245 5        33.772
S48        51.000    77305188.002 6 406240878.90706      -387.287 6        38.210
C19        52.000                                                                                                                                    25300793.129 7 131747852.59607     -3322.302 7        43.549                                                                    25300792.363 7 107055909.40407     -2699.783 7        45.356
C60        54.000                                                                                                                                    40991989.572 6 213456110.65506      -442.133 6        39.970                                                                    40991980.044 6 173450515.63106      -359.174 6        39.414
C45        55.000                                                                                                                                    23247152.139 8 121054019.15908      2216.741 8        49.472                                                                    23247145.335 8  98366279.43508      1801.238 8        49.083
C11        56.000                                                                                                                                    26577039.253 6 138393619.53506     -1934.531 6        36.302    26577036.123 7 107014705.83507     -1496.020 7        42.021    26577034.364 6 112456129.30906     -1572.180 6        38.742
C02        57.000                                                                                                                                    40976016.207 5 213372769.02405      -475.946 5        34.443    40976019.844 6 164993315.07106      -368.066 6        41.054    40976020.537 5 173382825.10005      -386.712 5        35.471
I03        58.000   127121838.985 6 423067972.43106       904.769 6        40.434
R07        59.000    21490637.929 8 115041043.60708     -3287.944 8        48.689                                                                    21490638.504 7  89476357.15207     -2557.224 7        44.242
G07        60.000    21385112.847 8 112379542.34208     -1835.804 8        48.337                                    21385109.420 8  87568465.65908     -1430.496 8        48.370    21385109.378 7  87568466.65007     -1430.441 7        44.971
> 2025 01 01 06 30 45.0000000  0 54
G08         1.000    25327453.048 5 133096666.23805      1836.175 5        32.467                                    25327463.552 3 103711729.08503      1430.760 3        21.548    25327465.045 5 103711739.12105      1430.673 5        32.988
R01         2.000    21891633.254 7 117023320.02107      2981.614 7        44.618                                                                    21891633.775 6  91018206.20306      2319.069 6        38.691
G09         3.000    22984386.759 6 120783748.72706     -3325.775 6        41.902                                    22984388.179 6  94117201.36006     -2591.506 6        40.465    22984389.235 6  94117202.35206     -2591.478 6        40.272
E34         4.000    27561829.890 6 144838366.13306     -3529.577 6        40.446                                                                    27561833.081 6 108158516.42406     -2635.829 6        41.816    27561833.051 7 110980043.60707     -2704.657 7        42.969
S21         5.000    38579153.378 7 202734595.46607      -401.885 7        43.600
E05         6.000    22419008.178 8 117812709.46908     -1415.308 8        48.449                                                                    22419009.064 8  87977047.92908     -1056.878 8        50.495    22419008.734 8  90272094.00108     -1084.415 8        51.886
E15         7.000    26042747.771 7 136855572.73107     -1999.432 7        42.866                                                                    26042748.935 7 102197364.01807     -1493.178 7        45.916    26042748.297 7 104863380.28907     -1532.108 7        46.561
R10         8.000    19577568.474 7 104359454.54807       115.176 7        47.205
E31         9.000    27017948.031 6 141980260.86006     -2115.120 6        39.108                                                                    27017950.966 7 106024237.48607     -1579.628 7        42.423    27017950.352 7 108790085.99307     -1620.864 7        43.208
G04        10.000    25588683.336 4                     -3624.006 4        25.098                                                                                                    25588692.424 4 104781199.05804     -2822.952 4        28.417
E09        11.000    27933236.503 6 146790074.43406     -2811.521 6        38.366                                                                    27933245.175 6 109615945.06506     -2099.440 6        41.719    27933244.085 7 112475494.96407     -2154.145 7        43.141
S27        12.000    39233612.745 6 206173960.26006      -425.125 6        36.560
G06        13.000    25800001.711 3                     -3833.852 3        22.362                                                                                                    25800004.353 4 105646645.86704     -2988.315 4        26.156
S36        14.000    38347641.304 7 201518723.47907      -402.378 7        44.516
G20        15.000    20804175.022 8 109326677.10108      -543.651 8        48.410                                    20804170.824 6  85189597.98006      -423.621 6        40.143
R11        16.000    21775537.269 8 116361874.74208      3656.845 8        48.328                                                                    21775537.148 7  90503680.06907      2844.408 7        44.221
S45        17.000    63530128.302 6 333853318.31816      -445.268 6        36.749
E13        18.000    27221557.541 6 143050272.10906       639.732 6        39.718                                                                    27221558.496 7 106823246.57607       477.663 7        42.908    27221557.989 7 109609940.56207       490.222 7        44.470
E24        19.000    25381731.024 7 133381870.05407       514.666 7        46.008                                                                    25381731.619 8  99603351.45508       384.331 8        48.249    25381730.820 8 102201696.84608       394.390 8        49.030
G30        21.000    20649216.993 8 108512384.30608       339.177 8        50.979                                    20649215.473 8  84555110.87108       264.295 8        52.464    20649216.319 7  84555114.86707       264.249 7        45.601
I06        22.000    38106909.285 7 149539884.68807      -323.600 7        43.526
S28        23.000    41009832.148 5 215507997.14905      -405.708 5        35.371
G14        24.000    23683002.401 7 124455017.73507      3081.373 7        42.243                                    23683002.420 4  96977937.67104      2401.065 4        28.720    23683002.480 7  96977939.67107      2401.071 7        42.679
S23        25.000    38282876.899 7 201177831.11307      -399.290 7        44.722
E08        26.000    28223927.286 6 148317741.93506      2059.204 6        38.111                                                                    28223925.848 6 110756754.66806      1537.635 6        39.114    28223925.388 6 113646058.84306      1577.783 6        40.281
G13        28.000    22978078.679 7 120750630.35007      2625.102 7        42.540                                    22978074.526 4  94091381.72704      2045.540 4        26.371
R09        29.000    21165000.350 7 113019917.08907     -3330.029 7        47.883                                                                    21165001.291 7  87904379.93607     -2589.949 7        46.987
C22        30.000                                                                                                                                    21711482.850 8 113057401.17508     -1160.008 8        52.147                                                                    21711477.241 8  91868383.21508      -942.609 8        50.540
I01        31.000   344034302.346 6  46923598.89406     -3002.815 6        41.275
E03        32.000    24173974.268 7 127035105.93307       915.556 7        47.971                                                                    24173974.366 8  94863895.89108       683.743 8        50.268    24173973.935 8  97338600.19508       701.528 8        51.318
G05        33.000    21990210.668 7 115559360.89607      1873.385 7        46.779                                    21990206.397 7  90046253.81207      1459.783 7        44.728    21990206.936 7  90046256.81207      1459.744 7        42.821
R24        34.000    23270024.767 7 124435300.08307     -2816.905 7        45.883                                                                    23270024.658 6  96783013.62406     -2190.797 6        39.390
C36        35.000                                                                                                                                    22042223.127 8 114779637.35808      -666.330 8        50.988                                                                    22042228.514 8  93267877.59308      -541.469 8        50.812
G11        36.000    24089192.175 7 126589561.06407     -3370.556 7        42.294                                    24089189.479 4  98641209.28704     -2626.395 4        27.413    24089190.363 6  98641209.27606     -2626.339 6        40.953
I09        38.000    38926066.163 7 152754162.73107      -858.607 7        42.599
R08        39.000    19445599.518 8 104130306.50608      -228.776 8        50.347                                                                    19445597.284 7  80990237.31507      -177.826 7        46.506
E25        40.000    26375177.740 7 138602507.69007      2570.191 7        42.561                                                                    26375181.663 7 103501878.97607      1919.345 7        45.269    26375181.022 7 106201919.66607      1969.504 7        46.343
G27        41.000    25263828.547 5 132762317.97005       767.891 5        34.738                                    25263830.513 4 103451168.80204       598.357 4        24.722    25263831.569 5 103451172.82805       598.136 5        33.461
S44        42.000    40992408.448 6 215416635.20506      -446.201 6        37.497
C09        43.000                                                                                                                                    40033477.500 6 208464796.22106     -1184.063 6        38.111    40033477.708 7 161198182.31207      -915.615 7        43.500    40033474.609 6 169394693.73806      -962.113 6        39.336
C05        44.000                                                                                                                                    39403724.695 6 205185502.59106      -461.438 6        38.565    39403723.584 7 158662453.35707      -356.841 7        42.984    39403723.946 6 166730117.95706      -374.739 6        40.229
C21        46.000                                                                                                                                    23296846.755 8 121312796.57708      1742.358 8        49.175                                                                    23296841.616 8  98576556.78208      1415.785 8        49.283
R17        47.000    23388608.038 7 125157182.61807       433.819 7        44.378                                                                    23388608.581 6  97344481.26606       337.477 6        41.845
C06        49.000                                                                                                                                    40868188.046 5 212811306.51405     -1387.345 5        34.967    40868188.407 6 164559159.63806     -1072.675 6        38.970    40868187.004 6 172926577.59806     -1127.202 6        36.499
C16        50.000                                                                                                                                    41411466.853 6 215640285.10606     -1330.434 6        37.233    41411473.440 6 166746728.65906     -1028.677 6        37.478    41411469.333 5 175225371.91505     -1080.789 5        33.976
S48        51.000    77305566.659 6 406242814.66606      -387.086 6        38.411
C19        52.000                                                                                                                                    25303983.620 7 131764466.52907     -3323.380 7        43.763                                                                    25303982.667 7 107069409.52607     -2700.541 7        45.202
C60        54.000                                                                                                                                    40992413.839 6 213458320.33606      -442.022 6        39.919                                                                    40992404.491 6 173452311.13706      -359.205 6        39.508
C45        55.000                                                                                                                                    23245024.246 8 121042939.58408      2214.935 8        49.232                                                                    23245017.501 8  98357276.35508      1799.803 8        49.269
C11        56.000                                                                                                                                    26578897.840 5 138403298.06505     -1936.815 5        34.890    26578895.034 7 107022189.86407     -1497.742 7        42.696    26578893.063 6 112463993.84606     -1573.865 6        38.805
C02        57.000                                                                                                                                    40976473.439 5 213375148.56105      -475.918 5        34.052    40976476.876 6 164995155.03506      -368.088 6        40.861    40976477.269 5 173384758.63805      -387.000 5        35.490
I03        58.000   127120686.061 6 423063448.36606       904.729 6        40.586
R07        59.000    21493709.993 8 115057487.38908     -3289.817 8        49.500                                                                    21493710.626 7  89489146.72807     -2558.734 7        44.825
G07        60.000    21386860.445 8 112388725.15908     -1837.557 8        48.349                                    21386856.859 8  87575621.08708     -1431.858 8        48.294    21386857.178 7  87575622.08307     -1431.862 7        45.371
> 2025 01 01 06 30 50.0000000  0 54
G08         1.000    25325706.957 5 133087489.43105      1834.297 5        33.108                                    25325717.357 3 103704578.40403      1429.308 3        21.548    25325718.723 5 103704588.43505      1429.457 5        33.317
R01         2.000    21888845.513 7 117008413.48107      2981.054 7        44.352                                                                    21888845.334 6  91006612.22606      2318.616 6        38.766
G09         3.000    22987551.698 7 120800378.81507     -3326.314 7        42.483                                    22987552.795 6  94130159.83306     -2591.927 6        40.536    22987554.212 6  94130160.80806     -2591.985 6        40.937
E34         4.000    27565188.280 6 144856014.97406     -3529.752 6        39.835                                                                    27565191.579 6 108171695.71706     -2635.881 6        41.759    27565191.520 7 110993566.71407     -2704.670 7        43.113
S21         5.000    38579535.599 7 202736603.66207      -401.502 7        43.797
E05         6.000    22420355.130 8 117819788.10808     -1416.145 8        48.177                                                                    22420356.128 8  87982333.90308     -1057.465 8        50.467    22420355.771 8  90277517.87408     -1085.057 8        51.900
E15         7.000    26044651.083 7 136865575.14707     -2001.474 7        43.050                                                                    26044652.288 7 102204833.32407     -1494.569 7        45.889    26044651.720 7 104871044.45907     -1533.675 7        46.515
R10         8.000    19577462.671 7 104358889.43207       110.815 7        46.898
E31         9.000    27019961.830 6 141990841.63606     -2117.044 6        39.375                                                                    27019964.276 7 106032138.67207     -1580.943 7        42.491    27019963.702 7 108798193.29907     -1622.129 7        43.314
G04        10.000    25592127.612 3                     -3625.000 3        22.210                                                                                                    25592139.511 4 104795314.89604     -2823.594 4        26.407
E09        11.000    27935911.361 6 146804131.53206     -2811.523 6        37.951                                                                    27935920.195 6 109626442.16606     -2099.349 6        41.411    27935918.946 7 112486265.91707     -2154.204 7        42.986
S27        12.000    39234018.531 6 206176085.18806      -424.985 6        36.344
G06        13.000    25803646.526 3                     -3833.839 3        22.952                                                                                                    25803650.585 4 105661584.56104     -2986.599 4        25.564
S36        14.000    38348025.484 7 201520734.13207      -402.195 7        44.647
G20        15.000    20804694.000 8 109329403.19708      -546.758 8        48.352                                    20804689.595 6  85191722.19806      -426.044 6        40.017
R11        16.000    21772116.362 8 116343594.00808      3655.257 8        48.295                                                                    21772116.411 7  90489461.72307      2842.991 7        45.035
S45        17.000    63530513.479 6 333855543.10806      -444.784 6        36.790
E13        18.000    27220950.371 6 143047078.79906       637.648 6        39.850                                                                    27220950.729 7 106820861.96507       476.173 7        42.754    27220950.312 7 109607493.74307       488.564 7        44.275
E24        19.000    25381242.082 7 133379301.20907       512.647 7        45.946                                                                    25381242.821 8  99601433.15108       382.874 8        48.171    25381241.946 8 102199728.50208       392.863 8        49.064
G30        21.000    20648895.241 8 108510694.01708       337.008 8        51.111                                    20648893.825 8  84553793.75608       262.606 8        52.334    20648894.367 7  84553797.76007       262.529 7        45.640
I06        22.000    38107321.501 7 149541502.35407      -323.420 7        43.473
S28        23.000    41010223.374 5 215510025.30105      -405.758 5        35.248
G14        24.000    23680070.660 7 124439611.97307      3080.896 7        42.626                                    23680070.959 4  96965933.18704      2400.700 4        29.100    23680070.672 7  96965935.18207      2400.784 7        42.576
S23        25.000    38283257.228 7 201179827.77307      -399.154 7        44.906
E08        26.000    28221967.320 6 148307445.38106      2059.429 6        37.301                                                                    28221966.622 6 110749065.67306      1537.904 6        38.964    28221966.158 6 113638169.25906      1578.043 6        40.257
G13        28.000    22975581.509 7 120737506.06707      2624.650 7        43.365                                    22975577.040 4  94081155.00304      2045.179 4        26.299
R09        29.000    21168120.115 8 113036573.76808     -3332.712 8        48.786                                                                    21168120.009 7  87917335.11707     -2592.112 7        46.704
C22        30.000                                                                                                                                    21712597.574 8 113063205.88008     -1161.851 8        52.249                                                                    21712591.932 8  91873100.00708      -944.090 8        50.394
I01        31.000   344038127.744 6  46938612.60006     -3002.786 6        41.352
E03        32.000    24173103.401 7 127030529.61607       914.908 7        47.770                                                                    24173103.472 8  94860478.50008       683.274 8        50.235    24173103.108 8  97335093.65408       701.035 8        51.298
G05        33.000    21988429.339 7 115549999.49507      1871.104 7        46.582                                    21988424.970 7  90038959.20607      1458.003 7        44.709    21988425.440 7  90038962.21307      1457.956 7        42.679
R24        34.000    23272660.302 7 124449391.65307     -2819.718 7        44.852                                                                    23272659.842 6  96793973.75506     -2193.143 6        39.450
C36        35.000                                                                                                                                    22042864.112 8 114782974.91808      -668.711 8        51.049                                                                    22042869.462 8  93270589.63008      -543.393 8        50.698
G11        36.000    24092399.595 7 126606416.09607     -3371.626 7        42.580                                    24092397.036 4  98654343.05404     -2627.236 4        27.389    24092397.790 6  98654343.03606     -2627.211 6        41.120
I09        38.000    38927160.034 7 152758455.62407      -858.481 7        42.866
R08        39.000    19445814.464 8 104131456.57508      -231.269 8        50.489                                                                    19445812.942 7  80991131.79907      -179.888 7        46.891
E25        40.000    26372732.358 7 138589657.55707      2569.774 7        42.239                                                                    26372736.166 7 103492283.10307      1918.924 7        44.987    26372735.651 7 106192073.46407      1969.076 7        46.225
G27        41.000    25263098.685 5 132758484.25505       765.731 5        33.964                                    25263101.039 4 103448181.48404       596.670 4        25.038    25263101.104 5 103448185.49705       596.492 5        33.078
S44        42.000    40992835.094 6 215418864.97806      -445.917 6        37.690
C09        43.000                                                                                                                                    40034614.475 6 208470715.55806     -1183.712 6        38.526    40034614.388 7 161202759.48407      -915.380 7        43.680    40034611.352 6 169399503.68506      -961.839 6        39.213
C05        44.000                                                                                                                                    39404167.802 6 205187809.03906      -461.192 6        38.492    39404166.422 7 158664236.83207      -356.643 7        42.978    39404166.905 6 166731992.13606      -374.699 6        40.238
C21        46.000                                                                                                                                    23295174.358 8 121304087.52308      1741.269 8        49.372                                                                    23295169.116 8  98569479.96308      1414.930 8        49.159
R17        47.000    23388205.444 7 125155023.20107       429.816 7        44.172                                                                    23388205.627 6  97342801.69406       334.438 6        41.943
C06        49.000                                                                                                                                    40869519.328 5 212818241.84405     -1387.110 5        35.300    40869520.511 6 164564522.42106     -1072.501 6        38.820    40869518.770 6 172932213.06606     -1127.098 6        36.405
C16        50.000                                                                                                                                    41412743.606 6 215646936.37106     -1330.043 6        37.138    41412750.372 6 166751871.78306     -1028.499 6        37.788    41412746.716 5 175230776.59305     -1080.821 5        33.611
S48        51.000    77305939.172 6 406244750.49706      -387.014 6        38.480
C19        52.000                                                                                                                                    25307175.385 7 131781085.01607     -3324.047 7        44.241                                                                    25307173.763 7 107082913.37207     -2701.062 7        44.503
C60        54.000                                                                                                                                    40992838.214 6 213460529.84806      -441.827 6        39.901                                                                    40992828.861 6 173454106.52306      -359.011 6        39.393
C45        55.000                                                                                                                                    23242898.012 8 121031868.76008      2213.367 8        49.437                                                                    23242891.410 8  98348280.40108      1798.506 8        49.095
C11        56.000                                                                                                                                    26580756.226 5 138412986.88105     -1938.847 5        34.695    26580755.667 7 107029681.85407     -1499.196 7        42.586    26580753.450 6 112471866.81106     -1575.369 6        38.562
C02        57.000                                                                                                                                    40976931.025 5 213377528.02205      -475.742 5        34.519    40976933.925 6 164996994.94706      -368.015 6        40.984    40976934.465 5 173386692.10805      -386.607 5        35.152
I03        58.000   127119533.292 6 423058924.21006       905.026 6        40.691
R07        59.000    21496783.003 8 115073940.64608     -3291.481 8        49.475                                                                    21496784.415 7  89501943.68707     -2560.101 7        44.603
G07        60.000    21388609.286 8 112397916.70308     -1839.098 8        48.204                                    21388605.970 8  87582783.31708     -1433.059 8        48.217    21388606.167 7  87582784.31007     -1432.977 7        45.023
> 2025 01 01 06 30 55.0000000  0 54
G08         1.000    25323962.213 5 133078320.23105      1833.093 5        31.396                                    25323972.583 3 103697433.63303      1428.357 3        20.714    25323973.708 5 103697443.69505      1428.364 5        33.174
R01         2.000    21886056.422 7 116993510.20407      2980.427 7        44.072                                                                    21886057.002 6  90995020.77406      2318.185 6        38.465
G09         3.000    22990717.360 7 120817013.10407     -3327.273 7        43.202                                    22990718.373 6  94143121.57706     -2592.671 6        40.918    22990719.545 6  94143122.54806     -2592.564 6        41.342
E34         4.000    27568546.947 6 144873664.36406     -3529.961 6        40.014                                                                    27568550.173 6 108184875.42506     -2635.966 6        41.907    27568550.095 7 111007090.23707     -2704.660 7        43.105
S21         5.000    38579917.127 7 202738611.35207      -401.405 7        44.065
E05         6.000    22421703.167 8 117826871.28108     -1417.079 8        48.144                                                                    22421704.053 8  87987623.27008     -1058.203 8        50.507    22421703.683 8  90282945.22408     -1085.737 8        51.792
E15         7.000    26046556.383 7 136875587.59307     -2003.519 7        42.669                                                                    26046557.581 7 102212310.14107     -1496.057 7        45.848    26046556.958 7 104878716.31507     -1535.016 7        46.476
R10         8.000    19577360.734 7 104358346.42707       106.452 7        47.476
E31         9.000    27021977.138 6 142001431.68006     -2118.869 6        39.643                                                                    27021979.561 7 106040046.80807     -1582.264 7        42.336    27021979.069 7 108806307.73307     -1623.440 7        43.064
G04        10.000    25595578.345 3                     -3624.124 3        22.895                                                                                                    25595588.710 4 104809431.02004     -2823.251 4        27.234
E09        11.000    27938586.325 6 146818189.41006     -2811.676 6        37.467                                                                    27938595.405 6 109636939.86606     -2099.563 6        41.375    27938593.886 7 112497037.47807     -2154.316 7        42.624
S27        12.000    39234420.079 6 206178209.82206      -424.887 6        36.412
G06        13.000    25807293.765 3                     -3834.924 3        22.419                                                                                                    25807298.394 4 105676520.24604     -2987.254 4        25.098
S36        14.000    38348408.340 7 201522744.89207      -401.983 7        44.730
G20        15.000    20805215.818 8 109332145.41708      -549.973 8        48.183                                    20805211.451 6  85193858.98206      -428.545 6        40.014
R11        16.000    21768696.735 8 116325322.51808      3653.435 8        48.632                                                                    21768697.613 7  90475250.57407      2841.569 7        45.488
S45        17.000    63530894.756 6 333857767.37806      -444.970 6        36.665
E13        18.000    27220344.855 6 143043896.83506       635.447 6        39.772                                                                    27220345.232 7 106818485.82707       474.413 7        42.671    27220344.822 7 109605055.62307       486.875 7        44.260
E24        19.000    25380755.581 7 133376743.64407       510.439 7        45.701                                                                    25380756.151 8  99599523.27408       381.154 8        48.236    25380755.285 8 102197768.79608       391.169 8        48.967
G30        21.000    20648575.886 8 108509015.25508       334.652 8        50.994                                    20648574.372 8  84552485.62208       260.770 8        52.325    20648574.798 7  84552489.61507       260.811 7        45.619
I06        22.000    38107733.644 7 149543119.78807      -323.408 7        43.638
S28        23.000    41010608.868 5 215512053.35405      -405.299 5        35.067
G14        24.000    23677139.517 7 124424208.93707      3080.424 7        42.381                                    23677139.976 4  96953930.82704      2400.333 4        29.128    23677139.856 7  96953932.82507      2400.262 7        42.499
S23        25.000    38283637.294 7 201181823.66007      -399.068 7        44.984
E08        26.000    28220007.903 6 148297148.35506      2059.427 6        37.040                                                                    28220007.122 6 110741376.35806      1537.826 6        39.051    28220006.718 6 113630279.33806      1578.067 6        40.315
G13        28.000    22973084.823 7 120724384.97307      2623.944 7        42.976                                    22973080.184 4  94070930.77404      2044.633 4        26.275
R09        29.000    21171242.650 8 113053244.71708     -3335.577 8        48.494                                                                    21171242.104 7  87930301.39807     -2594.309 7        46.563
C22        30.000                                                                                                                                    21713714.371 8 113069020.56908     -1163.922 8        52.290                                                                    21713708.618 8  91877824.90308      -945.862 8        50.334
I01        31.000   344041953.957 6  46953626.47006     -3002.688 6        41.263
E03        32.000    24172233.228 7 127025957.01607       914.218 7        47.439                                                                    24172233.364 8  94857063.88608       682.720 8        50.275    24172232.988 8  97331589.96708       700.494 8        51.269
G05        33.000    21986649.969 7 115540650.45207      1868.590 7        46.733                                    21986645.912 7  90031674.23307      1456.045 7        44.754    21986646.492 7  90031677.22807      1456.006 7        42.808
R24        34.000    23275297.890 7 124463498.04507     -2822.714 7        45.251                                                                    23275297.715 6  96804945.38606     -2195.431 6        40.050
C36        35.000                                                                                                                                    22043507.363 8 114786325.17408      -671.251 8        50.927                                                                    22043512.859 8  93273311.96708      -545.510 8        50.598
G11        36.000    24095608.512 7 126623276.74407     -3372.777 7        42.842                                    24095605.645 4  98667481.20804     -2628.130 4        27.365    24095605.646 6  98667481.19606     -2628.083 6        40.727
I09        38.000    38928254.228 7 152762748.63007      -858.626 7        43.033
R08        39.000    19446031.680 8 104132619.81608      -233.888 8        50.275                                                                    19446029.934 7  80992036.53807      -181.943 7        46.918
E25        40.000    26370287.940 6 138576810.74906      2569.242 6        41.983                                                                    26370291.464 7 103482689.71207      1918.420 7        44.968    26370290.986 7 106182229.81207      1968.472 7        46.067
G27        41.000    25262371.469 5 132754664.16405       762.673 5        34.157                                    25262374.226 4 103445204.79304       594.289 4        24.782    25262374.660 5 103445208.79005       594.350 5        33.473
S44        42.000    40993257.810 6 215421094.06806      -445.817 6        37.603
C09        43.000                                                                                                                                    40035751.273 6 208476633.99406     -1183.596 6        38.207    40035750.695 7 161207335.96807      -915.208 7        43.693    40035747.918 6 169404312.85906      -961.845 6        38.943
C05        44.000                                                                                                                                    39404610.264 6 205190114.92706      -460.998 6        38.411    39404609.260 7 158666019.85607      -356.459 7        42.993    39404609.931 6 166733865.83006      -374.695 6        40.098
C21        46.000                                                                                                                                    23293503.099 8 121295384.35608      1740.137 8        49.215                                                                    23293497.742 8  98562407.91508      1413.915 8        49.029
R17        47.000    23387805.754 7 125152884.39707       425.842 7        44.507                                                                    23387805.769 6  97341138.16206       331.232 6        40.553
C06        49.000                                                                                                                                    40870851.592 5 212825175.80805     -1386.731 5        35.176    40870852.049 6 164569884.14306     -1072.268 6        38.556    40870850.684 6 172937847.42806     -1126.677 6        36.038
C16        50.000                                                                                                                                    41414020.356 6 215653586.12706     -1329.702 6        37.017    41414027.469 6 166757013.74506     -1028.202 6        37.856    41414023.665 5 175236180.04005     -1080.636 5        33.539
S48        51.000    77306311.783 6 406246685.38306      -386.847 6        38.327
C19        52.000                                                                                                                                    25310367.735 7 131797707.53207     -3324.900 7        44.302                                                                    25310366.072 7 107096420.48607     -2701.767 7        44.441
C60        54.000                                                                                                                                    40993262.365 6 213462738.67106      -441.678 6        40.040                                                                    40993253.124 6 173455901.34006      -358.984 6        39.414
C45        55.000                                                                                                                                    23240773.606 8 121020806.13108      2211.781 8        49.314                                                                    23240766.956 8  98339291.09708      1797.144 8        49.026
C11        56.000                                                                                                                                    26582619.992 5 138422685.54205     -1940.760 5        35.338    26582617.616 7 107037181.47107     -1500.601 7        42.150    26582615.776 6 112479747.77106     -1577.222 6        38.438
C02        57.000                                                                                                                                    40977387.931 5 213379906.89705      -475.847 5        34.471    40977390.817 6 164998834.40106      -367.754 6        40.908    40977391.210 5 173388625.08105      -386.472 5        34.886
I03        58.000   127118380.300 6 423054399.58906       905.020 6        40.751
R07        59.000    21499857.566 8 115090402.83208     -3293.276 8        48.838                                                                    21499860.088 7  89514747.57207     -2561.450 7        44.972
G07        60.000    21390360.047 8 112407116.44108     -1840.682 8        48.359                                    21390356.632 8  87589951.93108     -1434.293 8        48.250    21390356.785 7  87589952.92807     -1434.261 7        45.266
> 2025 01 01 06 31  0.0000000  0 54
G08         1.000    25322219.542 5 133069159.25405      1831.165 5        32.204                                    25322229.326 3 103690295.26603      1426.874 3        20.810    25322230.447 5 103690305.29205      1427.231 5        33.551
R01         2.000    21883269.413 7 116978610.90007      2979.181 7        44.712                                                                    21883269.663 6  90983432.44906      2317.119 6        39.054
G09         3.000    22993883.897 7 120833652.18607     -3328.298 7        43.100                                    22993884.930 6  94156087.05106     -2593.471 6        41.237    22993885.857 6  94156088.02606     -2593.469 6        41.285
E34         4.000    27571906.237 6 144891314.85806     -3530.295 6        40.625                                                                    27571908.863 6 108198055.96506     -2636.308 6        41.788    27571908.835 7 111020614.62107     -2705.075 7        43.164
S21         5.000    38580299.406 7 202740619.07107      -401.746 7        43.746
E05         6.000    22423051.962 8 117833959.52808     -1418.334 8        48.259                                                                    22423052.914 8  87992916.42508     -1059.122 8        50.549    22423052.511 8  90288376.46708     -1086.742 8        51.856
E15         7.000    26048463.916 7 136885610.64707     -2005.837 7        42.762                                                                    26048464.973 7 102219794.87207     -1497.814 7        45.868    26048464.299 7 104886396.30807     -1536.910 7        46.533
R10         8.000    19577263.206 7 104357826.19007       101.624 7        47.199
E31         9.000    27023994.223 6 142012031.57106     -2121.347 6        39.967                                                                    27023996.620 7 106047962.28207     -1583.974 7        42.409    27023996.258 7 108814429.70507     -1625.303 7        43.240
G04        10.000    25599025.591 4                     -3623.740 4        24.286                                                                                                    25599033.628 4 104823547.91204     -2823.285 4        28.104
E09        11.000    27941262.046 6 146832248.65206     -2812.099 6        37.138                                                                    27941270.906 6 109647438.57006     -2099.975 6        41.330    27941269.267 7 112507810.06407     -2154.684 7        42.480
S27        12.000    39234826.254 6 206180334.44506      -425.081 6        36.215
G06        13.000    25810941.021 3                     -3830.608 3        22.095                                                                                                    25810945.385 4 105691453.29704     -2985.973 4        24.977
S36        14.000    38348791.857 7 201524754.57307      -402.211 7        44.658
G20        15.000    20805740.529 8 109334904.32108      -553.570 8        48.303                                    20805736.478 6  85196008.76706      -431.349 6        40.112
R11        16.000    21765279.786 8 116307060.83108      3651.231 8        48.820                                                                    21765280.015 7  90461047.02907      2839.803 7        45.749
S45        17.000    63531274.084 6 333859991.73606      -445.084 6        36.514
E13        18.000    27219741.279 6 143040726.82306       632.683 6        40.281                                                                    27219742.008 7 106816118.59807       472.460 7        42.967    27219741.619 7 109602626.64207       484.739 7        44.436
E24        19.000    25380270.857 7 133374197.91807       507.840 7        46.043                                                                    25380271.706 8  99597622.22908       379.286 8        48.191    25380270.892 8 102195818.16608       389.124 8        49.055
G30        21.000    20648258.629 8 108507348.58608       332.020 8        51.100                                    20648257.231 8  84551186.91108       258.719 8        52.446    20648257.758 7  84551190.90907       258.702 7        45.595
I06        22.000    38108146.052 7 149544737.39807      -323.685 7        43.458
S28        23.000    41010991.241 5 215514081.38705      -405.522 5        35.067
G14        24.000    23674208.843 7 124408809.21407      3079.509 7        42.116                                    23674209.444 4  96941931.04504      2399.617 4        28.929    23674209.036 7  96941933.04307      2399.535 7        42.324
S23        25.000    38284016.013 7 201183819.57607      -399.382 7        44.694
E08        26.000    28218049.549 6 148286851.44406      2059.140 6        37.841                                                                    28218047.681 6 110733687.11206      1537.696 6        39.000    28218047.122 6 113622389.51006      1577.921 6        40.513
G13        28.000    22970588.515 7 120711267.63407      2622.997 7        43.310                                    22970584.035 4  94060709.46404      2043.893 4        26.431
R09        29.000    21174366.714 8 113069930.43008     -3338.783 8        48.436                                                                    21174366.492 7  87943279.16107     -2596.804 7        46.751
C22        30.000                                                                                                                                    21714833.144 8 113074845.78908     -1166.274 8        52.282                                                                    21714827.343 8  91882558.34708      -947.477 8        50.204
I01        31.000   344045780.410 6  46968640.96406     -3003.117 6        41.118
E03        32.000    24171363.972 7 127021388.71607       913.034 7        47.570                                                                    24171364.050 8  94853652.48508       681.827 8        50.284    24171363.687 8  97328089.56808       699.651 8        51.216
G05        33.000    21984873.426 7 115531314.31507      1865.787 7        46.580                                    21984869.306 7  90024399.31007      1453.862 7        44.856    21984869.941 7  90024402.30807      1453.878 7        43.054
R24        34.000    23277939.680 7 124477620.01907     -2826.149 7        45.759                                                                    23277939.543 6  96815929.14206     -2198.199 6        40.458
C36        35.000                                                                                                                                    22044153.341 8 114789688.66208      -674.188 8        50.960                                                                    22044158.785 8  93276045.05708      -547.609 8        50.432
G11        36.000    24098817.892 7 126640143.57307     -3374.196 7        43.208                                    24098815.281 4  98680624.17804     -2629.240 4        27.593    24098815.850 6  98680624.18106     -2629.322 6        40.698
I09        38.000    38929347.880 7 152767042.14507      -858.747 7        43.208
R08        39.000    19446251.302 8 104133796.91408      -236.925 8        50.466                                                                    19446249.618 7  80992952.04407      -184.290 7        46.898
E25        40.000    26367844.244 7 138563967.86407      2567.999 7        42.698                                                                    26367847.723 7 103473099.23207      1917.695 7        45.056    26367846.961 7 106172389.15407      1967.704 7        46.005
G27        41.000    25261647.458 5 132750858.24205       759.413 5        33.575                                    25261649.676 4 103442239.13404       591.751 4        24.481    25261650.281 5 103442243.14805       591.808 5        33.114
S44        42.000    40993682.284 6 215423322.99206      -445.786 6        37.372
C09        43.000                                                                                                                                    40036887.631 6 208482552.04806     -1183.673 6        38.513    40036887.404 7 161211912.16107      -915.353 7        43.755    40036884.428 6 169409121.73506      -961.750 6        38.697
C05        44.000                                                                                                                                    39405053.205 6 205192420.82706      -461.202 6        38.378    39405051.960 7 158667802.91007      -356.777 7        43.054    39405052.639 6 166735739.54306      -374.755 6        39.961
C21        46.000                                                                                                                                    23291832.826 8 121286687.65708      1738.538 8        49.272                                                                    23291827.667 8  98555341.11508      1412.871 8        48.884
R17        47.000    23387410.765 7 125150766.76107       421.193 7        44.683                                                                    23387409.004 6  97339491.11906       327.725 6        40.861
C06        49.000                                                                                                                                    40872183.450 5 212832109.00205     -1386.694 5        35.438    40872183.172 6 164575245.29306     -1072.262 6        38.547    40872182.089 5 172943481.18005     -1126.553 5        35.833
C16        50.000                                                                                                                                    41415297.601 6 215660234.98106     -1329.829 6        37.157    41415304.784 6 166762155.00806     -1028.342 6        37.939    41415300.591 5 175241582.70305     -1080.114 5        33.281
S48        51.000    77306689.707 6 406248620.75406      -387.463 6        38.291
C19        52.000                                                                                                                                    25313560.994 7 131814334.63207     -3326.037 7        44.184                                                                    25313559.494 7 107109931.33107     -2702.474 7        44.334
C60        54.000                                                                                                                                    40993686.418 6 213464947.34506      -441.872 6        40.002                                                                    40993677.342 6 173457696.03006      -358.797 6        39.027
C45        55.000                                                                                                                                    23238650.852 8 121009752.29708      2209.734 8        49.327                                                                    23238644.212 8  98330308.93408      1795.799 8        48.828
C11        56.000                                                                                                                                    26584486.006 5 138432394.60905     -1943.143 5        35.829    26584482.137 6 107044689.14006     -1502.464 6        41.826    26584480.515 6 112487637.17806     -1578.722 6        38.120
C02        57.000                                                                                                                                    40977844.417 5 213382285.63105      -475.955 5        34.552    40977847.750 6 165000673.76506      -367.983 6        40.830    40977848.156 5 173390557.99305      -386.473 5        35.000
I03        58.000   127117227.644 6 423049874.94306       904.735 6        40.694
R07        59.000    21502935.000 8 115106874.35508     -3295.334 8        48.689                                                                    21502937.063 7  89527558.72207     -2563.083 7        44.871
G07        60.000    21392112.563 8 112416324.94708     -1842.779 8        48.092                                    21392108.963 8  87597127.37808     -1435.929 8        48.327    21392109.202 7  87597128.36507     -1435.902 7        45.195
> 2025 01 01 06 31  5.0000000  0 54
G08         1.000    25320478.654 5 133060006.51405      1829.409 5        33.144                                    25320487.638 3 103683163.32503      1425.498 3        21.190    25320488.064 5 103683173.33805      1425.709 5        32.862
R01         2.000    21880483.698 7 116963715.63307      2978.591 7        44.646                                                                    21880483.439 6  90971847.23006      2316.524 6        38.532
G09         3.000    22997050.988 7 120850296.08807     -3329.344 7        42.603                                    22997052.346 6  94169056.28606     -2594.285 6        41.111    22997052.800 6  94169057.26806     -2594.247 6        40.763
E34         4.000    27575265.239 6 144908966.51106     -3530.606 6        40.570                                                                    27575268.016 6 108211237.37106     -2636.457 6        41.719    27575267.643 7 111034139.89207     -2705.186 7        42.991
S21         5.000    38580679.789 7 202742626.77407      -401.478 7        43.513
E05         6.000    22424401.787 8 117841052.91908     -1419.266 8        48.209                                                                    22424402.769 8  87998213.42408     -1059.815 8        50.469    22424402.391 8  90293811.64708     -1087.439 8        51.781
E15         7.000    26050373.165 7 136895644.34107     -2007.857 7        42.840                                                                    26050374.294 7 102227287.55607     -1499.326 7        45.872    26050373.713 7 104894084.45407     -1538.421 7        46.472
R10         8.000    19577169.927 7 104357328.57707        97.182 7        47.140
E31         9.000    27026012.899 6 142022641.32306     -2123.113 6        40.153                                                                    27026015.809 7 106055885.13707     -1585.300 7        42.411    27026015.191 7 108822559.24807     -1626.689 7        43.185
G04        10.000    25602470.480 3                     -3622.584 3        23.143                                                                                                    25602483.003 4 104837665.67204     -2824.350 4        27.377
E09        11.000    27943938.189 6 146846309.29106     -2812.373 6        37.267                                                                    27943946.665 6 109657938.31106     -2100.040 6        41.199    27943945.113 7 112518583.74107     -2154.948 7        42.527
S27        12.000    39235228.691 6 206182459.29906      -425.026 6        36.295
G06        13.000    25814589.324 3                     -3834.882 3        21.071                                                                                                    25814594.165 4 105706383.72304     -2985.761 4        24.030
S36        14.000    38349173.716 7 201526764.85707      -402.179 7        44.357
G20        15.000    20806269.033 8 109337679.95608      -556.865 8        48.443                                    20806264.679 6  85198171.58806      -433.920 6        40.064
R11        16.000    21761864.097 8 116288809.02308      3649.260 8        48.342                                                                    21761864.067 7  90446851.18607      2838.351 7        45.315
S45        17.000    63531657.454 6 333862216.17606      -444.912 6        36.556
E13        18.000    27219140.752 6 143037568.77406       630.318 6        39.955                                                                    27219141.084 7 106813760.30007       470.699 7        42.753    27219140.681 7 109600206.82707       482.986 7        44.215
E24        19.000    25379788.706 7 133371664.07207       505.539 7        45.880                                                                    25379789.554 8  99595730.06608       377.511 8        48.203    25379788.739 8 102193876.64408       387.368 8        49.097
G30        21.000    20647943.915 8 108505694.07308       329.640 8        50.949                                    20647942.406 8  84549897.67308       256.865 8        52.379    20647942.982 7  84549901.67107       256.918 7        45.521
I06        22.000    38108558.278 7 149546355.18407      -323.609 7        43.395
S28        23.000    41011378.014 5 215516109.58605      -405.644 5        35.052
G14        24.000    23671278.886 7 124393412.87707      3078.885 7        42.161                                    23671279.463 4  96929933.90004      2399.129 4        28.512    23671279.030 6  96929935.90206      2399.135 6        41.983
S23        25.000    38284397.841 7 201185815.63307      -399.335 7        44.721
E08        26.000    28216089.877 6 148276554.71606      2059.238 6        37.856                                                                    28216088.398 6 110725997.98106      1537.776 6        39.006    28216087.722 6 113614499.80306      1577.961 6        40.405
G13        28.000    22968093.505 7 120698154.08407      2622.239 7        43.299                                    22968088.727 4  94050491.11504      2043.300 4        26.323
R09        29.000    21177494.019 8 113086630.79308     -3341.618 8        48.454                                                                    21177493.968 7  87956268.32207     -2599.032 7        47.066
C22        30.000                                                                                                                                    21715953.738 8 113080681.57808     -1168.276 8        52.249                                                                    21715948.028 8  91887300.39908      -949.295 8        50.267
I01        31.000   344049606.688 6  46983656.08406     -3003.226 6        41.220
E03        32.000    24170495.331 7 127016824.75307       912.349 7        47.633                                                                    24170495.581 8  94850244.33108       681.217 8        50.272    24170495.192 8  97324592.50608       699.077 8        51.229
G05        33.000    21983098.967 7 115521991.12607      1863.247 7        46.227                                    21983095.171 7  90017134.48207      1451.885 7        44.810    21983095.948 7  90017137.47707      1451.971 7        42.957
R24        34.000    23280583.908 7 124491757.42907     -2829.164 7        45.180                                                                    23280582.960 6  96826924.88506     -2200.339 6        40.627
C36        35.000                                                                                                                                    22044801.766 8 114793065.42408      -676.774 8        51.000                                                                    22044807.287 8  93278788.95708      -549.844 8        50.459
G11        36.000    24102028.604 7 126657016.62807     -3375.276 7        42.345                                    24102026.126 4  98693771.98904     -2630.087 4        27.485    24102026.654 6  98693771.99206     -2630.223 6        40.050
I09        38.000    38930442.116 7 152771336.22407      -858.952 7        42.974
R08        39.000    19446473.837 8 104134987.70308      -239.603 8        50.299                                                                    19446471.797 7  80993878.21007      -186.312 7        46.720
E25        40.000    26365401.006 7 138551128.91607      2567.346 7        42.864                                                                    26365404.747 7 103463511.70507      1917.149 7        45.100    26365403.894 7 106162551.51807      1967.198 7        46.159
G27        41.000    25260925.885 5 132747066.56405       756.920 5        32.329                                    25260928.112 3 103439284.59403       589.803 3        23.619    25260929.226 5 103439288.62305       589.630 5        34.514
S44        42.000    40994106.945 6 215425551.86906      -445.835 6        37.388
C09        43.000                                                                                                                                    40038024.285 6 208488469.79006     -1183.460 6        38.450    40038023.897 7 161216488.09507      -915.132 7        44.102    40038020.974 6 169413930.36006      -961.643 6        38.919
C05        44.000                                                                                                                                    39405496.178 6 205194726.75406      -461.250 6        38.420    39405495.013 7 158669585.98107      -356.689 7        43.242    39405495.455 6 166737613.27806      -374.786 6        39.868
C21        46.000                                                                                                                                    23290164.048 8 121277997.46008      1737.287 8        49.197                                                                    23290158.825 8  98548279.61308      1411.756 8        48.932
R17        47.000    23387019.077 7 125148670.29607       417.105 7        44.540                                                                    23387017.883 6  97337860.55606       324.476 6        41.368
C06        49.000                                                                                                                                    40873514.913 5 212839041.44505     -1386.240 5        35.481    40873515.435 6 164580605.86106     -1072.123 6        38.667    40873513.428 5 172949114.34605     -1126.378 5        35.724
C16        50.000                                                                                                                                    41416574.766 6 215666882.92106     -1329.656 6        37.198    41416581.265 6 166767295.57106     -1028.107 6        38.108    41416577.395 5 175246984.67005     -1080.341 5        33.198
S48        51.000    77307061.692 6 406250556.27006      -387.056 6        38.270
C19        52.000                                                                                                                                    25316755.096 7 131830966.37307     -3326.838 7        44.125                                                                    25316753.533 7 107123445.95407     -2703.357 7        44.634
C60        54.000                                                                                                                                    40994110.784 6 213467155.93606      -441.823 6        40.012                                                                    40994101.418 6 173459490.65806      -358.793 6        39.060
C45        55.000                                                                                                                                    23236529.716 8 120998707.29808      2208.035 8        49.366                                                                    23236523.207 8  98321333.96808      1794.295 8        48.906
C11        56.000                                                                                                                                    26586352.169 5 138442114.13405     -1945.104 5        35.129    26586348.786 7 107052204.89407     -1504.033 7        42.163    26586347.304 6 112495535.08706     -1580.600 6        37.981
C02        57.000                                                                                                                                    40978301.063 5 213384664.36605      -475.791 5        34.014    40978304.388 6 165002513.12006      -367.940 6        40.908    40978305.188 5 173392490.88805      -386.490 5        35.076
I03        58.000   127116074.496 6 423045350.24006       904.912 6        40.598
R07        59.000    21506014.128 8 115123355.35508     -3297.178 8        48.518                                                                    21506015.247 7  89540377.24507     -2564.406 7        44.540
G07        60.000    21393866.233 8 112425542.20508     -1844.392 8        48.032                                    21393862.957 8  87604309.64308     -1437.185 8        48.252    21393862.811 7  87604310.63407     -1437.107 7        44.798
> 2025 01 01 06 31 10.0000000  0 54
G08         1.000    25318737.082 5 133050861.91305      1827.978 5        33.575                                    25318747.215 3 103676037.71503      1424.392 3        21.881    25318748.135 5 103676047.73705      1424.361 5        32.772
R01         2.000    21877697.279 7 116948824.20307      2977.828 7        44.653                                                                    21877697.978 6  90960264.99406      2316.067 6        38.700
G09         3.000    23000219.083 7 120866944.72507     -3330.350 7        42.237                                    23000220.598 6  94182029.20406     -2595.070 6        40.782    23000220.949 6  94182030.19806     -2594.998 6        40.818
E34         4.000    27578624.151 6 144926619.23506     -3530.795 6        39.874                                                                    27578627.273 6 108224419.55206     -2636.534 6        41.833    27578626.713 7 111047665.96107     -2705.219 7        42.764
S21         5.000    38581063.065 7 202744634.46807      -401.540 7        43.716
E05         6.000    22425752.488 8 117848151.36808     -1420.244 8        48.160                                                                    22425753.560 8  88003514.19708     -1060.600 8        50.505    22425753.125 8  90299250.70408     -1088.268 8        51.763
E15         7.000    26052284.422 7 136905688.60007     -2009.978 7        43.086                                                                    26052285.684 7 102234788.12507     -1500.908 7        45.920    26052285.110 7 104901780.68607     -1540.064 7        46.360
R10         8.000    19577081.049 7 104356853.62807        92.701 7        47.082
E31         9.000    27028033.812 6 142033260.86006     -2124.975 6        40.131                                                                    27028036.659 7 106063815.29707     -1586.816 7        42.582    27028036.118 7 108830696.28707     -1628.274 7        43.113
G04        10.000    25605920.761 3                     -3624.909 3        23.981                                                                                                    25605930.814 4 104851784.08604     -2823.775 4        27.485
E09        11.000    27946614.256 6 146860371.23406     -2812.577 6        37.679                                                                    27946622.610 6 109668439.05106     -2100.260 6        41.192    27946621.208 7 112529358.40907     -2155.130 7        42.427
S27        12.000    39235632.684 6 206184583.36606      -425.111 6        36.257
G06        13.000    25818240.780 3                     -3833.228 3        22.000
S36        14.000    38349554.694 7 201528775.58907      -402.452 7        44.650
G20        15.000    20806800.261 8 109340472.24908      -560.213 8        48.272                                    20806796.038 6  85200347.39006      -436.529 6        40.012
R11        16.000    21758449.640 8 116270567.03408      3647.305 8        48.439                                                                    21758450.058 7  90432662.95407      2836.868 7        45.014
S45        17.000    63532032.901 6 333864440.42306      -444.835 6        36.658
E13        18.000    27218541.931 6 143034422.63006       627.852 6        39.207                                                                    27218542.522 7 106811410.90407       468.969 7        42.876    27218541.913 7 109597796.14007       481.168 7        44.372
E24        19.000    25379308.976 7 133369142.03907       503.208 7        45.535                                                                    25379309.647 8  99593846.71708       375.739 8        48.165    25379308.843 8 102191944.16708       385.547 8        48.998
G30        21.000    20647631.390 8 108504051.62108       327.182 8        50.930                                    20647629.867 8  84548617.83608       254.949 8        52.342    20647630.167 7  84548621.83007       255.018 7        45.546
I06        22.000    38108970.593 7 149547973.13507      -323.681 7        43.302
S28        23.000    41011762.900 5 215518137.50405      -405.752 5        35.076
G14        24.000    23668349.926 7 124378019.84407      3078.231 7        42.897                                    23668350.143 4  96917939.34004      2398.625 4        28.427    23668349.906 7  96917941.32307      2398.583 7        42.093
S23        25.000    38284776.006 7 201187811.62707      -399.276 7        44.834
E08        26.000    28214129.849 6 148266258.03106      2059.295 6        37.206                                                                    28214128.935 6 110718308.91906      1537.771 6        39.075    28214128.400 6 113606610.15906      1577.808 6        40.341
G13        28.000    22965598.309 7 120685044.27107      2621.521 7        43.249                                    22965594.102 4  94040275.67004      2042.742 4        26.335
R09        29.000    21180624.424 8 113103345.82708     -3344.589 8        48.430                                                                    21180623.909 7  87969268.88707     -2601.316 7        46.946
C22        30.000                                                                                                                                    21717076.493 8 113086527.88208     -1170.340 8        52.276                                                                    21717070.729 8  91892050.99108      -950.930 8        50.263
I01        31.000   344053433.067 6  46998671.77706     -3003.390 6        41.342
E03        32.000    24169627.596 7 127012265.06207       911.420 7        47.531                                                                    24169627.894 8  94846839.35408       680.593 8        50.261    24169627.550 8  97321098.70808       698.386 8        51.236
G05        33.000    21981327.580 7 115512680.87707      1860.725 7        46.017                                    21981323.492 7  90009879.73507      1449.920 7        44.751    21981324.149 7  90009882.74207      1449.833 7        43.118
R24        34.000    23283229.902 7 124505910.21407     -2832.355 7        45.863                                                                    23283228.720 6  96837932.62106     -2202.829 6        40.107
C36        35.000                                                                                                                                    22045452.772 8 114796455.39208      -679.367 8        51.091                                                                    22045458.304 8  93281543.57908      -551.944 8        50.557
G11        36.000    24105240.611 7 126673895.81407     -3376.548 7        42.036                                    24105238.190 4  98706924.57904     -2631.076 4        27.605    24105238.783 6  98706924.56706     -2630.976 6        40.458
I09        38.000    38931536.588 7 152775630.80607      -859.100 7        42.821
R08        39.000    19446698.531 8 104136192.36308      -242.391 8        50.341                                                                    19446697.097 7  80994815.14907      -188.547 7        46.875
E25        40.000    26362958.420 7 138538293.86607      2566.547 7        42.684                                                                    26362962.403 7 103453927.08507      1916.566 7        45.260    26362961.588 7 106152716.86907      1966.506 7        46.340
G27        41.000    25260206.388 5 132743289.03805       753.782 5        32.317                                    25260209.478 3 103436341.09503       587.364 3        22.952    25260210.358 5 103436345.07505       587.655 5        34.367
S44        42.000    40994531.024 6 215427780.53706      -445.776 6        37.422
C09        43.000                                                                                                                                    40039160.326 6 208494387.13806     -1183.553 6        38.378    40039160.394 7 161221063.73307      -915.289 7        44.214    40039157.240 6 169418738.66306      -961.648 6        39.006
C05        44.000                                                                                                                                    39405939.128 6 205197032.65906      -461.157 6        38.598    39405937.802 7 158671369.03307      -356.699 7        43.223    39405938.445 6 166739486.99906      -374.602 6        40.033
C21        46.000                                                                                                                                    23288496.539 8 121269313.70008      1736.078 8        49.276                                                                    23288491.212 8  98541223.33908      1410.807 8        49.006
R17        47.000    23386629.583 7 125146595.10107       412.845 7        43.958                                                                    23386630.465 7  97336246.52507       321.085 7        42.191
C06        49.000                                                                                                                                    40874845.874 5 212845973.10005     -1386.194 5        35.171    40874846.831 6 164585965.80506     -1071.910 6        38.775    40874844.664 5 172954746.85705     -1126.409 5        35.852
C16        50.000                                                                                                                                    41417851.016 6 215673529.90006     -1329.536 6        37.259    41417857.835 6 166772435.39206     -1028.016 6        38.066    41417853.602 5 175252385.86905     -1080.045 5        33.090
S48        51.000    77307436.208 6 406252491.57306      -387.083 6        38.387
C19        52.000                                                                                                                                    25319950.030 7 131847602.65807     -3327.764 7        43.936                                                                    25319948.422 7 107136964.25907     -2703.980 7        44.761
C60        54.000                                                                                                                                    40994534.783 6 213469364.36406      -441.755 6        39.964                                                                    40994525.712 6 173461285.16706      -358.815 6        39.273
C45        55.000                                                                                                                                    23234410.235 8 120987671.06608      2206.281 8        49.311                                                                    23234403.852 8  98312366.11408      1792.965 8        48.998
C11        56.000                                                                                                                                    26588218.682 5 138451844.00405     -1947.066 5        35.495    26588217.543 7 107059728.64007     -1505.603 7        42.705    26588215.951 6 112503441.37906     -1581.991 6        38.508
C02        57.000                                                                                                                                    40978757.777 5 213387042.92205      -475.781 5        34.286    40978761.298 6 165004352.34406      -367.878 6        41.292    40978761.870 5 173394423.64905      -386.554 5        35.138
I03        58.000   127114921.248 6 423040825.48306       904.909 6        40.620
R07        59.000    21509095.631 8 115139845.79808     -3299.165 8        49.529                                                                    21509096.180 7  89553203.11407     -2566.014 7        45.091
G07        60.000    21395621.832 8 112434768.15108     -1846.127 8        48.025                                    21395618.610 8  87611498.68008     -1438.537 8        48.173    21395618.474 7  87611499.67707     -1438.549 7        44.767
> 2025 01 01 06 31 15.0000000  0 54
G08         1.000    25316998.935 5 133041725.18505      1826.506 5        34.229                                    25317008.353 3 103668918.22403      1423.253 3        21.881    25317008.764 5 103668928.24405      1423.221 5        32.874
R01         2.000    21874912.013 7 116933936.27907      2977.114 7        45.025                                                                    21874912.717 6  90948685.49206      2315.403 6        38.550
G09         3.000    23003387.900 7 120883597.70007     -3331.070 7        42.461                                    23003389.588 6  94195005.50006     -2595.629 6        40.648    23003389.709 6  94195006.49206     -2595.676 6        40.808
E34         4.000    27581983.634 6 144944272.60406     -3530.657 6        39.387                                                                    27581986.715 7 108237602.24007     -2636.541 7        42.110    27581985.968 7 111061192.54907     -2705.418 7        42.582
S21         5.000    38581445.993 7 202746641.67607      -401.439 7        43.909
E05         6.000    22427104.040 8 117855254.46508     -1421.132 8        48.278                                                                    22427105.241 8  88008818.44508     -1061.272 8        50.693    22427104.810 8  90304693.32308     -1088.910 8        51.800
E15         7.000    26054197.745 7 136915743.00207     -2012.042 7        43.026                                                                    26054198.989 7 102242296.26907     -1502.442 7        46.060    26054198.428 7 104909484.69907     -1541.598 7        46.460
R10         8.000    19576995.403 7 104356400.72807        88.372 7        46.712
E31         9.000    27030056.427 6 142043889.79806     -2126.815 6        40.279                                                                    27030059.194 7 106071752.47307     -1588.237 7        42.720    27030058.716 7 108838840.51707     -1629.725 7        43.208
G04        10.000    25609370.081 3                     -3626.102 3        22.743                                                                                                    25609379.438 4 104865902.96704     -2823.882 4        28.161
E09        11.000    27949290.112 6 146874434.11506     -2812.830 6        38.027                                                                    27949298.600 6 109678940.46406     -2100.427 6        41.378    27949297.604 7 112540133.78107     -2155.186 7        42.548
S27        12.000    39236037.965 6 206186707.70006      -424.974 6        36.578
G06        13.000    25821876.687 3                     -3829.651 3        21.071                                                                                                    25821883.755 4 105736236.34804     -2984.844 4        24.301
S36        14.000    38349938.140 7 201530786.54107      -402.051 7        44.722
G20        15.000    20807334.670 8 109343280.76308      -563.405 8        48.640                                    20807330.517 6  85202535.83306      -439.017 6        40.076
R11        16.000    21755038.226 8 116252334.50008      3645.481 8        48.117                                                                    21755038.154 7  90418482.08307      2835.405 7        45.816
S45        17.000    63532415.560 6 333866664.11606      -444.935 6        36.801
E13        18.000    27217944.952 6 143031288.01706       625.710 6        39.610                                                                    27217945.898 7 106809070.11207       467.276 7        43.027    27217945.550 7 109595394.29307       479.402 7        44.310
E24        19.000    25378830.757 7 133366631.42307       500.934 7        45.497                                                                    25378831.948 8  99591971.89708       374.063 8        48.349    25378831.131 8 102190020.43708       383.829 8        49.070
G30        21.000    20647321.052 8 108502420.82108       324.928 8        51.122                                    20647319.550 8  84547347.07408       253.193 8        52.387    20647320.155 7  84547351.07207       253.125 7        45.368
I06        22.000    38109382.886 7 149549590.93807      -323.604 7        43.344
S28        23.000    41012147.111 5 215520165.18205      -405.598 5        35.195
G14        24.000    23665421.663 7 124362629.74407      3077.678 7        42.590                                    23665421.360 4  96905947.05204      2398.188 4        28.872    23665421.249 7  96905949.04707      2398.132 7        42.131
S23        25.000    38285155.249 7 201189806.99907      -399.201 7        44.965
E08        26.000    28212170.783 6 148255961.06606      2059.223 6        37.694                                                                    28212169.422 6 110710619.62806      1537.827 6        39.285    28212168.957 6 113598720.27306      1577.965 6        40.203
G13        28.000    22963104.128 7 120671937.70807      2620.934 7        43.386                                    22963099.992 4  94030062.76004      2042.284 4        26.431
R09        29.000    21183757.305 8 113120075.06808     -3347.323 8        48.596                                                                    21183756.934 7  87982280.50007     -2603.487 7        47.192
C22        30.000                                                                                                                                    21718201.138 8 113092384.29608     -1172.355 8        52.277                                                                    21718195.397 8  91896809.81008      -952.560 8        50.204
I01        31.000   344057259.680 6  47013687.75206     -3003.347 6        41.430
E03        32.000    24168760.863 7 127007709.23207       910.711 7        47.470                                                                    24168760.950 8  94843437.26108       680.140 8        50.486    24168760.607 8  97317607.86808       697.821 8        51.209
G05        33.000    21979558.419 7 115503383.14307      1858.208 7        45.992                                    21979554.201 7  90002634.73607      1447.952 7        44.769    21979554.457 7  90002637.73407      1447.929 7        42.538
R24        34.000    23285880.243 7 124520077.92107     -2834.999 7        46.403                                                                    23285878.793 6  96848951.92806     -2205.018 6        40.098
C36        35.000                                                                                                                                    22046106.409 8 114799858.15508      -681.882 8        51.213                                                                    22046111.765 8  93284308.60808      -554.013 8        50.486
G11        36.000    24108453.968 6 126690780.69306     -3377.572 6        41.807                                    24108451.329 4  98720081.61804     -2631.873 4        27.377    24108452.132 6  98720081.59206     -2631.889 6        40.517
I09        38.000    38932631.209 7 152779925.57007      -859.023 7        42.749
R08        39.000    19446925.841 8 104137410.37308      -244.995 8        50.455                                                                    19446924.315 7  80995762.48607      -190.525 7        46.891
E25        40.000    26360516.524 7 138525462.32707      2565.803 7        42.373                                                                    26360520.662 7 103444345.08607      1916.058 7        45.601    26360519.905 7 106142884.90607      1966.019 7        46.499
G27        41.000    25259490.794 5 132739525.28205       751.368 5        32.916                                    25259493.473 3 103433408.30003       585.481 3        23.105    25259492.892 5 103433412.26805       585.713 5        33.671
S44        42.000    40994954.514 6 215430008.66106      -445.680 6        37.686
C09        43.000                                                                                                                                    40040296.329 6 208500303.63406     -1183.343 6        38.444    40040296.673 7 161225638.71907      -915.026 7        44.214    40040293.540 6 169423546.29906      -961.573 6        38.868
C05        44.000                                                                                                                                    39406381.814 6 205199338.13606      -461.051 6        38.559    39406380.550 7 158673151.74507      -356.529 7        43.136    39406381.046 6 166741360.39006      -374.607 6        39.988
C21        46.000                                                                                                                                    23286830.142 8 121260635.99108      1734.866 8        49.317                                                                    23286824.754 8  98534171.99808      1409.756 8        48.831
R17        47.000    23386246.656 7 125144540.48507       408.761 7        44.665                                                                    23386246.515 7  97334648.48707       317.968 7        42.030
C06        49.000                                                                                                                                    40876177.313 5 212852903.55505     -1385.998 5        35.457    40876177.485 6 164591324.82806     -1071.780 6        38.772    40876175.401 5 172960378.36605     -1126.000 5        35.767
C16        50.000                                                                                                                                    41419127.672 6 215680175.52006     -1329.003 6        37.490    41419133.997 6 166777574.14106     -1027.512 6        37.664    41419130.255 5 175257785.94305     -1079.763 5        33.353
S48        51.000    77307811.628 6 406254426.09706      -386.628 6        38.456
C19        52.000                                                                                                                                    25323145.617 7 131864243.10307     -3328.545 7        43.922                                                                    25323143.974 7 107150485.95507     -2704.658 7        44.814
C60        54.000                                                                                                                                    40994958.662 6 213471572.21606      -441.561 6        39.883                                                                    40994949.591 6 173463079.21306      -358.662 6        38.988
C45        55.000                                                                                                                                    23232292.652 8 120976643.20708      2204.659 8        49.541                                                                    23232286.097 8  98303405.09008      1791.547 8        48.899
C11        56.000                                                                                                                                    26590089.342 6 138461583.76506     -1949.005 6        36.212    26590087.991 7 107067260.04107     -1507.064 7        42.171    26590086.367 6 112511355.74906     -1583.681 6        38.195
C02        57.000                                                                                                                                    40979214.642 5 213389421.00005      -475.584 5        34.724    40979218.092 6 165006191.20006      -367.634 6        41.108    40979218.432 5 173396356.03805      -386.588 5        35.024
I03        58.000   127113768.259 6 423036300.32606       904.900 6        40.501
R07        59.000    21512177.742 8 115156345.24508     -3300.859 8        49.123                                                                    21512178.032 7  89566035.99407     -2567.349 7        45.005
G07        60.000    21397379.338 8 112444002.45008     -1847.734 8        48.336                                    21397375.850 8  87618694.22508     -1439.789 8        48.184    21397376.181 7  87618695.23407     -1439.815 7        44.755
> 2025 01 01 06 31 20.0000000  0 54
G08         1.000    25315261.133 5 133032596.19805      1824.737 5        33.569                                    25315271.056 3 103661804.77903      1421.848 3        22.190    25315271.665 5 103661814.76405      1422.381 5        32.371
R01         2.000    21872128.713 7 116919051.88907      2976.278 7        45.162                                                                    21872127.911 6  90937108.72406      2315.106 6        38.372
G09         3.000    23006557.800 7 120900254.96607     -3332.140 7        42.916                                    23006559.351 6  94207985.14906     -2596.465 6        40.448    23006559.729 6  94207986.13006     -2596.399 6        40.732
E34         4.000    27585343.193 6 144961926.59406     -3531.023 6        39.526                                                                    27585346.214 7 108250785.38107     -2636.926 7        42.028    27585345.528 7 111074719.59607     -2705.675 7        42.660
S21         5.000    38581826.617 7 202748648.20807      -401.657 7        43.634
E05         6.000    22428456.760 8 117862362.18008     -1422.149 8        48.106                                                                    22428457.785 8  88014126.13108     -1061.964 8        50.683    22428457.398 8  90310139.47608     -1089.658 8        51.858
E15         7.000    26056112.982 7 136925807.50607     -2014.081 7        43.299                                                                    26056114.189 7 102249811.96307     -1504.054 7        46.079    26056113.702 7 104917196.45607     -1543.293 7        46.563
R10         8.000    19576914.641 7 104355969.95407        83.754 7        47.323
E31         9.000    27032080.964 6 142054528.06106     -2128.702 6        40.212                                                                    27032083.589 7 106079696.60907     -1589.648 7        42.796    27032083.166 7 108846991.89807     -1631.114 7        43.568
G04        10.000    25612819.952 3                     -3623.779 3        22.305                                                                                                    25612827.198 4 104880022.27804     -2823.925 4        29.071
E09        11.000    27951966.413 6 146888497.86806     -2813.173 6        38.411                                                                    27951975.049 6 109689442.53506     -2100.677 6        41.118    27951974.018 7 112550909.83107     -2155.398 7        42.569
S27        12.000    39236441.977 6 206188831.57506      -425.187 6        36.291
G06        13.000                                                                                                                                                                    25825526.110 4 105751158.04904     -2984.289 4        24.226
S36        14.000    38350321.756 7 201532796.54507      -401.964 7        44.584
G20        15.000    20807872.289 8 109346105.50308      -566.811 8        48.787                                    20807868.060 6  85204736.91206      -441.670 6        39.934
R11        16.000    21751627.262 7 116234111.42207      3643.424 7        47.909                                                                    21751628.475 7  90404308.59707      2833.770 7        45.619
S45        17.000    63532793.461 6 333867287.48616      -444.771 6        36.684
E13        18.000    27217351.276 6 143028164.90206       623.251 6        40.040                                                                    27217351.700 7 106806737.91207       465.473 7        43.255    27217351.219 7 109593001.26107       477.436 7        44.549
E24        19.000    25378355.107 7 133364132.17007       498.484 7        45.475                                                                    25378356.359 8  99590105.56208       372.245 8        48.300    25378355.497 8 102188105.41708       381.931 8        49.115
G30        21.000    20647013.073 8 108500801.65808       322.455 8        51.186                                    20647011.446 8  84546085.37808       251.265 8        52.297    20647011.971 7  84546089.37107       251.348 7        45.366
I06        22.000    38109794.970 7 149551208.55207      -323.624 7        43.268
S28        23.000    41012536.442 5 215522192.48305      -405.548 5        35.100
G14        24.000    23662493.422 7 124347242.53807      3076.868 7        42.207                                    23662493.274 4  96893957.02004      2397.553 4        28.815    23662493.608 7  96893959.01707      2397.545 7        42.163
S23        25.000    38285535.676 7 201191801.91707      -399.072 7        44.859
E08        26.000    28210211.397 6 148245663.73706      2059.297 6        37.580                                                                    28210209.946 6 110702930.07506      1537.766 6        39.222    28210209.253 6 113590830.11406      1578.016 6        40.200
G13        28.000    22960610.735 7 120658834.44607      2620.062 7        43.242                                    22960606.553 4  94019852.42304      2041.610 4        26.168
R09        29.000    21186893.325 8 113136818.62808     -3350.373 8        48.671                                                                    21186892.655 7  87995303.25207     -2605.820 7        46.996
C22        30.000                                                                                                                                    21719327.647 8 113098250.78908     -1174.495 8        52.105                                                                    21719322.019 8  91901576.79208      -954.344 8        50.227
I01        31.000   344061086.217 6  47028703.95806     -3003.353 6        41.306
E03        32.000    24167894.486 7 127003157.23607       909.801 7        47.830                                                                    24167894.778 8  94840038.03608       679.414 8        50.458    24167894.385 8  97314119.96708       697.118 8        51.292
G05        33.000    21977791.568 7 115494097.96607      1855.590 7        45.940                                    21977787.288 7  89995399.52507      1445.918 7        44.719    21977787.567 7  89995402.52007      1445.969 7        42.576
R24        34.000    23288531.246 7 124534260.53607     -2838.183 7        45.997                                                                    23288530.554 6  96859982.87306     -2207.562 6        39.111
C36        35.000                                                                                                                                    22046762.278 8 114803273.69208      -684.609 8        50.982                                                                    22046767.721 8  93287083.99008      -556.219 8        50.588
G11        36.000    24111668.338 7 126707671.22207     -3378.839 7        42.362                                    24111665.598 4  98733243.04304     -2632.863 4        27.293    24111665.705 6  98733243.03206     -2632.971 6        40.551
I09        38.000    38933725.812 7 152784220.50907      -859.094 7        42.586
R08        39.000    19447156.093 8 104138641.67708      -247.872 8        50.365                                                                    19447154.464 7  80996720.15807      -192.808 7        47.335
E25        40.000    26358075.565 7 138512634.22007      2565.162 7        42.434                                                                    26358079.534 7 103434765.66707      1915.487 7        45.616    26358078.757 7 106133055.58607      1965.436 7        46.618
G27        41.000    25258777.138 5 132735775.24305       748.462 5        33.126                                    25258779.838 3 103430486.20603       583.214 3        23.352    25258779.250 5 103430490.23605       582.764 5        33.180
S44        42.000    40995378.983 6 215432236.16506      -445.585 6        37.561
C09        43.000                                                                                                                                    40041432.066 6 208506219.34006     -1183.272 6        38.222    40041432.665 7 161230213.06807      -914.977 7        44.176    40041429.461 6 169428353.24006      -961.440 6        38.826
C05        44.000                                                                                                                                    39406824.138 6 205201643.14706      -461.036 6        38.477    39406823.214 7 158674934.09707      -356.492 7        43.168    39406823.728 6 166743233.36806      -374.676 6        40.017
C21        46.000                                                                                                                                    23285164.826 8 121251964.30408      1733.493 8        49.157                                                                    23285159.445 8  98527125.52108      1408.714 8        48.884
R17        47.000    23385866.677 7 125142506.65607       404.428 7        44.021                                                                    23385865.598 6  97333066.62806       314.439 6        41.035
C06        49.000                                                                                                                                    40877508.091 5 212859832.76305     -1386.028 5        34.819    40877507.936 6 164596682.85606     -1071.603 6        38.643    40877506.548 5 172966008.85205     -1126.161 5        35.771
C16        50.000                                                                                                                                    41420402.974 6 215686819.74206     -1328.916 6        37.603    41420410.270 6 166782711.83006     -1027.502 6        37.618    41420406.161 5 175263184.85605     -1079.707 5        33.509
S48        51.000    77308187.110 6 406256360.17306      -387.070 6        38.195
C19        52.000                                                                                                                                    25326341.920 7 131880887.65407     -3329.594 7        43.791                                                                    25326340.571 7 107164010.96507     -2705.430 7        45.102
C60        54.000                                                                                                                                    40995382.491 6 213473779.48306      -441.617 6        40.007                                                                    40995373.411 6 173464872.75906      -358.724 6        39.138
C45        55.000                                                                                                                                    23230176.138 8 120965623.69708      2202.854 8        49.118                                                                    23230169.986 8  98294450.81508      1790.070 8        48.999
C11        56.000                                                                                                                                    26591964.712 6 138471333.45406     -1951.177 6        36.299    26591959.579 6 107074799.08206     -1508.700 6        41.504    26591958.469 6 112519278.13906     -1585.236 6        38.417
C02        57.000                                                                                                                                    40979671.195 5 213391798.63505      -475.780 5        34.343    40979674.864 6 165008029.69706      -367.846 6        41.027    40979675.136 5 173398287.98705      -386.406 5        35.029
I03        58.000   127112615.016 6 423031774.78806       905.025 6        40.479
R07        59.000    21515260.566 8 115172853.70808     -3302.800 8        48.675                                                                    21515262.358 7  89578875.87607     -2568.882 7        45.081
G07        60.000    21399138.089 8 112453244.98108     -1849.523 8        48.426                                    21399134.656 8  87625896.18308     -1441.184 8        48.124    21399134.841 7  87625897.17907     -1441.194 7        44.938
> 2025 01 01 06 31 25.0000000  0 54
G08         1.000    25313525.284 5 133023475.26705      1822.915 5        33.611                                    25313535.128 3 103654697.60003      1420.428 3        21.905    25313535.006 5 103654707.61205      1420.302 5        32.090
R01         2.000    21869345.028 7 116904171.25107      2975.530 7        44.543                                                                    21869344.811 6  90925534.88906      2314.271 6        38.901
G09         3.000    23009728.383 7 120916916.79107     -3333.048 7        43.477                                    23009729.951 6  94220968.35106     -2597.174 6        40.610    23009730.096 6  94220969.33506     -2597.080 6        40.341
E34         4.000    27588703.090 6 144979581.44506     -3531.281 6        39.772                                                                    27588705.883 7 108263969.17107     -2637.010 7        42.239    27588705.200 7 111088247.32007     -2705.731 7        42.552
S21         5.000    38582207.657 7 202750654.48407      -401.319 7        43.615
E05         6.000    22429810.325 8 117869474.80508     -1423.209 8        48.076                                                                    22429811.304 8  88019437.49008     -1062.755 8        50.827    22429810.912 8  90315589.39208     -1090.510 8        51.761
E15         7.000    26058030.138 7 136935882.39507     -2016.046 7        42.900                                                                    26058031.425 7 102257335.41607     -1505.641 7        46.198    26058030.937 7 104924916.16907     -1544.879 7        46.372
R10         8.000    19576838.344 7 104355561.69307        79.206 7        47.182
E31         9.000    27034106.675 6 142065175.94606     -2130.775 6        40.052                                                                    27034109.891 7 106087647.93407     -1591.117 7        42.758    27034109.415 7 108855150.64907     -1632.612 7        43.369
G04        10.000    25616269.245 3                     -3625.312 3        19.582                                                                                                    25616274.517 4 104894142.13004     -2824.189 4        29.668
E09        11.000    27954643.124 6 146902562.78306     -2813.440 6        38.928                                                                    27954651.471 6 109699945.47906     -2100.750 6        41.187    27954650.522 7 112561686.78407     -2155.767 7        42.538
S27        12.000    39236846.292 6 206190955.36206      -424.661 6        36.480
G06        13.000                                                                                                                                                                    25829169.499 3 105766076.95203     -2983.762 3        23.733
S36        14.000    38350703.127 7 201534806.51207      -402.224 7        44.650
G20        15.000    20808412.905 8 109348946.74808      -570.091 8        48.484                                    20808408.764 6  85206950.86106      -444.225 6        40.091
R11        16.000    21748219.258 8 116215898.03708      3641.574 8        48.782                                                                    21748219.566 7  90390142.61207      2832.260 7        45.643
S45        17.000    63533175.601 6 333869510.68106      -444.579 6        36.507
E13        18.000    27216759.257 6 143025053.55506       620.918 6        39.276                                                                    27216759.643 7 106804414.50407       463.722 7        42.997    27216759.132 7 109590617.22807       475.786 7        44.268
E24        19.000    25377882.028 7 133361644.61907       496.150 7        45.568                                                                    25377883.043 8  99588247.96608       370.526 8        48.469    25377882.054 8 102186199.36008       380.188 8        49.021
G30        21.000    20646707.043 8 108499194.39908       320.100 8        50.987                                    20646705.605 8  84544832.96208       249.431 8        52.371    20646706.142 7  84544836.95307       249.441 7        45.135
I06        22.000    38110207.372 7 149552826.20007      -323.666 7        43.213
S28        23.000    41012921.310 5 215524219.34805      -405.493 5        35.014
G14        24.000    23659565.968 7 124331858.51207      3076.311 7        42.406                                    23659565.757 4  96881969.47404      2397.125 4        28.815    23659565.867 6  96881971.46706      2397.149 6        41.893
S23        25.000    38285915.809 7 201193796.83407      -399.059 7        44.888
E08        26.000    28208251.788 6 148235366.35206      2059.461 6        37.898                                                                    28208250.437 6 110695240.46706      1537.895 6        39.453    28208249.817 6 113582939.91506      1577.928 6        40.024
G13        28.000    22958117.607 7 120645734.82907      2619.350 7        42.573                                    22958113.851 4  94009644.91604      2041.049 4        26.132
R09        29.000    21190031.080 8 113153576.56408     -3353.322 8        48.296                                                                    21190030.477 7  88008337.18007     -2608.070 7        46.577
C22        30.000                                                                                                                                    21720456.311 8 113104127.63408     -1176.545 8        52.161                                                                    21720450.688 8  91906352.17808      -956.111 8        50.255
I01        31.000   344064913.090 6  47043720.64706     -3003.641 6        41.421
E03        32.000    24167029.080 7 126998609.36607       908.967 7        47.666                                                                    24167029.325 8  94836641.88608       678.785 8        50.593    24167028.989 8  97310635.22308       696.469 8        51.187
G05        33.000    21976027.243 7 115484825.47307      1853.079 7        46.298                                    21976022.791 7  89988174.19807      1443.961 7        44.922    21976023.493 7  89988177.20107      1443.879 7        42.957
R24        34.000    23291186.750 7 124548458.28507     -2841.219 7        46.301                                                                    23291185.728 6  96871025.54406     -2209.860 6        38.405
C36        35.000                                                                                                                                    22047420.668 8 114806702.26908      -687.223 8        50.987                                                                    22047426.069 8  93289869.95708      -558.423 8        50.507
G11        36.000    24114883.828 7 126724567.68407     -3380.102 7        42.364                                    24114880.891 4  98746409.09604     -2633.836 4        27.521    24114881.481 6  98746409.08706     -2633.698 6        40.346
I09        38.000    38934820.143 7 152788515.82007      -859.230 7        42.404
R08        39.000    19447388.377 8 104139886.48808      -250.575 8        50.399                                                                    19447387.266 7  80997688.32707      -194.837 7        47.627
E25        40.000    26355635.099 7 138499809.90307      2564.298 7        42.182                                                                    26355639.030 7 103425189.06007      1914.889 7        45.770    26355638.387 7 106123229.15407      1964.809 7        46.532
G27        41.000    25258065.925 5 132732039.25005       745.582 5        33.102                                    25258068.599 3 103427575.05203       580.970 3        23.181    25258068.931 5 103427579.01905       581.294 5        32.431
S44        42.000    40995806.828 6 215434463.36206      -445.727 6        37.482
C09        43.000                                                                                                                                    40042568.032 6 208512134.43606     -1183.209 6        38.174    40042568.358 7 161234786.95807      -914.878 7        44.188    40042565.384 6 169433159.69406      -961.472 6        39.042
C05        44.000                                                                                                                                    39407266.690 6 205203947.99406      -461.131 6        38.526    39407265.954 7 158676716.31807      -356.611 7        43.278    39407266.294 6 166745106.18606      -374.687 6        39.964
C21        46.000                                                                                                                                    23283500.712 8 121243298.92208      1732.289 8        49.376                                                                    23283495.353 8  98520084.16208      1407.555 8        48.945
R17        47.000    23385488.830 7 125140493.77607       400.330 7        43.807                                                                    23385489.402 6  97331501.06506       311.380 6        41.342
C06        49.000                                                                                                                                    40878838.175 5 212866760.97605     -1385.818 5        34.786    40878838.787 6 164602040.15706     -1071.553 6        38.453    40878836.849 5 172971638.52705     -1125.940 5        35.486
C16        50.000                                                                                                                                    41421678.806 6 215693462.84906     -1328.692 6        37.391    41421685.704 6 166787848.66006     -1027.568 6        37.720    41421681.908 5 175268582.90005     -1079.841 5        33.066
S48        51.000    77308561.363 6 406258294.86506      -387.058 6        38.429
C19        52.000                                                                                                                                    25329539.357 7 131897536.57407     -3330.361 7        43.968                                                                    25329538.252 7 107177539.53307     -2706.272 7        45.708
C60        54.000                                                                                                                                    40995806.611 6 213475986.42206      -441.574 6        40.067                                                                    40995797.486 6 173466666.03806      -358.771 6        39.288
C45        55.000                                                                                                                                    23228061.573 8 120954612.83608      2201.142 8        48.942                                                                    23228055.394 8  98285503.55908      1788.519 8        49.068
C11        56.000                                                                                                                                    26593838.105 5 138481093.29005     -1953.213 5        34.957    26593834.072 6 107082346.00206     -1510.390 6        41.299    26593832.352 6 112527208.78806     -1587.192 6        38.087
C02        57.000                                                                                                                                    40980127.667 5 213394175.95805      -475.765 5        34.357    40980131.063 6 165009867.95806      -367.734 6        41.008    40980131.546 5 173400219.72905      -386.619 5        34.748
I03        58.000   127111461.913 6 423027249.05906       905.050 6        40.355
R07        59.000    21518346.280 8 115189371.27508     -3304.627 8        48.842                                                                    21518347.294 7  89591722.84407     -2570.314 7        44.346
G07        60.000    21400898.582 8 112462496.02308     -1851.191 8        48.196                                    21400895.093 8  87633104.77208     -1442.481 8        48.291    21400895.306 7  87633105.77407     -1442.508 7        45.047
> 2025 01 01 06 31 30.0000000  0 53
G08         1.000    25311791.305 5 133014362.40605      1821.678 5        33.479                                    25311800.693 3 103647596.71603      1419.483 3        20.690    25311801.379 5 103647606.73705      1419.672 5        31.404
R01         2.000    21866561.259 7 116889294.46807      2974.833 7        44.611                                                                    21866561.850 6  90913964.03406      2313.954 6        38.907
G09         3.000    23012899.730 7 120933583.21707     -3333.690 7        43.037                                    23012901.444 6  94233955.13706     -2597.674 6        40.675    23012901.941 6  94233956.13406     -2597.856 6        40.720
E34         4.000    27592062.883 6 144997237.19206     -3531.232 6        39.805                                                                    27592065.587 7 108277153.61407     -2637.020 7        42.040    27592065.021 7 111101775.72107     -2705.868 7        42.569
S21         5.000    38582589.552 7 202752660.71407      -401.324 7        44.021
E05         6.000    22431164.739 8 117876592.34108     -1424.077 8        48.089                                                                    22431165.704 8  88024752.52008     -1063.417 8        50.742    22431165.353 8  90321043.07908     -1091.127 8        51.684
E15         7.000    26059949.233 7 136945967.71607     -2018.234 7        42.876                                                                    26059950.660 7 102264866.62707     -1507.060 7        46.115    26059950.113 7 104932643.85707     -1546.436 7        46.320
R10         8.000    19576765.988 7 104355175.99707        74.779 7        47.200
E31         9.000    27036134.607 6 142075833.46506     -2132.428 6        39.760                                                                    27036138.055 7 106095606.44807     -1592.467 7        42.645    27036137.495 7 108863316.78107     -1633.938 7        43.386
G04        10.000                                                                                                                                                                    25619723.211 4 104908262.60904     -2823.902 4        28.825
E09        11.000    27957319.830 6 146916628.87906     -2813.456 6        38.541                                                                    27957328.258 6 109710449.29806     -2100.853 6        41.008    27957327.222 7 112572464.62907     -2155.761 7        42.610
S27        12.000    39237253.357 6 206193078.73306      -424.847 6        36.643
S36        14.000    38351086.023 7 201536816.43207      -402.086 7        44.778
G20        15.000    20808956.568 8 109351804.53008      -573.260 8        48.355                                    20808952.585 6  85209177.69106      -446.691 6        40.081
R11        16.000    21744813.771 8 116197694.43008      3639.703 8        48.533                                                                    21744813.261 7  90375984.24907      2830.905 7        45.571
S45        17.000    63533557.080 6 333871733.75506      -444.679 6        36.836
E13        18.000    27216169.091 6 143021954.00606       618.680 6        39.634                                                                    27216169.734 7 106802099.91607       461.925 7        43.060    27216169.274 7 109588242.24907       474.070 7        44.227
E24        19.000    25377411.016 7 133359168.74107       493.891 7        45.586                                                                    25377411.978 8  99586399.09008       368.880 8        48.446    25377410.936 8 102184302.25708       378.444 8        49.019
G30        21.000    20646403.364 8 108497599.07308       317.779 8        51.012                                    20646402.040 8  84543589.84108       247.621 8        52.384    20646402.399 7  84543593.84607       247.614 7        45.201
I06        22.000    38110619.815 7 149554443.90307      -323.638 7        43.327
S28        23.000    41013310.949 5 215526245.89405      -405.297 5        35.243
G14        24.000    23656638.864 7 124316477.72707      3075.862 7        42.863                                    23656638.798 4  96869984.44604      2396.776 4        28.919    23656638.834 6  96869986.44206      2396.734 6        41.974
S23        25.000    38286294.341 7 201195791.48607      -399.042 7        44.972
E08        26.000    28206291.813 6 148225068.94106      2059.324 6        38.054                                                                    28206290.729 6 110687550.84806      1537.798 6        39.411    28206290.322 6 113575049.68806      1578.003 6        40.110
G13        28.000    22955625.510 7 120632638.84807      2618.694 7        43.321                                    22955621.767 4  93999440.24404      2040.542 4        26.216
R09        29.000    21193171.938 8 113170349.01108     -3355.981 8        48.819                                                                    21193171.660 7  88021382.40507     -2610.168 7        46.802
C22        30.000                                                                                                                                    21721586.891 8 113110014.85308     -1178.525 8        52.216                                                                    21721581.279 8  91911136.02908      -957.644 8        50.404
I01        31.000   344068740.099 6  47058737.78106     -3003.354 6        41.223
E03        32.000    24166164.569 7 126994065.62507       908.242 7        47.633                                                                    24166164.739 8  94833248.82208       678.269 8        50.546    24166164.337 8  97307153.64608       695.937 8        51.122
G05        33.000    21974265.286 7 115475565.67907      1850.580 7        46.489                                    21974260.725 7  89980958.76907      1442.011 7        44.888    21974261.619 7  89980961.77207      1442.041 7        42.760
R24        34.000    23293844.827 7 124562671.31007     -2844.129 7        45.154                                                                    23293844.336 6  96882080.08906     -2211.981 6        39.300
C36        35.000                                                                                                                                    22048081.710 8 114810143.89708      -689.706 8        51.098                                                                    22048087.030 8  93292666.57008      -560.433 8        50.643
G11        36.000    24118100.041 7 126741470.07207     -3381.275 7        42.279                                    24118097.316 4  98759579.77404     -2634.758 4        27.509    24118097.795 6  98759579.77206     -2634.624 6        40.691
I09        38.000    38935915.034 7 152792811.52707      -859.240 7        42.150
R08        39.000    19447623.702 8 104141145.04108      -253.172 8        50.833                                                                    19447621.823 7  80998667.19007      -196.867 7        47.415
E25        40.000    26353195.492 6 138486989.36206      2563.658 6        41.948                                                                    26353199.197 7 103415615.28407      1914.429 7        45.549    26353198.709 7 106113405.62107      1964.422 7        46.282
G27        41.000    25257358.249 5 132728317.31405       742.754 5        33.150                                    25257360.156 3 103424674.84503       578.768 3        23.105    25257361.116 5 103424678.81205       578.673 5        32.533
S44        42.000    40996225.769 6 215436690.24706      -445.432 6        37.724
C09        43.000                                                                                                                                    40043704.666 6 208518049.00206     -1182.847 6        38.231    40043704.078 7 161239360.45307      -914.730 7        43.956    40043701.359 6 169437965.74506      -960.994 6        38.979
C05        44.000                                                                                                                                    39407709.224 6 205206252.66706      -460.971 6        38.622    39407708.569 7 158678498.40907      -356.381 7        43.194    39407708.962 6 166746978.92606      -374.584 6        40.153
C21        46.000                                                                                                                                    23281837.777 8 121234639.87408      1731.121 8        49.338                                                                    23281832.497 8  98513047.98408      1406.706 8        49.096
R17        47.000    23385116.621 7 125138502.02507       396.205 7        44.319                                                                    23385117.757 6  97329951.91306       308.162 6        40.698
C06        49.000                                                                                                                                    40880168.148 5 212873688.26405     -1385.472 5        34.557    40880169.049 6 164607396.72106     -1071.516 6        38.288    40880167.099 5 172977267.48805     -1125.784 5        35.567
C16        50.000                                                                                                                                    41422954.265 6 215700104.85306     -1328.264 6        37.308    41422961.167 6 166792984.62406     -1027.133 6        37.690    41422957.273 5 175273980.02905     -1079.596 5        33.228
S48        51.000    77308934.417 6 406260229.34806      -386.884 6        38.459
C19        52.000                                                                                                                                    25332737.503 7 131914189.91807     -3331.203 7        43.494                                                                    25332736.565 7 107191071.69707     -2706.788 7        46.041
C60        54.000                                                                                                                                    40996230.199 6 213478193.06506      -441.335 6        40.017                                                                    40996221.275 6 173468459.09606      -358.677 6        39.195
C45        55.000                                                                                                                                    23225948.972 8 120943610.62708      2199.493 8        49.096                                                                    23225942.511 8  98276563.37008      1787.324 8        49.138
C11        56.000                                                                                                                                    26595712.316 5 138490863.31305     -1955.027 5        35.476    26595711.008 6 107089900.82606     -1511.844 6        41.740    26595708.796 6 112535147.74306     -1588.684 6        38.282
C02        57.000                                                                                                                                    40980584.278 5 213396553.02005      -475.232 5        34.443    40980587.558 6 165011706.05306      -367.745 6        40.837    40980588.313 5 173402151.28005      -386.331 5        35.033
I03        58.000   127110308.195 6 423022723.15606       905.199 6        40.374
R07        59.000    21521434.217 8 115205898.22108     -3306.411 8        49.094                                                                    21521435.019 7  89604577.09407     -2571.647 7        44.576
G07        60.000    21402660.302 8 112471755.61008     -1852.827 8        48.071                                    21402657.145 8  87640320.02308     -1443.759 8        48.202    21402657.431 7  87640321.02107     -1443.771 7        45.050
> 2025 01 01 06 31 35.0000000  0 54
G08         1.000    25310058.702 5 133005257.47505      1820.202 5        33.886                                    25310067.827 3 103640502.00003      1418.348 3        20.262    25310068.738 5 103640512.03605      1418.384 5        31.328
R01         2.000    21863779.046 7 116874421.25907      2974.270 7        45.275                                                                    21863779.210 6  90902395.99106      2313.353 6        38.706
G09         3.000    23016072.026 7 120950254.01607     -3334.549 7        42.952                                    23016073.819 6  94246945.32806     -2598.341 6        40.520    23016074.262 6  94246946.31306     -2598.384 6        40.589
E34         4.000    27595422.929 6 145014893.61106     -3531.424 6        39.850                                                                    27595425.480 6 108290338.57106     -2636.908 6        41.738    27595425.143 7 111115304.63907     -2705.859 7        42.813
S21         5.000    38582971.500 7 202754666.49007      -400.978 7        43.799
E05         6.000    22432520.225 8 117883714.58308     -1424.954 8        48.235                                                                    22432521.110 8  88030071.05808     -1064.037 8        50.509    22432520.688 8  90326500.36608     -1091.840 8        51.773
E15         7.000    26061870.397 7 136956063.17507     -2020.085 7        43.037                                                                    26061871.780 7 102272405.43307     -1508.539 7        45.953    26061871.241 7 104940379.32907     -1547.848 7        46.387
R10         8.000    19576697.912 7 104354812.75307        70.406 7        47.418
E31         9.000    27038164.592 6 142086500.37906     -2134.214 6        39.946                                                                    27038167.850 7 106103571.97507     -1593.827 7        42.377    27038167.245 7 108871490.10607     -1635.390 7        43.462
G04        10.000                                                                                                                                                                    25623172.476 4 104922383.52904     -2824.229 4        27.976
E09        11.000    27959996.178 6 146930695.93706     -2813.495 6        38.174                                                                    27960005.290 6 109720953.85206     -2100.970 6        40.625    27960004.044 7 112583243.20707     -2155.792 7        42.614
S27        12.000    39237654.721 6 206195201.67806      -424.774 6        36.620
G06        13.000                                                                                                                                                                    25836456.277 3                     -2983.089 3        23.124
S36        14.000    38351468.302 7 201538825.41807      -401.771 7        44.603
G20        15.000    20809503.514 8 109354678.62708      -576.449 8        48.742                                    20809499.505 6  85211417.23506      -449.179 6        40.036
R11        16.000    21741408.606 8 116179500.38708      3637.772 8        48.343                                                                    21741408.010 7  90361833.31507      2829.406 7        44.837
S45        17.000    63533935.643 6 333873956.34206      -444.485 6        36.631
E13        18.000    27215581.246 6 143018866.02306       616.240 6        39.559                                                                    27215582.162 7 106799793.93307       460.369 7        42.891    27215581.702 7 109585876.12607       472.293 7        44.411
E24        19.000    25376942.228 7 133356704.33607       491.688 7        45.594                                                                    25376942.940 8  99584558.77708       367.194 8        48.190    25376942.045 8 102182413.93908       376.748 8        49.079
G30        21.000    20646102.031 8 108496015.45108       315.506 8        50.826                                    20646100.711 8  84542355.84108       245.852 8        52.300    20646101.130 7  84542359.83607       245.893 7        45.068
I06        22.000    38111031.696 7 149556061.48407      -323.511 7        43.418
S28        23.000    41013693.581 5 215528271.95405      -405.305 5        35.138
G14        24.000    23653712.926 7 124301099.96807      3075.177 7        42.847                                    23653712.398 4  96858001.77004      2396.250 4        28.654    23653712.558 7  96858003.76507      2396.397 7        42.191
S23        25.000    38286673.780 7 201197785.87907      -398.873 7        44.898
E08        26.000    28204332.248 6 148214771.23806      2059.549 6        37.539                                                                    28204331.024 6 110679861.00206      1537.998 6        38.934    28204331.032 6 113567159.24906      1578.103 6        40.157
G13        28.000    22953134.687 7 120619546.20507      2618.187 7        42.838                                    22953130.326 4  93989238.18704      2040.141 4        26.096
R09        29.000    21196315.706 8 113187135.71208     -3358.745 8        48.308                                                                    21196315.381 7  88034438.72107     -2612.408 7        46.686
C22        30.000                                                                                                                                    21722719.437 8 113115912.22908     -1180.510 8        52.458                                                                    21722713.802 8  91915928.10908      -959.480 8        50.320
I01        31.000   344072566.795 6  47073755.24706     -3003.483 6        41.397
E03        32.000    24165300.640 7 126989525.80407       907.617 7        47.858                                                                    24165300.810 8  94829858.69108       677.712 8        50.306    24165300.445 8  97303675.07608       695.367 8        51.181
G05        33.000    21972505.546 7 115466318.54807      1848.131 7        46.644                                    21972501.066 7  89973753.20307      1440.102 7        44.727    21972501.585 7  89973756.19907      1440.123 7        42.753
R24        34.000    23296505.586 7 124576899.19007     -2847.046 7        45.306                                                                    23296504.537 6  96893146.23006     -2214.266 6        39.844
C36        35.000                                                                                                                                    22048745.210 8 114813598.35908      -692.217 8        51.172                                                                    22048750.429 8  93295473.59108      -562.764 8        50.561
G11        36.000    24121317.261 7 126758378.15907     -3382.212 7        42.840                                    24121314.894 4  98772754.88104     -2635.485 4        27.198    24121315.422 6  98772754.86206     -2635.385 6        40.980
I09        38.000    38937009.689 7 152797107.47507      -859.304 7        42.379
R08        39.000    19447861.460 8 104142416.96408      -255.794 8        50.244                                                                    19447859.280 7  80999656.44707      -198.938 7        47.260
E25        40.000    26350756.578 7 138474172.40407      2562.959 7        42.140                                                                    26350760.192 7 103406044.17907      1913.948 7        45.139    26350759.620 7 106103584.83607      1963.890 7        46.167
G27        41.000    25256652.426 5 132724609.20505       740.212 5        33.659                                    25256654.498 3 103421785.39403       576.791 3        23.543    25256655.861 5 103421789.39205       576.727 5        33.886
S44        42.000    40996651.758 6 215438916.60306      -445.364 6        37.648
C09        43.000                                                                                                                                    40044840.020 6 208523962.80206     -1182.623 6        38.339    40044839.755 7 161243933.34507      -914.507 7        43.765    40044837.140 6 169442771.18106      -961.272 6        39.129
C05        44.000                                                                                                                                    39408152.174 6 205208556.96006      -460.856 6        38.643    39408150.995 7 158680280.21407      -356.369 7        43.050    39408151.581 6 166748851.32506      -374.699 6        40.088
C21        46.000                                                                                                                                    23280176.114 8 121225986.94808      1729.939 8        49.452                                                                    23280170.778 8  98506016.76108      1405.470 8        48.982
R17        47.000    23384749.406 7 125136531.12407       392.032 7        44.670                                                                    23384748.962 6  97328418.98806       304.900 6        40.946
C06        49.000                                                                                                                                    40881498.196 5 212880614.38605     -1384.860 5        34.929    40881499.272 6 164612752.38306     -1071.098 6        38.405    40881497.374 5 172982895.51705     -1126.042 5        35.676
C16        50.000                                                                                                                                    41424229.487 6 215706745.52906     -1327.899 6        37.527    41424236.280 6 166798119.57606     -1026.903 6        37.478    41424232.721 5 175279376.06705     -1079.260 5        33.485
S48        51.000    77309309.331 6 406262163.27206      -387.023 6        38.444
C19        52.000                                                                                                                                    25335936.260 7 131930847.43707     -3331.980 7        43.270                                                                    25335935.509 7 107204607.24607     -2707.748 7        45.989
C60        54.000                                                                                                                                    40996654.225 6 213480399.17606      -441.212 6        40.110                                                                    40996644.948 6 173470251.71806      -358.803 6        39.204
C45        55.000                                                                                                                                    23223837.957 8 120932616.86008      2197.895 8        49.194                                                                    23223831.355 8  98267630.02308      1785.761 8        49.108
C11        56.000                                                                                                                                    26597590.410 5 138500643.28705     -1957.082 5        35.138    26597589.272 7 107097463.31907     -1513.416 7        42.028    26597587.150 6 112543094.78206     -1590.635 6        38.456
C02        57.000                                                                                                                                    40981041.752 5 213398929.64805      -475.132 5        34.662    40981043.949 6 165013543.77806      -367.583 6        40.896    40981044.490 5 173404082.45005      -386.197 5        35.033
I03        58.000   127109155.164 6 423018196.90706       905.229 6        40.517
R07        59.000    21524523.458 8 115222434.14708     -3308.034 8        49.188                                                                    21524524.646 7  89617438.34807     -2573.016 7        44.916
G07        60.000    21404424.003 8 112481023.51108     -1854.429 8        48.039                                    21404420.789 8  87647541.74808     -1445.008 8        48.012    21404420.938 7  87647542.73807     -1444.931 7        45.068
> 2025 01 01 06 31 40.0000000  0 54
G08         1.000    25308327.579 5 132996160.97605      1818.547 5        33.419                                    25308336.853 3 103633413.87503      1417.039 3        20.833    25308338.132 5 103633423.90805      1417.039 5        31.909
R01         2.000    21860997.495 7 116859552.13507      2973.546 7        45.494                                                                    21860997.142 6  90890831.11806      2312.838 6        38.787
G09         3.000    23019245.394 7 120966929.71407     -3335.463 7        42.936                                    23019247.151 6  94259939.33806     -2599.050 6        40.465    23019247.337 6  94259940.31006     -2599.036 6        40.455
E34         4.000    27598782.787 6 145032551.20906     -3531.488 6        39.649                                                                    27598785.632 6 108303524.41906     -2637.192 6        41.533    27598785.230 7 111128834.44707     -2705.923 7        43.007
S21         5.000    38583352.974 7 202756672.08707      -400.836 7        43.930
E05         6.000    22433876.469 8 117890842.05508     -1425.850 8        48.238                                                                    22433877.386 8  88035393.51008     -1064.771 8        50.557    22433877.021 8  90331961.66408     -1092.549 8        51.900
E15         7.000    26063793.594 7 136966169.34207     -2022.138 7        42.904                                                                    26063794.882 7 102279952.23207     -1510.054 7        45.839    26063794.365 7 104948123.00107     -1549.456 7        46.585
R10         8.000    19576633.807 7 104354472.10107        66.031 7        47.164
E31         9.000    27040196.465 6 142097177.22406     -2136.120 6        39.640                                                                    27040199.504 7 106111544.92907     -1595.284 7        42.500    27040198.947 7 108879671.04807     -1636.862 7        43.374
G04        10.000                                                                                                                                                                    25626622.099 4 104936505.34104     -2823.920 4        25.353
E09        11.000    27962673.663 6 146944764.49006     -2813.742 6        37.822                                                                    27962682.440 6 109731459.50706     -2101.159 6        40.462    27962681.099 7 112594022.94607     -2155.977 7        42.665
S27        12.000    39238059.850 6 206197325.07406      -424.446 6        36.427
G06        13.000                                                                                                                                                                    25840094.536 3                     -2981.877 3        22.876
S36        14.000    38351851.878 7 201540834.39807      -401.664 7        44.980
G20        15.000    20810053.874 8 109357569.55808      -579.702 8        48.429                                    20810049.640 6  85213669.89706      -451.711 6        40.052
R11        16.000    21738005.463 7 116161316.39607      3635.995 7        47.787                                                                    21738005.961 7  90347690.22507      2827.941 7        45.279
S45        17.000    63534316.478 6 333876179.13206      -444.350 6        36.919
E13        18.000    27214995.959 6 143015790.16706       614.135 6        39.655                                                                    27214996.855 7 106797497.05207       458.553 7        42.825    27214996.488 7 109583519.32507       470.517 7        44.515
E24        19.000    25376475.358 7 133354251.94107       489.466 7        45.675                                                                    25376476.284 8  99582727.43508       365.485 8        48.231    25376475.339 8 102180534.82008       375.049 8        49.202
G30        21.000    20645803.073 8 108494444.05808       313.180 8        50.987                                    20645801.689 8  84541131.37208       244.039 8        52.364    20645802.287 7  84541135.37207       244.030 7        44.904
I06        22.000    38111444.327 7 149557679.34507      -323.564 7        43.471
S28        23.000    41014078.333 5 215530298.33005      -405.459 5        35.319
G14        24.000    23650786.742 7 124285725.75007      3074.675 7        42.423                                    23650786.723 4  96846021.86204      2395.862 4        28.531    23650786.894 7  96846023.86007      2395.873 7        42.152
S23        25.000    38287053.989 7 201199780.48007      -398.734 7        45.068
E08        26.000    28202372.945 6 148204473.84406      2059.356 6        37.176                                                                    28202371.534 6 110672171.37706      1538.167 6        39.135    28202371.207 6 113559269.02406      1578.182 6        40.348
G13        28.000    22950643.471 7 120606457.54707      2617.452 7        43.272                                    22950639.597 4  93979039.22304      2039.574 4        26.359
R09        29.000    21199462.151 8 113203937.07208     -3361.584 8        48.305                                                                    21199461.797 7  88047506.42107     -2614.508 7        46.454
C22        30.000                                                                                                                                    21723854.145 8 113121820.28208     -1182.500 8        52.623                                                                    21723848.354 8  91920728.88208      -960.986 8        50.176
I01        31.000   344076393.462 6  47088773.41406     -3003.613 6        41.206
E03        32.000    24164437.491 7 126984990.43307       906.835 7        47.921                                                                    24164437.787 8  94826471.87708       677.193 8        50.357    24164437.375 8  97300199.91308       694.840 8        51.356
G05        33.000    21970748.233 7 115457084.64807      1845.583 7        46.837                                    21970743.915 7  89966557.94707      1438.119 7        44.868    21970744.590 7  89966560.95107      1438.020 7        42.882
R24        34.000    23299169.318 7 124591142.48407     -2850.021 7        46.213                                                                    23299168.404 6  96904224.34906     -2216.735 6        40.069
C36        35.000                                                                                                                                    22049410.795 8 114817066.17508      -694.731 8        50.977                                                                    22049416.412 8  93298291.46208      -564.610 8        50.406
G11        36.000    24124536.057 7 126775292.46907     -3383.454 7        42.290                                    24124533.591 4  98785934.85004     -2636.456 4        27.389    24124533.753 6  98785934.83106     -2636.478 6        40.615
I09        38.000    38938104.492 7 152801404.04707      -859.328 7        42.394
R08        39.000    19448101.124 8 104143702.91308      -258.382 8        50.392                                                                    19448099.641 7  81000656.62107      -200.902 7        47.060
E25        40.000    26348318.316 7 138461359.57207      2562.206 7        42.400                                                                    26348321.982 7 103396476.15107      1913.381 7        45.159    26348321.376 7 106093767.21007      1963.333 7        46.226
G27        41.000    25255949.671 5 132720915.51605       737.564 5        34.281                                    25255951.747 4 103418907.20004       574.728 4        24.286    25255952.721 5 103418911.20605       574.665 5        34.338
S44        42.000    40997075.977 6 215441142.96606      -445.138 6        38.051
C09        43.000                                                                                                                                    40045975.330 6 208529876.36806     -1182.438 6        38.393    40045975.201 7 161248506.06807      -914.414 7        43.716    40045972.925 6 169447576.40806      -960.932 6        38.907
C05        44.000                                                                                                                                    39408594.561 6 205210861.38906      -460.685 6        38.498    39408593.655 7 158682062.12907      -356.243 7        43.204    39408594.178 6 166750723.83906      -374.423 6        39.910
C21        46.000                                                                                                                                    23278515.623 8 121217340.68108      1728.766 8        49.536                                                                    23278510.329 8  98498990.94608      1404.678 8        48.842
R17        47.000    23384385.597 7 125134581.45707       387.936 7        43.670                                                                    23384384.165 6  97326902.64206       301.649 6        40.684
C06        49.000                                                                                                                                    40882828.662 5 212887539.84705     -1384.737 5        35.090    40882829.326 6 164618107.53206     -1070.752 6        38.667    40882827.468 5 172988522.95005     -1125.332 5        35.633
C16        50.000                                                                                                                                    41425505.728 6 215713385.44006     -1327.761 6        37.784    41425511.361 6 166803253.91106     -1026.648 6        37.728    41425507.894 5 175284771.50105     -1079.124 5        33.102
S48        51.000    77309681.835 6 406264097.32706      -386.547 6        38.541
C19        52.000                                                                                                                                    25339136.241 7 131947509.64907     -3332.736 7        43.183                                                                    25339135.160 7 107218146.60907     -2708.192 7        45.437
C60        54.000                                                                                                                                    40997077.710 6 213482605.30306      -441.060 6        40.176                                                                    40997068.567 6 173472044.33806      -358.539 6        39.045
C45        55.000                                                                                                                                    23221728.230 8 120921632.08408      2196.237 8        49.296                                                                    23221721.791 8  98258703.98608      1784.541 8        48.907
C11        56.000                                                                                                                                    26599471.078 5 138510433.69905     -1958.911 5        35.390    26599468.944 7 107105033.89207     -1514.823 7        42.188    26599467.405 6 112551050.28606     -1591.858 6        38.201
C02        57.000                                                                                                                                    40981497.330 5 213401306.34205      -475.116 5        34.724    40981500.614 6 165015381.55406      -367.485 6        40.870    40981500.886 5 173406013.68805      -386.266 5        34.714
I03        58.000   127108001.999 6 423013670.71006       905.349 6        40.574
R07        59.000    21527613.838 8 115238979.54308     -3309.927 8        48.803                                                                    21527615.059 7  89630306.93807     -2574.333 7        44.760
G07        60.000    21406189.612 8 112490300.25308     -1856.082 8        48.224                                    21406186.100 8  87654770.36808     -1446.294 8        48.140    21406185.977 7  87654771.37407     -1446.364 7        44.978
> 2025 01 01 06 31 45.0000000  0 54
G08         1.000    25306597.865 5 132987071.93205      1816.805 5        34.438                                    25306607.292 3 103626331.55103      1415.691 3        21.310    25306607.502 5 103626341.54805      1415.747 5        31.940
R01         2.000    21858216.302 7 116844686.19207      2972.630 7        45.318                                                                    21858216.293 6  90879268.70806      2312.023 6        38.535
G09         3.000    23022419.412 7 120983609.26607     -3336.471 7        42.720                                    23022421.194 6  94272936.35306     -2599.839 6        40.446    23022421.666 6  94272937.32706     -2599.744 6        40.520
E34         4.000    27602142.881 6 145050208.95106     -3531.674 6        39.450                                                                    27602145.697 6 108316710.36006     -2637.338 6        41.385    27602145.354 7 111142364.38307     -2706.098 7        43.022
S21         5.000    38583735.825 7 202758676.80207      -401.001 7        43.676
E05         6.000    22435233.451 8 117897973.74208     -1426.876 8        48.098                                                                    22435234.534 8  88040719.09908     -1065.553 8        50.488    22435234.061 8  90337426.18508     -1093.362 8        51.929
E15         7.000    26065718.436 7 136976285.16807     -2024.329 7        42.620                                                                    26065719.953 7 102287506.23507     -1511.594 7        45.955    26065719.321 7 104955874.07007     -1551.101 7        46.603
R10         8.000    19576574.028 7 104354153.17707        61.451 7        47.213
E31         9.000    27042229.970 6 142107862.96806     -2138.207 6        39.513                                                                    27042232.798 7 106119524.52007     -1596.741 7        42.212    27042232.446 7 108887858.80307     -1638.328 7        43.450
G04        10.000                                                                                                                                                                    25630069.256 4 104950627.19104     -2824.094 4        25.594
E09        11.000    27965351.167 6 146958833.49306     -2813.795 6        37.909                                                                    27965359.608 6 109741965.52806     -2101.363 6        40.405    27965358.536 7 112604803.02707     -2156.197 7        42.779
S27        12.000    39238460.686 6 206199447.63906      -424.577 6        36.340
G06        13.000                                                                                                                                                                    25843740.004 3                     -2982.030 3        22.705
S36        14.000    38352233.120 7 201542842.83807      -402.034 7        44.545
G20        15.000    20810606.881 8 109360476.29808      -583.070 8        48.627                                    20810602.806 6  85215934.87706      -454.339 6        40.124
R11        16.000    21734603.377 7 116143141.52207      3633.900 7        47.770                                                                    21734604.695 7  90333554.21207      2826.385 7        45.485
S45        17.000    63534698.126 6 333878401.07206      -444.513 6        36.707
E13        18.000    27214412.370 6 143012725.42406       611.498 6        39.727                                                                    27214413.646 7 106795208.44307       456.747 7        42.796    27214413.182 7 109581171.00507       468.739 7        44.509
E24        19.000    25376010.861 7 133351810.53607       486.930 7        45.339                                                                    25376011.656 8  99580904.29508       363.729 8        48.213    25376010.795 8 102178664.12408       373.150 8        49.291
G30        21.000    20645506.250 8 108492883.88508       310.761 8        51.220                                    20645504.809 8  84539915.64608       242.151 8        52.408    20645505.361 7  84539919.63707       242.253 7        44.950
I06        22.000    38111856.466 7 149559296.71507      -323.565 7        43.420
S28        23.000    41014463.751 5 215532323.93205      -405.141 5        35.105
G14        24.000    23647861.453 7 124270354.09607      3073.854 7        42.421                                    23647861.562 4  96834043.95304      2395.210 4        28.796    23647861.899 7  96834045.95807      2395.132 7        42.485
S23        25.000    38287434.672 7 201201774.13607      -398.670 7        44.895
E08        26.000    28200413.543 6 148194175.65306      2059.500 6        37.985                                                                    28200411.951 6 110664481.18106      1538.047 6        38.748    28200411.441 6 113551378.22406      1577.950 6        40.286
G13        28.000    22948153.822 7 120593371.83907      2616.653 7        43.490                                    22948149.382 4  93968842.56304      2038.959 4        26.431
R09        29.000    21202610.834 8 113220752.13008     -3364.547 8        48.357                                                                    21202610.839 7  88060584.78507     -2616.890 7        46.288
C22        30.000                                                                                                                                    21724990.678 8 113127738.02108     -1184.663 8        52.567                                                                    21724984.844 8  91925537.51108      -962.685 8        50.134
I01        31.000   344080220.602 6  47103791.52706     -3003.613 6        41.042
E03        32.000    24163575.181 7 126980458.50707       905.866 7        47.611                                                                    24163575.400 8  94823087.63408       676.471 8        50.297    24163575.024 8  97296727.38608       694.138 8        51.373
G05        33.000    21968993.094 7 115447862.88507      1842.919 7        46.868                                    21968989.085 7  89959372.15007      1436.042 7        44.966    21968989.452 7  89959375.15907      1435.962 7        43.107
R24        34.000    23301835.129 7 124605400.17907     -2853.108 7        44.816                                                                    23301833.943 6  96915313.66706     -2219.204 6        39.580
C36        35.000                                                                                                                                    22050079.282 8 114820546.33908      -697.437 8        51.029                                                                    22050084.779 8  93301119.37108      -566.759 8        50.373
G11        36.000    24127755.497 7 126792211.92407     -3384.593 7        43.228                                    24127753.221 4  98799118.82504     -2637.346 4        27.353    24127753.272 6  98799118.82106     -2637.232 6        40.231
I09        38.000    38939199.414 7 152805700.47907      -859.518 7        42.391
R08        39.000    19448343.963 8 104145001.78408      -261.247 8        50.535                                                                    19448342.334 7  81001666.84207      -203.190 7        47.297
E25        40.000    26345880.941 7 138448549.84107      2561.408 7        42.468                                                                    26345884.402 7 103386910.43007      1912.812 7        45.022    26345883.795 7 106083951.96007      1962.632 7        46.326
G27        41.000    25255248.096 5 132717235.23405       734.492 5        34.490                                    25255251.508 4 103416039.45404       572.334 4        24.496    25255252.099 5 103416043.47305       572.228 5        33.982
S44        42.000    40997499.341 6 215443368.31506      -445.147 6        37.512
C09        43.000                                                                                                                                    40047110.490 6 208535788.68906     -1182.489 6        38.246    40047110.891 7 161253077.80707      -914.256 7        43.676    40047108.155 6 169452380.62606      -960.849 6        39.135
C05        44.000                                                                                                                                    39409037.412 6 205213164.92906      -460.775 6        38.841    39409036.032 7 158683843.34807      -356.295 7        43.285    39409036.484 6 166752595.62206      -374.345 6        39.673
C21        46.000                                                                                                                                    23276856.395 8 121208700.07108      1727.395 8        49.511                                                                    23276850.987 8  98491969.73108      1403.614 8        48.758
R17        47.000    23384024.498 7 125132652.23107       383.584 7        44.295                                                                    23384024.268 6  97325402.12906       298.289 6        40.620
C06        49.000                                                                                                                                    40884159.425 5 212894463.69205     -1384.866 5        35.438    40884158.933 6 164623461.43206     -1070.786 6        38.970    40884156.847 5 172994149.09005     -1125.157 5        35.614
C16        50.000                                                                                                                                    41426781.089 6 215720023.54406     -1327.751 6        37.947    41426786.371 6 166808386.86006     -1026.508 6        37.898    41426782.644 5 175290165.45405     -1079.107 5        32.988
S48        51.000    77310059.946 6 406266030.16506      -386.623 6        38.396
C19        52.000                                                                                                                                    25342336.396 7 131964175.55507     -3333.723 7        43.401                                                                    25342335.323 7 107231688.97307     -2708.938 7        44.960
C60        54.000                                                                                                                                    40997501.088 6 213484810.40606      -440.972 6        40.181                                                                    40997492.101 6 173473836.14806      -358.398 6        38.871
C45        55.000                                                                                                                                    23219620.466 8 120910655.28108      2194.449 8        49.230                                                                    23219613.842 8  98249784.42508      1783.138 8        48.828
C11        56.000                                                                                                                                    26601352.920 5 138520233.59505     -1961.046 5        35.176    26601350.484 7 107112611.75007     -1516.494 7        42.036    26601349.095 6 112559013.46906     -1593.766 6        37.773
C02        57.000                                                                                                                                    40981953.198 5 213403682.06705      -475.424 5        34.571    40981956.724 6 165017218.56106      -367.356 6        41.080    40981957.086 5 173407944.12905      -386.208 5        34.443
I03        58.000   127106848.301 6 423009143.80406       905.240 6        40.403
R07        59.000    21530706.531 8 115255533.54808     -3311.817 8        48.971                                                                    21530707.315 7  89643182.25507     -2575.884 7        44.743
G07        60.000    21407956.290 8 112499584.80108     -1857.802 8        48.385                                    21407952.888 8  87662005.06608     -1447.637 8        48.182    21407952.991 7  87662006.06507     -1447.624 7        45.245
> 2025 01 01 06 31 50.0000000  0 54
G08         1.000    25304870.553 5 132977991.09805      1815.274 5        35.938                                    25304879.144 3 103619255.62503      1414.490 3        22.152    25304880.155 5 103619265.64405      1414.823 5        31.758
R01         2.000    21855436.184 7 116829824.12907      2972.014 7        45.103                                                                    21855435.985 6  90867709.32606      2311.516 6        38.658
G09         3.000    23025594.346 7 121000293.46407     -3337.095 7        42.622                                    23025596.157 6  94285936.98406     -2600.323 6        40.474    23025596.667 6  94285937.96406     -2600.355 6        40.756
E34         4.000    27605503.433 6 145067867.61706     -3531.848 6        39.652                                                                    27605505.981 6 108329896.99806     -2637.432 6        41.378    27605505.653 7 111155895.01407     -2706.180 7        42.777
S21         5.000    38584116.946 7 202760681.50607      -400.929 7        43.725
E05         6.000    22436591.538 8 117905110.42908     -1427.849 8        48.057                                                                    22436592.598 8  88046048.42108     -1066.251 8        50.604    22436592.182 8  90342894.53308     -1094.011 8        51.853
E15         7.000    26067645.010 7 136986411.42107     -2026.160 7        43.257                                                                    26067646.897 7 102295068.03907     -1513.130 7        45.919    26067646.324 7 104963633.13907     -1552.623 7        46.510
R10         8.000    19576518.887 7 104353856.95807        57.045 7        47.358
E31         9.000    27044265.778 6 142118558.37806     -2139.934 6        39.805                                                                    27044268.110 7 106127511.32907     -1598.046 7        42.180    27044267.716 7 108896053.96607     -1639.596 7        43.426
G04        10.000                                                                                                                                                                    25633519.310 4 104964749.69604     -2824.707 4        27.665
E09        11.000    27968028.639 6 146972903.78106     -2814.103 6        38.006                                                                    27968037.230 6 109752472.46806     -2101.523 6        40.417    27968036.356 7 112615584.06807     -2156.289 7        42.844
S27        12.000    39238863.637 6 206201569.70806      -424.144 6        36.556
G06        13.000                                                                                                                                                                    25847376.672 3                     -2980.410 3        20.762
S36        14.000    38352615.622 7 201544852.11807      -402.179 7        44.564
G20        15.000    20811163.231 8 109363399.65708      -586.275 8        48.938                                    20811159.116 6  85218212.80706      -456.835 6        40.114
R11        16.000    21731204.893 8 116124976.52208      3632.053 8        48.480                                                                    21731204.987 7  90319425.86007      2824.954 7        44.795
S45        17.000    63535076.546 6 333880622.94406      -444.389 6        36.665
E13        18.000    27213831.892 6 143009672.50906       609.591 6        39.820                                                                    27213832.528 7 106792928.68907       455.121 7        42.891    27213832.253 7 109578831.78307       466.953 7        44.540
E24        19.000    25375548.580 7 133349380.89007       484.853 7        45.260                                                                    25375549.252 8  99579089.94208       362.000 8        48.268    25375548.432 8 102176802.43908       371.496 8        49.178
G30        21.000    20645211.622 8 108491335.70108       308.519 8        51.329                                    20645210.191 8  84538709.25908       240.408 8        52.406    20645210.777 7  84538713.25507       240.424 7        45.121
I06        22.000    38112268.694 7 149560914.18307      -323.373 7        43.177
S28        23.000    41014844.926 5 215534349.59205      -405.008 5        35.190
G14        24.000    23644937.372 7 124254985.77607      3073.341 7        42.997                                    23644937.121 4  96822068.64504      2394.812 4        28.882    23644937.327 7  96822070.65007      2394.869 7        42.745
S23        25.000    38287814.657 7 201203767.61607      -398.522 7        44.731
E08        26.000    28198452.957 6 148183877.50206      2059.597 6        37.459                                                                    28198452.375 6 110656791.00606      1538.079 6        39.066    28198451.806 6 113543487.42106      1578.209 6        40.315
G13        28.000    22945664.279 7 120580289.77007      2616.151 7        43.018                                    22945659.873 4  93958648.73204      2038.562 4        26.287
R09        29.000    21205762.665 8 113237581.66208     -3367.328 8        48.412                                                                    21205762.454 7  88073674.41007     -2618.985 7        46.192
C22        30.000                                                                                                                                    21726128.946 8 113133666.21408     -1186.641 8        52.263                                                                    21726123.348 8  91930354.62908      -964.271 8        50.244
I01        31.000   344084048.040 6  47118810.17506     -3003.866 6        40.965
E03        32.000    24162713.757 7 126975930.79107       905.174 7        47.620                                                                    24162713.793 8  94819706.53608       675.928 8        50.395    24162713.419 8  97293258.09008       693.547 8        51.296
G05        33.000    21967240.687 7 115438654.05007      1840.503 7        47.060                                    21967236.723 7  89952196.42907      1434.162 7        44.951    21967237.141 7  89952199.42807      1434.150 7        43.064
R24        34.000    23304503.608 7 124619673.06907     -2855.958 7        46.369                                                                    23304503.229 6  96926414.78606     -2221.380 6        40.362
C36        35.000                                                                                                                                    22050750.308 8 114824039.60308      -699.916 8        50.951                                                                    22050755.593 8  93303957.91808      -568.760 8        50.511
G11        36.000    24130976.356 7 126809137.33407     -3385.593 7        43.245                                    24130974.051 4  98812307.43404     -2638.119 4        27.449    24130974.517 6  98812307.43406     -2638.070 6        39.811
I09        38.000    38940294.635 7 152809997.32007      -859.378 7        42.313
R08        39.000    19448589.001 8 104146314.36808      -263.826 8        50.353                                                                    19448587.374 7  81002687.72607      -205.198 7        47.123
E25        40.000    26343444.222 7 138435743.98907      2560.815 7        42.694                                                                    26343447.649 7 103377347.62907      1912.246 7        45.016    26343446.985 7 106074139.68607      1962.131 7        46.246
G27        41.000    25254551.486 5 132713569.08805       731.709 5        34.514                                    25254553.828 4 103413182.73704       570.159 4        24.797    25254554.778 5 103413186.77005       570.230 5        33.587
S44        42.000    40997924.060 6 215445593.42406      -444.931 6        37.361
C09        43.000                                                                                                                                    40048246.028 6 208541700.52906     -1182.319 6        38.354    40048246.155 7 161257649.18107      -914.228 7        43.564    40048243.502 6 169457184.44206      -960.772 6        39.240
C05        44.000                                                                                                                                    39409479.580 6 205215468.38506      -460.579 6        38.550    39409478.701 7 158685624.51007      -356.154 7        43.445    39409478.906 6 166754467.36206      -374.326 6        39.916
C21        46.000                                                                                                                                    23275198.107 8 121200065.89008      1726.212 8        49.415                                                                    23275192.995 8  98484953.73708      1402.722 8        48.915
R17        47.000    23383667.382 7 125130744.06607       379.585 7        43.448                                                                    23383667.577 6  97323918.00406       295.299 6        41.302
C06        49.000                                                                                                                                    40885488.460 5 212901386.62905     -1384.771 5        35.614    40885488.592 6 164628814.63306     -1070.482 6        39.081    40885486.656 6 172999774.50106     -1125.031 6        36.064
C16        50.000                                                                                                                                    41428055.446 6 215726660.62406     -1327.237 6        38.099    41428061.177 6 166813519.01306     -1026.416 6        37.811    41428057.450 5 175295558.56305     -1078.934 5        33.240
S48        51.000    77310430.161 6 406267962.67806      -386.581 6        38.207
C19        52.000                                                                                                                                    25345537.647 7 131980845.89707     -3334.439 7        43.435                                                                    25345536.470 7 107245234.96107     -2709.574 7        44.751
C60        54.000                                                                                                                                    40997924.774 6 213487015.30106      -440.916 6        40.129                                                                    40997915.466 6 173475627.76606      -358.354 6        39.051
C45        55.000                                                                                                                                    23217514.248 8 120899687.24108      2192.782 8        49.481                                                                    23217507.551 8  98240871.98008      1781.751 8        49.027
C11        56.000                                                                                                                                    26603238.938 6 138530043.63006     -1962.914 6        36.442    26603234.348 6 107120197.50306     -1517.899 6        41.366    26603233.028 6 112566984.91506     -1594.929 6        37.735
C02        57.000                                                                                                                                    40982410.735 5 213406057.61805      -475.272 5        34.805    40982412.937 6 165019055.46206      -367.366 6        41.111    40982413.451 5 173409874.41505      -386.275 5        34.933
I03        58.000   127105694.862 6 423004616.77306       905.340 6        40.212
R07        59.000    21533800.486 8 115272096.83808     -3313.495 8        48.881                                                                    21533802.071 7  89656064.78707     -2577.183 7        44.767
G07        60.000    21409724.853 8 112508877.92608     -1859.387 8        48.275                                    21409721.294 8  87669246.45008     -1448.868 8        48.173    21409721.509 7  87669247.45207     -1448.979 7        45.252
> 2025 01 01 06 31 55.0000000  0 54
G08         1.000    25303143.852 5 132968918.57705      1813.706 5        35.462                                    25303152.633 3 103612186.17403      1413.269 3        22.686    25303154.831 5 103612196.24505      1413.119 5        32.395
R01         2.000    21852656.053 7 116814966.06207      2971.219 7        44.957                                                                    21852657.373 6  90856153.04706      2310.998 6        38.784
G09         3.000    23028770.472 7 121016982.38207     -3338.266 7        42.423                                    23028772.087 6  94298941.29406     -2601.237 6        40.520    23028772.797 6  94298942.27006     -2601.122 6        40.694
E34         4.000    27608863.744 6 145085527.25206     -3531.968 6        39.712                                                                    27608866.507 6 108343084.36706     -2637.555 6        41.361    27608866.162 7 111169426.41007     -2706.372 7        42.711
S21         5.000    38584498.555 7 202762686.20107      -400.960 7        43.594
E05         6.000    22437950.514 8 117912252.16508     -1428.741 8        48.128                                                                    22437951.656 8  88051381.51608     -1066.901 8        50.615    22437951.263 8  90348366.75608     -1094.779 8        51.778
E15         7.000    26069574.195 7 136996548.18507     -2028.302 7        43.082                                                                    26069575.910 7 102302637.68507     -1514.651 7        45.907    26069575.238 7 104971400.25007     -1554.129 7        46.458
R10         8.000    19576467.516 7 104353583.37207        52.536 7        47.635
E31         9.000    27046302.797 6 142129263.53006     -2141.884 6        40.286                                                                    27046305.365 7 106135505.41307     -1599.484 7        42.220    27046304.741 7 108904256.60007     -1641.260 7        43.232
G04        10.000                                                                                                                                                                    25636966.476 4 104978872.95304     -2824.962 4        26.647
E09        11.000    27970706.337 6 146986975.35606     -2814.253 6        38.222                                                                    27970715.049 6 109762980.38706     -2101.686 6        40.579    27970714.331 7 112626366.11507     -2156.424 7        42.933
S27        12.000    39239266.736 6 206203691.73706      -424.376 6        36.189
G06        13.000    25851007.721 3                     -3827.565 3        20.929                                                                                                    25851016.188 3                     -2978.381 3        20.667
S36        14.000    38352997.499 7 201546861.80107      -401.768 7        44.584
G20        15.000    20811722.692 8 109366339.65108      -589.556 8        48.877                                    20811718.606 6  85220503.70306      -459.392 6        40.095
R11        16.000    21727808.044 8 116106821.49808      3630.101 8        48.006                                                                    21727807.803 7  90305305.28107      2823.360 7        44.855
S45        17.000    63535455.373 6 333881244.81716      -444.175 6        36.612
E13        18.000    27213253.422 6 143006631.55806       607.116 6        39.778                                                                    27213253.959 7 106790657.85207       453.314 7        43.086    27213253.617 7 109576501.69707       465.201 7        44.578
E24        19.000    25375088.607 7 133346963.09207       482.420 7        45.836                                                                    25375089.194 8  99577284.43508       360.286 8        48.317    25375088.372 8 102174949.83108       369.698 8        49.090
G30        21.000    20644919.266 8 108489799.57708       306.112 8        51.217                                    20644917.886 8  84537512.27408       238.530 8        52.366    20644918.569 7  84537516.27207       238.507 7        45.199
I06        22.000    38112680.851 7 149562531.79307      -323.437 7        43.261
S28        23.000    41015237.700 5 215536374.86805      -404.899 5        35.329
G14        24.000    23642013.635 7 124239620.88707      3072.844 7        42.993                                    23642013.449 4  96810096.00704      2394.426 4        29.090    23642013.557 7  96810098.01107      2394.340 7        42.785
S23        25.000    38288192.496 7 201205761.01007      -398.452 7        44.585
E08        26.000    28196493.624 6 148173579.42306      2059.799 6        36.733                                                                    28196492.734 6 110649100.89206      1538.181 6        39.324    28196492.152 6 113535596.70506      1578.218 6        40.367
G13        28.000    22943175.373 7 120567211.53107      2615.312 7        42.554                                    22943171.124 4  93948457.90404      2037.915 4        26.263
R09        29.000    21208916.589 7 113254425.83607     -3370.132 7        47.976                                                                    21208916.794 7  88086775.42707     -2621.309 7        46.513
C22        30.000                                                                                                                                    21727269.318 8 113139604.91108     -1188.710 8        52.444                                                                    21727263.797 8  91935180.30308      -965.924 8        50.244
I01        31.000   344087875.153 6  47133829.35806     -3003.869 6        40.984
E03        32.000    24161853.024 7 126971407.36007       904.294 7        47.537                                                                    24161853.042 8  94816328.63508       675.347 8        50.454    24161852.661 8  97289792.06808       692.934 8        51.221
G05        33.000    21965491.020 7 115429458.20107      1837.985 7        46.406                                    21965486.825 7  89945030.82207      1432.198 7        44.838    21965487.339 7  89945033.82507      1432.119 7        43.039
R24        34.000    23307176.820 7 124633961.18007     -2859.080 7        45.681                                                                    23307175.130 6  96937527.77406     -2223.818 6        39.529
C36        35.000                                                                                                                                    22051423.648 8 114827546.04908      -702.522 8        51.074                                                                    22051428.995 8  93306807.19208      -570.810 8        50.480
G11        36.000    24134198.040 7 126826068.74507     -3386.864 7        42.682                                    24134195.841 4  98825500.72304     -2639.104 4        27.222    24134196.430 6  98825500.70806     -2638.964 6        40.257
I09        38.000    38941389.696 7 152814294.67707      -859.451 7        42.485
R08        39.000    19448836.526 8 104147640.81108      -266.582 8        50.461                                                                    19448834.943 7  81003719.39707      -207.359 7        47.069
E25        40.000    26341007.853 7 138422942.10707      2560.039 7        42.798                                                                    26341011.726 7 103367787.77107      1911.794 7        45.311    26341010.802 7 106064330.44107      1961.637 7        46.122
G27        41.000    25253856.212 5 132709917.18105       729.164 5        34.824                                    25253859.099 4 103410337.11604       568.176 4        24.722    25253859.240 5 103410341.15405       568.146 5        33.659
S44        42.000    40998344.370 6 215447818.35806      -444.886 6        37.376
C09        43.000                                                                                                                                    40049381.048 6 208547611.98006     -1182.230 6        38.183    40049381.318 7 161262220.24707      -914.242 7        43.439    40049378.897 6 169461987.95106      -960.595 6        39.147
C05        44.000                                                                                                                                    39409921.532 6 205217771.83606      -460.564 6        38.919    39409920.721 7 158687405.65207      -356.194 7        43.547    39409921.252 6 166756339.08706      -374.158 6        39.751
C21        46.000                                                                                                                                    23273541.323 8 121191438.20508      1724.954 8        49.403                                                                    23273536.097 8  98477943.04208      1401.696 8        48.858
R17        47.000    23383314.492 7 125128857.09407       375.329 7        43.901                                                                    23383314.795 6  97322450.36906       291.945 6        41.430
C06        49.000                                                                                                                                    40886817.238 5 212908308.73905     -1384.260 5        35.109    40886817.763 6 164634167.19206     -1070.337 6        39.348    40886816.005 5 173005399.23205     -1124.700 5        35.919
C16        50.000                                                                                                                                    41429329.631 6 215733296.73106     -1327.073 6        37.913    41429335.812 6 166818650.42806     -1026.166 6        38.036    41429331.983 5 175300950.89205     -1078.228 5        33.269
S48        51.000    77310804.646 6 406269895.36806      -386.374 6        38.309
C19        52.000                                                                                                                                    25348740.146 7 131997520.76507     -3335.399 7        43.738                                                                    25348738.707 7 107258784.61907     -2710.234 7        44.521
C60        54.000                                                                                                                                    40998348.250 6 213489220.01006      -440.815 6        40.317                                                                    40998338.946 6 173477419.25606      -358.202 6        39.063
C45        55.000                                                                                                                                    23215409.462 8 120888728.02708      2191.043 8        49.478                                                                    23215402.874 8  98231966.72308      1780.448 8        48.981
C11        56.000                                                                                                                                    26605124.505 6 138539863.97906     -1965.094 6        36.227    26605120.729 6 107127791.21106     -1519.460 6        41.564    26605119.107 6 112574964.74306     -1596.565 6        38.105
C02        57.000                                                                                                                                    40982866.715 5 213408433.07505      -475.127 5        34.824    40982869.154 6 165020892.29106      -367.390 6        40.908    40982869.847 5 173411804.62705      -385.872 5        34.781
I03        58.000   127104541.116 6 423000089.65906       905.470 6        40.315
R07        59.000    21536896.344 8 115288669.44008     -3315.416 8        49.387                                                                    21536897.756 7  89668954.54907     -2578.637 7        44.688
G07        60.000    21411494.833 8 112518179.66508     -1861.123 8        48.028                                    21411491.354 8  87676494.54508     -1450.224 8        48.082    21411491.486 7  87676495.54507     -1450.226 7        45.139
