     3.04           OBSERVATION DATA    M                   RINEX VERSION / TYPE
ssrcrin-15.6.1x                         20250101 100000 UTC PGM / RUN BY / DATE 
(00000000023479385599111004) Septentrio proprietary         COMMENT             
rref                                                        MARKER NAME         
01                                                          MARKER NUMBER       
geodetic                                                    MARKER TYPE         
NFB                 CLIMERS@TUW                             OBSERVER / AGENCY   
3297213             SEPT ASTERX SB3 PROB4.14.4              REC # / TYPE / VERS 
Unknown             Unknown                                 ANT # / TYPE        
  4127832.5384  1207193.1124  4695247.1914                  APPROX POSITION XYZ 
        0.0000        0.0000        0.0000                  ANTENNA: DELTA H/E/N
G   23 X1  C1C L1C D1C S1C C1W S1W C2W L2W D2W S2W C2L L2L  SYS / # / OBS TYPES 
       D2L S2L C5Q L5Q D5Q S5Q C1L L1L D1L S1L              SYS / # / OBS TYPES 
E   21 X1  C1C L1C D1C S1C C6C L6C D6C S6C C5Q L5Q D5Q S5Q  SYS / # / OBS TYPES 
       C7Q L7Q D7Q S7Q C8Q L8Q D8Q S8Q                      SYS / # / OBS TYPES 
S    9 X1  C1C L1C D1C S1C C5I L5I D5I S5I                  SYS / # / OBS TYPES 
R   17 X1  C1C L1C D1C S1C C2P L2P D2P S2P C2C L2C D2C S2C  SYS / # / OBS TYPES 
       C3Q L3Q D3Q S3Q                                      SYS / # / OBS TYPES 
C   25 X1  C1P L1P D1P S1P C5P L5P D5P S5P C2I L2I D2I S2I  SYS / # / OBS TYPES 
       C7I L7I D7I S7I C6I L6I D6I S6I C7D L7D D7D S7D      SYS / # / OBS TYPES 
J   17 X1  C1C L1C D1C S1C C2L L2L D2L S2L C5Q L5Q D5Q S5Q  SYS / # / OBS TYPES 
       C1L L1L D1L S1L                                      SYS / # / OBS TYPES 
I    5 X1  C5A L5A D5A S5A                                  SYS / # / OBS TYPES 
SEPTENTRIO RECEIVERS OUTPUT ALIGNED CARRIER PHASES.         COMMENT             
NO FURTHER PHASE SHIFT APPLIED IN THE RINEX ENCODER.        COMMENT             
G L1C                                                       SYS / PHASE SHIFT   
G L2W                                                       SYS / PHASE SHIFT   
G L2L  0.00000                                              SYS / PHASE SHIFT   
G L5Q  0.00000                                              SYS / PHASE SHIFT   
G L1L  0.00000                                              SYS / PHASE SHIFT   
E L1C  0.00000                                              SYS / PHASE SHIFT   
E L6C  0.00000                                              SYS / PHASE SHIFT   
E L5Q  0.00000                                              SYS / PHASE SHIFT   
E L7Q  0.00000                                              SYS / PHASE SHIFT   
E L8Q  0.00000                                              SYS / PHASE SHIFT   
S L1C                                                       SYS / PHASE SHIFT   
S L5I                                                       SYS / PHASE SHIFT   
R L1C                                                       SYS / PHASE SHIFT   
R L2P  0.00000                                              SYS / PHASE SHIFT   
R L2C                                                       SYS / PHASE SHIFT   
R L3Q  0.00000                                              SYS / PHASE SHIFT   
C L1P  0.00000                                              SYS / PHASE SHIFT   
C L5P  0.00000                                              SYS / PHASE SHIFT   
C L2I                                                       SYS / PHASE SHIFT   
C L7I                                                       SYS / PHASE SHIFT   
C L6I                                                       SYS / PHASE SHIFT   
C L7D                                                       SYS / PHASE SHIFT   
J L1C                                                       SYS / PHASE SHIFT   
J L2L  0.00000                                              SYS / PHASE SHIFT   
J L5Q  0.00000                                              SYS / PHASE SHIFT   
J L1L  0.00000                                              SYS / PHASE SHIFT   
I L5A                                                       SYS / PHASE SHIFT   
  2025     1     1    10     0    0.0000000     GPS         TIME OF FIRST OBS   
 C1C    0.000 C2C    0.000 C2P    0.000                     GLONASS COD/PHS/BIS 
DBHZ                                                        SIGNAL STRENGTH UNIT
    18                                                      LEAP SECONDS        
 24 R01  1 R02 -4 R03  5 R04  6 R05  1 R06 -4 R07  5 R08  6 GLONASS SLOT / FRQ #
    R09 -2 R10 -7 R11  0 R12 -1 R13 -2 R14 -7 R15  0 R16 -1 GLONASS SLOT / FRQ #
    R17  4 R18 -3 R19  3 R20  2 R21  4 R22 -3 R23  3 R24  2 GLONASS SLOT / FRQ #
                                                            END OF HEADER       
> 2025 01 01 10 00  0.0000000  0 53
G19         1.000    23024368.825 7 120994011.00907      2561.735 7        42.504                                    23024371.328 5  94281130.00505      1996.155 5        30.702
R01         2.000    21373072.509 7 114251190.46907     -4511.703 7        45.633                                                                    21373079.323 6  88862074.74006     -3509.125 6        39.297
G24         3.000    21646513.531 7 113753205.39407      2138.887 7        45.133                                    21646517.665 7  88638892.47207      1666.664 7        44.360    21646517.852 7  88638889.47207      1666.611 7        42.804
R02         4.000    19365434.604 8 103337617.00008      -900.391 8        52.493                                                                    19365438.408 7  80373703.42407      -700.312 7        47.443
S21         5.000    38377011.306 7 201672292.24207      -490.599 7        42.047
G17         7.000    22107936.638 7 116178147.50907       581.591 7        46.068                                    22107939.298 7  90528514.06807       453.189 7        43.403    22107940.246 6  90528510.06606       453.170 6        41.931
R21         8.000    23154645.090 7 123905219.88607      2229.121 7        42.563                                                                    23154656.662 6  96370797.63306      1733.809 6        41.278
E30        10.000    27203888.289 6 142957481.55306      2394.240 6        41.230                                                                    27203899.025 7 106754054.79407      1787.997 7        43.041    27203897.653 7 109538933.92607      1834.667 7        43.490
C26        11.000                                                                                                                                    21701356.948 8 113004684.21608       157.224 8        50.815                                                                    21701359.239 8  91825581.72608       127.934 8        49.365
S27        12.000    39103908.406 6 205492251.99306      -523.390 6        36.382
G15        13.000    20141244.527 8 105842895.98208      -976.036 8        49.516                                    20141244.871 8  82474952.62608      -760.546 8        50.032    20141245.427 7  82474944.62807      -760.546 7        45.463
S36        14.000    38147629.947 7 200467565.02807      -491.856 7        44.003
G12        15.000    24702343.586 6 129811742.84106      3331.136 6        39.541                                    24702349.178 5 101152060.23905      2595.677 5        31.358    24702349.326 5 101152060.24605      2595.841 5        35.657
R11        16.000    21400844.001 8 114359536.21308     -3699.174 8        48.306                                                                    21400850.379 7  88946281.77007     -2877.202 7        45.196
S45        17.000    63331092.314 5 332808047.50405      -543.188 5        35.886
R03        18.000    21692834.550 8 116123379.94908      2955.481 8        48.719                                                                    21692840.023 7  90318183.01607      2298.690 7        44.011
E24        19.000    28987586.096 5 152330554.64705     -3415.140 5        32.581                                                                    28987603.113 5 113753280.11005     -2550.135 5        35.357    28987600.660 5 116720761.43205     -2616.895 5        35.771
E33        20.000    28604986.526 5 150320208.86305     -1096.180 5        35.729                                                                    28604991.547 6 112252121.12606      -818.767 6        38.751    28604990.541 6 115180433.26906      -840.116 6        39.562
G30        21.000    24222605.097 6 127290472.17606     -3512.261 6        40.305                                    24222615.681 5  99187338.80705     -2736.824 5        34.200    24222616.359 6  99187342.79706     -2736.863 6        37.543
I06        22.000    38114762.954 7 149570590.01907      -466.000 7        43.208
S28        23.000    40826900.135 5 214546573.56105      -501.376 5        35.010
G14        24.000    21699274.706 7 114030410.01707     -2962.170 7        46.307                                    21699278.008 5  88854854.03905     -2308.174 5        34.986    21699277.949 7  88854856.02707     -2308.208 7        44.676
S23        25.000    38080591.449 7 200114741.47507      -492.952 7        44.242
E08        26.000    23489217.481 8 123436615.28508       -19.634 8        48.720                                                                    23489221.042 8  92176674.59508       -14.668 8        50.871    23489220.194 8  94581283.11608       -15.037 8        51.258
C07        27.000                                                                                                                                    38783238.466 6 201954470.40106      -733.723 6        41.108    38783240.542 7 156164011.96807      -567.394 7        44.584    38783237.290 6 164104542.75906      -596.242 6        41.197
G13        28.000    20547818.744 8 107979455.54908     -2592.732 8        49.595                                    20547818.924 6  84139798.64506     -2020.310 6        39.336
I02        29.000    37007591.226 7 145225745.41807      -112.282 7        42.823
G10        30.000    25287430.253 6 132886284.48606      1906.037 6        38.571                                    25287435.040 5 103547744.87705      1485.232 5        32.515    25287435.061 6 103547736.86106      1485.275 6        36.673
E07        31.000    26578206.578 6 139669329.22106      2128.796 6        40.837                                                                    26578217.203 7 104298516.89107      1589.622 7        44.479    26578215.539 7 107019346.43107      1631.191 7        44.537
E03        32.000    24577243.182 7 129154202.86407     -2662.589 7        46.533                                                                    24577250.440 8  96446309.96108     -1988.300 8        48.950    24577249.180 8  98962297.93808     -2040.176 8        49.137
G05        33.000    25169488.444 6 132266356.55806     -4094.749 6        38.384                                    25169497.689 4 103064636.25304     -3190.703 4        29.706    25169497.850 5 103064639.24605     -3190.879 5        35.352
G02        34.000    25789065.406 5                       450.372 5        32.910
C24        35.000                                                                                                                                    24392545.970 7 127018391.77307      2179.421 7        44.602                                                                    24392549.565 7 103212862.56007      1771.065 7        44.330
G23        36.000    23008966.548 7 120912836.17507      -288.534 7        43.033                                    23008970.260 4  94217753.77904      -224.831 4        29.469    23008970.425 7  94217754.77807      -224.741 7        42.089
C33        39.000                                                                                                                                    24898793.533 7 129654537.03507      1779.959 7        44.275                                                                    24898811.665 7 105355002.78507      1446.496 7        44.816
E25        40.000    24321649.681 7 127811102.45907     -2183.074 7        46.208                                                                    24321656.792 8  95443349.58908     -1630.172 8        48.836    24321655.767 8  97933169.23308     -1672.780 8        49.601
S44        42.000    40816119.724 6 214490095.17906      -465.651 6        37.645
C09        43.000                                                                                                                                    41456133.989 4                     -1139.056 4        24.722    41456139.965 3                      -877.107 3        20.119    41456137.975 3                      -925.244 3        20.833
C05        44.000                                                                                                                                    39347651.743 6 204893429.98806      -535.210 6        38.291    39347656.185 7 158436581.83407      -413.938 7        43.009    39347655.814 6 166492767.02706      -434.656 6        39.895
C40        45.000                                                                                                                                    38834358.921 7 202220663.08407      -881.143 7        42.444                                                                    38834364.351 7 164320860.90407      -715.889 7        42.667
C21        46.000                                                                                                                                    24383679.175 7 126972090.22007     -3699.898 7        46.658                                                                    24383680.112 7 103175169.94207     -3006.323 7        46.231
R20        47.000    23140577.533 5 123743089.13305      -791.001 5        31.223                                                                    23140591.146 6  96244682.93206      -615.371 6        40.415
C10        49.000                                                                                                                                    38438891.974 6 200161415.70906      -347.601 6        41.967    38438896.065 7 154777521.93207      -268.816 7        44.820    38438892.587 6 162647551.47406      -282.265 6        41.437
C42        50.000                                                                                                                                    22634054.328 8 117861390.51608     -1269.076 8        49.560                                                                    22634066.049 8  95772056.03508     -1031.070 8        49.535
S48        51.000    77088215.843 6 405100590.55706      -483.556 6        37.996
E02        53.000    23373914.726 8 122830843.60408       596.946 8        49.095                                                                    23373918.652 8  91724411.14708       445.810 8        50.964    23373917.615 8  94117203.06108       457.391 8        51.009
C60        54.000                                                                                                                                    40816118.157 6 212540202.48806      -461.396 6        39.736                                                                    40816114.076 6 172706244.09306      -374.731 6        39.114
C45        55.000                                                                                                                                    23108232.468 7 120330548.81807     -2663.700 7        47.527                                                                    23108229.594 8  97778383.69608     -2164.329 8        48.400
R12        56.000    19238840.646 8 102770532.36508      -206.951 8        52.003                                                                    19238844.624 7  79932676.47207      -161.002 7        47.192
C02        57.000                                                                                                                                    40907823.149 5 213017593.75305      -510.738 5        31.049    40907830.386 6 164718652.28606      -394.815 6        36.136    40907829.849 5 173094200.96205      -414.499 5        30.641
I03        58.000   122991768.220 6 406860577.58206       896.676 6        36.904
C14        59.000                                                                                                                                    23270679.822 7 121176472.00307       411.360 7        46.243    23270681.411 8  93701307.32208       318.122 8        50.580    23270678.499 8  98465780.93408       334.370 8        48.022
R13        60.000    21572425.834 7 115195613.03607      2519.601 7        42.413
> 2025 01 01 10 00  5.0000000  0 53
G19         1.000    23021932.853 7 120981205.99207      2560.415 7        42.629                                    23021934.441 5  94271152.11105      1995.120 5        30.574
R01         2.000    21377293.433 7 114273754.77607     -4513.908 7        45.242                                                                    21377300.324 6  88879624.74906     -3510.636 6        39.670
G24         3.000    21644479.218 7 113742514.89007      2137.388 7        45.163                                    21644483.313 7  88630562.21707      1665.498 7        44.384    21644483.717 7  88630559.22207      1665.359 7        42.828
R02         4.000    19366280.266 8 103342130.58808      -904.953 8        52.574                                                                    19366284.307 7  80377213.98607      -703.865 7        47.321
S21         5.000    38377476.673 7 201674745.70807      -490.679 7        42.045
G17         7.000    22107385.264 7 116175247.24707       578.620 7        46.507                                    22107387.370 7  90526254.12407       450.874 7        43.532    22107388.219 6  90526250.11006       450.984 6        41.893
R21         8.000    23152562.867 7 123894082.58507      2226.034 7        42.483                                                                    23152575.199 6  96362135.17506      1731.417 6        41.344
E30        10.000    27201610.302 6 142945512.15606      2393.467 6        40.625                                                                    27201621.467 7 106745116.59407      1787.326 7        42.840    27201619.918 7 109529762.54307      1834.033 7        43.403
C26        11.000                                                                                                                                    21701207.041 8 113003902.45208       155.511 8        50.725                                                                    21701209.109 8  91824946.50408       126.317 8        49.434
S27        12.000    39104404.036 6 205494870.73506      -523.724 6        36.212
G15        13.000    20142175.101 8 105847785.53908      -979.654 8        49.471                                    20142175.309 8  82478762.67108      -763.366 8        50.057    20142175.694 7  82478754.67207      -763.346 7        45.410
S36        14.000    38148096.977 7 200470024.28707      -491.849 7        44.032
G12        15.000    24699174.173 6 129795088.32606      3330.708 6        40.033                                    24699179.871 5 101139082.75405      2595.347 5        31.525    24699180.512 5 101139082.77005      2595.290 5        35.643
R11        16.000    21404305.300 7 114378035.03207     -3700.194 7        47.921                                                                    21404312.410 7  88960669.70607     -2878.003 7        45.404
S45        17.000    63331562.728 6 332810764.17606      -543.053 6        36.140
R03        18.000    21690075.067 8 116108609.10408      2952.979 8        49.014                                                                    21690080.075 7  90306694.60607      2296.817 7        44.384
E24        19.000    28990835.745 5 152347630.21105     -3415.070 5        32.766                                                                    28990852.556 5 113766031.37805     -2550.397 5        35.038    28990850.049 5 116733845.33905     -2616.815 5        35.300
E33        20.000    28606031.332 5 150325697.26205     -1098.917 5        35.976                                                                    28606035.925 6 112256219.58506      -820.587 6        39.030    28606034.963 6 115184638.64806      -842.171 6        39.646
G30        21.000    24225947.228 6 127308036.07606     -3512.902 6        39.946                                    24225958.138 5  99201024.94005     -2737.322 5        34.333    24225958.518 6  99201028.92906     -2737.251 6        37.705
I06        22.000    38115356.716 7 149572920.36507      -466.012 7        43.386
S28        23.000    40827379.748 5 214549080.45005      -501.197 5        34.848
G14        24.000    21702094.209 7 114045225.69107     -2963.897 7        46.135                                    21702097.366 5  88866398.68305     -2309.521 5        34.976    21702097.498 7  88866400.66807     -2309.541 7        44.807
S23        25.000    38081060.214 7 200117206.71607      -493.020 7        44.289
E08        26.000    23489237.216 8 123436718.88408       -21.681 8        48.595                                                                    23489240.764 8  92176751.95708       -16.204 8        50.664    23489239.955 8  94581362.49008       -16.587 8        51.021
C07        27.000                                                                                                                                    38783943.997 6 201958141.34706      -734.477 6        41.035    38783945.396 7 156166850.55707      -567.954 7        44.542    38783942.406 6 164107525.69406      -596.885 6        41.352
G13        28.000    20550287.317 8 107992425.75008     -2595.247 8        49.367                                    20550287.072 6  84149905.29306     -2022.275 6        39.384
I02        29.000    37007734.618 7 145226307.60607      -112.391 7        42.882
G10        30.000    25285618.354 6 132876760.08406      1903.719 6        39.357                                    25285622.517 5 103540323.22905      1483.422 5        32.395    25285622.614 6 103540315.22006      1483.509 6        36.302
E07        31.000    26576181.944 6 139658687.35006      2128.165 6        41.180                                                                    26576191.995 7 104290570.03707      1589.189 7        44.266    26576190.432 7 107011192.26907      1630.622 7        44.379
E03        32.000    24579777.523 7 129167520.08007     -2664.135 7        46.723                                                                    24579784.577 8  96456254.62308     -1989.474 8        48.860    24579783.458 8  98972502.02108     -2041.325 8        48.927
G05        33.000    25173384.648 6 132286829.87706     -4094.437 6        38.276                                    25173393.693 4 103080589.44104     -3190.455 4        29.905    25173393.668 5 103080592.43305     -3190.629 5        35.443
G02        34.000    25788637.847 5                       447.902 5        33.078
C24        35.000                                                                                                                                    24390453.598 7 127007497.18507      2178.614 7        44.485                                                                    24390457.335 7 103204009.86307      1770.166 7        44.430
G23        36.000    23009242.545 7 120914287.37307      -291.906 7        43.268                                    23009246.401 4  94218884.57504      -227.460 4        29.583    23009246.294 6  94218885.56706      -227.380 6        41.893
C33        39.000                                                                                                                                    24897085.452 7 129645642.80207      1777.801 7        43.932                                                                    24897103.520 7 105347775.52207      1444.503 7        44.810
E25        40.000    24323727.556 7 127822021.63007     -2184.535 7        46.127                                                                    24323734.618 8  95451503.49808     -1631.277 8        48.602    24323733.671 8  97941535.85008     -1673.817 8        49.508
S44        42.000    40816563.635 6 214492423.52506      -465.661 6        37.452
C09        43.000                                                                                                                                    41457228.093 4                     -1139.735 4        25.714    41457235.714 3                      -879.499 3        20.310    41457235.651 3                      -924.117 3        21.143
C05        44.000                                                                                                                                    39348166.221 6 204896106.69406      -535.175 6        38.162    39348170.135 7 158438651.65107      -413.973 7        42.885    39348169.965 6 166494942.12306      -435.054 6        40.052
C40        45.000                                                                                                                                    38835205.349 7 202225071.24907      -882.081 7        42.409                                                                    38835210.979 7 164324442.90707      -716.742 7        42.700
C21        46.000                                                                                                                                    24387232.564 7 126990592.83307     -3701.108 7        46.516                                                                    24387233.252 7 103190204.83707     -3007.448 7        46.319
R20        47.000    23141319.105 5 123747056.47105      -795.419 5        30.732                                                                    23141332.176 6  96247768.68106      -618.938 6        39.931
C10        49.000                                                                                                                                    38439226.353 6 200163155.61506      -348.344 6        41.869    38439230.249 7 154778867.33607      -269.303 7        44.772    38439226.753 6 162648965.30906      -283.158 6        41.485
C42        50.000                                                                                                                                    22635274.542 8 117867743.32908     -1271.974 8        49.422                                                                    22635286.049 8  95777218.23008     -1033.585 8        49.546
S48        51.000    77088679.921 6 405103007.90106      -483.586 6        38.042
E02        53.000    23373347.640 8 122827863.85908       594.963 8        49.250                                                                    23373351.638 8  91722186.01308       444.316 8        50.855    23373350.563 8  94114919.87408       455.941 8        50.775
C60        54.000                                                                                                                                    40816560.861 6 212542509.66606      -461.359 6        39.622                                                                    40816557.035 6 172708118.90606      -374.968 6        39.162
C45        55.000                                                                                                                                    23110790.419 7 120343869.82707     -2664.619 7        47.371                                                                    23110787.769 8  97789208.10408     -2165.257 8        48.451
R12        56.000    19239035.421 8 102771574.52108      -209.772 8        51.902                                                                    19239039.642 7  79933487.02807      -163.204 7        47.370
C02        57.000                                                                                                                                    40908312.077 5 213020146.46405      -511.029 5        30.619    40908320.409 6 164720626.18506      -395.014 6        36.533    40908320.073 5 173096275.27005      -414.831 5        30.921
I03        58.000   122990626.414 6 406856094.71906       896.530 6        37.066
C14        59.000                                                                                                                                    23270285.874 7 121174422.61107       408.482 7        46.086    23270287.913 8  93699722.59308       315.903 8        50.507    23270284.906 8  98464115.65308       331.874 8        48.085
R13        60.000    21570067.938 7 115183019.35707      2517.929 7        42.123
> 2025 01 01 10 00 10.0000000  0 53
G19         1.000    23019497.583 7 120968408.47807      2558.704 7        42.751                                    23019498.985 5  94261180.05405      1993.782 5        30.732
R01         2.000    21381516.462 7 114296330.14107     -4516.180 7        45.308                                                                    21381524.214 6  88897183.34806     -3512.625 6        39.733
G24         3.000    21642445.875 7 113731832.13207      2135.821 7        45.207                                    21642450.447 7  88622237.99507      1664.275 7        44.411    21642450.614 7  88622234.99707      1664.238 7        42.849
R02         4.000    19367130.493 8 103346667.49508      -909.758 8        52.352                                                                    19367134.624 7  80380742.69707      -707.577 7        47.650
S21         5.000    38377946.367 7 201677199.56507      -490.995 7        42.394
G17         7.000    22106836.147 7 116172362.27507       575.489 7        46.258                                    22106838.425 7  90524006.09407       448.432 7        43.750    22106838.935 6  90524002.08306       448.597 6        41.967
R21         8.000    23150484.550 7 123882959.96907      2223.105 7        42.863                                                                    23150497.111 6  96353484.16306      1728.987 6        41.826
E30        10.000    27199333.230 6 142933546.66806      2392.675 6        40.231                                                                    27199344.493 7 106736181.30207      1786.794 7        42.965    27199342.921 7 109520594.16607      1833.362 7        43.496
C26        11.000                                                                                                                                    21701058.507 8 113003129.58108       153.655 8        50.755                                                                    21701060.642 8  91824318.48408       124.757 8        49.564
S27        12.000    39104902.058 6 205497489.75406      -524.074 6        36.507
G15        13.000    20143109.112 8 105852693.21208      -983.363 8        49.477                                    20143109.203 8  82482586.83308      -766.257 8        50.084    20143109.584 7  82482578.83507      -766.253 7        45.338
S36        14.000    38148564.829 7 200472482.69607      -491.422 7        44.224
G12        15.000    24696005.618 6 129778436.93406      3330.055 6        40.479                                    24696011.208 5 101126107.69205      2594.836 5        31.872    24696012.089 6 101126107.71206      2594.608 6        36.159
R11        16.000    21407768.651 8 114396539.07408     -3701.292 8        48.514                                                                    21407775.323 7  88975061.71007     -2878.838 7        45.630
S45        17.000    63332032.352 6 332813481.30706      -543.270 6        36.129
R03        18.000    21687318.708 8 116093851.17508      2950.292 8        49.851                                                                    21687323.395 7  90295216.22807      2294.683 7        44.466
E24        19.000    28994085.324 5 152364706.18205     -3415.192 5        32.826                                                                    28994101.477 5 113778782.98705     -2550.292 5        34.938    28994099.529 5 116746929.59605     -2616.873 5        35.100
E33        20.000    28607077.917 5 150331198.01205     -1101.384 5        35.743                                                                    28607082.699 6 112260327.31206      -822.560 6        39.099    28607081.519 6 115188853.50406      -843.795 6        39.688
G30        21.000    24229290.181 6 127325603.18306     -3513.791 6        39.216                                    24229301.092 5  99214713.57805     -2738.015 5        34.376    24229301.576 6  99214717.57806     -2737.929 6        37.467
I06        22.000    38115950.797 7 149575251.19207      -466.225 7        43.348
S28        23.000    40827856.333 5 214551587.80005      -501.584 5        34.871
G14        24.000    21704915.377 7 114060050.48007     -2965.848 7        45.431                                    21704918.459 5  88877950.43605     -2311.048 5        35.071    21704918.493 7  88877952.41507     -2311.032 7        44.843
S23        25.000    38081527.328 7 200119672.42807      -493.080 7        44.343
E08        26.000    23489258.989 8 123436832.75808       -23.797 8        48.217                                                                    23489262.441 8  92176836.99208       -17.746 8        50.757    23489261.617 8  94581449.74708       -18.192 8        51.145
C07        27.000                                                                                                                                    38784649.527 6 201961816.07606      -735.215 6        41.042    38784651.338 7 156169692.07607      -568.657 7        44.525    38784648.013 6 164110511.70406      -597.702 6        41.528
G13        28.000    20552757.629 8 108005409.10908     -2597.996 8        49.724                                    20552757.751 6  84160022.19506     -2024.413 6        39.429
I02        29.000    37007878.270 7 145226871.36907      -112.820 7        42.895
G10        30.000    25283807.991 6 132867247.41006      1901.449 6        40.479                                    25283812.274 5 103532910.72105      1481.658 5        32.581    25283811.864 6 103532902.69706      1481.749 6        36.174
E07        31.000    26574157.301 6 139648049.29706      2127.278 6        40.830                                                                    26574167.606 7 104282626.03807      1588.542 7        44.424    26574166.108 7 107003041.03807      1629.979 7        44.471
E03        32.000    24582313.126 7 129180845.17807     -2665.769 7        46.426                                                                    24582320.296 8  96466205.16008     -1990.655 8        48.932    24582319.241 8  98982712.14308     -2042.601 8        49.050
G05        33.000    25177279.821 6 132307301.85406     -4094.285 6        38.676                                    25177289.451 4 103096541.58304     -3190.339 4        29.943    25177290.106 5 103096544.57105     -3190.371 5        35.414
G02        34.000    25788211.371 5                       445.098 5        32.389
C24        35.000                                                                                                                                    24388362.777 7 126996606.98207      2177.540 7        44.525                                                                    24388365.804 7 103195160.69007      1769.379 7        44.426
G23        36.000    23009522.256 7 120915755.96207      -295.421 7        42.504                                    23009525.819 4  94220028.91704      -230.195 4        29.545    23009526.283 7  94220029.90807      -230.174 7        42.034
C33        39.000                                                                                                                                    24895379.479 7 129636759.37607      1775.623 7        43.807                                                                    24895397.566 7 105340557.01207      1442.746 7        45.029
E25        40.000    24325807.040 7 127832948.38707     -2186.065 7        45.690                                                                    24325813.942 8  95459663.09408     -1632.475 8        48.764    24325812.956 8  97949908.30708     -1675.112 8        49.595
S44        42.000    40817006.706 6 214494752.25506      -465.709 6        37.512
C09        43.000                                                                                                                                    41458318.882 4                     -1139.398 4        25.353    41458331.029 3                      -879.710 3        23.124    41458328.976 3                      -928.351 3        20.714
C05        44.000                                                                                                                                    39348680.109 6 204898783.80506      -535.486 6        38.156    39348684.399 7 158440721.78407      -414.049 7        43.005    39348683.983 6 166497117.50906      -435.207 6        40.000
C40        45.000                                                                                                                                    38836052.710 7 202229484.04107      -882.995 7        42.434                                                                    38836058.351 7 164328028.65707      -717.622 7        42.919
C21        46.000                                                                                                                                    24390786.975 7 127009101.71207     -3702.380 7        46.796                                                                    24390787.567 7 103205244.81107     -3008.643 7        46.311
R20        47.000    23142066.054 5 123751046.12005      -800.164 5        31.834                                                                    23142078.494 6  96250871.76806      -622.399 6        40.067
C10        49.000                                                                                                                                    38439561.167 6 200164899.42306      -349.185 6        41.900    38439565.059 7 154780215.76107      -269.997 7        44.716    38439561.500 6 162650382.29806      -283.690 6        41.576
C42        50.000                                                                                                                                    22636497.414 8 117874110.91108     -1274.997 8        49.421                                                                    22636508.894 8  95782392.41308     -1036.197 8        49.706
S48        51.000    77089143.548 6 405105426.05706      -483.875 6        38.099
E02        53.000    23372782.584 8 122824894.07908       592.957 8        48.985                                                                    23372786.539 8  91719968.32108       442.833 8        50.943    23372785.445 8  94112644.33308       454.385 8        50.948
C60        54.000                                                                                                                                    40817004.186 6 212544817.23806      -461.556 6        39.667                                                                    40817000.043 6 172709993.99206      -375.243 6        39.192
C45        55.000                                                                                                                                    23113349.723 7 120357195.95707     -2665.732 7        47.682                                                                    23113346.949 8  97800036.66308     -2166.228 8        48.535
R12        56.000    19239233.530 8 102772631.16008      -212.754 8        52.032                                                                    19239237.310 7  79934308.86407      -165.508 7        47.218
C02        57.000                                                                                                                                    40908802.019 5 213022699.50505      -510.947 5        30.626    40908810.946 6 164722600.35206      -394.839 6        36.117    40908810.338 5 173098349.83905      -415.250 5        30.943
I03        58.000   122989484.473 6 406851612.00806       896.406 6        36.692
C14        59.000                                                                                                                                    23269895.038 7 121172387.67107       405.477 7        46.233    23269897.017 8  93698149.04708       313.557 8        50.610    23269894.219 8  98462462.09808       329.363 8        48.204
R13        60.000    21567711.336 7 115170434.93107      2515.971 7        42.218
> 2025 01 01 10 00 15.0000000  0 53
G19         1.000    23017063.346 7 120955618.74807      2557.179 7        43.793                                    23017065.000 5  94251214.06405      1992.600 5        30.770
R01         2.000    21385742.356 7 114318916.93807     -4518.464 7        45.672                                                                    21385749.203 6  88914750.84606     -3514.316 6        39.844
G24         3.000    21640414.522 7 113721157.38007      2134.200 7        44.716                                    21640419.096 7  88613920.01307      1663.013 7        44.483    21640419.177 7  88613917.02907      1662.915 7        42.373
R02         4.000    19367984.978 8 103351228.03408      -914.392 8        52.191                                                                    19367989.179 7  80384289.78007      -711.202 7        47.227
S21         5.000    38378410.790 6 201679654.38806      -490.933 6        41.909
G17         7.000    22106289.652 7 116169492.86707       572.445 7        46.098                                    22106292.458 7  90521770.19007       446.059 7        43.920    22106293.469 7  90521766.19907       446.010 7        42.110
R21         8.000    23148409.436 7 123871852.55407      2220.040 7        42.082                                                                    23148421.138 6  96344844.94706      1726.719 6        41.151
E30        10.000    27197057.535 6 142921585.35806      2391.881 6        40.417                                                                    27197068.195 7 106727249.13707      1786.117 7        43.003    27197066.782 7 109511428.99307      1832.734 7        43.378
C26        11.000                                                                                                                                    21700911.727 8 113002365.87808       151.837 8        50.697                                                                    21700913.996 8  91823697.90508       123.297 8        49.520
S27        12.000    39105403.891 6 205500109.89406      -524.130 6        36.147
G15        13.000    20144046.279 8 105857619.30108      -986.976 8        49.560                                    20144046.607 8  82486425.34408      -769.073 8        50.114    20144046.742 7  82486417.34707      -769.120 7        45.318
S36        14.000    38149033.697 7 200474941.51407      -491.749 7        43.994
G12        15.000    24692837.338 6 129761788.92906      3329.287 6        40.505                                    24692843.215 5 101113135.27105      2594.242 5        32.216    24692844.300 6 101113135.29706      2594.235 6        36.057
R11        16.000    21411233.214 8 114415048.56808     -3702.370 8        48.411                                                                    21411238.919 7  88989457.94207     -2879.576 7        45.327
S45        17.000    63332504.479 5 332814599.27215      -543.626 5        35.671
R03        18.000    21684564.752 8 116079106.42608      2947.685 8        49.508                                                                    21684568.572 7  90283748.11507      2292.599 7        44.120
E24        19.000    28997334.507 5 152381782.94105     -3415.352 5        32.665                                                                    28997351.010 5 113791535.17405     -2550.500 5        34.714    28997349.291 5 116760014.44305     -2617.197 5        35.267
E33        20.000    28608127.278 5 150336711.48505     -1103.529 5        35.714                                                                    28608131.910 6 112264444.56906      -824.322 6        39.667    28608130.692 6 115193078.17706      -845.759 6        39.835
G30        21.000    24232634.054 6 127343173.74206     -3514.464 6        39.381                                    24232644.640 5  99228404.90505     -2738.540 5        34.276    24232644.738 6  99228408.89006     -2738.550 6        37.176
I06        22.000    38116544.614 7 149577582.69607      -466.262 7        43.314
S28        23.000    40828331.814 5 214554095.80905      -501.814 5        34.843
G14        24.000    21707738.235 7 114074884.62907     -2967.730 7        45.591                                    21707741.367 5  88889509.48405     -2312.507 5        35.086    21707741.420 7  88889511.47007     -2312.428 7        44.606
S23        25.000    38081997.658 7 200122139.11107      -493.320 7        44.092
E08        26.000    23489282.696 8 123436957.19808       -25.906 8        48.446                                                                    23489286.126 8  92176929.91108       -19.319 8        50.911    23489285.286 8  94581545.09408       -19.859 8        51.118
C07        27.000                                                                                                                                    38785355.814 6 201965494.87406      -735.963 6        41.085    38785358.026 7 156172536.73007      -569.139 7        44.596    38785354.677 6 164113501.00006      -598.042 6        41.380
G13        28.000    20555231.027 8 108018405.88408     -2600.583 8        49.657                                    20555230.956 6  84170149.55006     -2026.424 6        39.417
I02        29.000    37008022.447 7 145227437.03307      -113.109 7        43.016
G10        30.000    25281999.860 6 132857746.68506      1898.978 6        40.477                                    25282004.281 5 103525507.51405      1479.729 5        32.521    25282004.189 6 103525499.50106      1479.759 6        36.454
E07        31.000    26572133.642 6 139637415.37906      2126.357 6        40.956                                                                    26572144.032 7 104274685.12207      1587.967 7        44.548    26572142.498 7 106994892.96807      1629.340 7        44.438
E03        32.000    24584850.237 7 129194178.43907     -2667.393 7        46.287                                                                    24584857.607 8  96476161.80208     -1991.909 8        49.038    24584856.575 8  98992928.52308     -2043.824 8        49.026
G05        33.000    25181175.552 6 132327772.75806     -4093.894 6        38.736                                    25181184.994 4 103112492.88504     -3190.038 4        29.896    25181185.817 5 103112495.88305     -3190.173 5        35.167
G02        34.000    25787789.889 5                       442.703 5        33.180
C24        35.000                                                                                                                                    24386272.063 7 126985721.41907      2176.673 7        44.727                                                                    24386275.384 7 103186315.29007      1768.727 7        44.504
G23        36.000    23009804.236 7 120917242.22807      -298.983 7        42.885                                    23009808.725 4  94221187.04204      -232.971 4        29.374    23009808.931 7  94221188.03707      -232.998 7        42.311
C33        39.000                                                                                                                                    24893675.755 7 129627887.06007      1773.459 7        43.968                                                                    24893693.755 7 105333347.52607      1441.044 7        44.996
E25        40.000    24327887.563 7 127843883.05107     -2187.683 7        45.731                                                                    24327894.641 8  95467828.57008     -1633.618 8        48.897    24327893.740 8  97958286.79308     -1676.237 8        49.571
S44        42.000    40817450.997 6 214497081.62006      -465.777 6        37.573
C09        43.000                                                                                                                                    41459417.403 4                     -1138.312 4        25.188    41459426.818 4                      -881.351 4        24.316    41459422.431 3                      -923.640 3        21.095
C05        44.000                                                                                                                                    39349193.885 6 204901461.64406      -535.622 6        38.135    39349198.528 7 158442792.47107      -414.063 7        42.991    39349198.130 6 166499293.47006      -435.170 6        39.982
C40        45.000                                                                                                                                    38836901.307 7 202233901.76207      -883.955 7        42.442                                                                    38836906.810 7 164331618.39107      -718.324 7        42.919
C21        46.000                                                                                                                                    24394342.733 7 127027617.13607     -3703.647 7        46.322                                                                    24394343.542 7 103220290.08207     -3009.622 7        46.453
R20        47.000    23142815.597 5 123755058.48905      -804.420 5        33.269                                                                    23142828.503 6  96253992.50306      -625.984 6        40.048
C10        49.000                                                                                                                                    38439897.038 6 200166647.35706      -349.990 6        41.795    38439900.846 7 154781567.38307      -270.527 7        44.752    38439897.120 6 162651802.65006      -284.533 6        41.645
C42        50.000                                                                                                                                    22637723.027 8 117880493.51908     -1278.009 8        49.303                                                                    22637734.667 8  95787578.78608     -1038.478 8        49.720
S48        51.000    77089608.651 6 405107844.68706      -483.940 6        37.868
E02        53.000    23372219.414 8 122821934.55208       590.964 8        48.942                                                                    23372223.357 8  91717758.29308       441.268 8        51.090    23372222.211 8  94110376.64808       452.813 8        50.883
C60        54.000                                                                                                                                    40817447.431 6 212547125.41806      -461.624 6        39.670                                                                    40817443.270 6 172711869.56806      -375.016 6        39.207
C45        55.000                                                                                                                                    23115910.109 7 120370527.47707     -2666.743 7        47.920                                                                    23115907.171 8  97810869.59108     -2167.030 8        48.469
R12        56.000    19239434.220 8 102773702.53508      -215.718 8        52.152                                                                    19239437.870 7  79935142.14707      -167.805 7        47.243
C02        57.000                                                                                                                                    40909293.862 5 213025253.18205      -510.369 5        30.792    40909301.452 6 164724575.00506      -394.993 6        36.348    40909300.284 5 173100424.91805      -415.220 5        31.283
I03        58.000   122988341.302 6 406847129.69706       896.455 6        36.854
C14        59.000                                                                                                                                    23269507.729 7 121170367.50407       402.564 7        46.371    23269509.174 8  93696586.92208       311.323 8        50.607    23269506.280 8  98460820.53508       327.120 8        48.235
R13        60.000    21565356.188 6 115157859.81806      2514.027 6        41.862
> 2025 01 01 10 00 20.0000000  0 53
G19         1.000    23014631.126 7 120942836.41907      2555.857 7        44.110                                    23014632.469 5  94241253.83505      1991.571 5        31.155
R01         2.000    21389968.900 7 114341514.65207     -4520.462 7        45.567                                                                    21389976.339 6  88932326.82706     -3515.868 6        40.381
G24         3.000    21638384.589 7 113710490.31507      2132.696 7        44.576                                    21638389.194 7  88605608.01807      1661.837 7        44.420    21638389.713 7  88605605.03507      1661.703 7        42.648
R02         4.000    19368844.291 8 103355811.59808      -918.995 8        52.563                                                                    19368847.954 7  80387854.77407      -714.740 7        47.249
S21         5.000    38378879.519 6 201682109.73806      -490.833 6        41.821
G17         7.000    22105746.573 7 116166638.64707       569.395 7        46.288                                    22105749.428 7  90519546.12807       443.684 7        43.926    22105750.262 7  90519542.12507       443.710 7        42.516
R21         8.000    23146336.999 7 123860759.94107      2217.031 7        43.187                                                                    23146347.767 6  96336217.24606      1724.334 6        41.099
E30        10.000    27194782.376 6 142909627.86906      2391.149 6        40.691                                                                    27194792.929 7 106718319.82207      1785.701 7        43.052    27194791.204 7 109502266.73707      1832.205 7        43.372
C26        11.000                                                                                                                                    21700766.855 8 113001610.93708       150.237 8        50.720                                                                    21700769.071 8  91823084.45308       121.875 8        49.546
S27        12.000    39105900.008 6 205502730.57406      -524.246 6        36.234
G15        13.000    20144987.294 8 105862563.39908      -990.563 8        49.667                                    20144987.432 8  82490277.88808      -771.868 8        50.059    20144988.174 7  82490269.89007      -771.899 7        45.387
S36        14.000    38149502.386 7 200477400.30007      -491.685 7        43.987
G12        15.000    24689669.518 6 129745143.96106      3328.731 6        40.064                                    24689675.849 5 101100165.21805      2593.806 5        32.090    24689676.742 6 101100165.23206      2593.816 6        36.302
R11        16.000    21414696.996 7 114433563.09107     -3703.322 7        47.999                                                                    21414703.874 7  89003858.09107     -2880.441 7        45.812
S45        17.000    63332977.317 6 332817317.65006      -543.651 6        36.095
R03        18.000    21681812.136 8 116064374.65108      2945.117 8        49.554                                                                    21681816.705 7  90272290.08107      2290.598 7        44.182
E24        19.000    29000584.230 5 152398860.01505     -3415.269 5        32.737                                                                    29000600.867 5 113804287.60005     -2550.296 5        34.443    29000598.912 5 116773099.53205     -2617.176 5        35.090
E33        20.000    28609178.654 5 150342237.41105     -1106.402 5        35.229                                                                    28609183.418 6 112268571.18806      -826.331 6        39.601    28609182.316 6 115197312.42906      -847.754 6        39.562
G30        21.000    24235978.137 6 127360747.34706     -3514.947 6        39.736                                    24235988.721 5  99242098.60405     -2738.916 5        34.224    24235989.769 6  99242102.60906     -2738.921 6        37.221
I06        22.000    38117138.900 7 149579914.58307      -466.370 7        43.460
S28        23.000    40828812.362 5 214556604.64405      -501.970 5        34.810
G14        24.000    21710562.944 7 114089727.76107     -2969.387 7        45.628                                    21710565.988 5  88901075.52205     -2313.800 5        35.014    21710566.216 7  88901077.51407     -2313.925 7        44.801
S23        25.000    38082468.828 7 200124606.23507      -493.511 7        44.135
E08        26.000    23489308.342 8 123437091.78308       -27.814 8        48.178                                                                    23489311.747 8  92177030.41508       -20.769 8        50.935    23489310.897 8  94581648.21608       -21.330 8        51.103
C07        27.000                                                                                                                                    38786062.878 6 201969177.35406      -736.793 6        41.056    38786065.134 7 156175384.23907      -569.768 7        44.448    38786061.694 6 164116493.29806      -598.849 6        41.454
G13        28.000    20557706.712 8 108031415.67008     -2603.134 8        49.405                                    20557706.630 6  84180287.04406     -2028.414 6        39.429
I02        29.000    37008166.974 7 145228004.15807      -113.642 7        43.090
G10        30.000    25280193.726 6 132848257.59906      1896.704 6        39.553                                    25280198.510 5 103518113.38005      1477.961 5        32.473    25280198.436 6 103518105.37306      1478.005 6        36.352
E07        31.000    26570110.747 6 139626785.16506      2125.861 6        40.722                                                                    26570121.133 7 104266747.01507      1587.323 7        44.494    26570119.776 7 106986747.76607      1628.864 7        44.331
E03        32.000    24587389.198 7 129207519.46707     -2668.980 7        46.268                                                                    24587396.373 8  96486124.23708     -1993.046 8        49.063    24587395.272 8  99003150.84908     -2044.991 8        49.058
G05        33.000    25185070.671 6 132348242.24206     -4093.721 6        38.414                                    25185080.261 5 103128443.09405     -3189.907 5        30.038    25185081.241 5 103128446.07205     -3189.827 5        35.286
G02        34.000    25787369.928 5 135513544.54415       440.460 5        33.904
C24        35.000                                                                                                                                    24384182.294 7 126974840.10507      2176.020 7        44.369                                                                    24384185.715 7 103177473.36607      1767.938 7        44.438
G23        36.000    23010091.109 7 120918745.76807      -302.370 7        42.667                                    23010094.905 4  94222358.62604      -235.609 4        29.412    23010095.309 7  94222359.61807      -235.593 7        42.154
C33        39.000                                                                                                                                    24891973.972 7 129619025.45207      1771.249 7        43.928                                                                    24891992.132 7 105326146.74707      1439.250 7        44.959
E25        40.000    24329969.724 7 127854825.17707     -2189.104 7        45.404                                                                    24329976.975 8  95475999.63508     -1634.713 8        48.909    24329975.952 8  97966671.02308     -1677.387 8        49.517
S44        42.000    40817895.280 6 214499411.23406      -465.782 6        37.546
C09        43.000                                                                                                                                    41460511.766 4                     -1138.958 4        24.135    41460519.678 4                      -880.676 4        25.368    41460518.059 3                      -924.899 3        19.851
C05        44.000                                                                                                                                    39349708.063 6 204904139.77906      -535.551 6        38.036    39349712.796 7 158444863.39507      -414.142 7        42.923    39349712.523 6 166501469.70206      -435.438 6        40.012
C40        45.000                                                                                                                                    38837750.467 7 202238324.02407      -884.865 7        42.720                                                                    38837756.084 7 164335211.82807      -719.213 7        42.809
C21        46.000                                                                                                                                    24397899.795 7 127046138.70907     -3704.795 7        46.082                                                                    24397900.515 7 103235340.35607     -3010.615 7        46.390
R20        47.000    23143572.631 5 123759092.97305      -809.282 5        33.880                                                                    23143583.172 6  96257130.45506      -629.267 6        39.940
C10        49.000                                                                                                                                    38440233.104 6 200168399.07406      -350.587 6        41.912    38440237.237 7 154782921.93207      -271.098 7        44.814    38440233.561 6 162653226.05806      -284.958 6        41.473
C42        50.000                                                                                                                                    22638951.484 8 117886890.76408     -1280.844 8        49.212                                                                    22638963.208 8  95792777.06108     -1040.921 8        49.678
S48        51.000    77090070.337 6 405110263.69006      -483.844 6        37.917
E02        53.000    23371658.021 8 122818984.90008       589.013 8        48.878                                                                    23371662.060 8  91715555.62808       439.877 8        51.096    23371660.923 8  94108116.52208       451.370 8        50.823
C60        54.000                                                                                                                                    40817890.972 6 212549433.87906      -461.733 6        39.775                                                                    40817886.757 6 172713745.39806      -375.320 6        39.291
C45        55.000                                                                                                                                    23118471.292 7 120383864.01007     -2667.752 7        47.665                                                                    23118468.354 8  97821706.59508     -2167.940 8        48.483
R12        56.000    19239637.528 8 102774788.26008      -218.467 8        52.249                                                                    19239641.071 7  79935986.58507      -169.908 7        47.150
C02        57.000                                                                                                                                    40909784.233 5                      -510.451 5        30.868    40909791.828 6 164726549.89006      -394.937 6        36.257    40909791.170 5 173102500.18005      -414.962 5        31.351
I03        58.000   122987199.270 6 406842647.50606       896.374 6        36.964
C14        59.000                                                                                                                                    23269122.848 7 121168361.69307       399.723 7        46.354    23269123.861 8  93695035.90308       309.125 8        50.513    23269121.070 8  98459190.64308       324.702 8        48.161
R13        60.000    21563003.496 7 115145293.63307      2512.430 7        42.258
> 2025 01 01 10 00 25.0000000  0 53
G19         1.000    23012199.782 7 120930061.58307      2554.303 7        43.443                                    23012201.400 5  94231299.45205      1990.358 5        31.389
R01         2.000    21394198.834 7 114364123.35707     -4522.830 7        45.815                                                                    21394206.920 6  88949911.36206     -3517.776 6        40.503
G24         3.000    21636356.473 7 113699830.95007      2131.218 7        44.635                                    21636360.777 7  88597302.02807      1660.687 7        44.510    21636361.199 7  88597299.03307      1660.705 7        42.099
R02         4.000    19369707.673 8 103360418.49308      -923.624 8        52.440                                                                    19369711.686 7  80391437.91107      -718.390 7        47.163
S21         5.000    38379347.452 6 201684565.63106      -490.911 6        41.952
G17         7.000    22105206.424 7 116163799.71507       566.405 7        46.207                                    22105209.310 7  90517333.97107       441.356 7        43.947    22105209.497 7  90517329.98507       441.251 7        42.305
R21         8.000    23144266.962 7 123849682.18607      2214.079 7        43.259                                                                    23144278.280 6  96327601.07906      1722.218 6        41.197
E30        10.000    27192507.032 6 142897674.30806      2390.434 6        40.365                                                                    27192518.394 7 106709393.44607      1784.965 7        43.020    27192516.569 7 109493107.49507      1831.587 7        43.517
C26        11.000                                                                                                                                    21700623.658 8 113000864.86908       148.475 8        50.825                                                                    21700625.786 8  91822478.19808       120.629 8        49.524
S27        12.000    39106398.424 6 205505351.23806      -523.884 6        36.212
G15        13.000    20145931.550 8 105867525.61008      -994.124 8        49.550                                    20145931.700 8  82494144.54708      -774.641 8        50.095    20145931.968 7  82494136.54807      -774.635 7        45.159
S36        14.000    38149971.159 7 200479859.73807      -491.875 7        44.126
G12        15.000    24686502.772 6 129728502.11106      3328.075 6        39.877                                    24686508.938 5 101087197.59805      2593.299 5        31.819    24686509.200 6 101087197.60906      2593.535 6        36.359
R11        16.000    21418162.497 7 114452082.77407     -3704.384 7        47.865                                                                    21418169.266 7  89018262.24507     -2881.205 7        45.887
S45        17.000    63333447.933 5 332820036.50605      -543.794 5        35.790
R03        18.000    21679062.257 8 116049656.03608      2942.518 8        49.426                                                                    21679067.266 7  90260842.30307      2288.564 7        43.977
E24        19.000    29003834.154 5 152415937.56505     -3415.402 5        33.647                                                                    29003850.444 5 113817040.35205     -2550.529 5        34.352    29003848.478 5 116786184.95505     -2617.018 5        35.148
E33        20.000    28610231.959 5 150347775.45205     -1108.500 5        35.114                                                                    28610237.030 6 112272706.76406      -827.895 6        39.646    28610235.848 6 115201555.89506      -849.445 6        39.814
G30        21.000    24239322.873 6 127378324.15106     -3515.605 6        40.019                                    24239333.441 5  99255794.79805     -2739.431 5        34.319    24239333.457 6  99255798.79406     -2739.482 6        37.130
I06        22.000    38117733.465 7 149582246.93307      -466.426 7        43.414
S28        23.000    40829285.289 5 214559113.93905      -501.806 5        35.071
G14        24.000    21713389.404 7 114104579.95907     -2971.278 7        45.691                                    21713392.313 5  88912648.63305     -2315.276 5        34.995    21713392.671 7  88912650.62107     -2315.245 7        44.637
S23        25.000    38082936.117 7 200127073.88807      -493.567 7        44.084
E08        26.000    23489336.000 8 123437236.65708       -29.932 8        48.247                                                                    23489339.321 8  92177138.60008       -22.308 8        50.892    23489338.476 8  94581759.22808       -22.944 8        51.194
C07        27.000                                                                                                                                    38786771.056 6 201972863.61606      -737.580 6        41.137    38786772.607 7 156178234.66507      -570.267 7        44.439    38786769.638 6 164119488.65706      -599.322 6        41.533
G13        28.000    20560184.783 8 108044438.54708     -2605.768 8        49.554                                    20560184.830 6  84190434.73606     -2030.469 6        39.489
I02        29.000    37008312.030 7 145228572.98907      -113.813 7        43.223
G10        30.000    25278389.635 6 132838780.21306      1894.301 6        38.739                                    25278395.087 5 103510728.36805      1476.083 5        32.790    25278395.832 6 103510720.36606      1476.204 6        37.032
E07        31.000    26568088.652 6 139616158.80906      2125.049 6        40.942                                                                    26568099.046 7 104258811.74307      1586.896 7        44.540    26568097.563 7 106978605.50307      1628.222 7        44.465
E03        32.000    24589929.526 7 129220868.35207     -2670.476 7        46.567                                                                    24589936.592 8  96496092.54208     -1994.136 8        48.963    24589935.408 8  99013379.20608     -2046.175 8        49.078
G05        33.000    25188965.988 6 132368710.32406     -4093.363 6        38.045                                    25188975.397 5 103144392.19605     -3189.623 5        30.008    25188976.381 5 103144395.17305     -3189.781 5        35.910
G02        34.000    25786951.245 5 135511349.34905       438.119 5        34.148                                    25786961.072 1 105593294.53511       341.428 1        10.963
C24        35.000                                                                                                                                    24382093.589 7 126963963.16907      2175.066 7        44.507                                                                    24382096.920 7 103168634.95707      1767.378 7        44.646
G23        36.000    23010380.495 7 120920266.63407      -305.769 7        42.800                                    23010384.308 4  94223543.70604      -238.264 4        29.573    23010384.590 7  94223544.70507      -238.330 7        42.290
C33        39.000                                                                                                                                    24890274.510 7 129610174.63507      1769.211 7        44.309                                                                    24890292.459 7 105318954.73007      1437.666 7        44.867
E25        40.000    24332053.608 7 127865774.87507     -2190.522 7        45.473                                                                    24332060.636 8  95484176.35908     -1635.850 8        48.809    24332059.621 8  97975061.05308     -1678.530 8        49.564
S44        42.000    40818337.519 6 214501741.21806      -465.842 6        37.508
C09        43.000                                                                                                                                    41461601.514 4                     -1139.404 4        24.211    41461614.716 4                      -881.817 4        24.917    41461610.888 3                      -931.478 3        19.910
C05        44.000                                                                                                                                    39350222.479 6 204906818.31406      -535.526 6        38.255    39350227.211 7 158446934.65707      -414.237 7        42.785    39350226.773 6 166503646.24406      -435.286 6        39.973
C40        45.000                                                                                                                                    38838600.640 7 202242750.89007      -885.688 7        42.880                                                                    38838606.144 7 164338809.00107      -719.700 7        42.751
C21        46.000                                                                                                                                    24401457.774 7 127064666.50407     -3706.086 7        46.290                                                                    24401458.311 7 103250395.67207     -3011.471 7        46.147
R20        47.000    23144329.981 5 123763149.69805      -813.359 5        32.898                                                                    23144342.474 6  96260285.72306      -632.821 6        40.863
C10        49.000                                                                                                                                    38440570.270 6 200170154.59706      -351.352 6        41.886    38440574.491 7 154784279.43407      -271.799 7        44.804    38440570.668 6 162654652.55606      -285.491 6        41.511
C42        50.000                                                                                                                                    22640182.994 8 117893302.73308     -1283.750 8        49.375                                                                    22640194.515 8  95797987.28508     -1043.149 8        49.657
S48        51.000    77090531.924 6 405112683.56106      -483.689 6        38.042
E02        53.000    23371098.594 8 122816045.19208       587.050 8        48.825                                                                    23371102.597 8  91713360.39708       438.434 8        51.042    23371101.521 8  94105864.03208       449.786 8        50.932
C60        54.000                                                                                                                                    40818334.145 6 212551742.66306      -461.650 6        39.832                                                                    40818330.203 6 172715621.46806      -375.109 6        39.102
C45        55.000                                                                                                                                    23121033.257 7 120397205.64107     -2668.720 7        47.549                                                                    23121030.439 8  97832547.71508     -2168.541 8        48.455
R12        56.000    19239843.446 8 102775888.46008      -221.382 8        52.117                                                                    19239846.886 7  79936842.29307      -172.146 7        47.074
C02        57.000                                                                                                                                    40910274.166 5 213030361.43115      -511.108 5        31.026    40910282.204 6 164728525.01006      -394.996 6        36.140    40910281.519 5 173104575.72905      -414.967 5        31.026
I03        58.000   122986057.458 6 406838165.49706       896.353 6        36.798
C14        59.000                                                                                                                                    23268740.221 7 121166370.34907       396.915 7        46.324    23268741.473 8  93693496.07508       306.946 8        50.397    23268738.636 8  98457572.49808       322.531 8        48.176
R13        60.000    21560651.188 6 115132736.51406      2510.560 6        41.926
> 2025 01 01 10 00 30.0000000  0 53
G19         1.000    23009770.175 7 120917294.67807      2552.516 7        43.020                                    23009771.860 5  94221351.23705      1988.969 5        31.170
R01         2.000    21398430.409 7 114386743.57507     -4525.247 7        46.016                                                                    21398438.073 6  88967504.83406     -3519.601 6        40.465
G24         3.000    21634329.965 7 113689179.75807      2129.334 7        44.588                                    21634333.911 7  88589002.40507      1659.221 7        44.414    21634334.685 7  88588999.41807      1659.253 7        42.201
R02         4.000    19370575.456 8 103365049.23308      -928.547 8        52.546                                                                    19370578.971 7  80395039.58807      -722.175 7        47.022
S21         5.000    38379813.095 7 201687022.43107      -491.438 7        42.038
G17         7.000    22104669.312 7 116160976.48407       562.981 7        45.705                                    22104672.138 7  90515134.05607       438.684 7        43.706    22104671.845 6  90515130.06706       438.726 6        41.876
R21         8.000    23142200.176 7 123838619.72207      2210.985 7        43.448                                                                    23142211.197 6  96318996.84606      1719.602 6        41.464
E30        10.000    27190233.236 6 142885725.01806      2389.450 6        39.877                                                                    27190244.564 7 106700470.25007      1784.288 7        43.009    27190242.835 7 109483951.53107      1830.834 7        43.738
C26        11.000                                                                                                                                    21700482.206 8 113000128.05908       146.371 8        50.855                                                                    21700484.230 8  91821879.48308       118.985 8        49.326
S27        12.000    39106900.176 5 205507972.73505      -524.477 5        35.986
G15        13.000    20146879.260 8 105872506.33408      -998.026 8        49.443                                    20146879.500 8  82498025.63208      -777.683 8        49.936    20146879.909 7  82498017.63207      -777.706 7        45.327
S36        14.000    38150438.565 7 200482320.43607      -492.465 7        44.063
G12        15.000    24683336.246 6 129711863.79406      3327.267 6        39.574                                    24683342.578 5 101074232.72905      2592.658 5        31.358    24683343.316 5 101074232.75105      2592.531 5        35.924
R11        16.000    21421629.904 8 114470607.97008     -3705.625 8        48.572                                                                    21421636.292 7  89032670.70507     -2882.210 7        45.675
S45        17.000    63333919.457 6 332822756.25206      -544.225 6        36.110
R03        18.000    21676314.907 8 116034950.70308      2939.643 8        49.370                                                                    21676320.297 7  90249404.83307      2286.415 7        44.444
E24        19.000    29007083.686 5 152433015.87805     -3415.707 5        33.437                                                                    29007100.263 5 113829793.75505     -2550.945 5        34.457    29007098.191 5 116799271.02105     -2617.473 5        34.986
E33        20.000    28611289.036 5 150353326.30805     -1111.396 5        35.319                                                                    28611293.770 6 112276851.89406      -829.880 6        39.643    28611292.184 6 115205809.17206      -851.683 6        40.024
G30        21.000    24242668.511 6 127395904.47806     -3516.469 6        40.353                                    24242678.787 5  99269493.73905     -2740.103 5        34.181    24242679.033 6  99269497.74006     -2739.954 6        37.255
I06        22.000    38118327.857 7 149584580.04107      -466.722 7        43.530
S28        23.000    40829767.634 5 214561623.81005      -502.257 5        34.767
G14        24.000    21716217.219 7 114119441.58707     -2973.384 7        45.914                                    21716220.413 5  88924229.09305     -2316.913 5        34.938    21716220.293 7  88924231.08107     -2316.906 7        44.415
S23        25.000    38083406.876 7 200129542.61207      -493.974 7        44.260
E08        26.000    23489365.616 8 123437392.18508       -32.274 8        48.292                                                                    23489368.928 8  92177254.74008       -24.088 8        50.946    23489368.096 8  94581878.39408       -24.713 8        51.273
C07        27.000                                                                                                                                    38787479.541 6 201976554.00706      -738.599 6        41.387    38787481.553 7 156181088.30007      -571.111 7        44.333    38787478.440 6 164122487.40106      -600.031 6        41.344
G13        28.000    20562665.592 8 108057474.91808     -2608.693 8        49.384                                    20562665.565 6  84200592.94306     -2032.750 6        39.294
I02        29.000    37008457.307 7 145229143.64207      -114.418 7        43.367
G10        30.000    25276588.789 6 132829314.95006      1891.886 6        39.087                                    25276594.052 5 103503352.82305      1474.202 5        32.742    25276594.123 6 103503344.82206      1473.868 6        37.440
E07        31.000    26566067.299 6 139605536.68606      2123.879 6        40.803                                                                    26566077.681 7 104250879.64207      1586.065 7        44.527    26566076.243 7 106970466.46407      1627.465 7        44.519
E03        32.000    24592471.094 7 129234225.47307     -2672.276 7        46.703                                                                    24592478.361 8  96506067.00108     -1995.545 8        49.006    24592477.079 8  99023613.86308     -2047.625 8        49.198
G05        33.000    25192860.777 6 132389177.41206     -4093.388 6        37.826                                    25192870.301 4 103160340.52204     -3189.640 4        29.611    25192870.762 6 103160343.50306     -3189.794 6        36.185
G02        34.000    25786536.096 5 135509167.04005       435.199 5        32.898                                    25786546.150 1 105591594.07801       339.127 1        10.296
C24        35.000                                                                                                                                    24380006.436 7 126953090.98407      2173.922 7        45.196                                                                    24380009.005 7 103159800.43707      1766.525 7        44.302
G23        36.000    23010673.199 7 120921805.30107      -309.535 7        42.950                                    23010677.141 4  94224742.66304      -241.197 4        29.393    23010677.390 7  94224743.65907      -241.121 7        42.353
C33        39.000                                                                                                                                    24888576.899 7 129601335.06407      1766.704 7        44.304                                                                    24888594.767 7 105311771.85407      1435.725 7        44.680
E25        40.000    24334138.938 7 127876732.54207     -2192.457 7        45.547                                                                    24334145.826 8  95492359.02708     -1637.236 8        48.856    24334144.779 8  97983457.17708     -1679.901 8        49.682
S44        42.000    40818779.632 6 214504071.93106      -466.254 6        37.716
C09        43.000                                                                                                                                    41462696.610 3                     -1137.972 3        22.648    41462712.352 4                      -881.506 4        25.759
C05        44.000                                                                                                                                    39350737.547 6 204909497.69806      -535.953 6        38.240    39350741.806 7 158449006.52907      -414.472 7        42.684    39350741.247 6 166505823.46806      -435.443 6        39.823
C40        45.000                                                                                                                                    38839451.787 7 202247182.79707      -886.999 7        43.103                                                                    38839457.275 7 164342410.28207      -720.631 7        42.535
C21        46.000                                                                                                                                    24405017.116 7 127083200.90907     -3707.635 7        46.402                                                                    24405017.451 7 103265456.38807     -3012.649 7        45.840
R20        47.000    23145091.064 5 123767229.04405      -818.171 5        32.455                                                                    23145105.678 6  96263458.54606      -636.428 6        40.834
C10        49.000                                                                                                                                    38440908.391 6 200171914.39206      -352.431 6        41.986    38440912.553 7 154785640.21707      -272.609 7        44.793    38440908.659 6 162656082.53906      -286.392 6        41.409
C42        50.000                                                                                                                                    22641417.206 8 117899729.81908     -1287.013 8        49.604                                                                    22641428.777 8  95803209.81908     -1045.676 8        49.407
S48        51.000    77090998.069 6 405115104.07706      -483.999 6        37.864
E02        53.000    23370541.120 8 122813115.83808       584.727 8        48.944                                                                    23370545.155 8  91711172.89808       436.595 8        51.030    23370544.113 8  94103619.45708       448.062 8        50.998
C60        54.000                                                                                                                                    40818777.636 6 212554052.19706      -462.095 6        39.877                                                                    40818773.631 6 172717498.17406      -375.452 6        39.006
C45        55.000                                                                                                                                    23123596.415 7 120410552.75607     -2670.068 7        47.472                                                                    23123593.602 8  97843393.32208     -2169.519 8        48.215
R12        56.000    19240052.023 8 102777003.45908      -224.589 8        52.171                                                                    19240055.746 7  79937709.51107      -174.619 7        46.979
C02        57.000                                                                                                                                    40910765.070 5 213032916.44505      -511.148 5        30.883    40910772.795 6 164730500.70106      -395.297 6        36.287    40910772.235 5 173106651.85105      -415.341 5        31.004
I03        58.000   122984915.555 6 406833683.94706       896.168 6        36.896
C14        59.000                                                                                                                                    23268359.945 7 121164393.85407       393.747 7        46.181    23268361.835 8  93691967.71508       304.453 8        50.394    23268359.039 7  98455966.43507       319.990 7        47.983
R13        60.000    21558301.975 6 115120188.88506      2508.424 6        41.878
> 2025 01 01 10 00 35.0000000  0 53
G19         1.000    23007342.262 7 120904534.89307      2551.228 7        43.050                                    23007343.662 5  94211408.58105      1987.963 5        31.170
R01         2.000    21402663.962 7 114409374.30207     -4527.168 7        45.854                                                                    21402671.062 6  88985106.50406     -3521.153 6        40.067
G24         3.000    21632304.163 7 113678535.91407      2128.080 7        44.757                                    21632308.440 7  88580708.51007      1658.243 7        44.473    21632309.043 7  88580705.52607      1658.199 7        42.559
R02         4.000    19371447.345 8 103369702.60408      -932.984 8        52.382                                                                    19371451.040 7  80398658.88107      -725.672 7        47.441
S21         5.000    38380280.952 6 201689479.31006      -491.288 6        41.943
G17         7.000    22104134.829 7 116158168.17907       560.182 7        46.031                                    22104137.766 7  90512945.77707       436.505 7        43.733    22104137.956 7  90512941.77507       436.614 7        42.064
R21         8.000    23140135.733 7 123827571.82807      2208.202 7        44.223                                                                    23140146.714 6  96310403.92206      1717.452 6        41.359
E30        10.000    27187960.474 6 142873779.24906      2388.888 6        39.426                                                                    27187971.403 7 106691549.67207      1783.883 7        42.819    27187969.728 7 109474798.25007      1830.435 7        43.649
C26        11.000                                                                                                                                    21700342.291 8 112999399.71708       144.926 8        50.822                                                                    21700344.402 8  91821287.65508       117.589 8        49.632
S27        12.000    39107397.031 6 205510594.48506      -524.454 6        36.370
G15        13.000    20147830.443 8 105877504.74608     -1001.409 8        49.412                                    20147830.664 8  82501920.49508      -780.318 8        50.023    20147831.089 7  82501912.49707      -780.306 7        45.392
S36        14.000    38150906.909 7 200484781.88307      -492.424 7        44.096
G12        15.000    24680170.697 6 129695228.21306      3326.987 6        39.538                                    24680176.727 5 101061269.98105      2592.450 5        31.638    24680177.409 6 101061269.99906      2592.488 6        36.435
R11        16.000    21425097.607 8 114489137.89808     -3706.345 8        48.597                                                                    21425104.169 7  89047082.83407     -2882.777 7        46.189
S45        17.000    63334388.338 5 332825476.15505      -544.043 5        35.819
R03        18.000    21673570.044 8 116020258.07408      2937.289 8        49.191                                                                    21673575.258 7  90237977.23907      2284.599 7        44.339
E24        19.000    29010333.508 5 152450094.20205     -3415.654 5        33.653                                                                    29010350.026 5 113842547.09805     -2550.764 5        33.611    29010347.957 5 116812357.05805     -2617.070 5        34.633
E33        20.000    28612347.190 5 150358889.20105     -1113.665 5        35.614                                                                    28612352.129 6 112281006.07006      -831.732 6        39.504    28612351.037 6 115210071.70106      -853.295 6        40.353
G30        21.000    24246014.020 6 127413487.56106     -3516.814 6        39.661                                    24246024.661 5  99283194.83005     -2740.373 5        34.010    24246025.142 6  99283198.82306     -2740.422 6        37.395
I06        22.000    38118922.419 7 149586913.28107      -466.587 7        43.560
S28        23.000    40830241.975 5 214564133.86805      -502.037 5        34.648
G14        24.000    21719046.965 7 114134311.85807     -2974.869 7        46.124                                    21719050.199 5  88935816.28405     -2318.076 5        35.014    21719050.131 7  88935818.26907     -2318.151 7        44.787
S23        25.000    38083876.527 7 200132011.64307      -493.848 7        44.092
E08        26.000    23489396.923 8 123437557.59608       -34.019 8        48.273                                                                    23489400.391 8  92177378.26108       -25.405 8        50.591    23489399.579 8  94582005.13608       -26.078 8        51.208
C07        27.000                                                                                                                                    38788189.237 6 201980247.81506      -739.086 6        41.268    38788191.072 7 156183944.54707      -571.450 7        44.316    38788187.796 6 164125488.89906      -600.712 6        41.578
G13        28.000    20565148.669 8 108070523.99508     -2611.044 8        49.394                                    20565148.715 6  84210761.05306     -2034.577 6        39.366
I02        29.000    37008603.054 7 145229715.62707      -114.481 7        43.270
G10        30.000    25274790.167 6 132819861.00506      1889.696 6        40.417                                    25274795.257 5 103495986.08405      1472.499 5        33.090    25274795.309 6 103495978.05406      1472.448 6        37.365
E07        31.000    26564046.497 6 139594917.99806      2123.414 6        40.834                                                                    26564057.115 7 104242950.10807      1585.702 7        44.179    26564055.505 7 106962330.08007      1627.060 7        44.501
E03        32.000    24595014.310 7 129247590.04107     -2673.585 7        46.435                                                                    24595021.557 8  96516047.01908     -1996.496 8        48.800    24595020.382 8  99033854.23208     -2048.600 8        49.111
G05        33.000    25196755.318 6 132409642.72706     -4092.915 6        38.063                                    25196764.874 4 103176287.46604     -3189.277 4        29.536    25196765.263 6 103176290.43806     -3189.364 6        36.253
G02        34.000    25786122.364 5 135506996.87205       432.700 5        32.455                                    25786132.937 2 105589903.10802       337.189 2        12.061
C24        35.000                                                                                                                                    24377918.920 7 126942222.74907      2173.332 7        44.935                                                                    24377921.920 7 103150969.14007      1765.821 7        44.615
G23        36.000    23010969.238 7 120923360.97507      -312.765 7        42.722                                    23010973.225 4  94225954.86304      -243.709 4        29.507    23010972.990 7  94225955.86607      -243.682 7        42.311
C33        39.000                                                                                                                                    24886881.233 7 129592505.93507      1764.850 7        44.414                                                                    24886899.159 7 105304597.47507      1433.833 7        44.938
E25        40.000    24336225.349 7 127887697.36707     -2193.606 7        45.472                                                                    24336232.379 8  95500547.03108     -1638.044 8        48.606    24336231.303 8  97991858.78408     -1680.829 8        49.675
S44        42.000    40819224.554 6 214506402.61706      -466.083 6        37.565
C09        43.000                                                                                                                                    41463791.008 3                     -1139.421 3        20.881    41463805.476 4                      -881.799 4        25.233
C05        44.000                                                                                                                                    39351251.497 6 204912177.03306      -535.724 6        38.213    39351256.168 7 158451078.38107      -414.362 7        42.787    39351255.845 6 166508000.67306      -435.560 6        40.055
C40        45.000                                                                                                                                    38840303.543 7 202251618.90907      -887.601 7        43.120                                                                    38840309.240 7 164346014.99207      -721.379 7        42.770
C21        46.000                                                                                                                                    24408577.821 7 127101741.12807     -3708.584 7        46.160                                                                    24408578.030 7 103280521.82007     -3013.700 7        46.124
R20        47.000    23145857.670 5 123771330.41105      -822.415 5        32.383                                                                    23145872.091 6  96266648.52406      -639.893 6        41.263
C10        49.000                                                                                                                                    38441247.071 7 200173677.64007      -353.032 7        42.028    38441251.153 7 154787003.66507      -272.905 7        44.755    38441247.241 6 162657515.33506      -286.897 6        41.650
C42        50.000                                                                                                                                    22642654.463 8 117906171.23708     -1289.666 8        49.535                                                                    22642665.836 8  95808444.00308     -1048.154 8        49.732
S48        51.000    77091461.803 6 405117524.75206      -484.202 6        37.641
E02        53.000    23369985.598 8 122810196.04208       583.080 8        48.874                                                                    23369989.564 8  91708992.52508       435.441 8        50.762    23369988.456 8  94101382.21208       446.764 8        50.895
C60        54.000                                                                                                                                    40819221.378 6 212556361.67606      -461.850 6        39.889                                                                    40819217.064 6 172719374.82206      -375.323 6        39.369
C45        55.000                                                                                                                                    23126160.300 7 120423904.55407     -2670.802 7        47.366                                                                    23126157.709 8  97854242.73808     -2170.416 8        48.564
R12        56.000    19240263.488 8 102778132.53908      -227.149 8        52.259                                                                    19240267.277 7  79938587.68407      -176.658 7        47.118
C02        57.000                                                                                                                                    40911256.671 5 213035471.38105      -511.033 5        31.042    40911263.524 6 164732476.30606      -395.052 6        36.102    40911263.058 5 173108727.95805      -415.348 5        31.608
I03        58.000   122983773.473 6 406829202.26606       896.185 6        36.847
C14        59.000                                                                                                                                    23267983.050 7 121162431.45807       391.082 7        46.267    23267984.958 8  93690450.25608       302.420 8        50.466    23267982.248 8  98454371.82808       317.669 8        48.228
R13        60.000    21555954.175 7 115107649.92007      2507.000 7        42.326
> 2025 01 01 10 00 40.0000000  0 53
G19         1.000    23004915.553 7 120891782.53607      2549.906 7        42.772                                    23004917.033 5  94201471.71505      1986.932 5        31.208
R01         2.000    21406898.774 7 114432015.95807     -4529.262 7        45.309                                                                    21406906.050 6  89002716.66606     -3522.861 6        39.565
G24         3.000    21630280.313 7 113667899.72007      2126.552 7        44.597                                    21630284.432 7  88572420.57407      1657.049 7        44.498    21630284.919 7  88572417.58507      1657.137 7        42.472
R02         4.000    19372323.651 8 103374379.26008      -937.533 8        52.200                                                                    19372327.957 7  80402296.28307      -729.185 7        47.225
S21         5.000    38380747.580 6 201691936.70306      -491.309 6        41.800
G17         7.000    22103603.600 7 116155375.07907       557.251 7        45.998                                    22103606.278 7  90510769.34507       434.221 7        43.754    22103606.613 7  90510765.35207       434.157 7        42.112
R21         8.000    23138074.045 7 123816538.75807      2205.323 7        44.230                                                                    23138084.811 6  96301822.53906      1715.174 6        41.297
E30        10.000    27185688.082 6 142861837.29706      2388.061 6        39.414                                                                    27185698.859 7 106682631.96007      1783.324 7        42.781    27185697.290 7 109465647.89707      1829.942 7        43.719
C26        11.000                                                                                                                                    21700203.973 8 112998680.13708       143.186 8        50.764                                                                    21700206.233 8  91820702.93408       116.321 8        49.597
S27        12.000    39107895.993 6 205513216.98406      -524.431 6        36.106
G15        13.000    20148785.066 8 105882521.13808     -1004.882 8        49.398                                    20148785.243 8  82505829.37408      -783.026 8        50.029    20148785.693 7  82505821.37607      -783.045 7        45.223
S36        14.000    38151376.680 7 200487244.38207      -492.346 7        43.989
G12        15.000    24677005.510 6 129678595.66506      3326.365 6        39.823                                    24677011.677 5 101048309.60605      2591.961 5        31.849    24677012.489 6 101048309.64306      2592.006 6        36.681
R11        16.000    21428566.044 8 114507672.82708     -3707.326 8        48.506                                                                    21428572.756 7  89061498.85707     -2883.453 7        45.698
S45        17.000    63334864.543 6 332828196.43006      -543.888 6        36.000
R03        18.000    21670828.400 8 116005578.49008      2934.762 8        49.639                                                                    21670833.124 7  90226559.81407      2282.556 7        44.295
E24        19.000    29013583.345 5 152467172.86105     -3415.501 5        32.593                                                                    29013600.110 5 113855300.69205     -2550.639 5        33.353    29013598.194 5 116825443.36505     -2617.109 5        34.290
E33        20.000    28613407.642 5 150364464.13305     -1116.004 5        35.419                                                                    28613413.115 6 112285169.13306      -833.514 6        38.976    28613411.793 6 115214343.36906      -855.282 6        40.026
G30        21.000    24249360.074 6 127431073.72406     -3517.464 6        39.312                                    24249371.147 5  99296898.31705     -2740.879 5        33.647    24249371.149 6  99296902.31106     -2740.850 6        37.259
I06        22.000    38119517.292 7 149589246.92107      -466.629 7        43.433
S28        23.000    40830723.971 5 214566644.51805      -501.767 5        34.614
G14        24.000    21721878.405 7 114149191.04507     -2976.561 7        46.062                                    21721881.612 5  88947410.42405     -2319.392 5        34.990    21721881.590 7  88947412.40607     -2319.368 7        44.474
S23        25.000    38084346.709 7 200134481.25007      -493.800 7        44.012
E08        26.000    23489430.446 7 123437733.16507       -35.974 7        47.946                                                                    23489433.822 8  92177509.36908       -26.870 8        50.572    23489432.976 8  94582139.66908       -27.609 8        51.119
C07        27.000                                                                                                                                    38788899.727 6 201983945.26206      -739.744 6        41.287    38788901.160 7 156186803.63907      -572.048 7        44.289    38788897.867 6 164128493.38206      -601.197 6        41.497
G13        28.000    20567634.544 8 108083586.08308     -2613.557 8        49.342                                    20567634.392 6  84220939.30006     -2036.539 6        39.432
I02        29.000    37008749.223 7 145230289.22707      -114.736 7        43.281
G10        30.000    25272993.923 6 132810418.68806      1887.458 6        40.453                                    25272998.527 5 103488628.38905      1470.754 5        33.287    25272998.247 6 103488620.38106      1470.737 6        37.323
E07        31.000    26562026.914 6 139584303.05306      2122.784 6        40.305                                                                    26562037.133 7 104235023.37607      1585.177 7        44.190    26562035.644 7 106954196.56107      1626.551 7        44.402
E03        32.000    24597558.839 7 129260962.34707     -2675.063 7        45.696                                                                    24597566.266 8  96526032.81308     -1997.646 8        48.728    24597565.086 8  99044100.52908     -2049.731 8        49.047
G05        33.000    25200649.691 6 132430106.53606     -4092.453 6        38.625                                    25200659.098 4 103192233.24504     -3188.916 4        29.611    25200658.768 6 103192236.21806     -3188.868 6        36.011
G02        34.000    25785711.843 5 135504839.11605       430.863 5        32.551                                    25785722.209 1 105588221.78301       335.711 1        10.815
C24        35.000                                                                                                                                    24375832.317 7 126931358.77707      2172.506 7        44.922                                                                    24375835.552 7 103142141.28207      1765.292 7        44.689
G23        36.000    23011268.601 7 120924933.89607      -316.134 7        43.009                                    23011272.524 4  94227180.50904      -246.337 4        29.564    23011272.329 6  94227181.51406      -246.355 6        41.990
C33        39.000                                                                                                                                    24885187.643 7 129583687.54007      1762.815 7        43.924                                                                    24885205.748 7 105297431.81207      1432.376 7        44.897
E25        40.000    24338313.157 7 127898669.63307     -2195.007 7        45.153                                                                    24338320.340 8  95508740.60208     -1639.178 8        48.545    24338319.266 8  98000266.10108     -1681.892 8        49.517
S44        42.000    40819667.786 6 214508733.50106      -465.935 6        37.558
C09        43.000                                                                                                                                    41464883.305 3                     -1141.135 3        22.343    41464896.082 3                      -881.732 3        23.962
C05        44.000                                                                                                                                    39351766.624 6 204914856.69906      -535.852 6        38.171    39351770.816 7 158453150.47607      -414.265 7        42.700    39351770.404 6 166510178.12206      -435.379 6        39.907
C40        45.000                                                                                                                                    38841156.086 7 202256059.53007      -888.367 7        43.060                                                                    38841162.090 7 164349623.35407      -721.895 7        42.804
C21        46.000                                                                                                                                    24412139.383 7 127120287.42707     -3709.718 7        45.691                                                                    24412139.958 7 103295592.18607     -3014.538 7        46.159
R20        47.000    23146629.823 5 123775453.98005      -826.477 5        31.894                                                                    23146643.263 6  96269855.77706      -643.055 6        40.391
C10        49.000                                                                                                                                    38441586.531 6 200175444.60506      -353.666 6        41.890    38441590.322 7 154788370.01107      -273.539 7        44.725    38441586.524 6 162658951.14806      -287.364 6        41.630
C42        50.000                                                                                                                                    22643893.922 8 117912627.25208     -1292.513 8        49.175                                                                    22643905.614 8  95813690.03608     -1050.349 8        49.696
S48        51.000    77091923.654 6 405119946.39806      -484.205 6        37.501
E02        53.000    23369431.824 8 122807286.08408       581.143 8        48.608                                                                    23369435.794 8  91706819.50808       434.007 8        50.753    23369434.712 8  94099152.50608       445.310 8        50.896
C60        54.000                                                                                                                                    40819664.820 6 212558671.38106      -461.776 6        39.766                                                                    40819660.654 6 172721251.67206      -375.360 6        39.447
C45        55.000                                                                                                                                    23128725.307 7 120437261.31207     -2671.679 7        47.396                                                                    23128722.772 8  97865096.18208     -2171.046 8        48.434
R12        56.000    19240477.578 8 102779275.89908      -230.021 8        51.882                                                                    19240481.039 7  79939476.96907      -178.892 7        47.130
C02        57.000                                                                                                                                    40911745.809 5 213038026.54305      -510.903 5        30.936    40911754.709 5 164734452.10405      -395.205 5        35.700    40911753.689 5 173110804.22905      -415.441 5        31.268
I03        58.000   122982631.049 6 406824720.70006       896.441 6        36.733
C14        59.000                                                                                                                                    23267609.522 7 121160483.41807       388.364 7        46.112    23267610.789 8  93688943.91408       300.254 8        50.447    23267608.071 8  98452788.89108       315.520 8        48.213
R13        60.000    21553607.330 7 115095119.90907      2505.203 7        42.271
> 2025 01 01 10 00 45.0000000  0 53
G19         1.000    23002490.200 7 120879037.29707      2548.187 7        42.320                                    23002491.670 5  94191540.39205      1985.596 5        30.740
R01         2.000    21411136.408 7 114454668.07207     -4531.486 7        45.199                                                                    21411144.381 6  89020334.97206     -3524.572 6        40.129
G24         3.000    21628257.609 7 113657270.85607      2124.961 7        44.692                                    21628261.805 7  88564138.35407      1655.814 7        44.491    21628262.226 7  88564135.35907      1655.801 7        42.734
R02         4.000    19373204.663 8 103379078.73808      -942.185 8        52.370                                                                    19373208.102 7  80405951.41907      -732.821 7        47.180
S21         5.000    38381216.528 7 201694394.11307      -491.636 7        42.030
G17         7.000    22103074.937 7 116152596.90207       554.081 7        45.967                                    22103077.638 7  90508604.54307       431.750 7        43.845    22103077.984 7  90508600.54807       431.801 7        42.474
R21         8.000    23136014.685 7 123805520.14107      2202.281 7        43.763                                                                    23136026.376 6  96293252.37606      1712.829 6        41.459
E30        10.000    27183416.124 6 142849898.83406      2387.524 6        40.198                                                                    27183427.086 7 106673716.84607      1782.703 7        42.878    27183425.531 7 109456500.21607      1829.339 7        43.920
C26        11.000                                                                                                                                    21700067.546 8 112997968.99708       141.381 8        50.695                                                                    21700069.633 8  91820125.05708       114.922 8        49.357
S27        12.000    39108396.479 6 205515839.41306      -524.355 6        36.019
G15        13.000    20149742.947 8 105887555.25108     -1008.650 8        49.543                                    20149743.199 8  82509752.06208      -785.961 8        50.020    20149743.428 7  82509744.06607      -785.963 7        45.061
S36        14.000    38151845.614 7 200489707.08807      -492.404 7        43.960
G12        15.000    24673841.220 6 129661965.84006      3325.703 6        40.060                                    24673847.257 5 101035351.35105      2591.448 5        32.024    24673847.808 6 101035351.39006      2591.369 6        36.518
R11        16.000    21432035.305 8 114526212.49308     -3708.440 8        48.176                                                                    21432041.512 7  89075918.54607     -2884.306 7        45.108
S45        17.000    63335331.229 5 332830916.85205      -544.246 5        35.924
R03        18.000    21668088.652 8 115990911.38408      2932.134 8        49.083                                                                    21668093.248 7  90215152.07007      2280.637 7        44.126
E24        19.000    29016832.972 5 152484251.51205     -3415.766 5        33.042                                                                    29016849.808 5 113868054.28605     -2550.783 5        33.431    29016847.952 5 116838529.66305     -2617.562 5        34.171
E33        20.000    28614471.296 5 150370051.04605     -1118.890 5        35.024                                                                    28614476.125 6 112289341.13706      -835.505 6        39.399    28614475.025 6 115218624.20506      -857.221 6        40.331
G30        21.000    24252707.984 6 127448662.58906     -3518.027 6        39.108                                    24252718.259 5  99310603.91905     -2741.313 5        33.132    24252718.475 6  99310607.90706     -2741.395 6        37.225
I06        22.000    38120112.049 7 149591580.69207      -466.874 7        43.530
S28        23.000    40831199.139 5 214569155.03305      -502.197 5        34.905
G14        24.000    21724711.255 7 114164078.83107     -2978.506 7        45.764                                    21724714.658 5  88959011.26805     -2320.906 5        34.900    21724714.819 7  88959013.25207     -2320.913 7        44.138
S23        25.000    38084817.517 7 200136950.95907      -493.821 7        44.197
E08        26.000    23489465.826 8 123437918.60408       -38.174 8        48.126                                                                    23489469.110 8  92177647.84208       -28.487 8        50.595    23489468.218 8  94582281.75008       -29.227 8        51.253
C07        27.000                                                                                                                                    38789610.197 6 201987646.07506      -740.620 6        41.333    38789611.906 7 156189665.31907      -572.693 7        44.227    38789608.508 6 164131500.54106      -601.650 6        41.435
G13        28.000    20570122.463 8 108096660.86108     -2616.266 8        49.563                                    20570122.439 6  84231127.43506     -2038.646 6        39.492
I02        29.000    37008895.653 7 145230864.12607      -115.071 7        43.236
G10        30.000    25271198.776 6 132800987.71006      1885.093 6        39.883                                    25271204.003 5 103481279.53605      1468.913 5        33.096    25271203.562 6 103481271.51906      1468.971 6        36.510
E07        31.000    26560007.675 6 139573691.53506      2121.917 6        40.942                                                                    26560017.736 7 104227099.20307      1584.515 7        44.272    26560016.306 7 106946065.67407      1625.784 7        44.621
E03        32.000    24600104.947 7 129274342.06807     -2676.756 7        45.941                                                                    24600112.364 8  96536024.15008     -1998.879 8        48.762    24600111.164 8  99054352.50708     -2051.010 8        49.214
G05        33.000    25204542.839 6 132450568.54106     -4092.241 6        38.994                                    25204553.032 4 103208177.60104     -3188.741 4        29.583    25204553.305 5 103208180.57805     -3188.704 5        35.348
G02        34.000    25785304.622 5 135502693.49005       427.735 5        32.551                                    25785313.445 1 105586549.97301       333.247 1         9.714
C24        35.000                                                                                                                                    24373746.729 7 126920498.74907      2171.525 7        45.074                                                                    24373749.898 7 103133316.62307      1764.646 7        44.498
G23        36.000    23011570.912 7 120926523.78407      -319.681 7        43.221                                    23011575.088 4  94228419.38204      -249.101 4        29.517    23011574.799 7  94228420.38107      -249.116 7        42.489
C33        39.000                                                                                                                                    24883496.222 7 129574879.60707      1760.365 7        44.053                                                                    24883514.241 7 105290274.61807      1430.563 7        44.730
E25        40.000    24340402.474 7 127909649.01407     -2196.610 7        45.547                                                                    24340409.668 8  95516939.48308     -1640.301 8        48.572    24340408.612 8  98008678.86708     -1683.132 8        49.666
S44        42.000    40820108.970 6 214511064.33206      -466.121 6        37.724
C09        43.000                                                                                                                                    41465982.573 3                     -1142.118 3        20.905    41465994.943 4                      -882.100 4        25.338
C05        44.000                                                                                                                                    39352280.744 6 204917536.33106      -536.020 6        38.051    39352285.352 7 158455222.56007      -414.449 7        42.665    39352284.936 6 166512355.55706      -435.578 6        40.100
C40        45.000                                                                                                                                    38842009.676 7 202260504.35907      -889.400 7        43.261                                                                    38842015.685 7 164353235.11507      -722.753 7        42.641
C21        46.000                                                                                                                                    24415701.928 7 127138839.50307     -3711.098 7        45.153                                                                    24415702.883 7 103310667.22007     -3015.451 7        45.991
R20        47.000    23147405.338 5 123779599.46205      -831.354 5        32.431                                                                    23147417.852 6  96273079.98406      -646.531 6        39.961
C10        49.000                                                                                                                                    38441926.694 6 200177215.01206      -354.362 6        41.900    38441930.601 7 154789738.99107      -274.099 7        44.691    38441926.578 6 162660389.73506      -287.929 6        41.399
C42        50.000                                                                                                                                    22645136.722 8 117919097.57208     -1295.536 8        49.020                                                                    22645148.196 8  95818947.67708     -1052.686 8        49.469
S48        51.000    77092389.660 6 405122367.67306      -484.274 6        37.652
E02        53.000    23368879.883 8 122804385.66908       579.068 8        48.737                                                                    23368883.908 8  91704653.61908       432.364 8        50.766    23368882.777 8  94096930.11408       443.672 8        51.021
C60        54.000                                                                                                                                    40820108.208 6 212560981.02206      -461.873 6        39.700                                                                    40820104.230 6 172723128.42906      -375.297 6        39.009
C45        55.000                                                                                                                                    23131291.289 7 120450622.72407     -2672.782 7        47.500                                                                    23131288.820 8  97875953.38708     -2171.785 8        48.265
R12        56.000    19240694.101 8 102780433.25408      -232.968 8        51.940                                                                    19240697.921 7  79940377.12607      -181.188 7        47.374
C02        57.000                                                                                                                                    40912236.471 5 213040581.63905      -511.419 5        30.913    40912245.233 6 164736427.84106      -395.363 6        36.068    40912244.459 5 173112880.41105      -415.222 5        31.102
I03        58.000   122981489.554 6 406820238.98806       896.380 6        36.563
C14        59.000                                                                                                                                    23267237.843 7 121158549.45207       385.309 7        46.115    23267239.565 8  93687448.43808       297.927 8        50.449    23267236.700 8  98451217.35408       313.263 8        48.041
R13        60.000    21551262.556 7 115082598.60607      2503.405 7        42.227
> 2025 01 01 10 00 50.0000000  0 53
G19         1.000    23000066.302 7 120866299.42107      2546.808 7        42.322                                    23000067.697 5  94181614.81505      1984.514 5        30.506
R01         2.000    21415376.374 7 114477331.06707     -4533.684 7        44.772                                                                    21415384.647 6  89037961.71106     -3526.138 6        39.754
G24         3.000    21626236.309 7 113646649.58607      2123.455 7        44.482                                    21626240.636 7  88555862.04307      1654.637 7        44.581    21626240.921 7  88555859.05207      1654.606 7        42.724
R02         4.000    19374089.878 8 103383801.38708      -946.847 8        52.639                                                                    19374093.443 7  80409624.59507      -736.381 7        46.898
S21         5.000    38381684.550 7 201696851.84107      -491.499 7        42.040
G17         7.000    22102548.876 7 116149833.85307       551.111 7        46.188                                    22102551.861 7  90506451.52207       429.433 7        44.071    22102552.293 7  90506447.53507       429.377 7        42.309
R21         8.000    23133957.832 7 123794516.38207      2199.238 7        43.579                                                                    23133970.129 6  96284693.76606      1710.609 6        41.311
E30        10.000    27181145.071 6 142837964.13106      2386.442 6        40.460                                                                    27181155.980 7 106664804.53607      1782.099 7        42.897    27181154.405 7 109447355.41507      1828.693 7        43.991
C26        11.000                                                                                                                                    21699932.695 8 112997266.53508       139.559 8        50.771                                                                    21699934.756 8  91819554.25908       113.428 8        49.335
S27        12.000    39108893.652 6 205518461.62506      -524.433 6        36.170
G15        13.000    20150704.410 8 105892607.24808     -1012.216 8        50.021                                    20150704.549 8  82513688.68408      -788.741 8        50.087    20150705.067 7  82513680.68507      -788.764 7        45.439
S36        14.000    38152313.265 7 200492170.47707      -492.868 7        43.954
G12        15.000    24670677.075 6 129645338.98206      3324.928 6        40.319                                    24670683.370 5 101022395.41305      2590.841 5        32.024    24670683.893 6 101022395.43906      2590.979 6        36.159
R11        16.000    21435505.908 8 114544756.97008     -3709.453 8        48.420                                                                    21435512.352 7  89090342.01107     -2885.102 7        45.315
S45        17.000    63335801.446 6 332832037.44116      -544.499 6        36.132
R03        18.000    21665350.459 8 115976257.23308      2929.446 8        49.650                                                                    21665355.851 7  90203754.41107      2278.449 7        43.647
E24        19.000    29020083.240 5 152501330.37305     -3415.528 5        33.269                                                                    29020100.023 5 113880808.03905     -2551.013 5        33.635    29020097.968 5 116851616.11505     -2617.246 5        34.495
E33        20.000    28615536.579 5 150375650.29805     -1121.270 5        35.114                                                                    28615541.444 6 112293522.48106      -837.317 6        39.033    28615540.608 6 115222914.63006      -859.055 6        40.052
G30        21.000    24256054.844 6 127466254.41806     -3518.625 6        38.114                                    24256065.908 5  99324311.81705     -2741.779 5        32.641    24256066.519 6  99324315.82506     -2741.838 6        36.820
I06        22.000    38120706.755 7 149593914.76707      -466.828 7        43.439
S28        23.000    40831677.751 5 214571665.82305      -502.444 5        34.519
G14        24.000    21727546.084 7 114178975.43807     -2980.248 7        45.935                                    21727549.376 5  88970618.98105     -2322.265 5        34.957    21727549.575 7  88970620.96707     -2322.232 7        44.205
S23        25.000    38085286.402 7 200139421.01407      -494.199 7        44.084
E08        26.000    23489502.895 8 123438114.13008       -40.065 8        48.334                                                                    23489506.300 8  92177793.85408       -29.982 8        50.689    23489505.440 8  94582431.56708       -30.684 8        51.378
C07        27.000                                                                                                                                    38790321.391 6 201991350.42906      -741.368 6        41.192    38790323.173 7 156192529.72707      -573.162 7        44.229    38790320.067 6 164134510.61906      -602.329 6        41.468
G13        28.000    20572613.132 8 108109748.49908     -2618.868 8        49.387                                    20572612.904 6  84241325.59106     -2040.673 6        39.486
I02        29.000    37009042.489 7 145231440.50207      -115.475 7        43.179
G10        30.000    25269405.840 6 132791568.32206      1882.678 6        39.712                                    25269411.526 5 103473939.72405      1467.024 5        32.844    25269411.096 6 103473931.70606      1467.132 6        36.397
E07        31.000    26557989.099 6 139563083.69706      2121.155 6        40.975                                                                    26557999.106 7 104219177.77407      1584.001 7        44.405    26557997.659 7 106937937.59007      1625.383 7        44.686
E03        32.000    24602652.877 7 129287729.43507     -2678.246 7        46.375                                                                    24602659.986 8  96546021.19208     -1999.961 8        48.799    24602658.703 8  99064610.34708     -2052.142 8        49.418
G05        33.000    25208436.030 6 132471028.95306     -4091.932 6        38.952                                    25208446.563 4 103224120.72104     -3188.505 4        29.308    25208446.556 5 103224123.73005     -3188.799 5        35.267
G02        34.000    25784898.222 5 135500560.13905       425.318 5        31.683                                    25784907.001 1 105584887.67701       331.431 1         9.619
C24        35.000                                                                                                                                    24371662.007 7 126909642.90807      2170.668 7        44.828                                                                    24371665.148 7 103124495.38807      1763.879 7        44.406
G23        36.000    23011876.854 7 120928130.85107      -323.128 7        43.192                                    23011880.902 4  94229671.63304      -251.783 4        29.640    23011881.497 7  94229672.63907      -251.806 7        42.163
C33        39.000                                                                                                                                    24881806.830 7 129566082.32607      1758.318 7        44.057                                                                    24881824.742 7 105283126.12507      1428.833 7        44.691
E25        40.000    24342493.198 7 127920635.74407     -2198.073 7        45.735                                                                    24342500.385 8  95525143.85608     -1641.438 8        48.688    24342499.305 8  98017097.26808     -1684.257 8        49.839
S44        42.000    40820552.640 6 214513395.33106      -466.399 6        37.399
C09        43.000                                                                                                                                    41467076.917 3                     -1138.940 3        22.343    41467089.699 4                      -881.928 4        25.534
C05        44.000                                                                                                                                    39352795.674 6 204920216.19606      -536.145 6        38.168    39352800.116 7 158457294.81907      -414.486 7        42.715    39352799.660 6 166514533.18106      -435.578 6        39.796
C40        45.000                                                                                                                                    38842864.167 7 202264953.60607      -890.333 7        43.299                                                                    38842870.143 7 164356850.49407      -723.464 7        42.578
C21        46.000                                                                                                                                    24419265.428 7 127157397.55507     -3712.246 7        45.546                                                                    24419266.835 7 103325747.14907     -3016.516 7        46.013
R20        47.000    23148185.438 5 123783766.96905      -835.906 5        32.659                                                                    23148197.632 6  96276321.38706      -650.106 6        40.293
C10        49.000                                                                                                                                    38442267.085 7 200178989.06207      -355.283 7        42.212    38442271.071 7 154791110.80807      -274.743 7        44.689    38442267.243 6 162661831.31106      -288.757 6        41.452
C42        50.000                                                                                                                                    22646381.864 8 117925582.41908     -1298.481 8        49.164                                                                    22646393.531 8  95824217.14408     -1055.072 8        49.470
S48        51.000    77092851.386 6 405124789.56506      -484.286 6        37.807
E02        53.000    23368329.668 8 122801495.01908       577.091 8        48.821                                                                    23368333.812 8  91702495.01608       430.948 8        51.019    23368332.693 8  94094715.20008       442.216 8        51.181
C60        54.000                                                                                                                                    40820551.940 6 212563290.82806      -462.061 6        39.793                                                                    40820547.815 6 172725005.34606      -375.352 6        39.276
C45        55.000                                                                                                                                    23133858.365 7 120463989.02107     -2673.799 7        47.836                                                                    23133855.680 8  97886814.58608     -2172.669 8        48.261
R12        56.000    19240913.468 8 102781604.91308      -235.750 8        52.025                                                                    19240917.303 7  79941288.40907      -183.353 7        47.601
C02        57.000                                                                                                                                    40912727.580 5 213043136.80505      -510.906 5        30.747    40912735.671 5 164738403.65705      -395.092 5        35.962    40912735.371 5 173114956.69005      -415.224 5        30.853
I03        58.000   122980347.446 6 406815757.31006       896.268 6        36.529
C14        59.000                                                                                                                                    23266869.200 7 121156629.79907       382.441 7        46.135    23266870.788 8  93685964.03308       295.782 8        50.397    23266868.040 8  98449657.48708       310.796 8        48.056
R13        60.000    21548919.358 7 115070086.10807      2501.534 7        42.307
> 2025 01 01 10 00 55.0000000  0 53
G19         1.000    22997644.026 7 120853568.99507      2545.163 7        42.808                                    22997645.209 5  94171695.03505      1983.238 5        30.370
R01         2.000    21419618.212 7 114500004.75107     -4535.794 7        44.941                                                                    21419625.398 6  89055596.80606     -3528.038 6        39.237
G24         3.000    21624216.790 7 113636035.93807      2121.973 7        44.494                                    21624220.916 7  88547591.67707      1653.486 7        44.504    21624221.367 7  88547588.68407      1653.537 7        42.673
R02         4.000    19374979.037 8 103388547.13608      -951.443 8        52.554                                                                    19374982.619 7  80413315.72407      -740.013 7        47.085
S21         5.000    38382151.633 6 201699309.73706      -491.484 6        41.969
G17         7.000    22102025.996 7 116147085.96707       548.173 7        47.051                                    22102028.989 7  90504310.32907       427.146 7        44.038    22102028.833 7  90504306.34007       427.035 7        42.235
R21         8.000    23131903.939 7 123783527.44507      2196.185 7        43.577                                                                    23131916.022 6  96276146.69706      1708.258 6        40.713
E30        10.000    27178874.730 6 142826033.18806      2385.710 6        40.246                                                                    27178885.653 7 106655895.02507      1781.646 7        43.206    27178884.124 7 109438213.50407      1828.018 7        43.996
C26        11.000                                                                                                                                    21699799.351 8 112996572.76808       137.875 8        50.677                                                                    21699801.540 8  91818990.51608       111.973 8        49.182
S27        12.000    39109395.247 6 205521084.24206      -524.659 6        36.163
G15        13.000    20151669.292 8 105897677.19708     -1015.778 8        49.554                                    20151669.319 8  82517639.29508      -791.515 8        50.052    20151669.946 7  82517631.29307      -791.510 7        45.300
S36        14.000    38152781.574 7 200494633.72807      -492.473 7        43.886
G12        15.000    24667513.587 6 129628715.12906      3324.416 6        40.591                                    24667519.961 5 101009441.81605      2590.446 5        32.096    24667520.547 5 101009441.83705      2590.396 5        35.595
R11        16.000    21438977.103 8 114563306.42308     -3710.395 8        48.466                                                                    21438983.767 7  89104769.33007     -2885.859 7        45.219
S45        17.000    63336273.842 5 332834758.33705      -544.039 5        35.929
R03        18.000    21662615.661 8 115961616.17708      2926.955 8        49.311                                                                    21662620.567 7  90192366.96107      2276.412 7        44.403
E24        19.000    29023333.065 5 152518409.44905     -3415.811 5        33.126                                                                    29023350.043 5 113893561.96105     -2551.020 5        33.970    29023347.834 5 116864702.72505     -2617.448 5        34.338
E33        20.000    28616604.390 5 150381261.65505     -1123.298 5        35.357                                                                    28616609.259 6 112297712.84706      -838.846 6        39.024    28616608.167 6 115227214.29706      -860.607 6        40.296
G30        21.000    24259402.982 6 127483849.23306     -3519.043 6        37.781                                    24259414.156 5  99338022.03805     -2742.103 5        31.962    24259414.319 6  99338026.02506     -2742.132 6        36.752
I06        22.000    38121301.647 7 149596249.18907      -466.887 7        43.663
S28        23.000    40832152.816 5 214574176.96605      -502.266 5        34.719
G14        24.000    21730382.588 7 114193880.88407     -2981.974 7        46.082                                    21730385.811 5  88982233.58005     -2323.609 5        34.900    21730386.169 7  88982235.56507     -2323.631 7        44.482
S23        25.000    38085756.683 7 200141891.40007      -494.116 7        44.001
E08        26.000    23489541.979 8 123438319.79308       -42.188 8        48.474                                                                    23489545.465 8  92177947.43308       -31.493 8        50.837    23489544.585 8  94582589.16008       -32.318 8        51.552
C07        27.000                                                                                                                                    38791033.666 6 201995058.37806      -741.920 6        41.101    38791035.345 7 156195396.93407      -573.717 7        44.158    38791032.065 6 164137523.63006      -602.915 6        41.275
G13        28.000    20575105.874 8 108122849.07708     -2621.442 8        49.983                                    20575105.834 6  84251533.82906     -2042.682 6        39.276
I02        29.000    37009189.446 7 145232018.35307      -115.712 7        43.189
G10        30.000    25267615.397 6 132782160.49906      1880.443 6        39.135                                    25267621.334 5 103466608.90805      1465.287 5        32.455    25267621.333 6 103466600.90606      1465.171 6        36.401
E07        31.000    26555970.868 6 139552479.56306      2120.551 6        41.318                                                                    26555981.188 7 104211259.11907      1583.414 7        44.543    26555979.748 7 106929812.35907      1624.727 7        44.802
E03        32.000    24605201.792 7 129301124.47107     -2679.742 7        46.387                                                                    24605208.909 8  96556023.96908     -2001.149 8        49.060    24605207.686 8  99074874.07008     -2053.355 8        49.452
G05        33.000    25212329.267 6 132491487.76206     -4091.721 6        38.060                                    25212339.804 4 103240062.59504     -3188.348 4        28.967    25212339.208 5 103240065.56905     -3188.082 5        34.500
G02        34.000    25784494.932 5 135498439.22205       422.909 5        32.515                                    25784503.464 1 105583235.09401       329.521 1        10.000
C24        35.000                                                                                                                                    24369577.856 7 126898791.27707      2169.901 7        44.942                                                                    24369581.185 7 103115677.55207      1763.254 7        44.349
G23        36.000    23012185.999 7 120929755.14307      -326.613 7        43.826                                    23012189.985 4  94230937.31204      -254.508 4        29.526    23012189.873 6  94230938.30206      -254.498 6        41.866
C33        39.000                                                                                                                                    24880119.806 7 129557295.75607      1756.290 7        43.740                                                                    24880137.374 7 105275986.32407      1427.043 7        44.572
E25        40.000    24344585.279 7 127931629.84307     -2199.529 7        45.854                                                                    24344592.441 8  95533353.73208     -1642.507 8        48.847    24344591.337 8  98025521.32008     -1685.401 8        49.971
S44        42.000    40820999.431 6 214515726.48206      -466.154 6        37.728
C09        43.000                                                                                                                                    41468172.755 3                     -1140.838 3        22.648    41468182.872 4                      -882.407 4        26.299
C05        44.000                                                                                                                                    39353309.866 6 204922896.27506      -536.085 6        37.860    39353314.871 7 158459367.25607      -414.488 7        42.777    39353314.182 6 166516710.98306      -435.545 6        39.676
C40        45.000                                                                                                                                    38843719.567 7 202269407.31407      -891.109 7        43.136                                                                    38843725.453 7 164360469.49707      -724.210 7        42.491
C21        46.000                                                                                                                                    24422830.632 7 127175961.57907     -3713.385 7        46.061                                                                    24422831.822 7 103340831.93907     -3017.526 7        45.871
R20        47.000    23148967.223 5 123787956.54605      -840.106 5        32.868                                                                    23148981.200 6  96279579.97706      -653.569 6        40.062
C10        49.000                                                                                                                                    38442608.572 7 200180766.84807      -356.071 7        42.163    38442612.314 7 154792485.50607      -275.200 7        44.758    38442608.573 6 162663275.90106      -289.206 6        41.228
C42        50.000                                                                                                                                    22647630.166 8 117932081.79908     -1301.298 8        49.267                                                                    22647641.702 8  95829498.42308     -1057.467 8        49.264
S48        51.000    77093315.170 6 405127211.31306      -484.454 6        37.667
E02        53.000    23367781.542 8 122798614.15508       575.253 8        48.930                                                                    23367785.585 8  91700343.73008       429.511 8        51.058    23367784.526 8  94092507.79108       440.748 8        51.327
C60        54.000                                                                                                                                    40820995.601 6 212565600.80306      -461.882 6        39.526                                                                    40820991.368 6 172726882.41206      -375.540 6        39.108
C45        55.000                                                                                                                                    23136426.137 7 120477360.21807     -2674.657 7        47.788                                                                    23136423.465 8  97897679.75408     -2173.444 8        48.102
R12        56.000    19241135.696 8 102782790.78408      -238.582 8        51.584                                                                    19241139.474 7  79942210.75807      -185.606 7        47.816
C02        57.000                                                                                                                                    40913219.177 5 213045692.17705      -510.734 5        30.898    40913226.763 6 164740379.65706      -395.481 6        36.212    40913225.734 5 173117033.17805      -415.221 5        30.641
I03        58.000   122979205.590 6 406811275.67006       896.365 6        36.979
C14        59.000                                                                                                                                    23266503.753 7 121154724.46707       379.621 7        46.112    23266504.874 8  93684490.71208       293.584 8        50.434    23266502.205 7  98448109.24707       308.464 7        47.949
R13        60.000    21546577.764 7 115057582.51607      2499.791 7        42.686
> 2025 01 01 10 01  0.0000000  0 53
G19         1.000    22995222.565 7 120840845.12107      2544.145 7        42.423                                    22995223.964 5  94161780.35105      1982.447 5        30.566
R01         2.000    21423861.938 7 114522688.34907     -4537.655 7        44.838                                                                    21423868.076 6  89073239.55306     -3529.241 6        39.189
G24         3.000    21622198.117 7 113625429.03807      2120.752 7        44.191                                    21622202.484 7  88539326.56607      1652.533 7        44.539    21622202.781 7  88539323.58707      1652.505 7        42.745
R02         4.000    19375872.568 8 103393315.14008      -955.823 8        52.918                                                                    19375876.319 7  80417024.17907      -743.416 7        47.017
S21         5.000    38382618.878 6 201701767.02106      -491.350 6        41.995
G17         7.000    22101505.712 7 116144352.35507       545.337 7        46.539                                    22101508.756 7  90502180.24807       424.938 7        44.018    22101508.954 7  90502176.25207       424.884 7        42.370
R21         8.000    23129854.001 7 123772552.48407      2193.645 7        43.518                                                                    23129865.113 6  96267610.49406      1706.132 6        40.896
E30        10.000    27176605.282 6 142814105.13406      2385.232 6        40.727                                                                    27176615.847 7 106646987.67907      1781.321 7        43.179    27176614.402 7 109429073.78407      1827.817 7        44.004
C26        11.000                                                                                                                                    21699667.575 8 112995886.83008       136.418 8        50.787                                                                    21699669.828 8  91818433.15608       110.810 8        49.311
S27        12.000    39109892.823 5 205523706.68105      -524.470 5        35.948
G15        13.000    20152637.031 8 105902764.18108     -1019.080 8        49.166                                    20152637.341 8  82521603.17608      -794.087 8        50.035    20152637.708 7  82521595.17407      -794.081 7        45.473
S36        14.000    38153251.117 7 200497096.26407      -492.383 7        44.006
G12        15.000    24664350.241 6 129612093.39806      3324.246 6        39.718                                    24664356.851 5 100996489.87105      2590.319 5        32.072    24664357.330 5 100996489.87505      2590.327 5        35.267
R11        16.000    21442448.988 8 114581859.87808     -3711.076 8        48.028                                                                    21442455.679 7  89119199.76707     -2886.493 7        45.073
S45        17.000    63336746.077 5 332837478.80205      -544.001 5        35.995
R03        18.000    21659883.439 8 115946987.23608      2924.648 8        49.285                                                                    21659887.898 7  90180988.88807      2274.657 7        43.962
E24        19.000    29026583.163 5 152535487.92005     -3415.507 5        33.575                                                                    29026599.750 5 113906315.43905     -2550.639 5        33.838    29026597.460 5 116877788.86905     -2617.000 5        34.552
E33        20.000    28617674.700 5 150386884.23005     -1125.679 5        35.852                                                                    28617678.859 6 112301911.50906      -840.549 6        39.598    28617678.240 6 115231522.48806      -862.400 6        40.901
G30        21.000    24262751.397 6 127501446.16106     -3519.657 6        37.701                                    24262762.856 5  99351733.90705     -2742.583 5        31.924    24262763.040 6  99351737.88806     -2742.400 6        36.930
I06        22.000    38121896.447 7 149598583.31607      -466.852 7        43.528
S28        23.000    40832631.445 5 214576687.77905      -502.158 5        34.629
G14        24.000    21733220.657 7 114208794.28007     -2983.500 7        45.911                                    21733223.798 5  88993854.37705     -2324.798 5        34.795    21733224.068 7  88993856.36207     -2324.833 7        44.790
S23        25.000    38086225.282 7 200144361.18207      -493.829 7        44.096
E08        26.000    23489582.931 8 123438534.71108       -43.906 8        48.623                                                                    23489586.383 8  92178107.92008       -32.771 8        50.825    23489585.493 8  94582753.83208       -33.600 8        51.562
C07        27.000                                                                                                                                    38791746.056 6 201998769.07906      -742.383 6        41.192    38791747.930 7 156198266.25407      -574.047 7        44.102    38791744.630 6 164140538.87206      -603.223 6        41.135
G13        28.000    20577601.207 8 108135961.71608     -2623.705 8        49.498                                    20577601.071 6  84261751.47106     -2044.444 6        39.453
I02        29.000    37009337.158 7 145232596.95707      -115.872 7        43.035
G10        30.000    25265827.662 6 132772763.46006      1878.479 6        39.372                                    25265833.226 5 103459286.50605      1463.757 5        32.587    25265833.439 6 103459278.49406      1463.719 6        36.786
E07        31.000    26553953.683 6 139541878.27506      2120.053 6        41.371                                                                    26553963.769 7 104203342.58107      1583.178 7        44.411    26553962.441 7 106921689.31007      1624.450 7        44.865
E03        32.000    24607751.886 7 129314526.29207     -2680.958 7        46.118                                                                    24607759.273 8  96566031.80808     -2002.071 8        48.977    24607758.018 8  99085142.98308     -2054.301 8        49.505
G05        33.000    25216222.119 6 132511944.06006     -4091.028 6        37.633                                    25216232.409 4 103256002.50704     -3187.805 4        28.938    25216232.051 5 103256005.47205     -3187.442 5        34.976
G02        34.000    25784093.578 5 135496329.78705       420.804 5        32.563                                    25784101.787 1 105581591.41101       327.882 1        10.148
C24        35.000                                                                                                                                    24367494.530 7 126887942.98707      2169.349 7        44.868                                                                    24367497.877 7 103106862.47207      1762.746 7        44.367
G23        36.000    23012498.076 7 120931395.76407      -329.793 7        43.240                                    23012502.154 4  94232215.71204      -256.982 4        29.640    23012502.608 7  94232216.70707      -256.954 7        42.497
C33        39.000                                                                                                                                    24878434.381 7 129548519.05807      1754.398 7        44.197                                                                    24878451.969 7 105268854.55707      1425.578 7        44.715
E25        40.000    24346678.687 7 127942630.43207     -2200.708 7        46.047                                                                    24346685.737 8  95541568.45808     -1643.388 8        48.783    24346684.682 8  98033950.33708     -1686.302 8        49.914
S44        42.000    40821442.104 6 214518056.96606      -465.897 6        37.641
C09        43.000                                                                                                                                    41469267.632 4                     -1142.399 4        24.030    41469278.549 4                      -882.045 4        26.024
C05        44.000                                                                                                                                    39353824.903 6 204925575.76106      -535.858 6        38.108    39353829.233 7 158461439.21007      -414.330 7        42.863    39353828.848 6 166518888.30606      -435.367 6        39.730
C40        45.000                                                                                                                                    38844575.425 7 202273864.60307      -891.866 7        43.329                                                                    38844581.499 7 164364091.40407      -724.674 7        42.590
C21        46.000                                                                                                                                    24426397.064 7 127194530.75207     -3714.363 7        46.183                                                                    24426397.684 7 103355920.90207     -3018.137 7        45.833
R20        47.000    23149755.800 5 123792167.41505      -844.298 5        32.599                                                                    23149768.511 6  96282855.03906      -656.511 6        39.643
C10        49.000                                                                                                                                    38442950.761 7 200182547.39607      -356.301 7        42.400    38442954.354 7 154793862.36307      -275.628 7        44.621    38442950.429 6 162664722.78406      -289.582 6        41.244
C42        50.000                                                                                                                                    22648880.921 8 117938594.88608     -1303.964 8        49.387                                                                    22648892.476 8  95834790.84308     -1059.527 8        49.357
S48        51.000    77093778.787 6 405129632.43006      -484.118 6        37.841
E02        53.000    23367235.192 8 122795742.21508       573.502 8        49.029                                                                    23367239.093 8  91698199.09608       428.242 8        50.972    23367237.993 8  94090307.21208       439.425 8        51.200
C60        54.000                                                                                                                                    40821438.958 6 212567910.10006      -461.946 6        39.670                                                                    40821434.855 6 172728758.91906      -375.251 6        39.159
C45        55.000                                                                                                                                    23138994.716 7 120490735.46207     -2675.445 7        47.622                                                                    23138992.062 8  97908548.22408     -2173.980 8        48.142
R12        56.000    19241360.269 8 102783989.96808      -241.152 8        51.985                                                                    19241363.720 7  79943143.44807      -187.569 7        47.825
C02        57.000                                                                                                                                    40913709.817 5 213048246.94405      -511.128 5        30.551    40913717.331 6 164742355.09206      -394.893 6        36.106    40913716.517 5 173119109.10205      -415.123 5        31.072
I03        58.000   122978063.353 6 406806793.45806       896.503 6        36.783
C14        59.000                                                                                                                                    23266140.662 7 121152832.61407       377.031 7        46.123    23266141.573 8  93683027.80908       291.516 8        50.418    23266138.876 7  98446571.97407       306.388 7        47.926
R13        60.000    21544236.875 7 115045086.99507      2498.417 7        42.237
> 2025 01 01 10 01  5.0000000  0 53
G19         1.000    22992802.611 7 120828127.98607      2542.527 7        42.745                                    22992804.074 5  94151870.92705      1981.182 5        30.823
R01         2.000    21428107.434 7 114545381.88007     -4539.944 7        45.630                                                                    21428114.496 6  89090890.07306     -3531.001 6        38.694
G24         3.000    21620181.357 7 113614829.04707      2119.134 7        44.497                                    21620185.366 7  88531066.84307      1651.271 7        44.600    21620185.669 7  88531063.85707      1651.276 7        42.804
R02         4.000    19376770.296 8 103398105.45208      -960.496 8        52.585                                                                    19376774.216 7  80420749.97807      -747.042 7        47.283
S21         5.000    38383086.685 6 201704223.99006      -491.451 6        41.847
G17         7.000    22100987.916 7 116141633.20807       542.157 7        46.329                                    22100991.255 7  90500061.44707       422.456 7        43.966    22100991.603 7  90500057.45507       422.522 7        42.262
R21         8.000    23127805.454 7 123761591.62407      2190.599 7        43.664                                                                    23127817.297 6  96259085.26506      1703.890 6        41.097
E30        10.000    27174335.918 6 142802180.13806      2384.509 6        40.701                                                                    27174346.591 7 106638082.62207      1780.652 7        43.164    27174345.136 7 109419936.42107      1827.188 7        43.820
C26        11.000                                                                                                                                    21699537.329 8 112995208.89308       134.586 8        50.727                                                                    21699539.587 8  91817882.26008       109.500 8        49.384
S27        12.000    39110393.609 6 205526328.76806      -524.498 6        36.079
G15        13.000    20153608.387 8 105907868.39408     -1022.764 8        49.270                                    20153608.635 8  82525580.48908      -796.960 8        50.069    20153608.789 7  82525572.49307      -796.983 7        45.257
S36        14.000    38153718.822 7 200499558.40907      -492.631 7        44.006
G12        15.000    24661188.046 6 129595473.99706      3323.556 6        38.973                                    24661194.153 5 100983539.72505      2589.769 5        31.887    24661194.765 5 100983539.76505      2589.546 5        35.805
R11        16.000    21445921.609 7 114600417.51307     -3712.263 7        47.528                                                                    21445928.131 7  89133633.44707     -2887.129 7        44.817
S45        17.000    63337217.891 5 332840199.01005      -544.294 5        35.905
R03        18.000    21657151.840 8 115932370.29208      2921.928 8        48.516                                                                    21657157.094 7  90169620.19507      2272.564 7        44.215
E24        19.000    29029833.124 5 152552565.91005     -3416.117 5        33.539                                                                    29029849.634 5 113919068.54305     -2550.784 5        33.994    29029847.393 5 116890874.67505     -2617.322 5        34.448
E33        20.000    28618746.394 5 150392518.25705     -1128.082 5        35.757                                                                    28618751.331 6 112306118.75606      -842.362 6        39.153    28618750.338 6 115235839.50806      -864.578 6        40.112
G30        21.000    24266100.753 6 127519045.33406     -3520.255 6        38.327                                    24266111.999 5  99365447.52505     -2743.052 5        32.240    24266112.089 6  99365451.51706     -2742.984 6        37.312
I06        22.000    38122491.576 7 149600917.21107      -466.937 7        43.272
S28        23.000    40833110.946 5 214579197.94605      -501.943 5        34.719
G14        24.000    21736060.070 7 114223715.76907     -2985.284 7        46.106                                    21736063.310 5  89005481.47805     -2326.189 5        34.938    21736063.266 7  89005483.46407     -2326.223 7        44.280
S23        25.000    38086697.034 7 200146830.38207      -493.950 7        44.024
E08        26.000    23489625.716 8 123438759.05008       -46.036 8        48.407                                                                    23489629.047 8  92178275.44508       -34.340 8        50.799    23489628.200 8  94582925.73008       -35.232 8        51.418
C07        27.000                                                                                                                                    38792458.979 6 202002482.63906      -743.288 6        41.039    38792461.155 7 156201137.79307      -574.649 7        44.080    38792457.744 6 164143556.41406      -603.757 6        41.325
G13        28.000    20580098.849 8 108149086.49608     -2626.333 8        49.674                                    20580098.629 6  84271978.56806     -2046.493 6        39.456
I02        29.000    37009484.903 7 145233176.64007      -116.230 7        42.863
G10        30.000    25264041.522 6 132763377.39706      1876.007 6        39.724                                    25264047.215 5 103451972.67705      1461.830 5        32.683    25264046.643 6 103451964.65106      1461.878 6        36.681
E07        31.000    26551936.642 6 139531279.99306      2119.106 6        40.789                                                                    26551947.039 7 104195428.29207      1582.478 7        44.424    26551945.576 7 106913568.55707      1623.774 7        44.760
E03        32.000    24610303.572 7 129327935.08107     -2682.606 7        45.940                                                                    24610310.907 8  96576044.84208     -2003.264 8        48.976    24610309.628 8  99095417.22608     -2055.508 8        49.280
G05        33.000    25220114.406 6 132532398.03706     -4090.775 6        37.645                                    25220124.787 4 103271940.61304     -3187.610 4        28.976    25220125.575 5 103271943.60305     -3187.774 5        35.157
G02        34.000    25783693.696 5 135494232.01605       418.406 5        32.066                                    25783702.802 1 105579956.89501       326.008 1        10.222
C24        35.000                                                                                                                                    24365411.732 7 126877098.20807      2168.461 7        45.055                                                                    24365415.151 7 103098050.20307      1762.107 7        44.322
G23        36.000    23012813.456 7 120933052.88407      -333.249 7        42.916                                    23012817.515 4  94233506.97104      -259.678 4        29.611    23012817.828 6  94233507.96206      -259.546 6        41.645
C33        39.000                                                                                                                                    24876750.472 7 129539752.38507      1752.179 7        44.227                                                                    24876768.438 7 105261730.91207      1423.923 7        44.760
E25        40.000    24348773.328 7 127953637.65807     -2202.293 7        45.910                                                                    24348780.344 8  95549788.13408     -1644.595 8        48.736    24348779.280 8  98042384.44108     -1687.484 8        49.764
S44        42.000    40821882.961 6 214520386.92806      -466.228 6        37.418
C09        43.000                                                                                                                                    41470367.866 3                     -1141.861 3        22.305    41470375.210 4                      -882.440 4        26.036    41470369.943 3                      -930.727 3        20.000
C05        44.000                                                                                                                                    39354339.604 6 204928254.75506      -535.906 6        38.015    39354343.689 7 158463510.80107      -414.428 7        42.694    39354343.147 6 166521065.22306      -435.451 6        39.814
C40        45.000                                                                                                                                    38845431.989 7 202278325.62207      -892.761 7        43.037                                                                    38845438.177 7 164367716.34007      -725.305 7        42.701
C21        46.000                                                                                                                                    24429963.815 7 127213105.21107     -3715.616 7        46.054                                                                    24429964.673 7 103371014.14407     -3019.166 7        46.043
R20        47.000    23150547.118 5 123796399.60405      -848.845 5        32.886                                                                    23150559.742 6  96286146.73806      -660.055 6        39.604
C10        49.000                                                                                                                                    38443292.961 7 200184330.98207      -357.135 7        42.360    38443296.672 7 154795241.53707      -276.186 7        44.507    38443293.092 6 162666172.07506      -290.019 6        41.454
C42        50.000                                                                                                                                    22650134.111 8 117945121.79808     -1306.910 8        49.349                                                                    22650145.835 8  95840094.48008     -1061.870 8        49.417
S48        51.000    77094243.277 6 405132052.83706      -484.225 6        37.871
E02        53.000    23366690.342 8 122792879.34908       571.519 8        48.952                                                                    23366694.309 8  91696061.24608       426.795 8        51.055    23366693.217 8  94088113.59208       437.863 8        51.212
C60        54.000                                                                                                                                    40821882.293 6 212570218.87306      -462.090 6        39.733                                                                    40821878.212 6 172730634.98306      -375.133 6        39.147
C45        55.000                                                                                                                                    23141563.925 7 120504114.88707     -2676.508 7        47.644                                                                    23141561.495 8  97919420.06708     -2174.739 8        48.233
R12        56.000    19241587.355 8 102785202.74808      -244.056 8        51.984                                                                    19241590.406 7  79944086.72007      -189.824 7        47.350
C02        57.000                                                                                                                                    40914200.340 5 213050801.14205      -511.042 5        30.762    40914207.506 6 164744330.16506      -395.399 6        36.163    40914207.108 5 173121184.56905      -415.106 5        30.853
I03        58.000   122976921.062 6 406802310.74506       896.477 6        36.745
C14        59.000                                                                                                                                    23265779.488 7 121150954.38307       374.144 7        46.023    23265780.938 8  93681575.42908       289.334 8        50.376    23265778.219 8  98445045.74508       304.083 8        48.015
R13        60.000    21541898.936 7 115032599.77207      2496.362 7        42.277
> 2025 01 01 10 01 10.0000000  0 53
G19         1.000    22990384.050 7 120815418.13307      2541.166 7        42.766                                    22990385.579 5  94141967.17705      1980.125 5        30.981
R01         2.000    21432354.296 7 114568085.83007     -4541.794 7        45.886                                                                    21432361.510 6  89108548.68306     -3532.374 6        38.772
G24         3.000    21618165.867 7 113604236.50307      2117.779 7        44.996                                    21618169.671 7  88522812.92207      1650.215 7        44.486    21618170.095 7  88522809.92807      1650.263 7        43.029
R02         4.000    19377671.886 8 103402918.75308      -964.877 8        52.470                                                                    19377676.060 7  80424493.65307      -750.408 7        47.132
S21         5.000    38383554.109 6 201706681.06706      -491.041 6        41.964
G17         7.000    22100473.451 7 116138929.08707       539.490 7        46.398                                    22100476.594 7  90497954.35307       420.378 7        43.710    22100476.678 6  90497950.35306       420.371 6        41.971
R21         8.000    23125760.074 7 123750645.54107      2187.806 7        43.676                                                                    23125771.785 6  96250571.51706      1701.645 6        41.425
E30        10.000    27172066.960 6 142790258.73406      2384.001 6        40.722                                                                    27172077.823 7 106629180.24207      1780.275 7        43.048    27172076.615 7 109410801.81707      1826.602 7        43.772
C26        11.000                                                                                                                                    21699408.707 8 112994539.44308       133.181 8        50.740                                                                    21699410.969 8  91817338.28508       108.205 8        49.452
S27        12.000    39110891.546 6 205528950.47606      -523.965 6        36.170
G15        13.000    20154583.113 8 105912990.32508     -1026.074 8        49.651                                    20154583.301 8  82529571.60508      -799.536 8        49.915    20154583.974 7  82529563.61407      -799.554 7        45.574
S36        14.000    38154186.661 7 200502020.39407      -492.298 7        44.050
G12        15.000    24658026.033 6 129578857.43106      3323.046 6        38.880                                    24658031.996 5 100970591.79205      2589.365 5        31.645    24658032.615 6 100970591.82806      2589.413 6        36.412
R11        16.000    21449395.317 7 114618979.81307     -3712.825 7        47.827                                                                    21449402.178 7  89148070.77107     -2887.749 7        44.903
S45        17.000    63337687.501 6 332842919.33806      -543.900 6        36.159
R03        18.000    21654423.843 8 115917766.37008      2919.613 8        49.281                                                                    21654428.944 7  90158261.59707      2270.793 7        43.985
E24        19.000    29033082.924 5 152569643.92405     -3415.828 5        32.892                                                                    29033099.485 5 113931821.63805     -2550.510 5        34.524    29033096.695 5 116903960.44805     -2616.873 5        34.690
E33        20.000    28619820.973 5 150398164.46605     -1130.386 5        35.143                                                                    28619825.589 6 112310335.19906      -844.149 6        39.486    28619824.586 6 115240165.91806      -866.288 6        40.605
G30        21.000    24269450.547 6 127536647.27606     -3520.551 6        38.465                                    24269461.646 5  99379163.30605     -2743.285 5        32.245    24269461.895 6  99379167.30706     -2743.212 6        37.331
I06        22.000    38123085.959 7 149603251.29507      -466.750 7        43.281
S28        23.000    40833587.464 5 214581708.34505      -501.790 5        34.790
G14        24.000    21738901.449 7 114238645.87607     -2986.754 7        45.836                                    21738904.409 5  89017115.29705     -2327.329 5        34.733    21738904.439 7  89017117.28507     -2327.392 7        44.178
S23        25.000    38087166.237 7 200149299.46007      -493.869 7        44.095
E08        26.000    23489670.392 8 123438993.33008       -47.761 8        48.368                                                                    23489673.623 8  92178450.39308       -35.652 8        50.918    23489672.728 8  94583105.24208       -36.618 8        51.362
C07        27.000                                                                                                                                    38793172.793 6 202006199.58906      -743.595 6        41.137    38793175.001 7 156204011.95207      -574.982 7        44.033    38793171.676 6 164146576.72906      -604.307 6        41.433
G13        28.000    20582598.805 8 108162223.95308     -2628.655 8        49.486                                    20582598.623 6  84282215.54506     -2048.299 6        39.348
I02        29.000    37009632.942 7 145233757.67307      -116.301 7        42.688
G10        30.000    25262257.900 6 132754002.70706      1873.714 6        39.015                                    25262263.356 5 103444667.70005      1460.051 5        32.437    25262262.684 6 103444659.68506      1460.025 6        36.938
E07        31.000    26549920.621 6 139520685.24306      2118.633 6        40.770                                                                    26549930.995 7 104187516.63307      1582.102 7        44.585    26549929.393 7 106905450.50507      1623.347 7        44.789
E03        32.000    24612856.721 7 129341351.32307     -2683.835 7        45.976                                                                    24612863.983 8  96586063.44708     -2004.227 8        49.052    24612862.578 8  99105697.18908     -2056.458 8        49.282
G05        33.000    25224006.597 6 132552850.18006     -4090.070 6        38.138                                    25224016.690 4 103287877.28704     -3187.054 4        28.844    25224017.137 5 103287880.26705     -3186.977 5        35.410
G02        34.000    25783297.261 5 135492146.44205       416.150 5        33.671                                    25783305.838 1 105578331.82501       324.268 1         8.095
C24        35.000                                                                                                                                    24363329.826 7 126866257.44207      2167.766 7        44.876                                                                    24363333.373 7 103089241.21807      1761.529 7        44.436
G23        36.000    23013132.160 7 120934727.01707      -336.422 7        43.120                                    23013136.096 4  94234811.48004      -262.148 4        29.460    23013135.973 6  94234812.47906      -262.084 6        41.671
C33        39.000                                                                                                                                    24875069.210 7 129530996.25607      1750.190 7        44.476                                                                    24875086.897 7 105254615.85007      1422.156 7        44.748
E25        40.000    24350869.432 7 127964652.04107     -2203.437 7        45.765                                                                    24350876.311 8  95558013.15808     -1645.457 8        49.017    24350875.265 8  98050824.03508     -1688.431 8        49.804
S44        42.000    40822327.297 6 214522716.85806      -465.816 6        37.459
C09        43.000                                                                                                                                    41471459.112 3                     -1141.833 3        22.495    41471471.111 4                      -882.679 4        25.068    41471465.767 3                      -927.533 3        21.333
C05        44.000                                                                                                                                    39354853.850 6 204930933.83206      -535.801 6        38.150    39354858.037 7 158465582.43707      -414.245 7        42.773    39354857.702 6 166523242.18806      -435.369 6        39.928
C40        45.000                                                                                                                                    38846289.427 7 202282790.90407      -893.389 7        42.925                                                                    38846295.657 7 164371344.75507      -725.992 7        42.696
C21        46.000                                                                                                                                    24433531.904 7 127231685.42407     -3716.454 7        46.263                                                                    24433533.015 7 103386112.08707     -3020.056 7        46.086
R20        47.000    23151342.839 5 123800653.62305      -853.006 5        33.599                                                                    23151355.491 6  96289455.41206      -663.410 6        40.145
C10        49.000                                                                                                                                    38443636.141 7 200186117.96307      -357.576 7        42.379    38443639.913 7 154796623.35907      -276.533 7        44.473    38443636.116 6 162667624.16006      -290.602 6        41.502
C42        50.000                                                                                                                                    22651390.296 8 117951663.05708     -1309.564 8        49.407                                                                    22651402.112 8  95845409.78608     -1064.145 8        49.498
S48        51.000    77094706.515 6 405134473.62406      -484.412 6        37.943
E02        53.000    23366147.160 8 122790026.09008       569.818 8        48.752                                                                    23366151.349 8  91693930.56108       425.513 8        51.246    23366150.260 8  94085927.32508       436.565 8        51.095
C60        54.000                                                                                                                                    40822325.712 6 212572527.61906      -461.664 6        39.607                                                                    40822321.605 6 172732511.05206      -375.134 6        39.141
C45        55.000                                                                                                                                    23144134.433 7 120517498.99507     -2677.199 7        47.717                                                                    23144131.838 8  97930295.74008     -2175.423 8        48.247
R12        56.000    19241816.664 8 102786429.54608      -246.664 8        51.867                                                                    19241820.637 7  79945040.89707      -191.864 7        47.525
C02        57.000                                                                                                                                    40914689.294 5 213053355.24705      -510.734 5        30.717    40914698.244 6 164746305.16206      -394.897 6        36.163    40914697.676 5 173123259.99905      -415.041 5        30.551
I03        58.000   122975778.727 6 406797827.95506       896.468 6        36.820
C14        59.000                                                                                                                                    23265420.980 7 121149090.33007       371.483 7        45.982    23265423.090 8  93680134.03008       287.280 8        50.321    23265420.240 8  98443531.05608       301.882 8        48.068
R13        60.000    21539561.373 7 115020121.27807      2494.978 7        42.408
> 2025 01 01 10 01 15.0000000  0 53
G19         1.000    22987967.040 7 120802715.42507      2539.733 7        42.832                                    22987968.389 5  94132068.99305      1979.010 5        31.109
R01         2.000    21436603.482 7 114590800.31007     -4543.982 7        45.234                                                                    21436610.623 6  89126215.50106     -3534.331 6        39.580
G24         3.000    21616151.340 7 113593651.25007      2116.332 7        45.458                                    21616155.366 7  88514564.68207      1649.089 7        44.561    21616155.993 7  88514561.68807      1649.105 7        43.132
R02         4.000    19378578.142 8 103407754.70708      -969.569 8        52.802                                                                    19378582.431 7  80428254.94507      -754.099 7        47.120
S21         5.000    38384021.044 7 201709138.02507      -491.360 7        42.212
G17         7.000    22099961.907 7 116136239.83807       536.302 7        45.988                                    22099964.790 7  90495858.84907       417.894 7        43.699    22099965.120 7  90495854.85607       417.859 7        42.209
R21         8.000    23123718.279 7 123739713.92807      2184.712 7        44.123                                                                    23123728.574 6  96242069.02006      1699.290 6        41.023
E30        10.000    27169799.021 6 142778340.78806      2383.226 6        40.596                                                                    27169809.862 7 106620280.43707      1779.653 7        43.149    27169808.687 7 109401669.84207      1826.108 7        43.587
C26        11.000                                                                                                                                    21699281.838 8 112993878.36708       131.267 8        50.737                                                                    21699284.070 8  91816801.09508       106.803 8        49.338
S27        12.000    39111390.602 6 205531572.33406      -524.610 6        36.253
G15        13.000    20155561.413 8 105918129.88808     -1029.763 8        49.871                                    20155561.339 8  82533576.46008      -802.414 8        49.987    20155561.725 7  82533568.46407      -802.431 7        45.317
S36        14.000    38154654.240 7 200504482.67607      -492.600 7        44.167
G12        15.000    24654865.039 6 129562243.56906      3322.504 6        40.672                                    24654870.510 5 100957645.98205      2588.954 5        32.000    24654871.597 6 100957646.00906      2588.975 6        36.783
R11        16.000    21452870.381 7 114637546.65507     -3713.889 7        47.597                                                                    21452876.570 7  89162511.62207     -2888.668 7        44.697
S45        17.000    63338156.704 6 332845639.65906      -543.998 6        36.265
R03        18.000    21651698.202 8 115903175.09808      2916.932 8        48.619                                                                    21651703.501 7  90146912.84907      2268.678 7        44.265
E24        19.000    29036332.787 5 152586721.79405     -3415.609 5        32.760                                                                    29036349.283 5 113944574.67805     -2550.707 5        34.262    29036346.579 5 116917046.16205     -2616.952 5        33.976
E33        20.000    28620897.348 5 150403822.18705     -1132.703 5        34.595                                                                    28620902.200 6 112314560.04006      -846.063 6        39.832    28620901.183 6 115244500.96306      -867.832 6        40.732
G30        21.000    24272800.419 6 127554251.86206     -3521.203 6        38.799                                    24272811.679 5  99392881.14505     -2743.791 5        32.395    24272811.568 6  99392885.13306     -2743.634 6        36.854
I06        22.000    38123680.632 7 149605585.47907      -466.883 7        43.465
S28        23.000    40834068.150 5 214584218.77805      -502.015 5        34.967
G14        24.000    21741743.937 7 114253584.45107     -2988.608 7        46.275                                    21741747.162 5  89028755.70605     -2328.775 5        34.724    21741747.526 7  89028757.69307     -2328.770 7        44.366
S23        25.000    38087635.833 7 200151768.38507      -493.864 7        44.381
E08        26.000    23489716.741 8 123439237.42908       -49.843 8        48.458                                                                    23489720.053 8  92178632.67208       -37.198 8        50.945    23489719.176 8  94583292.27408       -38.199 8        51.390
C07        27.000                                                                                                                                    38793887.084 6 202009919.81206      -744.499 6        41.139    38793889.721 7 156206888.64007      -575.593 7        44.059    38793886.061 6 164149599.67506      -604.745 6        41.144
G13        28.000    20585100.933 8 108175373.98208     -2631.314 8        50.123                                    20585101.015 6  84292462.31306     -2050.371 6        39.375
I02        29.000    37009781.231 7 145234340.06407      -116.540 7        42.713
G10        30.000    25260475.958 6 132744639.38206      1871.307 6        38.261                                    25260481.517 5 103437371.57405      1458.169 5        32.347    25260481.036 6 103437363.55206      1458.267 6        37.267
E07        31.000    26547905.562 6 139510093.88506      2117.853 6        40.739                                                                    26547915.451 7 104179607.50807      1581.563 7        44.603    26547913.867 7 106897335.04807      1622.837 7        44.770
E03        32.000    24615411.016 7 129354774.88107     -2685.492 7        46.274                                                                    24615418.397 8  96596087.51808     -2005.383 8        49.125    24615417.073 8  99115982.76308     -2057.734 8        49.245
G05        33.000    25227897.817 6 132573300.32006     -4089.802 6        38.610                                    25227908.428 4 103303812.40804     -3186.858 4        29.223    25227908.663 5 103303815.41205     -3186.802 5        35.738
G02        34.000    25782902.523 5 135490072.93405       413.471 5        33.275                                    25782911.070 1 105576716.17201       322.198 1         8.286
C24        35.000                                                                                                                                    24361248.639 7 126855420.55607      2166.953 7        44.551                                                                    24361252.195 7 103080435.36407      1760.865 7        44.468
G23        36.000    23013453.873 7 120936418.01507      -339.903 7        43.043                                    23013457.941 4  94236129.14404      -264.856 4        29.659    23013457.985 6  94236130.15006      -264.996 6        41.836
C33        39.000                                                                                                                                    24873389.451 7 129522250.53607      1748.003 7        44.439                                                                    24873407.254 7 105247509.22907      1420.508 7        44.713
E25        40.000    24352966.418 7 127975673.44007     -2205.035 7        45.609                                                                    24352973.596 8  95566243.41408     -1646.610 8        48.912    24352972.557 8  98059268.99308     -1689.590 8        49.754
S44        42.000    40822770.073 6 214525046.65006      -466.158 6        37.883
C09        43.000                                                                                                                                    41472556.873 3                     -1143.012 3        21.357    41472565.536 4                      -882.124 4        26.359    41472563.743 3                      -931.375 3        21.119
C05        44.000                                                                                                                                    39355367.738 6 204933612.78506      -535.872 6        38.177    39355372.520 7 158467653.99507      -414.381 7        42.743    39355372.260 6 166525419.07806      -435.299 6        39.970
C40        45.000                                                                                                                                    38847147.732 7 202287260.29307      -894.320 7        42.819                                                                    38847154.016 7 164374976.48907      -726.674 7        42.650
C21        46.000                                                                                                                                    24437101.402 7 127250271.28907     -3717.893 7        46.117                                                                    24437102.257 7 103401214.58707     -3020.969 7        46.050
R20        47.000    23152143.441 5 123804929.40905      -857.221 5        32.946                                                                    23152155.444 6  96292781.06006      -666.918 6        40.358
C10        49.000                                                                                                                                    38443980.049 7 200187908.34507      -358.520 7        42.296    38443983.384 7 154798007.78407      -277.221 7        44.360    38443980.011 6 162669078.97806      -291.170 6        41.485
C42        50.000                                                                                                                                    22652649.331 8 117958218.52608     -1312.599 8        49.399                                                                    22652660.993 8  95850736.62508     -1066.524 8        49.442
S48        51.000    77095171.009 6 405136894.93506      -484.303 6        38.144
E02        53.000    23365606.250 8 122787182.28208       567.768 8        48.838                                                                    23365610.197 8  91691806.94108       423.966 8        51.152    23365609.087 8  94083748.30608       434.995 8        51.097
C60        54.000                                                                                                                                    40822768.931 6 212574836.22006      -461.819 6        39.721                                                                    40822764.827 6 172734386.99406      -375.232 6        39.204
C45        55.000                                                                                                                                    23146705.686 7 120530887.66807     -2678.250 7        47.501                                                                    23146703.021 8  97941175.10408     -2176.270 8        48.265
R12        56.000    19242049.052 8 102787670.24308      -249.566 8        51.747                                                                    19242052.618 7  79946005.88807      -194.170 7        47.260
C02        57.000                                                                                                                                    40915179.724 5 213055909.22605      -510.548 5        30.823    40915188.947 5 164748280.03005      -394.796 5        35.876    40915187.954 5                      -415.036 5        30.709
I03        58.000   122974636.328 6 406793344.93806       896.808 6        36.673
C14        59.000                                                                                                                                    23265065.737 7 121147240.28807       368.537 7        45.937    23265067.603 8  93678703.44608       285.012 8        50.150    23265064.919 8  98442027.72208       299.620 8        48.028
R13        60.000    21537226.799 7 115007651.29107      2492.965 7        42.482
> 2025 01 01 10 01 20.0000000  0 53
G19         1.000    22985550.555 7 120790019.75907      2538.313 7        42.783                                    22985552.493 5  94122176.29005      1977.892 5        30.928
R01         2.000    21440854.159 7 114613524.97907     -4546.036 7        45.497                                                                    21440861.792 6  89143890.20206     -3535.750 6        39.387
G24         3.000    21614138.303 7 113583073.20007      2114.759 7        45.476                                    21614142.429 7  88506322.05207      1647.861 7        44.465    21614142.529 7  88506319.05707      1647.847 7        42.631
R02         4.000    19379489.143 8 103412613.36308      -974.149 8        52.542                                                                    19379492.892 7  80432033.90407      -757.637 7        47.015
S21         5.000    38384488.123 7 201711594.59107      -491.406 7        42.102
G17         7.000    22099452.862 7 116133565.31807       533.272 7        46.096                                    22099455.834 7  90493774.82607       415.530 7        43.509    22099456.574 7  90493770.83107       415.632 7        42.351
R21         8.000    23121677.853 7 123728796.74907      2181.808 7        43.285                                                                    23121689.235 6  96233577.77106      1697.166 6        41.507
E30        10.000    27167532.023 6 142766426.15006      2382.363 6        40.436                                                                    27167542.817 7 106611383.09707      1779.258 7        43.056    27167541.284 7 109392540.41107      1825.542 7        43.462
C26        11.000                                                                                                                                    21699156.451 8 112993225.52808       129.631 8        50.709                                                                    21699158.741 8  91816270.60308       105.425 8        49.372
S27        12.000    39111891.499 6 205534194.43006      -524.509 6        36.250
G15        13.000    20156542.488 8 105923286.87708     -1033.299 8        49.581                                    20156542.681 8  82537594.89308      -805.167 8        49.832    20156543.394 7  82537586.89007      -805.101 7        45.527
S36        14.000    38155123.130 7 200506944.98107      -492.445 7        44.131
G12        15.000    24651704.010 6 129545632.29006      3321.789 6        41.244                                    24651709.578 5 100944702.17205      2588.398 5        32.198    24651709.633 6 100944702.18206      2588.424 6        36.231
R11        16.000    21456345.012 7 114656117.92707     -3714.896 7        47.564                                                                    21456352.170 7  89176955.90007     -2889.277 7        44.647
S45        17.000    63338632.475 6 332848359.95406      -544.402 6        36.163
R03        18.000    21648974.574 8 115888596.51908      2914.260 8        49.448                                                                    21648979.947 7  90135573.97107      2266.675 7        44.327
E24        19.000    29039582.986 5 152603799.39205     -3415.676 5        32.287                                                                    29039599.221 5 113957327.47905     -2550.304 5        33.683    29039595.903 5 116930131.68805     -2617.470 5        33.587
E33        20.000    28621976.976 5 150409491.51605     -1135.213 5        35.310                                                                    28621981.328 6 112318793.52306      -847.819 6        39.532    28621980.174 6 115248844.89506      -869.912 6        40.381
G30        21.000    24276150.550 6 127571858.95806     -3521.901 6        38.402                                    24276162.046 5  99406600.94505     -2744.338 5        32.222    24276161.537 6  99406604.92806     -2744.330 6        36.431
I06        22.000    38124275.755 7 149607919.63207      -466.998 7        43.443
S28        23.000    40834544.320 5 214586729.10705      -502.395 5        34.967
G14        24.000    21744588.469 7 114268531.33207     -2990.349 7        46.403                                    21744591.503 5  89040402.59205     -2330.141 5        34.619    21744591.976 7  89040404.58507     -2330.132 7        44.324
S23        25.000    38088105.649 7 200154237.13807      -493.897 7        44.305
E08        26.000    23489765.007 8 123439491.19608       -51.901 8        48.392                                                                    23489768.357 8  92178822.17308       -38.720 8        50.878    23489767.481 8  94583486.71908       -39.729 8        51.316
C07        27.000                                                                                                                                    38794601.878 6 202013643.21606      -745.065 6        40.946    38794604.597 7 156209767.78307      -576.190 7        44.059    38794601.210 6 164152625.23406      -605.417 6        41.206
G13        28.000    20587605.910 8 108188536.40408     -2633.848 8        50.155                                    20587605.772 6  84302718.74306     -2052.351 6        39.294
I02        29.000    37009929.974 7 145234923.49507      -117.032 7        42.722
G10        30.000    25258696.679 6 132735287.14506      1869.163 6        38.039                                    25258701.820 5 103430084.07405      1456.500 5        32.090    25258701.132 6 103430076.05906      1456.419 6        36.631
E07        31.000    26545890.542 6 139499505.79806      2117.258 6        40.563                                                                    26545900.653 7 104171700.83607      1580.977 7        44.519    26545899.159 7 106889222.11907      1622.296 7        44.655
E03        32.000    24617967.088 7 129368205.62307     -2686.964 7        46.477                                                                    24617974.119 8  96606116.95808     -2006.481 8        49.106    24617972.841 8  99126273.84108     -2058.860 8        49.201
G05        33.000    25231789.526 6 132593748.35406     -4089.411 6        38.946                                    25231799.670 4 103319745.87904     -3186.543 4        29.791    25231800.145 5 103319748.86105     -3186.570 5        35.676
G02        34.000    25782509.957 5 135488011.33005       410.782 5        32.737                                    25782518.730 1 105575109.83501       320.038 1         8.190
C24        35.000                                                                                                                                    24359168.490 7 126844587.43807      2166.030 7        44.304                                                                    24359171.815 7 103071632.58107      1760.140 7        44.393
G23        36.000    23013779.095 7 120938125.77207      -343.370 7        43.081                                    23013782.791 4  94237459.85704      -267.561 4        29.469    23013783.324 6  94237460.85906      -267.632 6        41.735
C33        39.000                                                                                                                                    24871711.742 7 129513515.12407      1745.954 7        44.418                                                                    24871729.633 7 105240410.99407      1418.773 7        44.695
E25        40.000    24355065.092 7 127986701.70707     -2206.460 7        45.663                                                                    24355072.196 8  95574478.80108     -1647.632 8        48.820    24355071.161 8  98067719.21608     -1690.667 8        49.760
S44        42.000    40823217.959 6 214527376.14006      -465.797 6        37.917
C09        43.000                                                                                                                                                                                                    41473661.831 4                      -882.870 4        25.383    41473658.593 3                      -927.851 3        22.667
C05        44.000                                                                                                                                    39355882.614 6 204936291.51806      -535.810 6        38.045    39355887.105 7 158469725.37907      -414.336 7        42.722    39355886.653 6 166527595.77206      -435.325 6        39.757
C40        45.000                                                                                                                                    38848007.087 7 202291733.67107      -895.188 7        42.605                                                                    38848013.040 7 164378611.45907      -727.403 7        42.518
C21        46.000                                                                                                                                    24440671.539 7 127268862.63007     -3718.967 7        45.937                                                                    24440672.235 7 103416321.55107     -3021.880 7        45.973
R20        47.000    23152945.483 5 123809226.89005      -862.212 5        31.804                                                                    23152958.072 6  96296123.49006      -670.366 6        39.967
C10        49.000                                                                                                                                    38444324.067 7 200189701.92107      -359.178 7        42.292    38444327.915 7 154799394.69207      -277.720 7        44.238    38444324.520 6 162670536.40106      -291.729 6        41.480
C42        50.000                                                                                                                                    22653911.035 8 117964788.06308     -1315.469 8        49.479                                                                    22653922.586 8  95856074.90008     -1068.798 8        49.377
S48        51.000    77095634.184 6 405139316.16206      -484.455 6        37.921
E02        53.000    23365066.828 8 122784347.80408       565.839 8        48.770                                                                    23365070.790 8  91689690.28608       422.574 8        51.128    23365069.681 8  94081576.43508       433.548 8        51.049
C60        54.000                                                                                                                                    40823212.082 6 212577144.54306      -461.657 6        39.601                                                                    40823208.126 6 172736262.70606      -375.226 6        39.144
C45        55.000                                                                                                                                    23149277.717 7 120544280.76107     -2679.208 7        47.072                                                                    23149274.985 8  97952058.05308     -2177.048 8        48.216
R12        56.000    19242283.961 8 102788924.71708      -252.422 8        51.691                                                                    19242287.610 7  79946981.58107      -196.337 7        47.421
C02        57.000                                                                                                                                    40915671.415 5 213058462.91605      -510.803 5        30.694    40915679.130 6 164750254.69906      -394.978 6        36.231    40915678.227 5                      -415.008 5        31.109
I03        58.000   122973493.619 6 406788861.65606       896.353 6        36.715
C14        59.000                                                                                                                                    23264713.451 7 121145404.12207       365.707 7        45.743    23264714.848 8  93677283.60608       282.738 8        50.029    23264712.280 8  98440535.68408       297.212 8        48.031
R13        60.000    21534893.602 6 114995189.85206      2491.392 6        41.669
> 2025 01 01 10 01 25.0000000  0 53
G19         1.000    22983136.140 7 120777331.27307      2537.133 7        43.304                                    22983137.977 5  94112289.19005      1976.981 5        31.132
R01         2.000    21445107.776 7 114636259.85507     -4547.856 7        45.479                                                                    21445115.411 6  89161572.88806     -3537.239 6        38.535
G24         3.000    21612126.398 7 113572502.45607      2113.584 7        44.817                                    21612130.878 7  88498085.11607      1646.946 7        44.426    21612130.622 7  88498082.12407      1646.958 7        42.480
R02         4.000    19380403.768 8 103417494.86208      -978.386 8        52.895                                                                    19380407.627 7  80435830.62407      -760.981 7        47.591
S21         5.000    38384957.205 7 201714051.14307      -491.177 7        42.317
G17         7.000    22098946.635 7 116130905.69207       530.654 7        46.274                                    22098949.758 7  90491702.40807       413.495 7        43.490    22098949.948 7  90491698.40807       413.540 7        42.207
R21         8.000    23119639.835 7 123717894.20007      2179.185 7        43.604                                                                    23119652.033 6  96225097.90106      1694.995 6        41.428
E30        10.000    27165265.227 6 142754514.97506      2382.162 6        40.129                                                                    27165276.388 7 106602488.37407      1778.771 7        43.172    27165274.714 7 109383413.64307      1825.184 7        43.486
C26        11.000                                                                                                                                    21699032.757 8 112992581.05408       128.235 8        50.706                                                                    21699034.967 8  91815746.91908       104.318 8        49.260
S27        12.000    39112390.318 6 205536816.57306      -524.233 6        36.594
G15        13.000    20157527.157 8 105928461.45708     -1036.478 8        49.601                                    20157527.369 8  82541627.03308      -807.644 8        49.826    20157527.862 7  82541619.02607      -807.609 7        45.365
S36        14.000    38155593.071 7 200509406.07107      -491.983 7        44.205
G12        15.000    24648542.824 6 129529023.73406      3321.641 6        41.128                                    24648549.013 5 100931760.48905      2588.285 5        32.419    24648549.565 5 100931760.50705      2588.336 5        35.843
R11        16.000    21459821.624 8 114674693.68508     -3715.395 8        48.039                                                                    21459828.080 7  89191403.68607     -2889.820 7        44.841
S45        17.000    63339100.860 6 332849480.32616      -544.007 6        36.348
R03        18.000    21646254.107 8 115874030.61208      2912.105 8        49.120                                                                    21646259.146 7  90124244.94907      2264.949 7        44.289
E24        19.000    29042832.384 5 152620876.92005     -3414.985 5        32.216                                                                    29042848.574 5 113970080.28005     -2550.453 5        33.760    29042845.832 5 116943217.11805     -2617.106 5        33.605
E33        20.000    28623058.102 5 150415173.02005     -1137.221 5        35.386                                                                    28623062.316 6 112323036.27306      -849.380 6        39.724    28623061.416 6 115253198.31406      -871.373 6        40.451
G30        21.000    24279501.932 6 127589468.65206     -3521.962 6        38.685                                    24279512.919 5  99420322.77405     -2744.385 5        32.078    24279513.262 6  99420326.77406     -2744.504 6        36.507
I06        22.000    38124870.818 7 149610253.87807      -466.671 7        43.211
S28        23.000    40835020.217 5 214589239.44505      -501.987 5        35.029
G14        24.000    21747433.978 7 114283486.67607     -2991.746 7        45.711                                    21747437.445 5  89052056.07805     -2331.224 5        34.705    21747437.408 7  89052058.06407     -2331.189 7        44.113
S23        25.000    38088577.628 7 200156705.78307      -493.548 7        44.516
E08        26.000    23489815.151 8 123439754.78808       -53.536 8        48.518                                                                    23489818.481 8  92179019.01208       -39.978 8        50.977    23489817.652 8  94583688.69108       -40.961 8        51.448
C07        27.000                                                                                                                                    38795317.790 6 202017369.83406      -745.552 6        40.901    38795320.098 7 156212649.41707      -576.440 7        44.238    38795316.829 6 164155653.39306      -605.674 6        41.170
G13        28.000    20590112.778 8 108201711.35708     -2636.077 8        49.968                                    20590112.908 6  84312984.93506     -2054.086 6        39.174
I02        29.000    37010079.004 7 145235508.10607      -116.972 7        42.525
G10        30.000    25256919.768 6 132725946.31906      1867.221 6        38.459                                    25256924.350 5 103422805.47805      1454.984 5        32.162    25256924.257 6 103422797.47006      1454.856 6        36.616
E07        31.000    26543876.559 6 139488921.13506      2116.683 6        40.815                                                                    26543886.345 7 104163796.71007      1580.678 7        44.582    26543884.861 7 106881111.78907      1621.983 7        44.746
E03        32.000    24620524.075 7 129381643.71107     -2688.263 7        46.357                                                                    24620531.264 8  96616151.87308     -2007.395 8        49.110    24620530.006 8  99136570.53808     -2059.740 8        49.277
G05        33.000    25235680.801 6 132614194.31506     -4088.807 6        39.204                                    25235690.487 5 103335677.73905     -3186.066 5        30.045    25235690.497 5 103335680.70705     -3185.864 5        35.843
G02        34.000    25782119.500 5 135485961.80305       408.845 5        31.902                                    25782128.921 1 105573512.93101       318.592 1         9.238
C24        35.000                                                                                                                                    24357089.410 7 126833758.21107      2165.659 7        44.620                                                                    24357092.265 7 103062832.97307      1759.824 7        44.302
G23        36.000    23014106.890 7 120939850.39607      -346.425 7        43.069                                    23014110.941 4  94238803.71904      -269.941 4        29.507    23014111.228 6  94238804.72206      -269.902 6        41.785
C33        39.000                                                                                                                                    24870036.455 7 129504790.14507      1744.053 7        44.357                                                                    24870054.106 7 105233321.24207      1417.312 7        44.617
E25        40.000    24357165.100 7 127997736.97307     -2207.520 7        45.622                                                                    24357172.193 8  95582719.42808     -1648.514 8        48.896    24357171.107 8  98076174.81108     -1691.514 8        49.760
S44        42.000    40823659.402 6 214529705.48906      -465.535 6        38.351
C09        43.000                                                                                                                                    41474747.230 3                     -1143.859 3        21.333    41474758.009 4                      -882.510 4        26.898    41474752.951 3                      -927.414 3        21.452
C05        44.000                                                                                                                                    39356396.953 6 204938970.18906      -535.624 6        38.033    39356401.431 7 158471796.71007      -414.176 7        42.914    39356401.037 6 166529772.42506      -435.048 6        39.772
C40        45.000                                                                                                                                    38848866.974 7 202296211.17007      -895.747 7        42.540                                                                    38848872.858 7 164382249.79707      -727.858 7        42.430
C21        46.000                                                                                                                                    24444242.780 7 127287459.59707     -3719.707 7        45.773                                                                    24444243.567 7 103431433.09907     -3022.654 7        45.941
R20        47.000    23153753.406 5 123813546.12005      -866.121 5        31.970                                                                    23153766.548 6  96299482.84606      -673.363 6        40.582
C10        49.000                                                                                                                                    38444669.295 7 200191498.89407      -359.478 7        42.296    38444673.137 7 154800784.22307      -277.995 7        44.367    38444669.560 6 162671996.59406      -292.047 6        41.418
C42        50.000                                                                                                                                    22655175.431 8 117971371.80908     -1318.010 8        49.480                                                                    22655186.936 8  95861424.73608     -1070.945 8        49.291
S48        51.000    77096097.230 6 405141737.40106      -484.059 6        38.105
E02        53.000    23364529.279 8 122781522.78708       564.298 8        48.627                                                                    23364533.227 8  91687580.69808       421.362 8        51.204    23364532.130 8  94079411.81208       432.372 8        51.103
C60        54.000                                                                                                                                    40823655.497 6 212579452.72206      -461.223 6        39.616                                                                    40823651.264 6 172738138.30906      -374.928 6        38.880
C45        55.000                                                                                                                                    23151850.227 7 120557678.39207     -2679.784 7        47.139                                                                    23151847.911 8  97962944.71408     -2177.533 8        48.123
R12        56.000    19242521.165 8 102790193.08008      -254.875 8        51.650                                                                    19242525.031 7  79947968.08407      -198.229 7        47.216
C02        57.000                                                                                                                                    40916162.372 5 213061016.45105      -510.759 5        30.634    40916169.569 6 164752229.22206      -394.650 6        36.159    40916168.625 5                      -414.956 5        30.574
I03        58.000   122972350.373 6 406784378.16006       896.838 6        36.306
C14        59.000                                                                                                                                    23264363.289 7 121143582.01207       363.202 7        45.631    23264365.003 8  93675874.63008       280.811 8        50.114    23264362.434 7  98439055.07607       295.136 7        47.895
R13        60.000    21532560.517 7 114982736.90407      2489.813 7        42.597
> 2025 01 01 10 01 30.0000000  0 53
G19         1.000    22980723.043 7 120764649.90907      2535.431 7        43.558                                    22980724.799 5  94102407.62805      1975.661 5        31.245
R01         2.000    21449362.397 7 114659005.01907     -4550.108 7        45.427                                                                    21449370.165 6  89179263.53506     -3538.798 6        38.459
G24         3.000    21610116.198 7 113561938.99607      2111.964 7        44.683                                    21610120.737 7  88489853.85707      1645.683 7        44.348    21610120.983 7  88489850.86807      1645.676 7        42.463
R02         4.000    19381322.991 8 103422399.00508      -983.081 8        52.632                                                                    19381326.732 7  80439644.95807      -764.607 7        47.224
S21         5.000    38385422.129 7 201716507.63407      -491.329 7        42.243
G17         7.000    22098443.485 7 116128260.87707       527.479 7        45.874                                    22098446.455 7  90489641.52707       411.016 7        43.405    22098446.487 6  90489637.53606       411.060 6        41.919
R21         8.000    23117605.464 7 123707006.20207      2176.214 7        43.645                                                                    23117617.886 6  96216629.35406      1692.534 6        41.576
E30        10.000    27162998.919 6 142742607.21906      2381.102 6        39.889                                                                    27163010.493 7 106593596.17507      1778.213 7        43.280    27163008.741 7 109374289.48007      1824.577 7        43.232
C26        11.000                                                                                                                                    21698910.517 8 112991944.87608       126.377 8        50.729                                                                    21698912.802 8  91815229.97108       102.690 8        49.317
S27        12.000    39112885.210 6 205539438.01906      -524.466 6        36.544
G15        13.000    20158515.194 8 105933653.59308     -1040.236 8        49.459                                    20158515.396 8  82545672.85408      -810.575 8        49.696    20158515.644 7  82545664.85107      -810.573 7        45.174
S36        14.000    38156060.865 7 200511866.88007      -492.029 7        44.263
G12        15.000    24645382.292 6 129512417.85306      3320.876 6        40.772                                    24645388.921 5 100918820.88005      2587.691 5        32.341    24645389.848 5 100918820.89805      2587.707 5        35.762
R11        16.000    21463299.179 8 114693273.88508     -3716.534 8        48.146                                                                    21463305.723 7  89205854.92307     -2890.676 7        44.728
S45        17.000    63339573.904 6 332852200.70306      -544.167 6        36.079
R03        18.000    21643535.557 8 115859477.41708      2909.292 8        49.250                                                                    21643540.332 7  90112925.80007      2262.836 7        44.134
E24        19.000    29046082.374 5 152637954.28805     -3415.615 5        32.096                                                                    29046098.318 5 113982832.87605     -2550.282 5        33.916    29046095.373 5 116956302.39205     -2617.156 5        33.216
E33        20.000    28624141.287 5 150420866.18305     -1139.787 5        35.010                                                                    28624145.622 6 112327287.69006      -851.100 6        39.634    28624144.802 6 115257560.67306      -873.477 6        40.207
G30        21.000    24282853.758 6 127607080.94706     -3522.848 6        38.697                                    24282864.217 5  99434046.62305     -2745.075 5        32.144    24282864.574 6  99434050.61906     -2745.083 6        36.858
I06        22.000    38125465.644 7 149612588.16807      -466.878 7        43.257
S28        23.000    40835499.083 5 214591749.51205      -501.945 5        35.424
G14        24.000    21750281.342 7 114298450.39507     -2993.589 7        45.335                                    21750285.010 5  89063716.07905     -2332.656 5        34.471    21750284.915 7  89063718.06907     -2332.594 7        44.199
S23        25.000    38089045.203 7 200159174.30207      -493.672 7        44.420
E08        26.000    23489867.072 8 123440028.13908       -55.671 8        48.283                                                                    23489870.483 8  92179223.14008       -41.573 8        51.067    23489869.655 8  94583898.14808       -42.640 8        51.237
C07        27.000                                                                                                                                    38796034.104 6 202021099.66206      -746.277 6        40.756    38796036.455 7 156215533.54107      -577.124 7        44.214    38796033.232 6 164158684.16606      -606.551 6        41.328
G13        28.000    20592622.188 8 108214898.78208     -2638.788 8        49.708                                    20592622.441 6  84323260.84506     -2056.197 6        39.018
I02        29.000    37010228.195 7 145236094.02207      -117.433 7        42.521
G10        30.000    25255144.565 6 132716616.77906      1864.695 6        38.315                                    25255149.107 5 103415535.66805      1453.015 5        31.962    25255148.809 6 103415527.64906      1453.071 6        36.370
E07        31.000    26541863.076 6 139478339.82906      2115.801 6        40.827                                                                    26541872.771 7 104155895.10507      1580.011 7        44.686    26541871.346 7 106873004.05807      1621.280 7        44.584
E03        32.000    24623082.467 7 129395089.04007     -2689.886 7        46.271                                                                    24623089.843 8  96626192.20908     -2008.664 8        49.126    24623088.528 8  99146872.79108     -2061.032 8        49.052
G05        33.000    25239570.956 6 132634638.19306     -4088.578 6        39.297                                    25239580.843 5 103351607.97105     -3185.897 5        30.166    25239580.758 5 103351610.94805     -3185.778 5        35.810
G02        34.000    25781731.590 5 135483924.29905       406.251 5        31.291                                    25781741.204 1 105571925.32801       316.580 1         8.476
C24        35.000                                                                                                                                    24355010.635 7 126822932.81007      2164.713 7        44.784                                                                    24355013.241 7 103054036.46207      1758.933 7        44.351
G23        36.000    23014438.531 7 120941591.83707      -350.012 7        43.092                                    23014442.377 4  94240160.68504      -272.737 4        29.232    23014442.598 6  94240161.68106      -272.618 6        41.676
C33        39.000                                                                                                                                    24868363.026 7 129496075.56607      1741.859 7        44.476                                                                    24868380.637 7 105226239.93207      1415.365 7        44.673
E25        40.000    24359266.514 7 128008779.17507     -2209.198 7        45.449                                                                    24359273.471 8  95590965.22008     -1649.660 8        48.990    24359272.364 8  98084635.71708     -1692.750 8        49.495
S44        42.000    40824102.589 6 214532034.65306      -465.934 6        37.713
C09        43.000                                                                                                                                    41475843.994 3                     -1140.657 3        20.667    41475855.157 4                      -882.489 4        25.459    41475848.463 3                      -930.780 3        23.524
C05        44.000                                                                                                                                    39356911.024 6 204941648.69406      -535.706 6        38.033    39356915.860 7 158473867.93507      -414.301 7        42.770    39356915.395 6 166531948.94906      -435.440 6        39.871
C40        45.000                                                                                                                                    38849727.716 7 202300692.70807      -896.783 7        42.463                                                                    38849733.455 7 164385891.40007      -728.696 7        42.677
C21        46.000                                                                                                                                    24447815.179 7 127306062.10107     -3721.106 7        45.755                                                                    24447816.179 7 103446549.12207     -3023.645 7        45.988
R20        47.000    23154563.723 5 123817887.17805      -870.542 5        31.947                                                                    23154578.811 6  96302859.23606      -677.054 6        39.529
C10        49.000                                                                                                                                    38445015.095 7 200193299.16707      -360.433 7        42.271    38445018.975 7 154802176.31407      -278.698 7        44.470    38445015.378 6 162673459.45506      -292.962 6        41.478
C42        50.000                                                                                                                                    22656442.447 8 117977969.69308     -1321.019 8        49.454                                                                    22656454.007 8  95866786.04108     -1073.433 8        49.385
S48        51.000    77096562.042 6 405144158.44506      -483.948 6        37.955
E02        53.000    23363993.452 8 122778707.18108       562.122 8        48.620                                                                    23363997.453 8  91685478.13608       419.851 8        51.214    23363996.293 8  94077254.40108       430.739 8        50.969
C60        54.000                                                                                                                                    40824098.550 6 212581760.71706      -461.736 6        39.547                                                                    40824094.607 6 172740013.72606      -375.076 6        39.129
C45        55.000                                                                                                                                    23154424.224 7 120571080.50007     -2680.873 7        47.406                                                                    23154421.621 8  97973834.99608     -2178.427 8        48.138
R12        56.000    19242761.189 8 102791475.28108      -257.841 8        51.919                                                                    19242764.931 7  79948965.34307      -200.557 7        47.467
C02        57.000                                                                                                                                    40916652.037 5 213063569.74205      -510.683 5        30.475    40916659.449 6 164754203.59306      -394.942 6        36.189    40916658.809 5                      -414.648 5        30.875
I03        58.000   122971208.533 6 406779894.44806       897.005 6        36.533
C14        59.000                                                                                                                                    23264015.751 7 121141773.86107       360.234 7        45.728    23264017.745 8  93674476.45808       278.535 8        50.247    23264015.241 7  98437585.79807       292.696 7        47.995
R13        60.000    21530230.607 7 114970292.58107      2488.167 7        42.482
> 2025 01 01 10 01 35.0000000  0 53
G19         1.000    22978310.977 7 120751975.74507      2534.303 7        44.468                                    22978313.021 5  94092531.68305      1974.777 5        31.517
R01         2.000    21453619.059 7 114681760.43507     -4551.928 7        45.091                                                                    21453626.810 6  89196962.18806     -3540.273 6        39.538
G24         3.000    21608107.522 7 113551382.86007      2110.701 7        44.781                                    21608111.945 7  88481628.30507      1644.702 7        44.394    21608112.383 7  88481625.31007      1644.730 7        42.595
R02         4.000    19382246.180 8 103427325.92608      -987.479 8        52.637                                                                    19382249.685 7  80443476.99407      -768.068 7        47.279
S21         5.000    38385891.287 7 201718964.16707      -491.102 7        42.267
G17         7.000    22097942.978 7 116125630.97307       524.700 7        45.571                                    22097945.995 7  90487592.27407       408.852 7        43.490    22097946.190 7  90487588.28507       408.768 7        42.135
R21         8.000    23115573.196 7 123696132.83907      2173.442 7        43.951                                                                    23115585.507 6  96208172.17006      1690.472 6        41.673
E30        10.000    27160733.626 6 142730702.94206      2380.625 6        40.329                                                                    27160745.059 7 106584706.57207      1777.819 7        43.249    27160743.610 7 109365167.98107      1824.167 7        43.228
C26        11.000                                                                                                                                    21698789.951 8 112991317.07008       124.949 8        50.823                                                                    21698792.253 8  91814719.82708       101.438 8        49.290
S27        12.000    39113388.259 6 205542059.63106      -524.290 6        36.431
G15        13.000    20159506.531 8 105938863.31108     -1043.484 8        49.209                                    20159506.781 8  82549732.37508      -813.103 8        49.696    20159507.276 7  82549724.37207      -813.040 7        45.077
S36        14.000    38156530.019 7 200514327.67507      -491.992 7        44.196
G12        15.000    24642222.689 6 129495814.72006      3320.573 6        40.493                                    24642229.452 5 100905883.41705      2587.448 5        32.281    24642230.696 6 100905883.43206      2587.426 6        36.015
R11        16.000    21466776.523 7 114711858.57307     -3717.219 7        47.555                                                                    21466783.373 7  89220309.64807     -2891.145 7        45.238
S45        17.000    63340043.733 6 332854921.11806      -543.978 6        36.200
R03        18.000    21640819.183 8 115844936.95808      2906.990 8        48.858                                                                    21640823.752 7  90101616.57407      2261.057 7        44.305
E24        19.000    29049331.802 5 152655031.47905     -3415.081 5        32.293                                                                    29049347.794 5 113995585.41605     -2550.378 5        34.233    29049344.917 5 116969387.58105     -2616.930 5        33.437
E33        20.000    28625226.230 5 150426571.19605     -1141.954 5        35.581                                                                    28625231.419 6 112331547.96106      -852.653 6        39.114    28625230.401 6 115261932.05606      -874.988 6        39.895
G30        21.000    24286205.348 6 127624695.85206     -3522.866 6        38.333                                    24286216.208 5  99447772.50505     -2745.087 5        32.659    24286217.135 6  99447776.50806     -2745.109 6        37.013
I06        22.000    38126060.254 7 149614922.54607      -466.755 7        43.369
S28        23.000    40835978.047 5 214594259.58905      -501.674 5        35.362
G14        24.000    21753130.721 7 114313422.54007     -2995.057 7        45.338                                    21753134.190 5  89075382.65405     -2333.800 5        34.410    21753134.394 7  89075384.64107     -2333.837 7        44.519
S23        25.000    38089514.809 7 200161642.81207      -493.583 7        44.343
E08        26.000    23489920.897 8 123440311.32908       -57.402 8        48.509                                                                    23489924.416 8  92179434.60608       -42.864 8        51.030    23489923.562 8  94584115.12608       -43.962 8        51.098
C07        27.000                                                                                                                                    38796751.113 6 202024832.75606      -746.765 6        40.949    38796753.407 7 156218420.17007      -577.410 7        44.122    38796750.085 6 164161717.58506      -606.858 6        41.166
G13        28.000    20595134.283 8 108228098.73308     -2641.039 8        49.469                                    20595134.316 6  84333546.51606     -2057.948 6        39.108
I02        29.000    37010377.877 7 145236681.12607      -117.467 7        42.779
G10        30.000    25253370.788 6 132707298.62306      1862.640 6        38.517                                    25253375.961 5 103408274.73305      1451.413 5        32.126    25253375.360 6 103408266.70406      1451.674 6        36.563
E07        31.000    26539849.846 6 139467761.93806      2115.525 6        40.942                                                                    26539859.850 7 104147996.03207      1579.736 7        44.605    26539858.471 7 106864898.92607      1620.913 7        44.569
E03        32.000    24625642.377 7 129408541.66807     -2691.110 7        46.179                                                                    24625649.731 8  96636237.98908     -2009.577 8        49.136    24625648.478 8  99157180.63908     -2061.982 8        48.923
G05        33.000    25243460.941 6 132655080.04206     -4087.943 6        38.934                                    25243470.851 5 103367536.63605     -3185.397 5        30.113    25243471.384 5 103367539.62105     -3185.572 5        35.552
G02        34.000    25781346.934 5 135481898.92005       404.208 5        31.336                                    25781355.777 1 105570347.24101       314.965 1         7.625
C24        35.000                                                                                                                                    24352931.993 7 126812111.32007      2164.116 7        44.823                                                                    24352935.052 7 103045243.13307      1758.403 7        44.367
G23        36.000    23014773.313 7 120943350.14807      -353.171 7        43.062                                    23014776.984 4  94241530.79404      -275.199 4        29.431    23014777.062 7  94241531.78707      -275.055 7        42.100
C33        39.000                                                                                                                                    24866691.180 7 129487371.45107      1740.005 7        44.247                                                                    24866709.133 7 105219167.12407      1413.807 7        44.546
E25        40.000    24361369.078 7 128019828.36107     -2210.290 7        45.583                                                                    24361376.072 8  95599216.23608     -1650.584 8        48.936    24361374.976 8  98093101.96908     -1693.537 8        49.405
S44        42.000    40824540.366 6 214534363.65506      -465.609 6        37.819
C09        43.000                                                                                                                                    41476938.839 3                     -1142.300 3        22.095    41476952.229 4                      -882.659 4        27.150    41476945.508 3                      -928.668 3        23.562
C05        44.000                                                                                                                                    39357425.963 6 204944327.13506      -535.348 6        38.054    39357430.289 7 158475939.07407      -414.095 7        42.874    39357429.712 6 166534125.41406      -435.375 6        39.754
C40        45.000                                                                                                                                    38850589.259 7 202305178.34207      -897.396 7        42.483                                                                    38850594.714 7 164389536.33507      -729.212 7        42.684
C21        46.000                                                                                                                                    24451388.633 7 127324670.16907     -3721.928 7        46.666                                                                    24451389.790 7 103461669.70307     -3024.540 7        45.913
R20        47.000    23155380.129 5 123822250.05105      -874.167 5        32.784                                                                    23155393.725 6  96306252.55706      -680.224 6        39.748
C10        49.000                                                                                                                                    38445361.791 7 200195102.73207      -360.846 7        42.209    38445365.274 7 154803570.93607      -278.926 7        44.492    38445361.781 6 162674925.00006      -293.262 6        41.547
C42        50.000                                                                                                                                    22657712.131 8 117984581.77508     -1323.624 8        49.521                                                                    22657723.836 8  95872158.88908     -1075.608 8        49.366
S48        51.000    77097026.022 6 405146579.49106      -484.109 6        38.144
E02        53.000    23363459.481 8 122775901.03008       560.476 8        48.866                                                                    23363463.453 8  91683382.63708       418.547 8        51.179    23363462.341 8  94075104.23508       429.491 8        50.832
C60        54.000                                                                                                                                    40824541.893 6 212584068.54106      -461.303 6        39.697                                                                    40824537.776 6 172741889.05706      -375.034 6        39.129
C45        55.000                                                                                                                                    23156999.022 7 120584487.15007     -2681.566 7        47.596                                                                    23156996.277 8  97984728.98708     -2179.106 8        48.134
R12        56.000    19243003.898 8 102792771.32208      -260.414 8        51.744                                                                    19243007.571 7  79949973.36107      -202.501 7        47.121
C02        57.000                                                                                                                                    40917141.734 5                      -510.738 5        30.626    40917150.066 6 164756177.84106      -394.632 6        36.132    40917149.462 5                      -415.074 5        30.468
I03        58.000   122970065.866 6 406775410.52806       896.884 6        36.544
C14        59.000                                                                                                                                    23263671.998 7 121139979.75807       357.664 7        45.983    23263673.521 8  93673089.13308       276.547 8        50.392    23263670.655 7  98436127.92707       290.570 7        47.898
R13        60.000    21527901.490 7 114957856.87707      2486.567 7        42.554
> 2025 01 01 10 01 40.0000000  0 53
G19         1.000    22975900.660 7 120739309.17207      2532.605 7        44.515                                    22975902.762 5  94082661.65705      1973.461 5        31.706
R01         2.000    21457877.972 7 114704526.53807     -4554.171 7        45.165                                                                    21457886.467 6  89214669.13106     -3541.990 6        40.353
G24         3.000    21606100.603 7 113540834.45207      2108.975 7        44.719                                    21606104.643 7  88473408.77407      1643.358 7        44.394    21606105.255 7  88473405.78007      1643.324 7        42.959
R02         4.000    19383173.759 8 103432276.06308      -992.278 8        52.897                                                                    19383177.147 7  80447327.10607      -771.754 7        47.200
S21         5.000    38386359.868 7 201721421.10307      -491.401 7        42.180
G17         7.000    22097445.676 7 116123016.37507       521.479 7        46.152                                    22097448.456 7  90485554.94307       406.343 7        43.511    22097448.715 7  90485550.95707       406.362 7        42.362
R21         8.000    23113544.645 7 123685274.52507      2170.335 7        44.119                                                                    23113556.455 6  96199726.69206      1688.123 6        41.626
E30        10.000    27158469.272 6 142718802.53106      2379.750 6        40.203                                                                    27158480.446 7 106575819.85807      1777.130 7        43.033    27158479.021 7 109356049.44507      1823.511 7        43.192
C26        11.000                                                                                                                                    21698671.069 8 112990698.01908       123.034 8        50.730                                                                    21698673.374 8  91814216.80008        99.956 8        49.254
S27        12.000    39113885.780 6 205544681.84506      -524.285 6        36.416
G15        13.000    20160501.497 8 105944091.01408     -1047.204 8        49.375                                    20160501.579 8  82553805.91108      -816.004 8        49.663    20160501.982 7  82553797.91407      -816.051 7        45.362
S36        14.000    38156997.925 7 200516788.99107      -492.179 7        44.105
G12        15.000    24639064.167 6 129479214.71406      3319.711 6        39.904                                    24639070.675 5 100892948.39405      2586.780 5        32.240    24639071.396 6 100892948.42406      2586.901 6        36.968
R11        16.000    21470255.661 7 114730448.17907     -3718.323 7        47.830                                                                    21470262.076 7  89234768.19007     -2891.968 7        45.043
S45        17.000    63340517.081 6 332857641.88306      -543.961 6        36.117
R03        18.000    21638104.829 8 115830409.73708      2904.258 8        48.743                                                                    21638109.815 7  90090317.66007      2258.860 7        44.340
E24        19.000    29052581.482 5 152672108.95805     -3415.774 5        32.479                                                                    29052597.771 5 114008338.10005     -2550.436 5        33.850    29052594.787 5 116982472.99205     -2617.094 5        32.958
E33        20.000    28626314.875 5 150432288.62105     -1144.702 5        35.738                                                                    28626319.326 6 112335817.60906      -854.782 6        39.225    28626318.288 6 115266313.07706      -877.087 6        39.781
G30        21.000    24289558.414 6 127642313.76206     -3523.747 6        38.691                                    24289568.919 5  99461500.73105     -2745.774 5        32.928    24289569.598 6  99461504.73106     -2745.754 6        37.164
I06        22.000    38126655.339 7 149617257.30407      -466.911 7        43.530
S28        23.000    40836454.624 5 214596770.35605      -502.150 5        35.252
G14        24.000    21755982.212 7 114328403.48707     -2996.906 7        45.220                                    21755984.979 5  89087056.08705     -2335.244 5        34.338    21755984.959 7  89087058.07907     -2335.294 7        44.334
S23        25.000    38089985.483 7 200164111.83107      -493.732 7        44.283
E08        26.000    23489976.784 8 123440604.72408       -59.599 8        48.783                                                                    23489980.223 8  92179653.71008       -44.526 8        50.849    23489979.400 8  94584339.94908       -45.672 8        51.085
C07        27.000                                                                                                                                    38797468.529 6 202028569.49506      -747.701 6        40.737    38797470.777 7 156221309.62607      -578.172 7        44.014    38797467.584 6 164164753.96906      -607.561 6        41.185
G13        28.000    20597648.500 8 108241311.58708     -2643.731 8        49.722                                    20597648.661 6  84343842.24306     -2060.050 6        39.072
I02        29.000    37010527.942 7 145237269.92107      -117.943 7        42.883
G10        30.000    25251599.931 6 132697992.17106      1860.343 6        38.249                                    25251605.046 5 103401022.90705      1449.627 5        32.168    25251604.549 6 103401014.90906      1449.466 6        36.616
E07        31.000    26537837.624 6 139457187.89506      2114.557 6        41.392                                                                    26537847.666 7 104140099.83207      1579.002 7        44.498    26537846.315 7 106856796.73807      1620.237 7        44.504
E03        32.000    24628203.912 7 129422002.01007     -2692.770 7        46.326                                                                    24628211.173 8  96646289.52808     -2010.830 8        48.933    24628209.963 8  99167494.39108     -2063.230 8        48.893
G05        33.000    25247350.075 6 132675520.23906     -4087.727 6        38.547                                    25247360.452 4 103383463.99704     -3185.229 4        29.810    25247360.668 5 103383466.98305     -3185.282 5        35.462
G02        34.000    25780963.410 5 135479885.99105       401.598 5        31.072                                    25780972.765 1 105568778.75501       312.946 1         7.000
C24        35.000                                                                                                                                    24350854.873 7 126801294.12107      2163.173 7        45.102                                                                    24350857.776 7 103036453.29007      1757.696 7        44.355
G23        36.000    23015110.728 7 120945125.72207      -356.733 7        42.436                                    23015114.887 4  94242914.35704      -277.975 4        29.365    23015115.102 7  94242915.34807      -277.905 7        42.027
C33        39.000                                                                                                                                    24865021.889 7 129478678.17807      1737.656 7        44.569                                                                    24865039.727 7 105212103.14207      1411.984 7        44.534
E25        40.000    24363473.029 7 128030884.92507     -2211.983 7        45.503                                                                    24363480.107 8  95607472.76308     -1651.811 8        48.736    24363478.971 8  98101573.88808     -1694.923 8        49.376
S44        42.000    40824987.649 6 214536692.91206      -465.685 6        37.921
C09        43.000                                                                                                                                    41478034.740 3                     -1139.760 3        21.190    41478044.861 4                      -882.412 4        24.511    41478041.601 4                      -927.992 4        24.150
C05        44.000                                                                                                                                    39357940.602 6 204947005.86606      -535.729 6        38.009    39357944.391 7 158478010.45307      -414.306 7        42.827    39357944.158 6 166536302.11106      -435.292 6        39.787
C40        45.000                                                                                                                                    38851451.637 7 202309668.47007      -898.396 7        42.318                                                                    38851457.180 7 164393184.95107      -730.075 7        42.432
C21        46.000                                                                                                                                    24454963.976 7 127343284.21707     -3723.337 7        46.549                                                                    24454964.280 7 103476795.13307     -3025.485 7        45.776
R20        47.000    23156202.603 5 123826635.06105      -879.316 5        33.012                                                                    23156214.434 6  96309663.05706      -683.707 6        39.532
C10        49.000                                                                                                                                    38445709.085 7 200196910.04707      -361.617 7        42.182    38445712.322 7 154804968.47807      -279.746 7        44.369    38445708.931 6 162676393.60706      -293.943 6        41.352
C42        50.000                                                                                                                                    22658984.722 8 117991208.43608     -1326.677 8        49.476                                                                    22658996.397 8  95877543.59808     -1078.057 8        49.274
S48        51.000    77097489.295 6 405149000.66906      -484.502 6        37.936
E02        53.000    23362927.345 8 122773104.73808       558.397 8        48.916                                                                    23362931.335 8  91681294.50108       416.971 8        51.043    23362930.201 8  94072961.62408       427.888 8        50.871
C60        54.000                                                                                                                                    40824985.049 6 212586376.61706      -461.615 6        39.471                                                                    40824980.999 6 172743764.56406      -375.153 6        39.057
C45        55.000                                                                                                                                    23159574.552 7 120597898.73407     -2682.791 7        47.368                                                                    23159571.881 8  97995626.96708     -2179.897 8        48.079
R12        56.000    19243249.296 8 102794081.66008      -263.393 8        52.107                                                                    19243252.989 7  79950992.51707      -204.838 7        47.155
C02        57.000                                                                                                                                    40917632.534 5                      -510.634 5        30.883    40917640.576 5 164758152.24605      -394.825 5        35.810    40917639.655 5                      -414.895 5        30.589
I03        58.000   122968923.879 6 406770926.70506       896.706 6        36.904
C14        59.000                                                                                                                                    23263330.140 7 121138200.07507       354.644 7        45.914    23263331.842 8  93671712.97208       274.227 8        50.316    23263328.904 7  98434681.80507       288.110 7        47.932
R13        60.000    21525574.082 7 114945430.22107      2484.543 7        42.013
> 2025 01 01 10 01 45.0000000  0 53
G19         1.000    22973491.181 7 120726649.68607      2531.166 7        44.232                                    22973493.720 5  94072797.14705      1972.333 5        31.698
R01         2.000    21462139.396 7 114727302.72807     -4556.292 7        45.758                                                                    21462146.722 6  89232383.93506     -3543.822 6        40.198
G24         3.000    21604094.214 7 113530293.24107      2107.426 7        44.978                                    21604098.722 7  88465194.85507      1642.147 7        44.477    21604099.207 7  88465191.85707      1642.216 7        43.096
R02         4.000    19384105.652 8 103437248.77008      -996.843 8        52.859                                                                    19384109.422 7  80451194.76407      -775.316 7        47.559
S21         5.000    38386827.292 7 201723877.86607      -491.539 7        42.006
G17         7.000    22096951.116 7 116120416.50907       518.438 7        45.983                                    22096953.747 7  90483529.10107       403.972 7        43.609    22096953.984 7  90483525.11407       403.971 7        42.301
R21         8.000    23111518.642 7 123674430.81407      2167.234 7        43.926                                                                    23111529.854 6  96191292.59206      1685.561 6        41.630
E30        10.000    27156205.730 6 142706905.43806      2379.031 6        40.298                                                                    27156216.462 7 106566935.63407      1776.526 7        43.187    27156214.998 7 109346933.45907      1822.920 7        43.264
C26        11.000                                                                                                                                    21698553.670 8 112990087.18008       121.308 8        50.681                                                                    21698556.040 8  91813720.41608        98.562 8        49.261
S27        12.000    39114384.040 6 205547303.94206      -524.494 6        36.272
G15        13.000    20161499.696 8 105949336.14508     -1050.841 8        49.186                                    20161499.690 8  82557893.02608      -818.837 8        49.762    20161500.273 7  82557885.02507      -818.751 7        45.124
S36        14.000    38157467.195 7 200519250.92007      -492.364 7        43.964
G12        15.000    24635905.744 6 129462617.30106      3319.179 6        40.014                                    24635912.382 5 100880015.39605      2586.365 5        32.443    24635912.450 6 100880015.40606      2586.402 6        37.478
R11        16.000    21473735.344 8 114749042.07008     -3719.255 8        48.084                                                                    21473741.509 7  89249230.07907     -2892.701 7        44.754
S45        17.000    63340989.691 5 332860362.54605      -544.418 5        35.914
R03        18.000    21635392.655 8 115815895.08608      2901.638 8        48.708                                                                    21635398.583 7  90079028.49107      2256.811 7        44.181
E24        19.000    29055830.812 5 152689186.12305     -3415.419 5        32.263                                                                    29055847.436 5 114021090.62005     -2550.710 5        34.014    29055844.555 5 116995558.12305     -2616.874 5        33.012
E33        20.000    28627404.281 6 150438017.63706     -1146.886 6        36.098                                                                    28627409.192 6 112340095.86806      -856.338 6        39.459    28627408.086 6 115270702.93606      -878.749 6        39.988
G30        21.000    24292911.622 6 127659934.16906     -3524.352 6        39.003                                    24292922.099 5  99475230.89505     -2746.241 5        32.988    24292922.593 6  99475234.88406     -2746.249 6        37.161
I06        22.000    38127250.176 7 149619592.02407      -466.930 7        43.500
S28        23.000    40836930.543 5 214599280.80705      -502.027 5        34.729
G14        24.000    21758834.425 7 114343392.69807     -2998.706 7        45.717                                    21758837.373 5  89098735.96205     -2336.648 5        34.548    21758837.538 7  89098737.94607     -2336.529 7        44.200
S23        25.000    38090455.218 7 200166580.77007      -493.780 7        44.230
E08        26.000    23490034.498 8 123440907.81608       -61.657 8        48.662                                                                    23490037.899 8  92179880.03608       -45.958 8        50.984    23490037.038 8  94584572.18408       -47.238 8        51.166
C07        27.000                                                                                                                                    38798186.993 6 202032309.34506      -748.352 6        40.882    38798188.906 7 156224201.50107      -578.640 7        43.981    38798185.802 6 164167792.86806      -608.029 6        41.097
G13        28.000    20600165.118 8 108254536.82008     -2646.296 8        50.085                                    20600165.326 6  84354147.61106     -2062.046 6        39.147
I02        29.000    37010678.520 7 145237859.70307      -118.113 7        42.948
G10        30.000    25249831.230 6 132688696.99906      1857.943 6        39.402                                    25249836.243 5 103393779.88705      1447.752 5        32.473    25249835.960 6 103393771.87106      1447.754 6        36.578
E07        31.000    26535825.989 6 139446617.12606      2113.756 6        41.282                                                                    26535836.133 7 104132206.08407      1578.439 7        44.558    26535834.778 7 106848697.05607      1619.694 7        44.576
E03        32.000    24630766.663 7 129435469.48907     -2694.211 7        46.324                                                                    24630774.007 8  96656346.40108     -2011.906 8        49.017    24630772.898 8  99177813.62508     -2064.450 8        49.001
G05        33.000    25251239.418 6 132695958.16306     -4087.435 6        38.486                                    25251249.748 4 103399389.59404     -3185.005 4        29.602    25251250.158 5 103399392.56105     -3185.014 5        35.176
G02        34.000    25780581.653 5 135477885.00905       398.806 5        31.449                                    25780592.002 1 105567219.65001       310.691 1         8.381
C24        35.000                                                                                                                                    24348777.887 7 126790480.66207      2162.266 7        44.480                                                                    24348781.100 7 103027666.47107      1756.921 7        44.316
G23        36.000    23015452.423 7 120946918.01607      -360.110 7        42.760                                    23015456.049 4  94244310.94704      -280.606 4        29.450    23015456.477 7  94244311.95007      -280.716 7        42.332
C33        39.000                                                                                                                                    24863354.446 7 129469995.23507      1735.505 7        44.224                                                                    24863372.173 7 105205047.52207      1410.270 7        44.575
E25        40.000    24365578.536 7 128041948.29907     -2213.344 7        45.720                                                                    24365585.393 8  95615734.37308     -1652.841 8        48.896    24365584.223 8  98110051.02108     -1695.955 8        49.518
S44        42.000    40825429.065 6 214539021.86206      -465.648 6        37.679
C09        43.000                                                                                                                                                                                                    41479143.758 4                      -882.773 4        27.257    41479138.124 4                      -928.200 4        25.038
C05        44.000                                                                                                                                    39358454.736 6 204949684.34506      -535.591 6        37.962    39358458.945 7 158480081.64407      -414.205 7        42.929    39358458.569 6 166538478.60406      -435.403 6        39.802
C40        45.000                                                                                                                                    38852314.577 7 202314162.55007      -899.256 7        42.229                                                                    38852320.168 7 164396836.71807      -730.701 7        42.430
C21        46.000                                                                                                                                    24458539.398 7 127361903.70407     -3724.492 7        45.618                                                                    24458539.816 7 103491924.93607     -3026.454 7        45.725
R20        47.000    23157026.681 5 123831041.68805      -883.523 5        32.581                                                                    23157038.495 6  96313090.42506      -687.187 6        40.853
C10        49.000                                                                                                                                    38446056.543 7 200198720.57107      -362.507 7        42.220    38446059.896 7 154806368.47907      -280.231 7        44.375    38446056.473 6 162677864.78006      -294.648 6        41.299
C42        50.000                                                                                                                                    22660260.032 8 117997849.13308     -1329.564 8        49.506                                                                    22660271.697 8  95882939.68208     -1080.407 8        49.260
S48        51.000    77097951.205 6 405151422.15506      -484.315 6        37.970
E02        53.000    23362396.988 8 122770317.75808       556.420 8        49.151                                                                    23362400.934 8  91679213.31208       415.559 8        51.172    23362399.845 8  94070826.14508       426.374 8        50.873
C60        54.000                                                                                                                                    40825428.200 6 212588684.40006      -461.574 6        39.616                                                                    40825424.280 6 172745639.82206      -375.052 6        39.024
C45        55.000                                                                                                                                    23162150.849 7 120611314.67507     -2683.635 7        47.420                                                                    23162148.275 8  98006528.48208     -2180.761 8        48.062
R12        56.000    19243497.194 8 102795405.72708      -266.179 8        51.791                                                                    19243501.048 7  79952022.35007      -207.043 7        46.514
C02        57.000                                                                                                                                    40918122.235 5                      -510.675 5        30.430    40918130.791 5 164760126.44005      -394.834 5        35.819    40918130.317 5                      -414.909 5        30.664
I03        58.000   122967781.041 6 406766442.57106       896.989 6        36.730
C14        59.000                                                                                                                                    23262990.884 7 121136434.32607       351.729 7        45.851    23262992.696 8  93670347.57608       271.999 8        50.405    23262989.702 7  98433246.95707       285.756 7        47.892
R13        60.000    21523248.954 7 114933012.07707      2482.712 7        42.461
> 2025 01 01 10 01 50.0000000  0 53
G19         1.000    22971083.182 7 120713997.72207      2529.855 7        43.939                                    22971086.020 5  94062938.49105      1971.311 5        31.464
R01         2.000    21466401.772 7 114750089.47307     -4558.221 7        45.624                                                                    21466409.185 6  89250106.93706     -3545.145 6        39.444
G24         3.000    21602089.952 7 113519759.63407      2106.152 7        45.530                                    21602094.237 7  88456986.86007      1641.156 7        44.563    21602094.181 7  88456983.86107      1641.129 7        43.003
R02         4.000    19385041.971 8 103442244.55008     -1001.223 8        52.922                                                                    19385045.763 7  80455080.37507      -778.712 7        47.019
S21         5.000    38387293.418 7 201726334.99207      -491.248 7        42.108
G17         7.000    22096458.628 7 116117831.80007       515.583 7        46.418                                    22096461.895 7  90481515.06107       401.750 7        43.801    22096462.043 7  90481511.06907       401.808 7        42.205
R21         8.000    23109494.352 7 123663602.08407      2164.466 7        42.645                                                                    23109505.869 6  96182870.14406      1683.405 6        40.584
E30        10.000    27153942.744 6 142695012.07506      2378.683 6        41.027                                                                    27153953.370 7 106558054.19407      1776.214 7        43.287    27153951.772 7 109337820.33707      1822.513 7        43.331
C26        11.000                                                                                                                                    21698438.052 8 112989484.95108       119.724 8        50.782                                                                    21698440.397 8  91813231.07908        97.236 8        49.412
S27        12.000    39114884.567 6 205549926.13206      -524.267 6        36.370
G15        13.000    20162500.821 8 105954599.13808     -1054.243 8        49.452                                    20162501.204 8  82561994.06008      -821.487 8        49.852    20162501.736 7  82561986.06507      -821.447 7        44.883
S36        14.000    38157935.396 7 200521713.89207      -492.595 7        44.068
G12        15.000    24632748.056 6 129446022.90106      3318.829 6        40.291                                    24632754.477 5 100867084.74005      2586.089 5        32.569    24632754.449 6 100867084.75906      2585.990 6        36.858
R11        16.000    21477215.331 7 114767640.71507     -3720.027 7        47.760                                                                    21477222.254 7  89263695.66107     -2893.399 7        44.605
S45        17.000    63341457.718 6 332863083.43706      -544.147 6        36.015
R03        18.000    21632685.005 8 115801393.60508      2899.157 8        49.270                                                                    21632689.408 7  90067749.57607      2254.800 7        44.468
E24        19.000    29059080.430 5 152706263.36505     -3415.365 5        32.449                                                                    29059096.757 5 114033843.15805     -2550.533 5        33.737    29059094.127 5 117008643.35905     -2616.730 5        33.084
E33        20.000    28628496.632 5 150443758.89205     -1149.415 5        35.900                                                                    28628501.716 6 112344383.33406      -858.289 6        38.751    28628500.742 6 115275102.21906      -880.630 6        39.456
G30        21.000    24296265.126 6 127677557.42906     -3524.664 6        39.138                                    24296275.785 5  99488963.28305     -2746.487 5        33.102    24296276.502 6  99488967.28706     -2746.533 6        37.236
I06        22.000    38127845.016 7 149621927.02707      -466.876 7        43.274
S28        23.000    40837409.400 5 214601791.38305      -502.054 5        35.019
G14        24.000    21761688.308 7 114358390.56507     -3000.250 7        46.225                                    21761691.373 5  89110422.57305     -2337.853 5        34.614    21761691.583 7  89110424.56607     -2337.803 7        44.358
S23        25.000    38090924.662 7 200169050.06707      -493.722 7        44.278
E08        26.000    23490094.141 8 123441220.98808       -63.501 8        49.027                                                                    23490097.475 8  92180113.90308       -47.400 8        51.085    23490096.643 8  94584812.14408       -48.641 8        51.188
C07        27.000                                                                                                                                    38798905.905 6 202036052.67906      -748.891 6        40.925    38798908.035 7 156227096.04107      -578.995 7        43.907    38798904.753 6 164170834.63306      -608.658 6        41.299
G13        28.000    20602684.392 8 108267774.83508     -2648.690 8        50.049                                    20602684.401 6  84364462.94206     -2063.916 6        39.231
I02        29.000    37010829.177 7 145238451.17507      -118.328 7        42.885
G10        30.000    25248064.685 6 132679413.48806      1855.698 6        40.393                                    25248069.773 5 103386545.95005      1446.003 5        32.826    25248069.675 6 103386537.94906      1445.857 6        36.854
E07        31.000    26533815.298 6 139436050.05806      2113.118 6        41.695                                                                    26533825.286 7 104124315.10007      1578.011 7        44.588    26533823.800 7 106840600.22507      1619.225 7        44.582
E03        32.000    24633330.878 7 129448944.54307     -2695.591 7        46.646                                                                    24633338.264 8  96666408.92708     -2012.976 8        49.088    24633337.140 8  99188138.64608     -2065.471 8        49.096
G05        33.000    25255128.584 6 132716394.27606     -4086.932 6        38.949                                    25255138.651 4 103415313.76904     -3184.607 4        29.545    25255139.228 5 103415316.76505     -3184.798 5        35.000
G02        34.000    25780204.399 5 135475896.39805       396.919 5        30.913                                    25780213.524 1 105565670.10401       309.265 1         7.250
C24        35.000                                                                                                                                    24346702.066 7 126779671.37007      2161.631 7        44.947                                                                    24346705.246 7 103018883.07407      1756.408 7        44.454
G23        36.000    23015796.752 7 120948727.43307      -363.470 7        43.706                                    23015800.355 4  94245720.87504      -283.224 4        29.621    23015800.350 7  94245721.88807      -283.144 7        42.068
C33        39.000                                                                                                                                    24861688.643 7 129461323.05007      1733.505 7        44.229                                                                    24861706.831 7 105198000.69307      1408.551 7        44.644
E25        40.000    24367684.986 7 128053018.91207     -2214.617 7        46.173                                                                    24367692.014 8  95624001.38708     -1653.792 8        49.029    24367690.898 8  98118533.69208     -1696.928 8        49.484
S44        42.000    40825872.677 6 214541350.92306      -465.584 6        37.516
C09        43.000                                                                                                                                                                                                    41480240.285 4                      -883.773 4        25.789    41480234.337 4                      -928.306 4        24.195
C05        44.000                                                                                                                                    39358968.619 6 204952362.99606      -535.513 6        38.207    39358973.334 7 158482152.96107      -414.136 7        43.041    39358972.815 6 166540655.25106      -435.206 6        39.778
C40        45.000                                                                                                                                    38853178.554 7 202318661.00107      -900.041 7        42.349                                                                    38853184.046 7 164400492.10907      -731.354 7        42.599
C21        46.000                                                                                                                                    24462115.763 7 127380528.99507     -3725.492 7        45.610                                                                    24462116.669 7 103507059.50607     -3027.257 7        45.800
R20        47.000    23157852.382 5 123835470.26005      -887.699 5        32.114                                                                    23157866.857 6  96316534.87706      -690.301 6        40.584
C10        49.000                                                                                                                                    38446405.058 7 200200534.68207      -362.998 7        42.275    38446408.583 7 154807771.24607      -280.596 7        44.473    38446404.968 6 162679338.88306      -294.954 6        41.669
C42        50.000                                                                                                                                    22661538.118 8 118004504.28008     -1332.341 8        49.539                                                                    22661549.742 8  95888347.54708     -1082.698 8        49.427
S48        51.000    77098418.172 6 405153843.53206      -484.189 6        37.807
E02        53.000    23361868.421 8 122767540.49408       554.648 8        49.301                                                                    23361872.462 8  91677139.38308       414.214 8        51.292    23361871.366 8  94068698.10908       425.049 8        50.950
C60        54.000                                                                                                                                    40825871.320 6 212590992.27806      -461.341 6        39.724                                                                    40825867.387 6 172747515.20806      -375.136 6        39.210
C45        55.000                                                                                                                                    23164728.237 7 120624735.40207     -2684.499 7        47.704                                                                    23164725.663 8  98017433.91808     -2181.425 8        48.224
R12        56.000    19243747.575 8 102796743.89108      -268.890 8        51.657                                                                    19243751.668 7  79953063.14307      -209.138 7        47.089
C02        57.000                                                                                                                                    40918613.157 5                      -509.834 5        30.596    40918621.302 6 164762100.69006      -394.510 6        36.329    40918620.559 5                      -414.928 5        31.140
I03        58.000   122966638.077 6 406761958.44906       897.085 6        36.673
C14        59.000                                                                                                                                    23262654.549 7 121134682.84807       348.971 7        46.054    23262656.452 8  93668993.21408       269.873 8        50.364    23262653.433 8  98431823.76208       283.539 8        48.043
R13        60.000    21520925.185 7 114920602.92207      2481.167 7        42.758
> 2025 01 01 10 01 55.0000000  0 53
G19         1.000    22968677.317 7 120701352.57807      2528.265 7        43.088                                    22968679.657 5  94053085.15305      1970.076 5        31.079
R01         2.000    21470666.138 7 114772885.96207     -4560.395 7        45.353                                                                    21470673.841 6  89267837.53606     -3546.875 6        38.619
G24         3.000    21600087.189 7 113509232.99407      2104.527 7        45.461                                    21600091.079 7  88448784.28707      1639.891 7        44.661    21600091.167 7  88448781.30107      1639.805 7        42.997
R02         4.000    19385982.231 8 103447262.64308     -1005.957 8        52.663                                                                    19385985.830 7  80458983.33307      -782.401 7        47.127
S21         5.000    38387761.422 7 201728791.63707      -491.338 7        42.154
G17         7.000    22095969.735 7 116115261.61207       512.484 7        46.280                                    22095972.753 7  90479512.34107       399.335 7        43.852    22095972.639 7  90479508.35507       399.256 7        42.214
R21         8.000    23107473.232 6 123652787.61806      2161.398 6        41.197                                                                    23107485.069 6  96174458.82706      1681.010 6        40.405
E30        10.000    27151679.871 6 142683121.82206      2377.586 6        41.097                                                                    27151690.873 7 106549175.06907      1775.466 7        43.361    27151689.217 7 109328709.58407      1821.800 7        43.488
C26        11.000                                                                                                                                    21698323.934 8 112988890.69508       117.912 8        50.629                                                                    21698326.254 8  91812748.19908        95.920 8        49.175
S27        12.000    39115382.410 6 205552547.65206      -524.160 6        36.265
G15        13.000    20163506.046 8 105959879.31708     -1057.853 8        49.367                                    20163505.982 8  82566108.48608      -824.301 8        49.895    20163506.622 7  82566100.48507      -824.325 7        44.954
S36        14.000    38158403.745 7 200524177.11307      -492.791 7        44.221
G12        15.000    24629590.939 6 129429430.86906      3318.127 6        39.835                                    24629596.836 5 100854155.92605      2585.547 5        32.383    24629597.182 6 100854155.92806      2585.542 6        36.420
R11        16.000    21480696.789 7 114786243.44007     -3721.036 7        47.834                                                                    21480703.571 7  89278164.41507     -2894.206 7        44.278
S45        17.000    63341928.222 6 332864203.99916      -544.260 6        36.072
R03        18.000    21629978.498 8 115786904.69408      2896.432 8        48.987                                                                    21629982.780 7  90056480.43607      2252.843 7        44.445
E24        19.000    29062329.967 5 152723340.12805     -3415.460 5        31.970                                                                    29062346.605 5 114046595.32505     -2550.288 5        33.970    29062343.840 5 117021728.18305     -2617.177 5        32.695
E33        20.000    28629591.563 5 150449511.38705     -1151.586 5        35.857                                                                    28629596.062 6 112348679.15006      -860.102 6        39.580    28629595.112 6 115279510.09106      -882.497 6        39.817
G30        21.000    24299618.787 6 127695182.91206     -3525.451 6        38.790                                    24299629.801 5  99502697.40705     -2747.100 5        32.892    24299630.308 6  99502701.39606     -2747.037 6        37.221
I06        22.000    38128440.397 7 149624261.80307      -467.050 7        43.257
S28        23.000    40837888.915 5 214604301.51305      -502.091 5        34.914
G14        24.000    21764543.550 7 114373396.42307     -3002.107 7        45.588                                    21764546.933 5  89122115.42005     -2339.296 5        34.629    21764547.009 7  89122117.40907     -2339.285 7        44.175
S23        25.000    38091394.335 7 200171519.10407      -493.916 7        44.292
E08        26.000    23490155.612 8 123441543.62008       -65.594 8        49.049                                                                    23490158.925 8  92180354.82608       -48.950 8        51.071    23490158.024 8  94585059.35408       -50.242 8        51.217
C07        27.000                                                                                                                                    38799625.425 6 202039798.88206      -749.678 6        40.791    38799627.402 7 156229992.82507      -579.772 7        43.697    38799624.232 6 164173878.69906      -609.023 6        40.908
G13        28.000    20605205.528 8 108281024.96308     -2651.323 8        49.504                                    20605205.783 6  84374787.71306     -2065.964 6        39.210
I02        29.000    37010980.291 7 145239043.47907      -118.561 7        42.984
G10        30.000    25246300.349 6 132670140.98006      1853.352 6        40.582                                    25246305.449 5 103379320.59205      1444.177 5        32.820    25246304.936 6 103379312.58706      1444.061 6        36.699
E07        31.000    26531805.006 6 139425486.05306      2112.329 6        41.928                                                                    26531815.060 7 104116426.39707      1577.378 7        44.602    26531813.542 7 106832505.72407      1618.583 7        44.724
E03        32.000    24635896.474 7 129462426.47807     -2697.165 7        46.707                                                                    24635903.835 8  96676476.59508     -2014.171 8        49.041    24635902.664 8  99198468.95608     -2066.701 8        49.105
G05        33.000    25259017.080 6 132736827.92906     -4086.536 6        39.156                                    25259027.098 4 103431236.03304     -3184.305 4        29.554    25259026.813 5 103431239.01805     -3184.246 5        35.257
G02        34.000    25779827.012 4 135473919.43304       394.511 4        29.431                                    25779837.228 1 105564129.68201       307.461 1         6.250
C24        35.000                                                                                                                                    24344626.989 7 126768865.59007      2160.680 7        44.883                                                                    24344630.051 7 103010102.50507      1755.885 7        44.364
G23        36.000    23016143.929 7 120950553.31807      -366.874 7        43.209                                    23016147.787 4  94247143.64104      -285.867 4        29.564    23016147.718 7  94247144.65607      -285.940 7        42.415
C33        39.000                                                                                                                                    24860025.185 7 129452660.94407      1731.277 7        44.245                                                                    24860043.255 7 105190962.03107      1406.951 7        44.468
E25        40.000    24369792.799 7 128064096.08307     -2216.238 7        46.418                                                                    24369799.930 8  95632273.30008     -1655.012 8        48.981    24369798.826 8  98127021.39308     -1698.176 8        49.570
S44        42.000    40826315.560 6 214543679.42706      -465.637 6        37.550
C09        43.000                                                                                                                                                                                                    41481335.873 4                      -882.901 4        28.019    41481331.356 4                      -926.965 4        24.722
C05        44.000                                                                                                                                    39359482.726 6 204955041.18206      -535.765 6        37.974    39359487.687 7 158484223.90907      -414.213 7        43.105    39359487.248 6 166542831.50106      -435.184 6        39.691
C40        45.000                                                                                                                                    38854043.112 7 202323163.14607      -901.111 7        42.248                                                                    38854048.607 7 164404150.45707      -731.844 7        42.468
C21        46.000                                                                                                                                    24465693.867 7 127399159.42307     -3726.654 7        45.723                                                                    24465694.694 7 103522198.25507     -3028.239 7        45.574
R20        47.000    23158685.620 5 123839920.33505      -892.517 5        32.946                                                                    23158698.623 6  96319995.99806      -693.953 6        39.501
C10        49.000                                                                                                                                    38446753.677 7 200202351.71507      -363.848 7        42.301    38446757.354 7 154809176.29707      -281.280 7        44.554    38446753.881 6 162680815.38106      -295.458 6        41.516
C42        50.000                                                                                                                                    22662818.748 8 118011173.21408     -1335.310 8        49.344                                                                    22662830.411 8  95893766.59008     -1084.892 8        49.231
S48        51.000    77098879.567 6 405156265.01806      -484.339 6        37.909
E02        53.000    23361341.594 8 122764772.29108       552.595 8        49.427                                                                    23361345.680 8  91675072.22208       412.643 8        51.270    23361344.617 8  94066577.02508       423.408 8        51.010
C60        54.000                                                                                                                                    40826314.601 6 212593299.63506      -461.465 6        39.712                                                                    40826310.448 6 172749390.11506      -374.940 6        39.156
C45        55.000                                                                                                                                    23167306.591 7 120638160.25707     -2685.530 7        47.320                                                                    23167303.774 7  98028342.68707     -2182.054 7        47.965
R12        56.000    19244000.549 8 102798095.50608      -271.783 8        51.706                                                                    19244004.553 7  79954114.40207      -211.430 7        47.194
C02        57.000                                                                                                                                    40919104.870 5                      -510.962 5        30.747    40919111.177 6 164764074.54206      -394.827 6        36.280    40919110.550 5                      -414.856 5        30.687
I03        58.000   122965495.401 6 406757473.84206       896.736 6        36.703
C14        59.000                                                                                                                                    23262320.465 7 121132945.03607       346.055 7        45.690    23262322.491 8  93667649.42408       267.592 8        50.535    23262319.666 7  98430411.63707       281.428 7        47.871
R13        60.000    21518601.882 6 114908201.76606      2479.284 6        41.700
