     3.04           OBSERVATION DATA    M                   RINEX VERSION / TYPE
ssrcrin-15.6.1x                         20250101 111500 UTC PGM / RUN BY / DATE 
(00000000023479385599111004) Septentrio proprietary         COMMENT             
rref                                                        MARKER NAME         
01                                                          MARKER NUMBER       
geodetic                                                    MARKER TYPE         
NFB                 CLIMERS@TUW                             OBSERVER / AGENCY   
3297213             SEPT ASTERX SB3 PROB4.14.4              REC # / TYPE / VERS 
Unknown             Unknown                                 ANT # / TYPE        
  4127832.4276  1207193.3330  4695247.5230                  APPROX POSITION XYZ 
        0.0000        0.0000        0.0000                  ANTENNA: DELTA H/E/N
G   23 X1  C1C L1C D1C S1C C1W S1W C2W L2W D2W S2W C2L L2L  SYS / # / OBS TYPES 
       D2L S2L C5Q L5Q D5Q S5Q C1L L1L D1L S1L              SYS / # / OBS TYPES 
E   21 X1  C1C L1C D1C S1C C6C L6C D6C S6C C5Q L5Q D5Q S5Q  SYS / # / OBS TYPES 
       C7Q L7Q D7Q S7Q C8Q L8Q D8Q S8Q                      SYS / # / OBS TYPES 
S    9 X1  C1C L1C D1C S1C C5I L5I D5I S5I                  SYS / # / OBS TYPES 
R   17 X1  C1C L1C D1C S1C C2P L2P D2P S2P C2C L2C D2C S2C  SYS / # / OBS TYPES 
       C3Q L3Q D3Q S3Q                                      SYS / # / OBS TYPES 
C   25 X1  C1P L1P D1P S1P C5P L5P D5P S5P C2I L2I D2I S2I  SYS / # / OBS TYPES 
       C7I L7I D7I S7I C6I L6I D6I S6I C7D L7D D7D S7D      SYS / # / OBS TYPES 
J   17 X1  C1C L1C D1C S1C C2L L2L D2L S2L C5Q L5Q D5Q S5Q  SYS / # / OBS TYPES 
       C1L L1L D1L S1L                                      SYS / # / OBS TYPES 
I    5 X1  C5A L5A D5A S5A                                  SYS / # / OBS TYPES 
SEPTENTRIO RECEIVERS OUTPUT ALIGNED CARRIER PHASES.         COMMENT             
NO FURTHER PHASE SHIFT APPLIED IN THE RINEX ENCODER.        COMMENT             
G L1C                                                       SYS / PHASE SHIFT   
G L2W                                                       SYS / PHASE SHIFT   
G L2L  0.00000                                              SYS / PHASE SHIFT   
G L5Q  0.00000                                              SYS / PHASE SHIFT   
G L1L  0.00000                                              SYS / PHASE SHIFT   
E L1C  0.00000                                              SYS / PHASE SHIFT   
E L6C  0.00000                                              SYS / PHASE SHIFT   
E L5Q  0.00000                                              SYS / PHASE SHIFT   
E L7Q  0.00000                                              SYS / PHASE SHIFT   
E L8Q  0.00000                                              SYS / PHASE SHIFT   
S L1C                                                       SYS / PHASE SHIFT   
S L5I                                                       SYS / PHASE SHIFT   
R L1C                                                       SYS / PHASE SHIFT   
R L2P  0.00000                                              SYS / PHASE SHIFT   
R L2C                                                       SYS / PHASE SHIFT   
R L3Q  0.00000                                              SYS / PHASE SHIFT   
C L1P  0.00000                                              SYS / PHASE SHIFT   
C L5P  0.00000                                              SYS / PHASE SHIFT   
C L2I                                                       SYS / PHASE SHIFT   
C L7I                                                       SYS / PHASE SHIFT   
C L6I                                                       SYS / PHASE SHIFT   
C L7D                                                       SYS / PHASE SHIFT   
J L1C                                                       SYS / PHASE SHIFT   
J L2L  0.00000                                              SYS / PHASE SHIFT   
J L5Q  0.00000                                              SYS / PHASE SHIFT   
J L1L  0.00000                                              SYS / PHASE SHIFT   
I L5A                                                       SYS / PHASE SHIFT   
  2025     1     1    11    15    0.0000000     GPS         TIME OF FIRST OBS   
 C1C    0.000 C2C    0.000 C2P    0.000                     GLONASS COD/PHS/BIS 
DBHZ                                                        SIGNAL STRENGTH UNIT
    18                                                      LEAP SECONDS        
 24 R01  1 R02 -4 R03  5 R04  6 R05  1 R06 -4 R07  5 R08  6 GLONASS SLOT / FRQ #
    R09 -2 R10 -7 R11  0 R12 -1 R13 -2 R14 -7 R15  0 R16 -1 GLONASS SLOT / FRQ #
    R17  4 R18 -3 R19  3 R20  2 R21  4 R22 -3 R23  3 R24  2 GLONASS SLOT / FRQ #
                                                            END OF HEADER       
> 2025 01 01 11 15  0.0000000  0 54
G19         1.000    21390949.827 7 112410360.46107       262.868 7        47.255                                    21390950.440 6  87592577.81206       204.842 6        36.930
G25         2.000    25093108.956 6 131865167.09406      3102.807 6        36.367                                    25093119.499 4 102752129.22804      2417.773 4        26.120    25093120.268 5 102752139.24005      2417.780 5        33.162
G24         3.000    20247457.298 8 106401127.53508       263.309 8        50.177                                    20247461.024 8  82910003.45708       205.176 8        52.230    20247461.177 7  82910000.46507       205.146 7        46.259
R02         4.000    21435434.966 8 114383467.28808     -4385.942 8        49.405                                                                    21435443.142 7  88964903.13107     -3411.308 7        44.856
S21         5.000    38526342.868 7 202456962.30507      -557.045 7        42.809
G17         7.000    22538009.581 7 118438182.13607     -2247.801 7        46.294                                    22538013.804 7  92289575.98907     -1751.530 7        42.445    22538014.450 6  92289571.98006     -1751.482 6        41.273
R21         8.000    22429749.439 7 120026188.47907     -1462.967 7        45.427                                                                    22429760.097 7  93353779.74407     -1137.880 7        43.029
E12         9.000    28880343.074 5 151767281.46005     -1056.602 5        30.928                                                                    28880351.888 6 113332777.40506      -789.072 6        36.280    28880350.192 6 116289271.37006      -809.650 6        36.151
E30        10.000    25228581.924 7 132577215.99007      1442.406 7        45.792                                                                    25228590.193 8  99002569.15408      1077.117 8        48.513    25228588.719 8 101585234.29808      1105.170 8        48.877
C26        11.000                                                                                                                                    21919620.607 8 114141222.09208     -1318.062 8        51.219                                                                    21919623.767 8  92749108.12808     -1071.130 8        49.173
S27        12.000    39280349.622 6 206419391.71206      -587.089 6        36.904
G15        13.000    21944994.501 8 115321614.94908     -3702.091 8        48.152                                    21944997.955 7  89860954.57107     -2884.743 7        44.689    21944998.434 7  89860946.57107     -2884.804 7        42.612
S36        14.000    38297774.540 7 201256536.55907      -558.092 7        44.819
G12        15.000    21956777.466 8 115383762.82008      2190.345 8        48.192                                    21956780.002 7  89909494.65507      1706.762 7        45.547    21956780.801 7  89909494.65007      1706.835 7        42.660
R11        16.000    24420080.666 6 130493319.91706     -4018.427 6        40.629                                                                    24420093.089 6 101494754.31706     -3125.350 6        37.267
S45        17.000    63484740.878 6 333615442.43706      -615.376 6        36.367
R03        18.000    20258301.586 8 108444228.18708      -603.669 8        52.043                                                                    20258305.741 7  84345513.55007      -469.568 7        46.712
C35        19.000                                                                                                                                    24111666.088 7 125555879.66307      1677.237 7        45.491                                                                    24111672.469 7 102024506.65407      1362.848 7        45.222
E11        20.000    28043557.053 5 147369898.08105      1138.792 5        34.671                                                                    28043570.113 6 110049011.14306       850.476 6        36.858    28043567.981 6 112919846.05906       872.963 6        36.938
R14        21.000    24038667.663 7 128139600.25507      2783.205 7        43.689                                                                    24038680.316 6  99664179.33506      2164.811 6        36.718
I06        22.000    38385709.742 6 150633813.21806      -526.662 6        41.271
S28        23.000    40985388.149 5 215379446.77705      -567.527 5        35.000
G14        24.000    24417839.742 6 128316447.35606     -3862.708 6        39.829                                    24417850.650 3  99986801.33103     -3009.904 3        22.533    24417850.158 6  99986803.31006     -3009.776 6        38.658
S23        25.000    38232647.436 7 200913745.32507      -561.236 7        45.187
E08        26.000    24045336.526 8 126359013.72208     -2000.135 8        48.527                                                                    24045341.709 8  94358977.67008     -1493.545 8        49.953    24045340.502 8  96820516.70608     -1532.556 8        50.637
C07        27.000                                                                                                                                    39367844.931 6 204998623.67906     -1268.921 6        39.889    39367850.169 7 158517932.86107      -981.272 7        42.347    39367845.619 6 166578157.41506     -1031.332 6        39.904
G13        28.000    23300297.199 7 122443734.77407     -4294.781 7        43.018                                    23300302.666 4  95410643.13704     -3346.577 4        26.347
I02        29.000    36989906.566 7 145156323.86207      -372.841 7        42.698
G10        30.000    24434228.519 6 128402599.31206      -745.217 6        41.743                                    24434238.844 5 100053943.34205      -580.680 5        34.429    24434238.194 6 100053935.32706      -580.620 6        38.057
E07        31.000    24898979.786 7 130844950.68007       905.420 7        45.115                                                                    24898988.772 8  97708888.92808       676.077 8        48.388    24898987.603 8 100257814.50708       693.815 8        49.288
E03        32.000    27055368.295 6 142176746.50906     -3684.076 6        40.124                                                                    27055382.474 7 106170909.81907     -2750.951 7        43.799    27055380.424 7 108940586.15107     -2822.733 7        43.848
E10        33.000    28269773.239 6 148558663.33606         5.039 6        37.108                                                                    28269790.028 6 110936735.61706         3.794 6        41.097    28269787.878 6 113830725.85906         3.837 6        41.142
G02        34.000    26138499.792 4 137358864.47504     -1971.701 4        29.318                                    26138501.730 1 107032946.46501     -1536.424 1         7.500
C24        35.000                                                                                                                                    22586449.166 8 117613601.28408      1256.396 8        49.884                                                                    22586451.449 8  95570705.92108      1020.807 8        49.033
G23        36.000    24177524.485 6 127053571.45206     -2908.162 6        40.951                                    24177532.971 3  99002722.60503     -2266.089 3        23.714    24177533.371 6  99002723.57106     -2266.002 6        39.495
R04        38.000    22644085.431 7 121257928.24707      2831.796 7        46.447                                                                    22644092.778 7  94311701.48807      2202.500 7        42.523
C33        39.000                                                                                                                                    24066270.236 7 125319365.98907      -684.443 7        46.970                                                                    24066288.427 7 101832320.47107      -556.208 7        46.478
E25        40.000    26326125.146 6 138344615.46506     -3042.448 6        41.702                                                                    26326137.537 7 103309262.58007     -2271.939 7        44.554    26326135.741 7 106004282.52907     -2331.246 7        45.213
S44        42.000    40933443.456 6 215106668.50006      -508.367 6        37.444
R22        43.000    22280894.277 7 118937022.94907      2249.079 7        47.733                                                                    22280903.310 7  92506652.47807      1749.276 7        43.410
C05        44.000                                                                                                                                    39532398.224 6 205855432.30906      -584.162 6        39.195    39532404.513 7 159180457.02007      -451.771 7        42.698    39532403.476 6 167274467.91706      -474.968 6        39.042
C40        45.000                                                                                                                                    39601426.107 6 206214935.64106     -1529.381 6        41.480                                                                    39601433.394 6 167566525.24606     -1242.876 6        40.927
G32        46.000    26209386.204 6 137731244.57706      2956.464 6        37.868                                    26209389.541 4 107323071.93704      2303.754 4        26.527    26209390.032 5 107323073.90005      2304.001 5        32.054
C10        49.000                                                                                                                                    38705275.224 7 201548513.01507      -927.827 7        42.150    38705280.594 7 155850106.49507      -717.496 7        44.396    38705276.541 6 163774675.99206      -753.998 6        41.094
C42        50.000                                                                                                                                    24437329.927 7 127251450.61607     -3379.484 7        45.684                                                                    24437344.818 7 103402234.87007     -2746.099 7        46.063
S48        51.000    77235015.885 6 405872935.36406      -556.657 6        38.093
E02        53.000    23297435.894 8 122428931.55708     -1058.883 8        48.644                                                                    23297440.840 8  91424278.31208      -790.720 8        51.348    23297439.363 8  93809241.10408      -811.388 8        51.166
C60        54.000                                                                                                                                    40933446.199 6 213151170.68906      -503.493 6        40.703                                                                    40933441.103 6 173202708.41906      -409.195 6        38.880
C45        55.000                                                                                                                                    25406331.007 7 132297261.32107     -3258.639 7        42.815                                                                    25406333.006 7 107502298.52007     -2647.899 7        42.542
R12        56.000    20075137.221 8 107237848.79608     -2320.766 8        50.788                                                                    20075143.781 7  83407247.83107     -1805.046 7        47.460
C02        57.000                                                                                                                                    41065945.957 5 213840974.21205      -547.418 5        30.709    41065954.772 6 165355339.20806      -423.946 6        36.132    41065953.904 4                      -445.245 4        29.896
I03        58.000   121671965.168 5 401681365.21105       884.291 5        33.275
C14        59.000                                                                                                                                    23765690.376 7 123754088.68107     -2202.276 7        45.400    23765694.041 8  95694475.42808     -1702.880 8        49.957    23765690.723 7 100560298.71307     -1789.530 7        47.107
R13        60.000    19899797.643 7 106263888.71407       683.425 7        45.916
> 2025 01 01 11 15  5.0000000  0 54
G19         1.000    21390701.414 7 112409054.86307       259.328 7        47.250                                    21390701.970 6  87591560.45706       202.061 6        38.147
G25         2.000    25090156.552 6 131849654.59306      3102.291 6        36.828                                    25090167.540 4 102740041.57504      2417.368 4        26.359    25090169.029 5 102740051.57605      2417.459 5        32.952
G24         3.000    20247208.056 8 106399818.09808       260.468 8        50.152                                    20247211.843 8  82908983.11508       202.964 8        52.237    20247211.892 7  82908980.12107       202.916 7        46.402
R02         4.000    21439545.796 8 114405403.58108     -4388.607 8        49.773                                                                    21439553.875 7  88981964.65707     -3413.408 7        44.901
S21         5.000    38526872.277 7 202459748.76807      -557.436 7        42.754
G17         7.000    22540149.805 7 118449428.25107     -2250.760 7        46.148                                    22540153.891 7  92298339.17507     -1753.834 7        42.400    22540154.287 6  92298335.16706     -1753.719 6        41.375
R21         8.000    22431119.122 7 120033514.79307     -1467.653 7        46.149                                                                    22431128.824 7  93359477.97507     -1141.460 7        42.700
E12         9.000    28881349.318 5 151772571.83105     -1059.372 5        31.411                                                                    28881358.710 6 113336728.07506      -791.161 6        36.389    28881356.855 6 116293325.07106      -811.608 6        36.231
E30        10.000    25227209.938 7 132570007.54707      1440.892 7        45.913                                                                    25227218.503 8  98997186.22608      1076.001 8        48.538    25227216.999 8 101579710.93908      1104.121 8        48.996
C26        11.000                                                                                                                                    21920887.042 8 114147816.55708     -1319.785 8        51.134                                                                    21920890.149 8  92754466.63608     -1072.302 8        49.109
S27        12.000    39280906.325 6 206422326.83706      -587.254 6        36.699
G15        13.000    21948518.356 7 115340130.94807     -3704.366 7        47.353                                    21948521.486 7  89875382.59407     -2886.515 7        44.683    21948521.716 7  89875374.57507     -2886.552 7        42.561
S36        14.000    38298304.709 7 201259327.06407      -558.145 7        44.790
G12        15.000    21954694.229 8 115372816.11308      2188.260 8        48.113                                    21954696.883 7  89900964.75807      1705.138 7        45.547    21954697.490 7  89900964.74407      1705.218 7        42.809
R11        16.000    24423840.744 6 130513411.17906     -4018.285 6        41.099                                                                    24423852.704 6 101510380.91306     -3125.158 6        37.297
S45        17.000    63485273.614 6 333618519.67506      -615.681 6        36.378
R03        18.000    20258867.295 8 108447258.60908      -608.638 8        51.274                                                                    20258871.849 7  84347870.54607      -473.382 7        46.534
C35        19.000                                                                                                                                    24110056.815 7 125547498.65607      1675.089 7        45.124                                                                    24110062.786 7 102017696.39307      1361.197 7        45.175
E11        20.000    28042474.120 5 147364208.17005      1137.028 5        34.790                                                                    28042487.282 6 110044762.21406       848.980 6        36.870    28042485.313 6 112915486.27506       871.301 6        36.968
R14        21.000    24036057.589 7 128125686.22207      2782.312 7        44.995                                                                    24036072.380 6  99653357.27306      2164.057 6        37.943
I06        22.000    38386381.090 6 150636447.22906      -526.895 6        41.335
S28        23.000    40985929.859 5 215382286.19205      -567.937 5        35.124
G14        24.000    24421515.063 6 128335762.16406     -3863.215 6        39.616                                    24421525.867 3 100001851.80203     -3010.297 3        22.190    24421525.830 6 100001853.79906     -3010.333 6        38.315
S23        25.000    38233182.479 7 200916551.84307      -561.480 7        45.059
E08        26.000    24047240.432 8 126369019.67408     -2002.430 8        48.587                                                                    24047245.789 8  94366449.63408     -1495.324 8        50.006    24047244.627 8  96828183.58908     -1534.276 8        50.720
C07        27.000                                                                                                                                    39369063.357 6 205004970.07606     -1269.498 6        39.865    39369068.940 7 158522840.28007      -981.763 7        42.419    39369064.276 6 166583314.32906     -1031.682 6        39.910
G13        28.000    23304384.229 7 122465211.66507     -4295.942 7        43.238                                    23304389.456 4  95427378.33304     -3347.474 4        26.599
I02        29.000    36990381.706 7 145158189.05907      -373.226 7        42.724
G10        30.000    24434939.108 6 128406333.60706      -748.468 6        41.073                                    24434949.537 5 100056853.14305      -583.217 5        34.381    24434949.151 6 100056845.13506      -583.176 6        38.012
E07        31.000    24898119.340 7 130840428.68207       903.290 7        45.195                                                                    24898128.222 8  97705512.11008       674.568 8        48.396    24898127.091 8 100254349.60308       692.095 8        49.292
E03        32.000    27058873.905 6 142195168.20806     -3684.642 6        40.219                                                                    27058887.987 7 106184666.22907     -2751.557 7        43.805    27058886.131 7 108954701.43107     -2823.396 7        44.146
E10        33.000    28269769.966 6 148558644.82106         2.415 6        37.637                                                                    28269786.786 6 110936721.78806         1.776 6        41.099    28269784.430 6 113830711.66706         1.746 6        41.325
G02        34.000    26140378.050 4 137368729.23404     -1974.915 4        27.713                                    26140378.716 1 107040633.34401     -1538.780 1         6.000
C24        35.000                                                                                                                                    22585243.696 8 117607322.72808      1255.011 8        49.652                                                                    22585245.699 8  95565604.05808      1019.900 8        49.009
G23        36.000    24180292.986 6 127068117.52006     -2910.339 6        40.493                                    24180300.995 3  99014057.15503     -2267.778 3        23.848    24180301.675 6  99014058.13306     -2267.728 6        39.796
R04        38.000    22641442.450 7 121243776.79307      2828.740 7        45.716                                                                    22641451.292 7  94300694.79607      2200.151 7        43.103
C33        39.000                                                                                                                                    24066929.197 7 125322795.97407      -687.614 7        46.858                                                                    24066947.081 7 101835107.58307      -558.644 7        46.436
E25        40.000    26329019.993 6 138359828.98306     -3043.141 6        41.976                                                                    26329032.626 7 103320623.28307     -2272.469 7        44.620    26329030.843 7 106015939.59507     -2331.646 7        45.312
S44        42.000    40933926.207 6 215109209.92906      -508.329 6        37.433
R22        43.000    22278789.922 7 118925785.13007      2245.947 7        47.742                                                                    22278796.981 7  92497911.95507      1746.896 7        43.024
C05        44.000                                                                                                                                    39532959.100 6 205858354.01306      -584.319 6        39.006    39532965.872 7 159182716.25507      -451.901 7        42.383    39532964.619 6 167276842.00406      -474.881 6        39.078
C40        45.000                                                                                                                                    39602894.795 6 206222583.81106     -1529.992 6        41.204                                                                    39602902.001 6 167572739.96406     -1243.249 6        41.037
G32        46.000    26206572.706 6 137716463.49106      2955.770 6        37.206                                    26206576.587 4 107311554.10804      2303.225 4        25.504    26206576.981 5 107311556.05205      2303.725 5        31.924
C10        49.000                                                                                                                                    38706166.188 6 201553153.84306      -928.527 6        41.926    38706171.756 7 155853695.06607      -718.002 7        44.211    38706167.780 6 163778447.01406      -754.412 6        41.201
C42        50.000                                                                                                                                    24440575.563 7 127268352.03307     -3381.172 7        45.631                                                                    24440590.588 7 103415968.60907     -2747.424 7        45.929
S48        51.000    77235545.741 6 405875718.74706      -556.778 6        38.117
E02        53.000    23298444.039 8 122434230.20008     -1060.626 8        48.807                                                                    23298449.190 8  91428235.07508      -792.029 8        51.344    23298447.652 8  93813301.08908      -812.723 8        51.240
C60        54.000                                                                                                                                    40933930.132 6 213153689.04606      -503.834 6        40.617                                                                    40933924.727 6 173204754.75506      -409.363 6        38.901
C45        55.000                                                                                                                                    25409460.560 7 132313555.73507     -3259.213 7        43.179                                                                    25409462.203 7 107515539.04407     -2648.234 7        42.464
R12        56.000    20077310.601 8 107249457.49408     -2322.754 8        50.819                                                                    20077316.730 7  83416276.79907     -1806.525 7        47.246
C02        57.000                                                                                                                                    41066472.920 5 213843714.23605      -548.582 5        30.475    41066481.172 6 165357457.91206      -423.777 6        36.019    41066480.393 4                      -445.109 4        29.896
I03        58.000   121670839.070 5 401676944.66805       883.876 5        33.826
C14        59.000                                                                                                                                    23767805.607 7 123765106.32007     -2204.890 7        45.047    23767809.851 8  95702994.93908     -1704.957 8        49.659    23767806.594 7 100569251.40007     -1791.535 7        47.089
R13        60.000    19899158.549 7 106260477.24307       681.066 7        45.834
> 2025 01 01 11 15 10.0000000  0 54
G19         1.000    21390456.064 7 112407766.37407       255.929 7        47.203                                    21390456.791 6  87590556.42206       199.422 6        38.186
G25         2.000    25087205.167 6 131834144.61406      3101.602 6        36.692                                    25087216.104 4 102727955.88404      2416.823 4        26.168    25087216.416 5 102727965.89305      2416.763 5        32.413
G24         3.000    20246961.716 8 106398521.96008       257.870 8        50.184                                    20246965.193 8  82907973.13608       200.937 8        52.349    20246965.673 7  82907970.12807       200.987 7        46.696
R02         4.000    21443659.038 8 114427352.50108     -4391.072 8        49.669                                                                    21443666.864 7  88999035.98607     -3415.201 7        44.676
S21         5.000    38527404.181 7 202462535.98207      -557.439 7        42.627
G17         7.000    22542292.602 7 118460688.63507     -2253.624 7        46.096                                    22542296.697 7  92307113.47907     -1756.069 7        42.533    22542297.398 6  92307109.46406     -1756.081 6        41.671
R21         8.000    22432493.436 7 120040864.05807     -1472.138 7        46.563                                                                    22432502.654 7  93365194.02807     -1144.948 7        42.868
E12         9.000    28882358.891 5 151777875.02305     -1062.201 5        31.132                                                                    28882367.792 6 113340688.25506      -792.954 6        36.397    28882365.732 6 116297388.59206      -813.870 6        36.333
E30        10.000    25225839.780 7 132562805.73307      1439.603 7        45.974                                                                    25225848.008 8  98991808.25008      1075.039 8        48.500    25225846.531 8 101574192.66708      1103.073 8        49.060
C26        11.000                                                                                                                                    21922154.910 8 114154418.83608     -1321.322 8        51.037                                                                    21922158.116 8  92759831.53708     -1073.583 8        49.196
S27        12.000    39281466.195 6 206425262.67106      -587.538 6        36.775
G15        13.000    21952043.440 7 115358657.65407     -3706.446 7        47.276                                    21952047.030 7  89889818.95307     -2888.132 7        44.719    21952047.155 7  89889810.94307     -2888.107 7        42.353
S36        14.000    38298834.766 7 201262117.38007      -558.047 7        44.599
G12        15.000    21952612.895 7 115361878.97307      2186.388 7        47.732                                    21952615.602 7  89892442.31507      1703.680 7        45.685    21952616.260 7  89892442.30707      1703.782 7        43.022
R11        16.000    24427600.442 6 130533502.26806     -4018.356 6        40.667                                                                    24427613.186 6 101526007.34706     -3125.372 6        37.743
S45        17.000    63485812.659 6 333621597.64806      -615.559 6        36.295
R03        18.000    20259437.829 8 108450313.18808      -613.344 8        50.982                                                                    20259442.275 7  84350246.31207      -477.119 7        46.819
C35        19.000                                                                                                                                    24108449.741 7 125539127.77407      1673.171 7        45.248                                                                    24108455.135 7 102010894.40407      1359.573 7        45.108
E11        20.000    28041393.273 5 147358528.18505      1134.947 5        35.200                                                                    28041406.290 6 110040520.63106       847.511 6        36.805    28041404.259 6 112911134.05606       869.710 6        36.673
R14        21.000    24033449.085 7 128111775.10107      2781.950 7        42.885                                                                    24033461.532 6  99642537.51306      2163.697 6        37.936
I06        22.000    38387052.327 6 150639081.76206      -526.992 6        41.354
S28        23.000    40986470.885 5 215385126.24905      -568.041 5        34.924
G14        24.000    24425191.037 6 128355078.82606     -3863.599 6        39.444                                    24425201.586 3 100016903.73103     -3010.592 3        21.929    24425200.926 6 100016905.72206     -3010.469 6        38.135
S23        25.000    38233714.124 7 200919359.10207      -561.586 7        44.904
E08        26.000    24049146.745 8 126379036.71408     -2004.597 8        48.541                                                                    24049152.021 8  94373929.87408     -1496.962 8        49.991    24049150.868 8  96835858.97008     -1535.991 8        50.749
C07        27.000                                                                                                                                    39370282.730 6 205011319.00306     -1270.025 6        39.661    39370288.065 7 158527749.65407      -982.110 7        42.591    39370283.637 6 166588473.34306     -1031.796 6        39.916
G13        28.000    23308471.667 7 122486694.03007     -4297.104 7        43.098                                    23308477.494 4  95444117.79504     -3348.387 4        26.455
I02        29.000    36990857.315 7 145160055.73207      -373.354 7        42.770
G10        30.000    24435652.368 7 128410084.01407      -751.678 7        42.085                                    24435663.271 5 100059775.50005      -585.717 5        34.471    24435663.359 6 100059767.49306      -585.627 6        37.713
E07        31.000    24897260.758 7 130835916.84607       901.349 7        45.579                                                                    24897269.725 8  97702142.88608       673.011 8        48.371    24897268.563 8 100250892.48708       690.561 8        49.335
E03        32.000    27062379.863 6 142213593.30706     -3685.402 6        40.393                                                                    27062394.119 7 106198425.15907     -2752.097 7        43.699    27062392.540 7 108968819.29707     -2823.866 7        44.390
E10        33.000    28269769.188 6 148558638.98706        -0.281 6        37.459                                                                    28269785.654 6 110936717.41306        -0.066 6        41.147    28269783.201 6 113830707.17706        -0.154 6        41.440
G02        34.000    26142256.827 4 137378606.86604     -1977.065 4        28.711                                    26142258.072 1 107048330.19901     -1540.636 1         5.714
C24        35.000                                                                                                                                    22584039.124 8 117601050.42608      1253.763 8        49.415                                                                    22584041.162 8  95560507.31508      1018.834 8        49.078
G23        36.000    24183062.053 6 127082673.59606     -2912.372 6        41.325                                    24183070.852 4  99025399.51004     -2269.380 4        24.000    24183070.901 6  99025400.49606     -2269.342 6        38.958
R04        38.000    22638801.518 7 121229639.78407      2825.883 7        45.485                                                                    22638811.280 7  94289699.33807      2197.983 7        42.663
C33        39.000                                                                                                                                    24067591.033 7 125326241.36007      -690.712 7        46.594                                                                    24067608.754 7 101837907.25007      -561.179 7        46.484
E25        40.000    26331915.588 6 138375045.13006     -3043.589 6        41.721                                                                    26331928.153 7 103331985.95007     -2272.787 7        44.534    26331926.408 7 106027598.69007     -2332.113 7        45.318
S44        42.000    40934410.726 6 215111751.92006      -508.521 6        37.104
R22        43.000    22276687.723 7 118914562.84607      2242.786 7        47.068                                                                    22276695.112 7  92489183.53807      1744.358 7        43.329
C05        44.000                                                                                                                                    39533520.503 6 205861276.23906      -584.521 6        38.961    39533526.671 7 159184975.88607      -452.043 7        42.525    39533525.669 6 167279216.56006      -474.993 6        39.117
C40        45.000                                                                                                                                    39604364.081 6 206230234.87906     -1530.418 6        41.051                                                                    39604371.550 6 167578957.06406     -1243.604 6        40.913
G32        46.000    26203761.061 6 137701685.66106      2955.083 6        36.715                                    26203764.406 4 107300038.82704      2302.682 4        24.286    26203765.933 5 107300040.77105      2302.700 5        32.168
C10        49.000                                                                                                                                    38707057.814 6 201557797.51306      -929.217 6        41.740    38707063.617 7 155857285.82507      -718.420 7        44.238    38707059.675 6 163782220.38106      -754.898 6        41.154
C42        50.000                                                                                                                                    24443823.169 7 127285261.24407     -3382.663 7        45.839                                                                    24443837.781 7 103429708.70907     -2748.585 7        45.896
S48        51.000    77236072.427 6 405878502.87706      -556.910 6        37.909
E02        53.000    23299453.835 8 122439537.06408     -1062.265 8        48.764                                                                    23299458.999 8  91432197.97908      -793.237 8        51.335    23299457.538 8  93817367.37008      -813.938 8        51.260
C60        54.000                                                                                                                                    40934413.505 6 213156207.90506      -503.845 6        40.253                                                                    40934408.467 6 173206801.53406      -409.378 6        39.114
C45        55.000                                                                                                                                    25412590.713 7 132329852.44807     -3259.550 7        42.883                                                                    25412592.086 7 107528781.44607     -2648.569 7        42.732
R12        56.000    20079485.321 8 107261075.33708     -2324.581 8        50.518                                                                    20079491.228 7  83425312.89407     -1807.969 7        47.224
C02        57.000                                                                                                                                    41067000.271 4 213846454.64504      -548.176 4        29.867    41067007.491 5 165359576.99705      -423.883 5        35.881    41067006.645 5                      -445.462 5        30.287
I03        58.000   121669712.667 5 401672524.34905       884.173 5        33.521
C14        59.000                                                                                                                                    23769923.605 7 123776136.96107     -2207.521 7        45.315    23769928.058 8  95711524.50808     -1706.984 8        49.618    23769924.980 7 100578214.70807     -1793.745 7        47.162
R13        60.000    19898521.619 7 106257076.88307       678.880 7        46.243
> 2025 01 01 11 15 15.0000000  0 54
G19         1.000    21390214.285 7 112406494.82507       252.583 7        46.844                                    21390214.818 6  87589565.60106       196.813 6        38.192
G25         2.000    25084253.623 6 131818637.03406      3101.230 6        37.255                                    25084265.097 4 102715872.05804      2416.540 4        26.096    25084266.657 5 102715882.08305      2416.354 5        31.698
G24         3.000    20246717.472 8 106397239.00008       255.208 8        50.088                                    20246721.060 8  82906973.42408       198.864 8        52.360    20246721.214 7  82906970.42307       198.923 7        46.375
R02         4.000    21447774.721 8 114449314.15108     -4393.526 8        49.832                                                                    21447783.111 7  89016117.23407     -3417.207 7        45.314
S21         5.000    38527935.280 7 202465323.93207      -557.704 7        42.603
G17         7.000    22544438.199 7 118471963.13407     -2256.337 7        45.728                                    22544442.164 7  92315898.78307     -1758.181 7        42.493    22544443.051 6  92315894.77306     -1758.152 6        41.507
R21         8.000    22433871.012 7 120048236.06407     -1476.614 7        46.983                                                                    22433879.910 7  93370927.77507     -1148.574 7        42.768
E12         9.000    28883370.117 5 151783190.83905     -1064.514 5        30.875                                                                    28883379.121 6 113344657.88606      -794.898 6        36.510    28883377.529 6 116301461.75606      -815.626 6        36.442
E30        10.000    25224470.501 7 132555610.39907      1438.352 7        45.752                                                                    25224478.765 8  98986435.11708      1074.124 8        48.443    25224477.344 8 101568679.36208      1102.159 8        48.996
C26        11.000                                                                                                                                    21923424.315 8 114161028.81108     -1322.790 8        50.940                                                                    21923427.465 8  92765202.67308     -1074.972 8        49.143
S27        12.000    39282021.848 6 206428198.90606      -587.245 6        36.616
G15        13.000    21955571.130 7 115377194.89807     -3708.504 7        47.163                                    21955574.581 7  89904263.52507     -2889.732 7        44.655    21955574.869 7  89904255.50807     -2889.773 7        42.616
S36        14.000    38299367.510 7 201264908.20907      -558.388 7        44.557
G12        15.000    21950533.171 7 115350951.25707      2184.608 7        46.793                                    21950536.132 7  89883927.21407      1702.289 7        45.672    21950536.811 7  89883927.22007      1702.302 7        43.077
R11        16.000    24431359.546 6 130553593.03206     -4018.214 6        40.386                                                                    24431372.977 6 101541633.54306     -3125.017 6        37.928
S45        17.000    63486348.377 6 333623076.07916      -615.772 6        36.185
R03        18.000    20260013.364 8 108453391.94208      -618.232 8        51.802                                                                    20260017.677 7  84352640.89707      -480.818 7        46.924
C35        19.000                                                                                                                                    24106844.892 7 125530766.90607      1671.153 7        46.042                                                                    24106849.519 7 102004100.53207      1357.839 7        44.927
E11        20.000    28040313.871 5 147352857.89905      1133.270 5        34.586                                                                    28040327.427 6 110036286.34306       846.411 6        36.692    28040325.346 6 112906789.31906       868.416 6        36.352
R14        21.000    24030838.154 7 128097866.95907      2781.267 7        43.585                                                                    24030852.710 6  99631719.99906      2163.286 6        38.102
I06        22.000    38387723.973 6 150641716.71206      -527.061 6        41.268
S28        23.000    40987005.942 5 215387966.71805      -568.336 5        34.719
G14        24.000    24428867.172 6 128374397.22006     -3863.889 6        39.279                                    24428877.666 3 100031957.01503     -3010.826 3        21.643    24428877.566 6 100031959.01106     -3010.796 6        37.682
S23        25.000    38234249.847 7 200922166.88607      -561.582 7        44.811
E08        26.000    24051055.091 8 126389064.71608     -2006.732 8        48.415                                                                    24051060.291 8  94381418.30208     -1498.552 8        49.939    24051059.087 8  96843542.74708     -1537.592 8        50.733
C07        27.000                                                                                                                                    39371502.212 6 205017670.29106     -1270.600 6        39.607    39371507.763 7 158532660.85907      -982.386 7        42.627    39371503.440 6 166593634.28906     -1032.557 6        39.790
G13        28.000    23312560.346 7 122508181.64507     -4298.009 7        42.853                                    23312566.466 4  95460861.33504     -3349.088 4        26.156
I02        29.000    36991333.308 7 145161923.74507      -373.676 7        42.590
G10        30.000    24436369.751 6 128413850.38106      -754.739 6        41.421                                    24436380.018 5 100062710.30005      -588.098 5        34.586    24436379.662 6 100062702.28606      -588.054 6        37.698
E07        31.000    24896404.251 7 130831415.04707       899.362 7        45.282                                                                    24896413.077 8  97698781.14608       671.613 8        48.354    24896411.921 8 100247443.04708       689.162 8        49.303
E03        32.000    27065886.599 6 142232021.64706     -3685.982 6        40.234                                                                    27065900.974 7 106212186.51407     -2752.489 7        43.488    27065899.605 7 108982939.66107     -2824.332 7        44.599
E10        33.000    28269770.646 6 148558645.70306        -2.788 6        37.603                                                                    28269786.924 6 110936722.42706        -1.911 6        41.254    28269784.703 6 113830712.32106        -2.060 6        41.318
G02        34.000    26144138.489 4 137388497.21504     -1979.101 4        28.834                                    26144140.084 1 107056037.14001     -1542.174 1         5.000
C24        35.000                                                                                                                                    22582835.504 8 117594784.25208      1252.577 8        49.174                                                                    22582837.818 8  95555415.52208      1017.745 8        49.023
G23        36.000    24185834.165 6 127097239.54206     -2914.193 6        41.478                                    24185842.722 4  99036749.55504     -2270.792 4        24.090    24185842.340 6  99036750.54606     -2270.813 6        39.501
R04        38.000    22636164.152 7 121215517.07307      2823.124 7        45.573                                                                    22636173.612 7  94278714.98807      2195.756 7        42.044
C33        39.000                                                                                                                                    24068255.142 7 125329702.01607      -693.678 7        46.491                                                                    24068273.453 7 101840719.30507      -563.795 7        46.460
E25        40.000    26334811.268 6 138390263.77106     -3044.005 6        41.681                                                                    26334824.174 7 103343350.48207     -2273.133 7        44.530    26334822.371 7 106039259.69407     -2332.486 7        45.208
S44        42.000    40934894.166 6 215114294.29406      -508.574 6        37.221
R22        43.000    22274587.659 7 118903355.95007      2239.815 7        46.215                                                                    22274595.530 7  92480467.09907      1742.125 7        42.906
C05        44.000                                                                                                                                    39534081.884 6 205864198.87806      -584.606 6        38.697    39534087.945 7 159187235.82907      -451.950 7        42.445    39534086.992 6 167281591.40806      -474.931 6        39.039
C40        45.000                                                                                                                                    39605834.090 6 206237888.69806     -1531.071 6        40.851                                                                    39605841.227 6 167585176.40906     -1244.257 6        40.882
G32        46.000    26200949.846 6 137686910.96006      2954.699 6        36.854                                    26200952.860 4 107288525.94304      2302.396 4        24.842    26200954.433 5 107288527.92705      2302.266 5        33.000
C10        49.000                                                                                                                                    38707949.918 6 201562443.96706      -929.555 6        41.650    38707955.928 7 155860878.74407      -718.754 7        44.275    38707952.035 6 163785996.00106      -755.522 6        41.025
C42        50.000                                                                                                                                    24447072.020 7 127302178.12207     -3384.104 7        45.353                                                                    24447086.487 7 103443455.02007     -2749.956 7        45.822
S48        51.000    77236596.572 6 405881287.53306      -556.713 6        37.815
E02        53.000    23300465.219 8 122444852.02308     -1063.848 8        48.790                                                                    23300470.459 8  91436166.92508      -794.382 8        51.278    23300468.972 8  93821439.85908      -815.140 8        51.155
C60        54.000                                                                                                                                    40934897.442 6 213158727.17306      -503.855 6        40.379                                                                    40934892.310 6 173208848.62006      -409.426 6        38.913
C45        55.000                                                                                                                                    25415720.746 7 132346151.32807     -3260.127 7        42.301                                                                    25415722.286 7 107542025.58907     -2649.110 7        42.700
R12        56.000    20081661.784 8 107272702.23908     -2326.297 8        50.757                                                                    20081668.136 7  83434356.01907     -1809.351 7        47.509
C02        57.000                                                                                                                                    41067525.683 5 213849195.41405      -547.431 5        30.408    41067533.854 6 165361696.33006      -423.809 6        36.053    41067533.018 4                      -445.663 4        29.915
I03        58.000   121668586.367 5 401668104.22505       884.311 5        33.539
C14        59.000                                                                                                                                    23772045.335 7 123787180.52107     -2210.048 7        45.321    23772049.050 8  95720064.06208     -1708.877 8        49.829    23772045.718 7 100587188.47407     -1795.906 7        47.027
R13        60.000    19897887.153 7 106253687.48707       676.801 7        46.343
> 2025 01 01 11 15 20.0000000  0 54
G19         1.000    21389975.539 7 112405240.21407       249.179 7        46.891                                    21389976.105 6  87588587.97106       194.181 6        38.072
G25         2.000    25081302.670 6 131803131.83006      3100.828 6        36.904                                    25081314.268 4 102703790.07504      2416.233 4        25.820    25081315.570 5 102703800.07205      2416.031 5        32.725
G24         3.000    20246475.754 8 106395969.23108       252.513 8        50.095                                    20246479.440 8  82905983.99208       196.764 8        52.237    20246479.487 7  82905980.98807       196.782 7        46.289
R02         4.000    21451892.288 8 114471288.32508     -4396.157 8        49.594                                                                    21451901.024 7  89033208.18807     -3419.152 7        45.226
S21         5.000    38528464.103 7 202468112.41007      -557.859 7        42.736
G17         7.000    22546586.342 7 118483251.73707     -2259.181 7        45.180                                    22546590.318 7  92324695.07707     -1760.395 7        42.373    22546590.693 6  92324691.07406     -1760.369 6        41.897
R21         8.000    22435253.261 7 120055630.65807     -1481.246 7        46.904                                                                    22435262.201 7  93376679.10107     -1152.103 7        42.063
E12         9.000    28884384.222 5 151788519.26805     -1067.354 5        31.019                                                                    28884393.286 6 113348636.90106      -796.632 6        36.457    28884391.491 6 116305544.58406      -817.639 6        36.295
E30        10.000    25223102.520 7 132548421.55207      1437.084 7        45.661                                                                    25223110.817 8  98981066.82108      1073.153 8        48.556    25223109.364 8 101563171.02808      1101.183 8        49.067
C26        11.000                                                                                                                                    21924695.159 8 114167646.45608     -1324.374 8        50.874                                                                    21924698.314 8  92770580.04308     -1076.160 8        49.166
S27        12.000    39282581.364 6 206431135.79006      -587.544 6        37.051
G15        13.000    21959100.783 7 115395742.67607     -3710.713 7        47.241                                    21959104.131 7  89918716.30807     -2891.459 7        44.491    21959104.568 7  89918708.29607     -2891.466 7        42.195
S36        14.000    38299897.286 7 201267699.89707      -558.627 7        44.665
G12        15.000    21948455.885 7 115340033.00907      2182.627 7        46.779                                    21948458.482 7  89875419.49607      1700.747 7        45.535    21948459.019 7  89875419.50407      1700.813 7        43.300
R11        16.000    24435119.422 6 130573683.48706     -4018.102 6        40.684                                                                    24435132.542 6 101557259.51806     -3125.412 6        38.027
S45        17.000    63486883.756 6 333626155.02706      -615.865 6        36.295
R03        18.000    20260593.334 8 108456494.84208      -623.024 8        51.716                                                                    20260597.112 7  84355054.25107      -484.576 7        46.791
C35        19.000                                                                                                                                    24105240.941 7 125522416.03307      1669.081 7        46.285                                                                    24105245.954 7 101997314.78407      1356.275 7        45.058
E11        20.000    28039237.058 5 147347197.39505      1131.189 5        35.357                                                                    28039250.432 6 110032059.34006       844.972 6        36.639    28039248.182 6 112902452.04206       866.620 6        36.431
R14        21.000    24028229.308 7 128083961.59507      2780.701 7        43.141                                                                    24028243.916 6  99620904.70906      2162.634 6        37.225
I06        22.000    38388395.775 6 150644352.06406      -527.236 6        41.280
S28        23.000    40987549.691 5 215390808.00205      -568.424 5        35.138
G14        24.000    24432543.713 6 128393717.30406     -3864.172 6        39.306                                    24432554.118 3 100047011.60503     -3011.048 3        21.690    24432554.053 6 100047013.61306     -3011.165 6        38.003
S23        25.000    38234784.438 7 200924975.14407      -561.710 7        45.079
E08        26.000    24052965.487 8 126399103.64508     -2008.954 8        48.498                                                                    24052970.626 8  94388914.88808     -1500.201 8        50.020    24052969.442 8  96851234.90008     -1539.391 8        50.797
C07        27.000                                                                                                                                    39372722.087 6 205024023.90906     -1271.175 6        39.423    39372727.827 7 158537573.84807      -982.703 7        42.722    39372723.520 6 166598797.10206     -1032.888 6        39.994
G13        28.000    23316650.319 7 122529674.45607     -4299.173 7        43.158                                    23316656.516 4  95477608.94004     -3349.994 4        25.940
I02        29.000    36991809.814 7 145163793.15407      -374.123 7        42.633
G10        30.000    24437088.997 6 128417632.66206      -757.881 6        40.665                                    24437099.856 5 100065657.49505      -590.546 5        34.367    24437100.324 6 100065649.49006      -590.751 6        38.093
E07        31.000    24895549.643 7 130826923.26707       897.227 7        45.214                                                                    24895558.343 8  97695426.89108       670.068 8        48.440    24895557.159 8 100244001.29408       687.486 8        49.346
E03        32.000    27069394.020 6 142250453.20006     -3686.584 6        40.162                                                                    27069408.400 7 106225950.28607     -2753.060 7        43.433    27069407.084 7 108997062.48307     -2824.863 7        44.822
E10        33.000    28269774.188 6 148558664.93506        -4.980 6        37.890                                                                    28269790.551 6 110936736.79606        -3.777 6        41.235    28269788.312 6 113830727.06206        -3.876 6        41.521
G02        34.000    26146022.055 4 137398400.29404     -1981.816 4        29.137                                    26146024.448 1 107063753.97101     -1544.351 1         3.000
C24        35.000                                                                                                                                    22581633.480 8 117588524.16708      1251.301 8        49.053                                                                    22581635.662 8  95550328.68708      1016.850 8        49.105
G23        36.000    24188607.975 6 127111815.34006     -2916.289 6        41.266                                    24188616.447 3  99048107.27503     -2272.423 3        23.886    24188616.906 6  99048108.25806     -2272.418 6        39.381
R04        38.000    22633529.735 7 121201408.54307      2820.095 7        45.570                                                                    22633538.231 6  94267741.66206      2193.436 6        41.578
C33        39.000                                                                                                                                    24068922.790 7 125333177.92007      -696.781 7        46.328                                                                    24068941.009 7 101843543.75007      -566.162 7        46.516
E25        40.000    26337707.862 6 138405484.87306     -3044.494 6        41.414                                                                    26337720.690 7 103354716.86007     -2273.569 7        44.656    26337718.923 7 106050922.57407     -2332.780 7        45.205
S44        42.000    40935378.380 6 215116837.04106      -508.635 6        37.384
R22        43.000    22272490.407 7 118892164.48807      2236.681 7        46.733                                                                    22272499.571 7  92471762.66107      1739.644 7        43.755
C05        44.000                                                                                                                                    39534643.359 6 205867121.88406      -584.642 6        38.895    39534649.335 7 159189496.08507      -452.072 7        42.466    39534648.440 6 167283966.59806      -475.113 6        39.090
C40        45.000                                                                                                                                    39607304.806 6 206245545.25406     -1531.681 6        40.832                                                                    39607311.613 6 167591397.96806     -1244.665 6        40.937
G32        46.000    26198139.097 6 137672139.37306      2953.884 6        37.244                                    26198142.136 4 107277015.52504      2301.750 4        25.353    26198143.192 5 107277017.44705      2301.931 5        31.940
C10        49.000                                                                                                                                    38708842.867 6 201567093.15306      -930.239 6        41.454    38708848.967 7 155864473.77907      -719.267 7        44.235    38708844.927 6 163789773.82506      -755.800 6        41.066
C42        50.000                                                                                                                                    24450322.049 7 127319102.62407     -3385.758 7        45.108                                                                    24450336.737 7 103457207.52007     -2751.114 7        45.837
S48        51.000    77237132.827 6 405884072.59706      -556.952 6        38.096
E02        53.000    23301478.165 8 122450175.03308     -1065.496 8        48.758                                                                    23301483.424 8  91440141.88408      -795.612 8        51.444    23301481.883 8  93825518.51308      -816.378 8        51.258
C60        54.000                                                                                                                                    40935381.334 6 213161246.81606      -504.073 6        40.269                                                                    40935376.136 6 173210896.03006      -409.471 6        38.826
C45        55.000                                                                                                                                    25418850.917 7 132362452.31407     -3260.461 7        42.116                                                                    25418852.425 7 107555271.46207     -2649.431 7        42.863
R12        56.000    20083840.253 8 107284338.09508     -2328.161 8        50.677                                                                    20083846.551 7  83443406.11307     -1810.813 7        47.326
C02        57.000                                                                                                                                    41068051.425 5 213851936.58505      -548.237 5        30.453    41068060.388 6 165363815.97006      -424.073 6        36.185    41068059.243 4                      -445.743 4        29.867
I03        58.000   121667459.475 5 401663684.26505       884.138 5        33.599
C14        59.000                                                                                                                                    23774169.148 7 123798236.92807     -2212.576 7        45.422    23774172.518 8  95728613.56708     -1710.917 8        49.887    23774169.029 7 100596172.70207     -1797.850 7        47.113
R13        60.000    19897254.871 7 106250309.16907       674.522 7        46.224
> 2025 01 01 11 15 25.0000000  0 54
G19         1.000    21389740.084 7 112404002.20307       246.285 7        47.201                                    21389740.535 6  87587623.27706       191.917 6        37.985
G25         2.000    25078352.738 6 131787628.69506      3100.584 6        36.151                                    25078364.089 4 102691709.70204      2416.039 4        25.579    25078365.689 5 102691719.70705      2416.240 5        34.010
G24         3.000    20246236.603 8 106394712.27008       250.396 8        50.398                                    20246240.258 8  82905004.53908       195.115 8        52.165    20246240.566 7  82905001.53907       195.104 7        46.559
R02         4.000    21456013.172 8 114493274.65508     -4398.198 8        49.664                                                                    21456020.342 7  89050308.63407     -3420.787 7        44.761
S21         5.000    38528997.384 7 202470900.99207      -557.463 7        42.842
G17         7.000    22548737.036 7 118494554.08607     -2261.518 7        45.391                                    22548741.088 7  92333502.08207     -1762.216 7        42.292    22548741.597 7  92333498.06707     -1762.245 7        42.008
R21         8.000    22436638.385 7 120063047.60807     -1485.376 7        46.226                                                                    22436647.695 7  93382447.80907     -1155.233 7        42.038
E12         9.000    28885400.352 5 151793859.96905     -1069.146 5        30.800                                                                    28885409.316 6 113352625.13606      -798.438 6        36.420    28885408.039 6 116309636.84706      -819.177 6        36.745
E30        10.000    25221735.689 7 132541238.83607      1436.251 7        45.389                                                                    25221743.946 8  98975703.11608      1072.443 8        48.597    25221742.464 8 101557667.39408      1100.484 8        49.135
C26        11.000                                                                                                                                    21925967.504 8 114174271.43208     -1325.410 8        51.009                                                                    21925970.593 8  92775963.38908     -1077.006 8        49.304
S27        12.000    39283141.681 6 206434072.78706      -587.057 6        36.854
G15        13.000    21962632.356 7 115414300.61907     -3712.275 7        47.142                                    21962635.599 7  89933177.01007     -2892.674 7        44.408    21962635.834 7  89933169.00307     -2892.665 7        42.417
S36        14.000    38300430.826 7 201270491.65707      -558.127 7        44.716
G12        15.000    21946380.164 7 115329123.86607      2181.230 7        47.433                                    21946382.558 7  89866918.86707      1699.661 7        45.436    21946383.000 7  89866918.87207      1699.642 7        43.390
R11        16.000    24438878.617 6 130593773.24106     -4017.573 6        40.541                                                                    24438891.077 6 101572884.91506     -3124.788 6        37.864
S45        17.000    63487421.178 6 333629234.19706      -615.451 6        36.219
R03        18.000    20261177.207 8 108459621.20508      -627.345 8        51.917                                                                    20261181.041 7  84357485.85607      -487.964 7        47.064
C35        19.000                                                                                                                                    24103638.549 7 125514074.83507      1667.492 7        46.164                                                                    24103644.351 7 101990536.91207      1354.972 7        45.357
E11        20.000    28038162.244 5 147341546.27105      1129.557 5        34.986                                                                    28038175.099 6 110027839.33206       843.664 6        36.888    28038172.702 6 112898121.95406       865.619 6        36.529
R14        21.000    24025621.886 7 128070058.84307      2780.708 7        43.251                                                                    24025636.363 6  99610091.42306      2162.693 6        37.894
I06        22.000    38389067.196 6 150646987.53606      -526.904 6        41.235
S28        23.000    40988089.452 5 215393649.22805      -567.988 5        35.043
G14        24.000    24436220.722 6 128413038.73506     -3864.100 6        39.177                                    24436230.740 3 100062067.23903     -3010.987 3        21.595    24436230.964 6 100062069.24006     -3011.053 6        38.255
S23        25.000    38235318.234 7 200927783.53607      -561.306 7        45.190
E08        26.000    24054877.838 8 126409153.15308     -2010.676 8        48.377                                                                    24054882.980 8  94396419.36608     -1501.443 8        50.092    24054881.859 8  96858935.15308     -1540.639 8        50.828
C07        27.000                                                                                                                                    39373942.574 6 205030379.53606     -1270.968 6        39.646    39373948.353 7 158542488.43207      -982.870 7        42.986    39373944.023 6 166603961.59606     -1032.851 6        40.007
G13        28.000    23320741.826 7 122551172.13607     -4299.733 7        43.900                                    23320747.559 4  95494360.33004     -3350.438 4        26.635
I02        29.000    36992286.709 7 145165663.71307      -374.018 7        42.957
G10        30.000    24437811.742 6 128421430.55406      -761.002 6        40.989                                    24437822.640 5 100068616.85905      -592.982 5        34.386    24437822.164 6 100068608.84906      -592.915 6        37.626
E07        31.000    24894696.522 7 130822441.16007       895.732 7        44.904                                                                    24894705.396 8  97692079.85708       668.936 8        48.491    24894704.167 8 100240566.94608       686.357 8        49.458
E03        32.000    27072902.335 6 142268887.64606     -3686.951 6        39.847                                                                    27072916.333 7 106239716.19407     -2753.294 7        43.308    27072915.088 7 109011187.50907     -2825.038 7        44.939
E10        33.000    28269779.974 6 148558696.39506        -7.197 6        37.191                                                                    28269796.623 6 110936760.28206        -5.514 6        41.359    28269794.237 6 113830751.16006        -5.436 6        41.578
G02        34.000    26147910.829 4 137408315.73804     -1983.588 4        29.156                                    26147911.048 1 107071480.43301     -1545.705 1         5.429
C24        35.000                                                                                                                                    22580432.772 8 117582269.84408      1250.575 8        49.361                                                                    22580434.599 8  95545246.56408      1016.207 8        49.208
G23        36.000    24191383.108 6 127126400.58206     -2917.677 6        41.580                                    24191392.153 3  99059472.36603     -2273.513 3        23.790    24191392.206 6  99059473.34706     -2273.483 6        39.667
R04        38.000    22630897.408 7 121187313.99507      2817.792 7        45.895                                                                    22630906.737 7  94256779.23007      2191.568 7        42.317
C33        39.000                                                                                                                                    24069593.034 7 125336668.72307      -699.385 7        46.471                                                                    24069611.361 7 101846380.32407      -568.312 7        46.601
E25        40.000    26340604.741 6 138420708.10706     -3044.643 6        40.892                                                                    26340617.603 7 103366084.80407     -2273.512 7        44.694    26340615.936 7 106062587.09007     -2332.864 7        45.190
S44        42.000    40935862.764 6 215119379.82206      -508.368 6        37.372
R22        43.000    22270397.054 7 118880988.09607      2234.115 7        46.029                                                                    22270405.922 7  92463069.95207      1737.614 7        44.212
C05        44.000                                                                                                                                    39535204.404 6 205870044.96206      -584.381 6        38.967    39535210.617 7 159191756.37307      -451.851 7        42.739    39535209.750 6 167286341.85006      -474.908 6        39.312
C40        45.000                                                                                                                                    39608775.381 6 206253204.17906     -1531.877 6        40.939                                                                    39608782.451 6 167597621.46406     -1244.581 6        41.027
G32        46.000    26195329.053 6 137657370.66406      2953.894 6        37.032                                    26195331.950 4 107265507.32704      2301.770 4        25.504    26195333.438 5 107265509.26405      2301.738 5        32.802
C10        49.000                                                                                                                                    38709736.194 6 201571744.70406      -930.163 6        41.626    38709742.158 7 155868070.64307      -719.383 7        44.540    38709738.074 6 163793553.60706      -755.992 6        41.309
C42        50.000                                                                                                                                    24453573.394 7 127336034.37907     -3386.813 7        45.147                                                                    24453588.367 7 103470965.95007     -2752.119 7        45.988
S48        51.000    77237659.616 6 405886857.87006      -556.839 6        37.951
E02        53.000    23302492.482 8 122455505.76508     -1066.626 8        48.504                                                                    23302497.813 8  91444122.61308      -796.534 8        51.479    23302496.342 8  93829603.09108      -817.333 8        51.298
C60        54.000                                                                                                                                    40935865.133 6 213163766.46506      -503.600 6        40.448                                                                    40935860.028 6 173212943.45706      -409.157 6        39.048
C45        55.000                                                                                                                                    25421982.000 7 132378755.08907     -3260.561 7        42.191                                                                    25421983.194 7 107568518.79307     -2649.361 7        42.997
R12        56.000    20086020.186 8 107295982.60808     -2329.512 8        50.493                                                                    20086026.451 7  83452462.92807     -1811.833 7        47.454
C02        57.000                                                                                                                                    41068578.499 5                      -548.082 5        30.657    41068586.801 5 165365935.57805      -423.581 5        35.910    41068586.018 4                      -445.227 4        29.877
I03        58.000   121666333.429 5 401659264.19305       884.282 5        33.419
C14        59.000                                                                                                                                    23776294.955 7 123809305.88507     -2214.794 7        45.570    23776297.844 8  95737172.75708     -1712.564 8        49.903    23776294.707 7 100605167.14007     -1799.689 7        47.283
R13        60.000    19896624.189 7 106246941.37507       672.794 7        46.473
> 2025 01 01 11 15 30.0000000  0 54
G19         1.000    21389507.842 7 112402780.83007       242.574 7        46.885                                    21389508.163 6  87586671.55206       189.028 6        38.033
G25         2.000    25075402.721 6 131772127.62706      3099.889 6        37.221                                    25075414.512 4 102679630.96304      2415.494 4        25.338    25075415.305 5 102679640.98405      2415.700 5        32.940
G24         3.000    20245999.788 8 106393468.20208       247.529 8        50.299                                    20246003.521 8  82904035.13008       192.880 8        52.203    20246003.898 7  82904032.13307       192.872 7        46.403
R02         4.000    21460135.606 8 114515273.13108     -4400.975 8        49.969                                                                    21460143.099 7  89067418.51107     -3422.971 7        44.271
S21         5.000    38529528.215 7 202473689.77907      -557.859 7        42.648
G17         7.000    22550890.927 7 118505870.19407     -2264.644 7        46.084                                    22550894.492 7  92342319.80707     -1764.654 7        42.313    22550894.624 6  92342315.80006     -1764.632 6        41.452
R21         8.000    22438028.220 7 120070486.93407     -1490.043 7        46.049                                                                    22438037.962 6  93388233.92006     -1158.966 6        41.807
E12         9.000    28886419.573 5 151799213.05405     -1071.775 5        30.574                                                                    28886427.956 6 113356622.57106      -800.445 6        36.405    28886426.570 6 116313738.58306      -821.494 6        36.877
E30        10.000    25220370.223 7 132534062.34207      1434.661 7        45.762                                                                    25220378.269 8  98970344.03808      1071.283 8        48.591    25220376.876 8 101552168.51708      1099.254 8        49.096
C26        11.000                                                                                                                                    21927241.031 8 114180903.80108     -1327.256 8        50.763                                                                    21927244.206 8  92781352.68608     -1078.520 8        49.102
S27        12.000    39283700.396 6 206437009.92506      -587.386 6        36.847
G15        13.000    21966165.721 7 115432868.77007     -3714.682 7        47.194                                    21966169.044 7  89947645.66707     -2894.549 7        44.450    21966169.595 7  89947637.65207     -2894.506 7        42.343
S36        14.000    38300961.067 7 201273284.14807      -558.443 7        44.536
G12        15.000    21944305.972 7 115318223.87707      2179.004 7        47.614                                    21944308.387 7  89858425.37607      1697.927 7        45.461    21944308.751 7  89858425.37207      1697.890 7        42.904
R11        16.000    24442637.813 6 130613862.34806     -4017.699 6        41.015                                                                    24442649.899 6 101588509.81506     -3125.072 6        37.236
S45        17.000    63487958.403 6 333632313.67006      -616.015 6        36.238
R03        18.000    20261765.329 8 108462771.50608      -632.446 8        51.241                                                                    20261770.066 7  84359936.09107      -491.924 7        47.254
C35        19.000                                                                                                                                    24102037.878 7 125505743.38607      1665.214 7        45.806                                                                    24102044.383 7 101983766.89807      1353.188 7        45.234
E11        20.000    28037088.264 5 147335904.64605      1127.176 5        34.995                                                                    28037101.435 6 110023626.39906       841.917 6        36.888    28037099.400 6 112893799.11706       863.727 6        36.537
R14        21.000    24023014.433 7 128056158.59907      2779.729 7        43.543                                                                    24023028.481 6  99599280.08406      2162.040 6        36.862
I06        22.000    38389738.936 6 150649623.20306      -527.222 6        41.173
S28        23.000    40988632.633 5 215396490.68505      -568.103 5        35.114
G14        24.000    24439897.806 6 128432361.55406     -3864.763 6        39.087                                    24439907.863 3 100077123.97803     -3011.497 3        21.476    24439908.007 6 100077125.95906     -3011.530 6        38.156
S23        25.000    38235851.922 7 200930592.22507      -561.724 7        44.966
E08        26.000    24056792.222 8 126419213.30208     -2013.119 8        48.590                                                                    24056797.361 8  94403931.80408     -1503.371 8        50.061    24056796.217 8  96866643.56408     -1542.514 8        50.804
C07        27.000                                                                                                                                    39375163.831 6 205036737.26206     -1271.718 6        39.634    39375169.174 7 158547404.60507      -983.522 7        43.067    39375164.991 6 166609127.70606     -1033.407 6        39.790
G13        28.000    23324833.418 7 122572674.77107     -4301.009 7        44.123                                    23324839.577 4  95511115.58504     -3351.426 4        26.898
I02        29.000    36992763.579 7 145167535.49907      -374.485 7        42.825
G10        30.000    24438537.720 6 128425244.04806      -764.254 6        41.745                                    24438548.398 5 100071588.36905      -595.518 5        34.367    24438547.919 6 100071580.36806      -595.513 6        37.645
E07        31.000    24893845.750 7 130817968.78807       893.460 7        45.135                                                                    24893854.345 8  97688740.10208       667.190 8        48.502    24893853.169 8 100237140.07008       684.620 8        49.405
E03        32.000    27076410.751 6 142287324.99006     -3687.687 6        39.808                                                                    27076424.948 7 106253484.29107     -2753.860 7        43.431    27076423.538 7 109025314.78107     -2825.757 7        45.004
E10        33.000    28269787.965 6 148558740.09706        -9.991 6        36.862                                                                    28269804.967 6 110936792.92706        -7.484 6        41.385    28269802.956 6 113830784.64806        -7.646 6        41.485
G02        34.000    26149799.284 4 137418243.54004     -1987.205 4        28.806                                    26149800.215 1 107079216.51101     -1548.509 1         4.000
C24        35.000                                                                                                                                    22579232.839 8 117576021.33708      1249.108 8        49.444                                                                    22579234.615 8  95540169.11708      1014.954 8        49.020
G23        36.000    24194160.756 6 127140995.34906     -2919.817 6        40.982                                    24194169.433 3  99070844.86503     -2275.177 3        23.448    24194169.091 6  99070845.87006     -2275.119 6        38.357
R04        38.000    22628268.140 7 121173233.42407      2814.683 7        45.484                                                                    22628277.160 7  94245827.66107      2189.158 7        42.370
C33        39.000                                                                                                                                    24070266.884 7 125340174.48307      -702.734 7        46.840                                                                    24070284.606 7 101849229.00507      -570.985 7        46.433
E25        40.000    26343502.256 6 138435933.50006     -3045.278 6        41.116                                                                    26343514.969 7 103377454.38007     -2274.057 7        44.656    26343513.192 7 106074253.26507     -2333.443 7        45.168
S44        42.000    40936346.764 6 215121922.69806      -508.771 6        37.217
R22        43.000    22268306.210 7 118869826.87507      2230.733 7        46.226                                                                    22268314.722 7  92454389.02107      1735.010 7        43.884
C05        44.000                                                                                                                                    39535766.134 6 205872968.12606      -584.791 6        38.850    39535771.998 7 159194016.74807      -452.176 7        42.698    39535771.095 6 167288717.11606      -475.168 6        39.102
C40        45.000                                                                                                                                    39610246.697 6 206260865.53506     -1532.617 6        40.560                                                                    39610253.591 6 167603846.88206     -1245.330 6        40.620
G32        46.000    26192519.411 6 137642604.85406      2952.792 6        37.599                                    26192522.375 4 107254001.39404      2300.894 4        26.395    26192523.222 5 107254003.37105      2301.194 5        32.862
C10        49.000                                                                                                                                    38710629.597 6 201576398.70506      -931.076 6        41.461    38710635.888 7 155871669.40407      -720.090 7        44.673    38710631.997 6 163797335.32006      -756.555 6        41.123
C42        50.000                                                                                                                                    24456826.689 7 127352973.43007     -3388.542 7        45.658                                                                    24456841.514 7 103484730.25707     -2753.545 7        45.719
S48        51.000    77238186.824 6 405889643.18906      -557.167 6        38.069
E02        53.000    23303508.559 8 122460844.26308     -1068.548 8        48.590                                                                    23303513.748 8  91448109.14408      -797.959 8        51.522    23303512.183 8  93833693.61508      -818.789 8        51.239
C60        54.000                                                                                                                                    40936348.989 6 213166286.21306      -504.020 6        40.303                                                                    40936343.924 6 173214990.93006      -409.622 6        38.742
C45        55.000                                                                                                                                    25425113.004 6 132395059.69506     -3261.170 6        41.900                                                                    25425114.458 7 107581767.56507     -2650.013 7        42.796
R12        56.000    20088201.887 8 107307635.91708     -2331.547 8        50.736                                                                    20088207.830 7  83461526.59707     -1813.424 7        47.195
C02        57.000                                                                                                                                    41069104.443 5                      -548.184 5        30.498    41069113.178 6 165368055.21506      -424.112 6        36.181    41069112.363 5                      -445.815 5        30.166
I03        58.000   121665206.658 5 401654844.04605       883.905 5        33.521
C14        59.000                                                                                                                                    23778423.033 7 123820387.39707     -2217.633 7        45.201    23778425.987 8  95745741.66008     -1714.764 8        49.996    23778422.722 7 100614171.72807     -1801.996 7        47.007
R13        60.000    19895995.670 7 106243584.31907       670.367 7        45.892
> 2025 01 01 11 15 35.0000000  0 54
G19         1.000    21389278.383 7 112401576.27207       239.221 7        46.912                                    21389278.947 6  87585732.92606       186.404 6        38.039
G25         2.000    25072453.858 6 131756628.86206      3099.379 6        37.142                                    25072465.495 4 102667554.01004      2415.103 4        25.624    25072465.321 5 102667564.00005      2415.114 5        32.748
G24         3.000    20245765.541 8 106392237.19808       244.788 8        50.252                                    20245769.284 8  82903075.90408       190.744 8        52.164    20245769.476 7  82903072.90607       190.773 7        46.347
R02         4.000    21464260.776 8 114537283.98408     -4403.437 8        49.983                                                                    21464268.336 7  89084538.02707     -3424.824 7        44.548
S21         5.000    38530057.467 7 202476479.03407      -557.952 7        42.724
G17         7.000    22553047.091 7 118517200.19107     -2267.466 7        46.029                                    22553050.543 7  92351148.36007     -1766.853 7        42.258    22553050.730 6  92351144.36406     -1766.947 6        41.321
R21         8.000    22439423.350 7 120077948.85307     -1494.674 7        46.212                                                                    22439432.810 7  93394037.61107     -1162.554 7        42.425
E12         9.000    28887440.418 5 151804578.64505     -1074.862 5        31.140                                                                    28887448.920 6 113360629.37906      -802.490 6        36.268    28887447.550 6 116317849.88106      -823.316 6        36.987
E30        10.000    25219005.959 7 132526892.17407      1433.362 7        46.050                                                                    25219013.835 8  98964989.70008      1070.371 8        48.679    25219012.466 8 101546674.49808      1098.337 8        49.066
C26        11.000                                                                                                                                    21928516.076 8 114187543.69508     -1328.816 8        50.762                                                                    21928519.397 8  92786748.15008     -1079.770 8        49.085
S27        12.000    39284258.334 6 206439947.23306      -587.511 6        36.854
G15        13.000    21969700.797 7 115451447.26607     -3716.822 7        47.466                                    21969704.492 7  89962122.38407     -2896.219 7        44.426    21969705.192 7  89962114.37607     -2896.166 7        42.673
S36        14.000    38301493.016 7 201276077.38607      -558.637 7        44.597
G12        15.000    21942233.379 7 115307333.20607      2177.169 7        47.706                                    21942235.947 7  89849939.14307      1696.493 7        45.466    21942236.060 7  89849939.14707      1696.467 7        43.225
R11        16.000    24446397.667 6 130633950.98306     -4017.638 6        41.056                                                                    24446409.606 6 101604134.34306     -3124.696 6        37.403
S45        17.000    63488491.179 6 333635393.47306      -616.194 6        36.204
R03        18.000    20262357.836 8 108465945.64508      -637.242 8        51.881                                                                    20262362.789 7  84362404.85307      -495.622 7        47.160
C35        19.000                                                                                                                                    24100440.084 7 125497421.83307      1663.290 7        45.589                                                                    24100446.136 7 101977004.98607      1351.484 7        45.065
E11        20.000    28036016.311 5 147330272.60105      1125.492 5        35.224                                                                    28036029.577 6 110019420.66606       840.353 6        37.051    28036027.639 6 112889483.64506       862.346 6        36.450
R14        21.000    24020407.523 7 128042260.85707      2779.121 7        43.359                                                                    24020420.506 6  99588470.69206      2161.680 6        37.698
I06        22.000    38390410.588 6 150652259.16106      -527.317 6        41.142
S28        23.000    40989171.432 5 215399332.59905      -568.439 5        35.052
G14        24.000    24443574.936 6 128451685.94506     -3865.109 6        38.544                                    24443585.343 3 100092181.92803     -3011.784 3        21.238    24443585.047 6 100092183.89606     -3011.770 6        38.213
S23        25.000    38236386.884 7 200933401.42507      -561.951 7        45.091
E08        26.000    24058708.599 8 126429284.24208     -2015.272 8        48.591                                                                    24058713.820 8  94411452.29008     -1504.896 8        50.138    24058712.684 8  96874360.24208     -1544.179 8        50.826
C07        27.000                                                                                                                                    39376385.529 6 205043097.18706     -1272.177 6        39.465    39376390.518 7 158552322.49507      -983.850 7        43.141    39376386.344 6 166614295.68106     -1033.786 6        39.676
G13        28.000    23328926.062 7 122594182.48407     -4302.054 7        43.435                                    23328932.417 4  95527874.79104     -3352.237 4        26.814
I02        29.000    36993240.786 7 145169408.64007      -374.784 7        43.062
G10        30.000    24439266.448 6 128429073.33706      -767.388 6        41.814                                    24439277.133 5 100074572.19305      -597.959 5        34.305    24439277.022 6 100074564.19806      -598.116 6        38.318
E07        31.000    24892996.283 7 130813506.31707       891.441 7        45.555                                                                    24893005.147 8  97685407.73808       665.720 8        48.583    24893004.007 8 100233720.77708       683.076 8        49.427
E03        32.000    27079919.864 6 142305765.43806     -3688.658 6        39.823                                                                    27079934.098 7 106267254.67507     -2754.320 7        43.416    27079932.551 7 109039444.40007     -2826.192 7        44.850
E10        33.000    28269798.347 6 148558796.23406       -12.472 6        37.353                                                                    28269815.673 6 110936834.84406        -9.364 6        41.237    28269813.469 6 113830827.65706        -9.534 6        41.378
G02        34.000    26151690.833 4 137428183.88104     -1989.403 4        29.564                                    26151691.783 1 107086962.44401     -1550.189 1         6.625
C24        35.000                                                                                                                                    22578033.929 8 117569778.81108      1247.894 8        49.528                                                                    22578035.781 8  95535096.56808      1013.980 8        49.025
G23        36.000    24196939.517 6 127155599.81806     -2921.902 6        39.760                                    24196948.470 3  99082224.93803     -2276.782 3        23.562    24196948.812 6  99082225.93506     -2276.755 6        38.336
R04        38.000    22625641.827 7 121159167.01507      2811.901 7        46.371                                                                    22625650.564 7  94234887.08107      2187.085 7        42.476
C33        39.000                                                                                                                                    24070942.783 7 125343695.34407      -705.728 7        46.733                                                                    24070960.831 7 101852090.00607      -573.504 7        46.380
E25        40.000    26346400.067 6 138451161.21206     -3045.760 6        41.578                                                                    26346412.822 7 103388825.68307     -2274.466 7        44.773    26346411.073 7 106085921.22507     -2333.826 7        45.317
S44        42.000    40936831.644 6 215124465.79206      -508.690 6        37.384
R22        43.000    22266218.416 7 118858681.00907      2227.629 7        46.685                                                                    22266226.857 7  92445720.04107      1732.605 7        44.302
C05        44.000                                                                                                                                    39536327.913 6 205875891.53106      -584.591 6        38.850    39536333.630 7 159196277.30107      -452.156 7        42.679    39536332.601 6 167291092.64706      -475.392 6        39.051
C40        45.000                                                                                                                                    39611718.570 6 206268529.47506     -1533.045 6        40.608                                                                    39611725.437 6 167610074.46406     -1245.698 6        40.625
G32        46.000    26189710.098 6 137627842.08906      2952.314 6        37.921                                    26189713.414 4 107242497.89704      2300.515 4        25.624    26189714.254 5 107242499.86105      2300.482 5        32.737
C10        49.000                                                                                                                                    38711523.706 6 201581055.32806      -931.571 6        41.423    38711530.513 7 155875270.19307      -720.464 7        44.688    38711526.259 6 163801119.22806      -757.128 6        41.063
C42        50.000                                                                                                                                    24460081.024 7 127369919.95607     -3390.092 7        45.573                                                                    24460095.933 7 103498500.67607     -2754.817 7        45.842
S48        51.000    77238717.901 6 405892429.08506      -557.296 6        38.144
E02        53.000    23304525.993 8 122466190.67808     -1070.101 8        48.854                                                                    23304531.105 8  91452101.57708      -799.079 8        51.575    23304529.666 8  93837790.20408      -819.903 8        51.230
C60        54.000                                                                                                                                    40936832.899 6 213168806.19306      -504.082 6        40.217                                                                    40936828.085 6 173217038.62206      -409.575 6        38.883
C45        55.000                                                                                                                                    25428243.948 6 132411366.29106     -3261.516 6        41.836                                                                    25428246.158 7 107595018.00307     -2650.292 7        42.976
R12        56.000    20090385.276 8 107319298.03908     -2333.385 8        50.963                                                                    20090390.935 7  83470597.12707     -1814.890 7        47.364
C02        57.000                                                                                                                                    41069631.204 5                      -548.272 5        30.596    41069639.608 6 165370174.99206      -424.164 6        36.223    41069638.888 4                      -445.493 4        29.820
I03        58.000   121664080.657 5 401650423.93005       883.848 5        33.922
C14        59.000                                                                                                                                    23780552.784 7 123831481.61807     -2220.164 7        44.855    23780556.873 8  95754320.38908     -1716.705 8        50.176    23780553.297 7 100623186.69007     -1804.089 7        46.991
R13        60.000    19895368.662 7 106240238.18207       668.138 7        46.060
> 2025 01 01 11 15 40.0000000  0 54
G19         1.000    21389052.213 7 112400388.33607       235.849 7        47.500                                    21389052.916 6  87584807.25606       183.776 6        37.970
G25         2.000    25069504.199 6 131741132.16706      3099.188 6        36.756                                    25069516.447 4 102655478.65804      2414.951 4        25.278    25069516.528 5 102655488.66205      2414.965 5        31.419
G24         3.000    20245533.629 8 106391019.04608       242.311 8        50.375                                    20245537.488 8  82902126.69408       188.816 8        52.077    20245537.658 7  82902123.69907       188.749 7        46.301
R02         4.000    21468387.485 8 114559307.16008     -4405.826 8        49.903                                                                    21468396.230 7  89101667.12007     -3426.775 7        44.823
S21         5.000    38530588.906 7 202479268.58507      -557.975 7        42.624
G17         7.000    22555205.494 7 118528543.92007     -2270.120 7        45.863                                    22555209.223 7  92359987.61107     -1768.921 7        42.167    22555209.764 6  92359983.59506     -1768.973 6        40.958
R21         8.000    22440822.168 7 120085433.10907     -1499.033 7        45.008                                                                    22440831.379 7  93399858.67607     -1165.932 7        42.542
E12         9.000    28888463.635 5 151809956.50905     -1076.554 5        30.958                                                                    28888472.256 6 113364645.44706      -804.425 6        36.374    28888470.889 6 116321970.71306      -825.323 6        37.403
E30        10.000    25217642.385 7 132519728.17707      1432.183 7        45.821                                                                    25217650.584 8  98959639.96108      1069.469 8        48.575    25217649.229 8 101541185.20408      1097.390 8        49.230
C26        11.000                                                                                                                                    21929792.710 8 114194190.92208     -1330.137 8        50.833                                                                    21929795.914 8  92792149.55708     -1080.841 8        49.247
S27        12.000    39284822.036 6 206442884.72206      -587.617 6        36.688
G15        13.000    21973238.339 7 115470035.88107     -3718.766 7        47.384                                    21973241.832 7  89976606.99107     -2897.734 7        44.343    21973242.505 7  89976598.98207     -2897.817 7        43.096
S36        14.000    38302023.717 7 201278871.24607      -558.800 7        44.453
G12        15.000    21940162.691 7 115296451.67607      2175.368 7        47.705                                    21940165.223 7  89841460.03507      1695.089 7        45.378    21940165.902 7  89841460.04407      1695.013 7        42.868
R11        16.000    24450156.618 6 130654038.92106     -4017.498 6        40.934                                                                    24450169.207 6 101619758.34406     -3124.675 6        37.796
S45        17.000    63489029.862 6 333638473.47006      -616.017 6        36.170
R03        18.000    20262955.876 8 108469143.55308      -641.973 8        51.384                                                                    20262959.946 7  84364892.10907      -499.391 7        46.775
C35        19.000                                                                                                                                    24098844.071 7 125489109.98707      1661.269 7        45.785                                                                    24098849.692 7 101970250.93807      1349.965 7        45.114
E11        20.000    28034946.267 5 147324650.00505      1123.550 5        34.167                                                                    28034959.777 6 110015221.98506       838.726 6        36.892    28034957.796 6 112885175.42806       860.882 6        36.650
R14        21.000    24017801.323 7 128028365.82707      2778.746 7        43.793                                                                    24017815.143 6  99577663.41206      2161.333 6        38.538
I06        22.000    38391082.395 6 150654895.27806      -527.168 6        41.163
S28        23.000    40989715.655 5 215402174.62005      -568.546 5        34.643
G14        24.000    24447252.584 6 128471011.66206     -3865.269 6        38.691                                    24447263.141 3 100107240.90803     -3011.888 3        21.024    24447263.001 6 100107242.87406     -3011.875 6        38.186
S23        25.000    38236920.899 7 200936210.97207      -561.986 7        44.892
E08        26.000    24060626.969 8 126439365.77008     -2017.426 8        48.468                                                                    24060632.282 8  94418980.68708     -1506.511 8        50.093    24060631.146 8  96882085.03308     -1545.771 8        50.956
C07        27.000                                                                                                                                    39377607.310 6 205049459.13906     -1272.622 6        39.649    39377612.144 7 158557241.93607      -984.109 7        43.126    39377608.231 6 166619465.27306     -1034.085 6        39.877
G13        28.000    23333019.143 7 122615695.04807     -4303.049 7        42.978                                    23333026.362 4  95544637.77704     -3353.013 4        26.587
I02        29.000    36993718.391 7 145171283.00507      -374.962 7        43.024
G10        30.000    24439998.103 6 128432918.23006      -770.547 6        41.125                                    24440008.852 5 100077568.18505      -600.417 5        34.300    24440008.866 6 100077560.17506      -600.488 6        37.887
E07        31.000    24892148.919 7 130809053.55807       889.534 7        45.211                                                                    24892157.836 8  97682082.62608       664.272 8        48.564    24892156.629 8 100230308.91708       681.657 8        49.584
E03        32.000    27083429.643 6 142324208.73106     -3688.875 6        39.345                                                                    27083443.843 7 106281027.20507     -2754.704 7        43.482    27083442.233 7 109053576.21507     -2826.632 7        44.843
E10        33.000    28269811.520 6 148558864.57306       -14.840 6        36.771                                                                    28269828.578 6 110936885.87406       -11.154 6        41.101    28269826.548 6 113830880.01906       -11.520 6        41.356
G02        34.000    26153583.914 5 137438136.40405     -1991.747 5        30.038                                    26153585.604 1 107094717.72901     -1551.985 1         6.375
C24        35.000                                                                                                                                    22576836.358 8 117563542.05708      1246.730 8        49.521                                                                    22576838.052 8  95530028.69108      1013.159 8        49.130
G23        36.000    24199721.044 6 127170213.70706     -2923.764 6        40.749                                    24199729.507 3  99093612.34703     -2278.252 3        23.429    24199729.749 6  99093613.31706     -2278.162 6        38.922
R04        38.000    22623018.065 7 121145114.58107      2809.079 7        45.770                                                                    22623027.351 7  94223957.39807      2184.958 7        43.109
C33        39.000                                                                                                                                    24071621.498 7 125347231.13607      -708.667 7        46.766                                                                    24071639.785 7 101854963.10807      -575.845 7        46.533
E25        40.000    26349298.121 6 138466391.05406     -3046.182 6        41.323                                                                    26349311.091 7 103400198.58307     -2274.802 7        44.778    26349309.358 7 106097590.80807     -2334.123 7        45.503
S44        42.000    40937313.779 6 215127008.95406      -508.785 6        37.108
R22        43.000    22264132.881 7 118847550.30707      2224.599 7        46.444                                                                    22264142.120 7  92437062.84407      1730.227 7        44.060
C05        44.000                                                                                                                                    39536888.560 6 205878815.01806      -584.736 6        38.751    39536895.069 7 159198537.90307      -452.092 7        42.616    39536893.915 6 167293468.18506      -475.050 6        39.204
C40        45.000                                                                                                                                    39613190.893 6 206276195.82306     -1533.532 6        40.517                                                                    39613197.774 6 167616303.97206     -1246.016 6        40.682
G32        46.000    26186900.911 6 137613082.12606      2951.729 6        38.742                                    26186904.904 4 107230996.53004      2300.072 4        25.699    26186906.384 5 107230998.47305      2300.267 5        32.707
C10        49.000                                                                                                                                    38712418.929 6 201585714.39906      -931.954 6        41.366    38712424.873 7 155878872.85807      -720.717 7        44.668    38712420.940 6 163804905.08706      -757.256 6        41.244
C42        50.000                                                                                                                                    24463336.887 7 127386873.70807     -3391.474 7        45.947                                                                    24463351.705 7 103512276.96007     -2755.879 7        46.031
S48        51.000    77239245.799 6 405895215.17706      -557.292 6        37.845
E02        53.000    23305544.754 8 122471544.81908     -1071.654 8        48.707                                                                    23305549.996 8  91456099.78508      -800.288 8        51.504    23305548.508 8  93841892.71508      -821.152 8        51.421
C60        54.000                                                                                                                                    40937316.809 6 213171326.23406      -503.923 6        40.231                                                                    40937311.883 6 173219086.34406      -409.537 6        38.877
C45        55.000                                                                                                                                    25431375.870 7 132427674.66207     -3261.813 7        42.229                                                                    25431378.114 7 107608269.87207     -2650.401 7        43.211
R12        56.000    20092569.569 8 107330968.79808     -2335.026 8        50.671                                                                    20092576.121 7  83479674.36207     -1816.207 7        47.675
C02        57.000                                                                                                                                    41070157.416 5                      -548.055 5        30.106    41070166.401 6 165372294.76206      -423.920 6        36.166    41070164.939 5                      -445.771 5        30.121
I03        58.000   121662953.897 5 401646003.72705       884.169 5        33.599
C14        59.000                                                                                                                                    23782685.103 7 123842588.34307     -2222.586 7        44.730    23782689.654 8  95762908.80408     -1718.665 8        50.075    23782686.208 7 100632211.79707     -1806.072 7        47.139
R13        60.000    19894744.193 7 106236902.65507       666.045 7        45.980
> 2025 01 01 11 15 45.0000000  0 54
G19         1.000    21388829.499 7 112399217.35207       232.428 7        47.118                                    21388830.108 6  87583894.79106       181.113 6        37.943
G25         2.000    25066555.905 6 131725637.89206      3098.370 6        36.892                                    25066567.868 4 102643405.17704      2414.322 4        25.383    25066568.858 5 102643415.20205      2414.399 5        32.653
G24         3.000    20245304.455 8 106389814.08808       239.599 8        50.165                                    20245308.197 8  82901187.75908       186.702 8        52.095    20245308.450 7  82901184.76507       186.721 7        46.366
R02         4.000    21472517.019 8 114581342.49808     -4408.460 8        49.962                                                                    21472524.865 7  89118805.66307     -3428.757 7        45.332
S21         5.000    38531119.375 7 202482058.84607      -558.214 7        42.698
G17         7.000    22557366.772 7 118539901.69807     -2273.030 7        45.530                                    22557370.573 7  92368837.80207     -1771.189 7        42.231    22557371.226 6  92368833.79706     -1771.220 6        41.199
R21         8.000    22442224.468 7 120092939.88707     -1503.758 7        46.449                                                                    22442234.638 7  93405697.23407     -1169.499 7        42.610
E12         9.000    28889489.247 5 151815347.09505     -1079.068 5        30.679                                                                    28889497.933 6 113368670.92106      -805.969 6        36.586    28889496.584 6 116326101.18406      -826.880 6        37.138
E30        10.000    25216280.290 7 132512570.64307      1430.821 7        45.583                                                                    25216288.563 8  98954295.05008      1068.447 8        48.646    25216287.099 8 101535700.85908      1096.328 8        49.171
C26        11.000                                                                                                                                    21931070.913 8 114200845.81408     -1331.779 8        51.067                                                                    21931073.931 8  92797557.18908     -1082.121 8        49.281
S27        12.000    39285377.385 6 206445823.00006      -587.665 6        36.537
G15        13.000    21976777.788 7 115488634.91707     -3720.901 7        46.724                                    21976781.139 7  89991099.71507     -2899.396 7        44.299    21976781.512 7  89991091.69507     -2899.363 7        42.707
S36        14.000    38302556.059 7 201281665.34807      -558.752 7        44.543
G12        15.000    21938093.746 7 115285579.59107      2173.419 7        47.727                                    21938096.293 7  89832988.28407      1693.573 7        45.418    21938096.621 7  89832988.28407      1693.579 7        42.912
R11        16.000    24453915.735 6 130674126.49006     -4017.447 6        41.278                                                                    24453929.281 6 101635382.06406     -3124.800 6        38.577
S45        17.000    63489565.428 6 333641554.00406      -616.310 6        36.295
R03        18.000    20263557.725 8 108472365.72508      -646.903 8        51.224                                                                    20263561.818 7  84367398.23207      -503.102 7        46.990
C35        19.000                                                                                                                                    24097249.912 7 125480808.18707      1659.237 7        45.613                                                                    24097255.409 7 101963505.05407      1348.357 7        45.317
E11        20.000    28033877.836 5 147319037.18605      1121.729 5        33.599                                                                    28033891.643 6 110011030.58306       837.460 6        36.775    28033889.581 6 112880874.71006       859.205 6        36.764
R14        21.000    24015194.475 7 128014473.45107      2778.173 7        43.628                                                                    24015207.780 6  99566858.17306      2160.889 6        37.440
I06        22.000    38391754.222 6 150657531.79806      -527.327 6        41.061
S28        23.000    40990255.403 5 215405017.20105      -568.754 5        34.967
G14        24.000    24450930.760 6 128490339.04706     -3865.902 6        39.012                                    24450941.041 3 100122301.17603     -3012.388 3        21.405    24450941.261 6 100122303.16606     -3012.229 6        37.849
S23        25.000    38237456.461 7 200939021.09707      -562.190 7        45.023
E08        26.000    24062547.683 8 126449458.20208     -2019.654 8        48.377                                                                    24062552.784 8  94426517.22108     -1508.151 8        50.097    24062551.632 8  96889818.17408     -1547.508 8        50.857
C07        27.000                                                                                                                                    39378829.341 6 205055823.45906     -1273.246 6        39.967    39378834.479 7 158562163.21607      -984.498 7        43.215    39378830.347 6 166624636.78406     -1034.538 6        40.162
G13        28.000    23337114.110 7 122637212.80107     -4304.117 7        42.808                                    23337121.161 4  95561404.80504     -3353.842 4        26.263
I02        29.000    36994196.456 7 145173158.71907      -375.392 7        42.910
G10        30.000    24440732.684 6 128436779.02706      -773.837 6        41.366                                    24440743.615 5 100080576.55405      -602.981 5        34.305    24440743.307 6 100080568.53406      -603.037 6        38.312
E07        31.000    24891303.570 7 130804610.83607       887.435 7        45.231                                                                    24891312.396 8  97678765.00308       662.736 8        48.523    24891311.221 8 100226904.74908       679.991 8        49.518
E03        32.000    27086939.743 6 142342655.21706     -3689.632 6        39.234                                                                    27086954.124 7 106294802.10307     -2755.224 7        43.577    27086952.458 7 109067710.46307     -2827.068 7        44.728
E10        33.000    28269827.328 6 148558945.45206       -17.402 6        36.745                                                                    28269843.642 6 110936946.25806       -12.972 6        41.168    28269841.485 6 113830941.98206       -13.332 6        41.182
G02        34.000    26155479.661 5 137448101.50305     -1994.483 5        30.196                                    26155481.916 1 107102482.94201     -1554.144 1         5.000
C24        35.000                                                                                                                                    22575639.444 8 117557311.41608      1245.486 8        49.429                                                                    22575641.592 8  95524965.78108      1012.097 8        49.258
G23        36.000    24202504.133 6 127184837.35706     -2925.844 6        41.321                                    24202512.515 3  99105007.34903     -2279.878 3        23.771    24202512.856 6  99105008.35406     -2280.020 6        38.501
R04        38.000    22620395.817 7 121131076.45207      2806.145 7        45.306                                                                    22620404.767 7  94213038.86007      2182.574 7        42.214
C33        39.000                                                                                                                                    24072303.622 7 125350782.16307      -711.812 7        46.926                                                                    24072321.621 7 101857848.59207      -578.308 7        46.678
E25        40.000    26352196.797 6 138481623.33706     -3046.742 6        41.223                                                                    26352209.690 7 103411573.28707     -2275.162 7        44.825    26352208.062 7 106109262.25407     -2334.520 7        45.536
S44        42.000    40937798.923 6 215129552.48306      -508.856 6        37.361
R22        43.000    22262050.117 7 118836435.10707      2221.425 7        46.684                                                                    22262059.035 7  92428417.70907      1727.912 7        43.348
C05        44.000                                                                                                                                    39537450.321 6 205881738.87406      -584.946 6        38.802    39537456.342 7 159200798.80507      -452.290 7        42.864    39537455.474 6 167295844.04106      -475.070 6        39.261
C40        45.000                                                                                                                                    39614663.317 6 206283864.87006     -1534.005 6        40.667                                                                    39614670.533 6 167622535.67606     -1246.480 6        40.679
G32        46.000    26184093.108 6 137598325.41506      2950.958 6        38.429                                    26184097.007 4 107219497.71904      2299.452 4        26.108    26184097.639 5 107219499.72205      2299.228 5        32.922
C10        49.000                                                                                                                                    38713314.467 6 201590376.16306      -932.846 6        41.497    38713320.172 7 155882477.60707      -721.243 7        44.932    38713316.111 6 163808693.12506      -757.891 6        41.330
C42        50.000                                                                                                                                    24466594.342 7 127403835.03507     -3393.047 7        45.549                                                                    24466609.094 7 103526059.38707     -2757.110 7        46.100
S48        51.000    77239778.378 6 405898001.80306      -557.464 6        38.090
E02        53.000    23306565.266 8 122476906.99408     -1073.346 8        48.554                                                                    23306570.401 8  91460103.98108      -801.452 8        51.530    23306568.919 8  93846001.37108      -822.365 8        51.341
C60        54.000                                                                                                                                    40937800.916 6 213173846.63506      -504.156 6        40.334                                                                    40937795.847 6 173221134.36206      -409.687 6        38.997
C45        55.000                                                                                                                                    25434508.339 7 132443985.16007     -3262.383 7        42.643                                                                    25434510.433 7 107621523.46807     -2650.977 7        43.435
R12        56.000    20094755.841 8 107342648.53508     -2336.938 8        50.493                                                                    20094762.442 7  83488758.57707     -1817.623 7        47.346
C02        57.000                                                                                                                                    41070683.610 5                      -548.424 5        30.347    41070692.416 6 165374414.79906      -424.211 6        36.121    41070691.562 5                      -445.498 5        30.400
I03        58.000   121661827.259 5 401641583.67505       883.782 5        33.509
C14        59.000                                                                                                                                    23784819.946 7 123853707.92607     -2225.276 7        44.644    23784825.021 8  95771507.13808     -1720.721 8        50.233    23784821.705 7 100641247.34107     -1808.157 7        47.254
R13        60.000    19894120.861 7 106233578.07207       663.746 7        46.030
> 2025 01 01 11 15 50.0000000  0 54
G19         1.000    21388609.716 7 112398063.33407       228.952 7        47.038                                    21388610.503 6  87582995.54906       178.414 6        38.009
G25         2.000    25063608.069 6 131710145.99106      3098.017 6        36.722                                    25063619.861 4 102631333.56604      2414.036 4        25.729    25063621.697 5 102631343.58105      2414.210 5        32.719
G24         3.000    20245077.466 8 106388622.30008       236.870 8        50.111                                    20245081.414 8  82900259.09108       184.575 8        52.120    20245081.748 7  82900256.08407       184.604 7        46.373
R02         4.000    21476648.498 8 114603390.47308     -4410.967 8        49.641                                                                    21476656.788 7  89135954.03707     -3430.743 7        45.252
S21         5.000    38531650.903 7 202484849.80307      -558.371 7        42.722
G17         7.000    22559530.614 7 118551273.48807     -2275.851 7        45.190                                    22559534.561 7  92377698.91907     -1773.384 7        42.205    22559535.355 6  92377694.90306     -1773.386 6        41.297
R21         8.000    22443632.008 7 120100469.42107     -1508.246 7        46.406                                                                    22443641.744 7  93411553.52507     -1173.165 7        42.762
E12         9.000    28890517.477 5 151820750.23305     -1081.753 5        31.577                                                                    28890526.133 6 113372705.78306      -808.061 6        36.548    28890524.828 6 116330241.33606      -829.128 6        37.164
E30        10.000    25214919.177 7 132505419.59707      1429.265 7        45.803                                                                    25214927.756 8  98948954.98208      1067.375 8        48.669    25214926.371 8 101530221.48408      1095.231 8        49.091
C26        11.000                                                                                                                                    21932350.468 8 114207508.35108     -1333.381 8        51.127                                                                    21932353.467 8  92802971.04908     -1083.421 8        49.380
S27        12.000    39285935.099 6 206448761.73106      -588.037 6        36.541
G15        13.000    21980319.183 7 115507244.38907     -3723.072 7        47.441                                    21980322.387 7  90005600.56907     -2901.088 7        44.281    21980322.335 7  90005592.55407     -2901.000 7        42.298
S36        14.000    38303087.422 7 201284459.27607      -558.871 7        44.448
G12        15.000    21936026.483 7 115274716.96307      2171.433 7        47.474                                    21936029.169 7  89824523.90007      1692.025 7        45.413    21936029.810 7  89824523.91507      1691.962 7        42.997
R11        16.000    24457675.065 6 130694213.71806     -4017.675 6        41.101                                                                    24457688.012 6 101651005.46806     -3124.752 6        38.970
S45        17.000    63490104.715 6 333643035.08716      -616.443 6        36.423
R03        18.000    20264163.778 8 108475611.88108      -651.739 8        51.295                                                                    20264168.487 7  84369923.01407      -506.988 7        46.869
C35        19.000                                                                                                                                    24095657.672 7 125472516.43907      1657.279 7        45.466                                                                    24095663.270 7 101956767.35507      1346.653 7        45.690
E11        20.000    28032811.618 5 147313434.14205      1119.368 5        33.970                                                                    28032825.238 6 110006846.48706       835.736 6        36.552    28032823.270 6 112876581.44806       857.791 6        36.885
R14        21.000    24012588.526 7 128000584.00507      2777.357 7        42.834                                                                    24012602.067 6  99556055.26106      2160.246 6        38.715
I06        22.000    38392426.177 6 150660168.69406      -527.480 6        41.015
S28        23.000    40990800.511 5 215407859.91305      -568.541 5        34.743
G14        24.000    24454608.669 6 128509668.06406     -3866.091 6        39.297                                    24454619.040 3 100137362.72103     -3012.538 3        21.643    24454619.661 6 100137364.72906     -3012.582 6        37.792
S23        25.000    38237992.036 7 200941831.65407      -562.298 7        44.924
E08        26.000    24064470.323 8 126459561.53308     -2021.880 8        48.563                                                                    24064475.405 8  94434061.90008     -1509.806 8        50.112    24064474.250 8  96897559.67708     -1549.226 8        50.785
C07        27.000                                                                                                                                    39380052.060 6 205062190.07506     -1273.673 6        40.174    39380057.198 7 158567086.27507      -984.907 7        43.198    39380053.063 6 166629810.18206     -1034.880 6        40.157
G13        28.000    23341210.568 7 122658735.70007     -4305.185 7        42.936                                    23341216.756 4  95578175.84404     -3354.674 4        25.624
I02        29.000    36994674.636 7 145175035.82707      -375.656 7        43.071
G10        30.000    24441470.803 6 128440655.71006      -777.119 6        40.791                                    24441481.393 5 100083597.31105      -605.539 5        34.257    24441481.029 6 100083589.31206      -605.651 6        38.706
E07        31.000    24890460.054 7 130800178.14907       885.410 7        45.556                                                                    24890468.868 8  97675454.88208       661.136 8        48.591    24890467.691 8 100223508.27208       678.431 8        49.488
E03        32.000    27090450.776 6 142361104.87106     -3690.475 6        39.544                                                                    27090465.036 7 106308579.38107     -2755.750 7        43.651    27090463.477 7 109081847.16207     -2827.749 7        44.695
E10        33.000    28269844.951 6 148559038.89006       -20.225 6        37.043                                                                    28269861.327 6 110937016.03306       -14.981 6        40.963    28269859.221 6 113831013.57606       -15.330 6        40.951
G02        34.000    26157378.656 4 137458079.31204     -1996.686 4        28.882                                    26157380.545 1 107110257.95401     -1555.829 1         5.286
C24        35.000                                                                                                                                    22574444.139 8 117551086.87708      1244.188 8        49.470                                                                    22574446.223 8  95519907.84908      1011.028 8        49.355
G23        36.000    24205288.670 6 127199470.73606     -2927.710 6        41.261                                    24205297.482 3  99116409.95703     -2281.317 3        23.619    24205297.607 6  99116410.93306     -2281.368 6        38.465
R04        38.000    22617776.810 7 121117052.70107      2803.064 7        45.768                                                                    22617785.508 7  94202131.46307      2180.129 7        42.252
C33        39.000                                                                                                                                    24072988.338 7 125354348.41507      -714.863 7        46.836                                                                    24073006.577 7 101860746.47807      -580.838 7        46.716
E25        40.000    26355096.178 6 138496858.05106     -3047.237 6        41.466                                                                    26355108.855 7 103422949.83007     -2275.609 7        44.933    26355107.219 7 106120935.56607     -2334.879 7        45.606
S44        42.000    40938283.871 6 215132096.35806      -509.109 6        37.142
R22        43.000    22259971.051 7 118825335.40807      2218.278 7        46.612                                                                    22259979.817 7  92419784.64007      1725.342 7        43.192
C05        44.000                                                                                                                                    39538012.100 6 205884663.08706      -584.962 6        38.994    39538018.090 7 159203059.97607      -452.397 7        42.654    39538017.173 6 167298220.21006      -475.243 6        39.450
C40        45.000                                                                                                                                    39616136.446 6 206291536.62206     -1534.709 6        40.851                                                                    39616143.835 6 167628769.59906     -1247.022 6        40.875
G32        46.000    26181285.040 6 137583571.89906      2950.209 6        39.492                                    26181289.651 4 107208001.41104      2298.876 4        27.293    26181289.905 5 107208003.38005      2299.044 5        33.778
C10        49.000                                                                                                                                    38714209.900 6 201595040.65406      -933.427 6        41.619    38714215.946 7 155886084.47607      -721.745 7        44.894    38714211.930 6 163812483.40906      -758.367 6        41.371
C42        50.000                                                                                                                                    24469852.912 7 127420803.91207     -3394.729 7        45.196                                                                    24469867.819 7 103539847.94807     -2758.320 7        46.252
S48        51.000    77240304.487 6 405900788.89306      -557.661 6        37.977
E02        53.000    23307587.170 8 122482277.19808     -1074.983 8        48.817                                                                    23307592.357 8  91464114.18608      -802.735 8        51.551    23307590.809 8  93850116.19208      -823.674 8        51.232
C60        54.000                                                                                                                                    40938285.175 6 213176367.40206      -504.316 6        40.393                                                                    40938279.971 6 173223182.67806      -409.715 6        39.162
C45        55.000                                                                                                                                    25437641.308 7 132460297.75907     -3262.847 7        42.557                                                                    25437643.033 7 107634778.76807     -2651.319 7        43.575
R12        56.000    20096944.493 8 107354337.25008     -2338.782 8        50.996                                                                    20096950.380 7  83497849.78007     -1818.997 7        47.358
C02        57.000                                                                                                                                    41071210.487 5                      -548.580 5        30.536    41071219.155 6 165376535.06706      -424.075 6        36.166    41071218.337 5                      -446.093 5        30.279
I03        58.000   121660701.443 5 401637163.77805       883.954 5        33.479
C14        59.000                                                                                                                                    23786958.017 7 123864840.24907     -2227.983 7        45.260    23786962.939 8  95780115.33908     -1722.732 8        49.841    23786959.657 7 100650293.25807     -1810.234 7        47.335
R13        60.000    19893501.073 7 106230264.41807       661.484 7        46.178
> 2025 01 01 11 15 55.0000000  0 54
G19         1.000    21388393.533 7 112396926.44407       225.832 7        47.374                                    21388394.152 6  87582109.65406       175.975 6        38.069
G25         2.000    25060660.810 6 131694656.71606      3097.717 6        36.888                                    25060672.409 4 102619263.99504      2413.813 4        26.180    25060673.317 5 102619273.99605      2413.899 5        33.311
G24         3.000    20244853.512 8 106387443.89408       234.496 8        50.150                                    20244857.176 8  82899340.84508       182.725 8        52.165    20244857.349 7  82899337.84007       182.845 7        46.109
R02         4.000    21480782.518 8 114625450.99408     -4413.156 8        48.844                                                                    21480791.141 7  89153112.19307     -3432.512 7        44.852
S21         5.000    38532182.213 7 202487641.56107      -558.172 7        42.660
G17         7.000    22561697.215 7 118562659.49307     -2278.408 7        45.105                                    22561701.272 7  92386571.10707     -1775.377 7        42.203    22561701.993 6  92386567.09806     -1775.359 6        41.466
R21         8.000    22445042.947 7 120108021.74907     -1512.574 7        46.188                                                                    22445052.622 7  93417427.52607     -1176.373 7        42.364
E12         9.000    28891547.922 5 151826166.26205     -1084.349 5        32.180                                                                    28891556.922 6 113376750.32406      -809.639 6        36.987    28891555.246 6 116334391.35706      -830.859 6        37.422
E30        10.000    25213559.933 7 132498275.19207      1428.374 7        45.818                                                                    25213568.227 8  98943619.88108      1066.626 8        48.630    25213566.872 8 101524747.20708      1094.426 8        49.100
C26        11.000                                                                                                                                    21933631.265 8 114214178.72408     -1334.729 8        51.051                                                                    21933634.425 8  92808391.26508     -1084.552 8        49.340
S27        12.000    39286496.538 6 206451700.68106      -587.588 6        36.730
G15        13.000    21983862.615 7 115525864.47607     -3724.906 7        46.806                                    21983865.656 7  90020109.69407     -2902.515 7        44.352    21983865.800 7  90020101.68207     -2902.456 7        42.398
S36        14.000    38303620.573 7 201287254.25107      -558.986 7        44.602
G12        15.000    21933961.284 7 115263863.99607      2169.803 7        47.161                                    21933963.910 7  89816067.04607      1690.755 7        45.463    21933964.082 7  89816067.04407      1690.772 7        42.830
R11        16.000    24461434.360 6 130714300.74206     -4017.179 6        40.970                                                                    24461446.800 6 101666628.75606     -3124.368 6        38.979
S45        17.000    63490639.798 6 333646116.76306      -616.436 6        36.272
R03        18.000    20264774.792 8 108478882.23408      -656.334 8        51.405                                                                    20264778.965 7  84372466.60707      -510.508 7        46.742
C35        19.000                                                                                                                                    24094067.807 7 125464234.92407      1655.503 7        45.982                                                                    24094073.200 7 101950037.96507      1345.123 7        45.717
E11        20.000    28031747.570 5 147307841.00805      1117.912 5        33.886                                                                    28031760.726 6 110002669.80306       834.661 6        36.609    28031759.133 6 112872295.81306       856.386 6        36.760
R14        21.000    24009983.642 7 127986697.55407      2777.106 7        43.793                                                                    24009997.310 6  99545254.65006      2160.048 6        38.141
I06        22.000    38393098.273 6 150662806.11006      -527.320 6        41.108
S28        23.000    40991334.141 5 215410703.44905      -568.466 5        34.943
G14        24.000    24458287.126 6 128528998.90606     -3866.121 6        39.237                                    24458297.705 3 100152425.69703     -3012.567 3        21.548    24458298.640 6 100152427.67706     -3012.559 6        38.183
S23        25.000    38238526.176 7 200944642.87707      -562.108 7        45.008
E08        26.000    24066394.935 8 126469675.94008     -2023.829 8        48.385                                                                    24066400.168 8  94441614.85608     -1511.295 8        50.059    24066398.977 8  96905309.66908     -1550.779 8        50.791
C07        27.000                                                                                                                                    39381275.382 6 205068559.20606     -1273.867 6        40.253    39381280.262 7 158572011.26707      -985.112 7        43.198    39381276.212 6 166634985.61306     -1035.155 6        40.017
G13        28.000    23345307.213 7 122680263.91307     -4305.922 7        43.090                                    23345313.218 4  95594951.02204     -3355.258 4        25.850
I02        29.000    36995153.431 7 145176914.53007      -375.796 7        43.014
G10        30.000    24442211.488 6 128444548.46206      -780.022 6        41.271                                    24442222.202 5 100086630.58505      -607.805 5        34.271    24442221.562 6 100086622.57706      -607.556 6        38.099
E07        31.000    24889618.617 7 130795755.70107       883.638 7        45.127                                                                    24889627.281 8  97672152.39308       659.849 8        48.585    24889626.075 8 100220119.63608       677.058 8        49.408
E03        32.000    27093962.089 6 142379557.86206     -3690.736 6        39.129                                                                    27093976.590 7 106322359.15107     -2756.086 7        43.687    27093975.085 7 109095986.41107     -2827.990 7        44.767
E10        33.000    28269865.295 6 148559145.03306       -22.314 6        37.028                                                                    28269881.570 6 110937095.29506       -16.746 6        40.825    28269879.487 6 113831094.91906       -17.310 6        40.901
G02        34.000    26159280.063 5 137468069.96605     -1999.017 5        31.577                                    26159281.597 1 107118043.00001     -1557.740 1         6.375
C24        35.000                                                                                                                                    22573250.084 8 117544868.62208      1243.175 8        49.392                                                                    22573252.054 8  95514855.01308      1010.139 8        49.273
G23        36.000    24208074.818 6 127214114.01006     -2929.500 6        41.197                                    24208084.027 3  99127820.26003     -2282.731 3        23.638    24208084.213 6  99127821.24606     -2282.835 6        38.910
R04        38.000    22615161.202 7 121103043.65707      2800.510 7        46.109                                                                    22615170.562 7  94191235.54407      2178.220 7        43.591
C33        39.000                                                                                                                                    24073676.076 7 125357930.07607      -717.680 7        46.622                                                                    24073694.354 7 101863656.85407      -583.190 7        46.674
E25        40.000    26357995.592 6 138512095.36906     -3047.610 6        41.411                                                                    26358008.391 7 103434328.30107     -2275.847 7        44.928    26358006.703 7 106132610.87907     -2335.120 7        45.612
S44        42.000    40938766.207 6 215134640.77906      -508.709 6        37.285
R22        43.000    22257895.356 7 118814251.46307      2215.339 7        46.816                                                                    22257903.199 7  92411163.80507      1723.156 7        42.847
C05        44.000                                                                                                                                    39538573.410 6 205887587.83006      -584.767 6        38.787    39538579.900 7 159205321.57007      -452.326 7        42.859    39538578.657 6 167300596.80206      -475.307 6        39.327
C40        45.000                                                                                                                                    39617610.583 6 206299211.23906     -1534.946 6        40.992                                                                    39617617.725 6 167635005.84206     -1247.380 6        40.744
G32        46.000    26178478.225 6 137568821.63706      2949.807 6        39.171                                    26178482.818 4 107196507.58304      2298.573 4        27.808    26178483.977 5 107196509.55705      2298.754 5        33.695
C10        49.000                                                                                                                                    38715106.502 6 201599708.04606      -933.545 6        41.657    38715112.249 7 155889693.59507      -721.919 7        44.989    38715108.303 6 163816276.05706      -758.658 6        41.211
C42        50.000                                                                                                                                    24473112.660 7 127437780.46507     -3395.925 7        45.539                                                                    24473127.989 7 103553642.76907     -2759.435 7        46.098
S48        51.000    77240833.292 6 405903576.69406      -557.322 6        38.108
E02        53.000    23308610.735 8 122487655.60608     -1076.334 8        48.478                                                                    23308615.831 8  91468130.51808      -803.750 8        51.516    23308614.336 8  93854237.29808      -824.715 8        51.199
C60        54.000                                                                                                                                    40938769.027 6 213178888.70606      -504.331 6        40.267                                                                    40938764.342 6 173225231.42806      -409.689 6        39.195
C45        55.000                                                                                                                                    25440774.399 7 132476612.63107     -3263.073 7        42.273                                                                    25440776.104 7 107648035.90707     -2651.457 7        43.435
R12        56.000    20099134.313 8 107366035.12708     -2340.278 8        50.862                                                                    20099140.282 7  83506948.10907     -1820.253 7        47.360
C02        57.000                                                                                                                                    41071736.824 5                      -548.258 5        30.204    41071745.680 6 165378655.72106      -424.119 6        36.106    41071745.027 5                      -445.836 5        30.000
I03        58.000   121659575.664 5 401632744.11505       884.248 5        33.443
C14        59.000                                                                                                                                    23789099.948 7 123875985.57507     -2230.273 7        45.371    23789103.215 8  95788733.58908     -1724.555 8        50.070    23789099.973 7 100659349.73807     -1812.198 7        47.222
R13        60.000    19892882.945 7 106226962.07707       659.569 7        46.215
> 2025 01 01 11 16  0.0000000  0 54
G19         1.000    21388180.279 7 112395805.84707       222.643 7        47.381                                    21388180.874 6  87581236.45406       173.497 6        38.210
G25         2.000    25057713.299 6 131679169.20706      3097.307 6        36.945                                    25057725.391 4 102607195.80304      2413.485 4        26.826    25057726.475 5 102607205.81605      2413.530 5        33.796
G24         3.000    20244631.452 8 106386278.03508       232.072 8        50.101                                    20244635.312 8  82898432.38308       180.836 8        52.363    20244635.552 7  82898429.38707       180.811 7        46.051
R02         4.000    21484918.845 8 114647523.07908     -4415.416 8        49.612                                                                    21484927.143 7  89170279.31907     -3434.254 7        44.876
S21         5.000    38532711.872 7 202490433.27507      -558.242 7        42.792
G17         7.000    22563866.973 7 118574058.85107     -2281.099 7        44.865                                    22563870.514 7  92395453.70607     -1777.477 7        42.354    22563871.343 6  92395449.69206     -1777.355 6        41.928
R21         8.000    22446458.612 7 120115596.02307     -1516.898 7        46.532                                                                    22446468.465 7  93423318.61107     -1179.843 7        42.157
E12         9.000    28892580.607 5 151831594.19905     -1086.573 5        32.359                                                                    28892589.488 6 113380803.73006      -811.440 6        36.813    28892587.859 6 116338550.50706      -832.822 6        37.191
E30        10.000    25212201.596 7 132491136.61307      1427.225 7        45.750                                                                    25212209.777 8  98938289.12408      1065.789 8        48.698    25212208.379 8 101519277.38508      1093.648 8        49.112
C26        11.000                                                                                                                                    21934913.497 8 114220856.09408     -1336.096 8        51.021                                                                    21934916.777 8  92813817.16308     -1085.599 8        49.493
S27        12.000    39287056.005 6 206454639.36006      -587.515 6        36.862
G15        13.000    21987407.438 7 115544494.32007     -3726.783 7        47.170                                    21987410.830 7  90034626.42407     -2903.978 7        44.513    21987411.318 7  90034618.41907     -2904.007 7        42.154
S36        14.000    38304152.191 7 201290049.35407      -558.811 7        44.685
G12        15.000    21931897.856 7 115253019.83007      2168.104 7        47.261                                    21931900.341 7  89807617.04907      1689.432 7        45.685    21931900.734 7  89807617.05707      1689.363 7        42.993
R11        16.000    24465192.289 6 130734386.71306     -4016.924 6        40.467                                                                    24465205.715 6 101682251.21606     -3124.328 6        39.276
S45        17.000    63491179.313 6 333649198.21606      -616.165 6        36.378
R03        18.000    20265390.525 8 108482175.88508      -660.908 8        51.555                                                                    20265394.682 7  84375028.33807      -514.034 7        47.357
C35        19.000                                                                                                                                    24092479.232 7 125455962.83407      1653.618 7        46.399                                                                    24092484.661 7 101943316.23107      1343.688 7        45.986
E11        20.000    28030684.591 5 147302257.06005      1116.021 5        34.071                                                                    28030698.465 6 109998499.90506       833.728 6        36.405    28030696.432 6 112868017.18006       855.257 6        36.749
R14        21.000    24007379.142 7 127972813.21707      2776.832 7        42.444                                                                    24007392.572 6  99534455.71106      2159.723 6        38.357
I06        22.000    38393770.085 6 150665443.43806      -527.299 6        41.070
S28        23.000    40991879.831 5 215413546.94905      -568.759 5        35.024
G14        24.000    24461965.416 6 128548330.74606     -3866.450 6        39.324                                    24461976.460 3 100167489.44603     -3012.815 3        22.171    24461977.170 6 100167491.44106     -3012.753 6        38.360
S23        25.000    38239061.076 7 200947453.82207      -562.037 7        45.199
E08        26.000    24068321.555 8 126479800.59408     -2025.794 8        48.359                                                                    24068326.851 8  94449175.46208     -1512.765 8        50.072    24068325.700 8  96913067.50508     -1552.245 8        50.767
C07        27.000                                                                                                                                    39382499.120 6 205074930.06606     -1274.273 6        40.217    39382503.583 7 158576937.60907      -985.394 7        43.291    39382499.641 6 166640162.44106     -1035.327 6        40.369
G13        28.000    23349404.658 7 122701796.61607     -4306.847 7        43.223                                    23349410.517 4  95611729.71404     -3355.967 4        26.000
I02        29.000    36995632.589 7 145178794.08507      -375.882 7        43.153
G10        30.000    24442955.196 6 128448456.45606      -783.018 6        41.571                                    24442965.896 5 100089675.73605      -610.136 5        34.490    24442965.015 6 100089667.72506      -610.155 6        37.569
E07        31.000    24888779.005 7 130791342.64107       881.760 7        45.297                                                                    24888787.560 8  97668856.92608       658.463 8        48.500    24888786.349 8 100216738.20008       675.647 8        49.378
E03        32.000    27097474.079 6 142398013.37906     -3691.289 6        39.213                                                                    27097488.578 7 106336140.80107     -2756.437 7        43.716    27097487.063 7 109110127.58907     -2828.370 7        44.817
E10        33.000    28269887.649 6 148559263.06506       -24.658 6        37.149                                                                    28269904.222 6 110937183.43906       -18.384 6        40.675    28269902.092 6 113831185.34606       -18.903 6        40.918
G02        34.000    26161184.516 5 137478072.52305     -2001.730 5        33.120                                    26161184.782 1 107125837.31401     -1559.815 1         7.500
C24        35.000                                                                                                                                    22572057.046 8 117538655.82608      1242.148 8        49.417                                                                    22572058.966 8  95509806.60608      1009.367 8        49.393
G23        36.000    24210862.760 6 127228766.37306     -2931.278 6        40.558                                    24210872.142 3  99139237.64503     -2284.099 3        23.943    24210872.518 6  99139238.62306     -2284.172 6        39.108
R04        38.000    22612547.373 7 121089048.17107      2797.899 7        46.093                                                                    22612556.665 7  94180350.17107      2176.071 7        42.705
C33        39.000                                                                                                                                    24074366.676 7 125361526.31607      -720.536 7        46.647                                                                    24074384.998 7 101866579.08707      -585.455 7        46.756
E25        40.000    26360895.545 6 138527334.46206     -3047.868 6        41.013                                                                    26360908.203 7 103445708.10007     -2276.021 7        44.801    26360906.534 7 106144287.55107     -2335.409 7        45.371
S44        42.000    40939251.454 6 215137184.94306      -508.774 6        37.338
R22        43.000    22255821.927 7 118803182.42607      2212.427 7        46.722                                                                    22255829.107 7  92402554.58207      1720.823 7        43.194
C05        44.000                                                                                                                                    39539135.341 6 205890512.32506      -584.790 6        38.805    39539141.357 7 159207582.94707      -452.159 7        42.758    39539140.440 6 167302973.17606      -475.159 6        39.309
C40        45.000                                                                                                                                    39619084.544 6 206306887.90806     -1535.403 6        41.070                                                                    39619091.960 6 167641243.73306     -1247.620 6        40.906
G32        46.000    26175671.830 6 137554074.00606      2949.376 6        38.913                                    26175676.570 4 107185015.81304      2298.235 4        27.126    26175676.488 5 107185017.79805      2298.107 5        33.084
C10        49.000                                                                                                                                    38716003.385 6 201604377.48206      -933.907 6        41.766    38716008.906 7 155893304.28907      -722.225 7        44.919    38716005.000 6 163820070.34606      -758.883 6        41.464
C42        50.000                                                                                                                                    24476374.891 7 127454763.90607     -3397.240 7        45.577                                                                    24476389.483 7 103567443.17007     -2760.482 7        46.153
S48        51.000    77241365.281 6 405906364.27606      -557.571 6        38.192
E02        53.000    23309635.543 8 122493041.38508     -1077.748 8        48.678                                                                    23309640.736 8  91472152.35008      -804.809 8        51.505    23309639.176 8  93858364.05208      -825.827 8        51.267
C60        54.000                                                                                                                                    40939253.558 6 213181409.72106      -504.174 6        40.381                                                                    40939248.409 6 173227279.94406      -409.613 6        39.300
C45        55.000                                                                                                                                    25443907.996 7 132492928.97007     -3263.320 7        42.080                                                                    25443909.541 7 107661294.24207     -2651.759 7        43.431
R12        56.000    20101325.452 8 107377741.19208     -2341.917 8        50.829                                                                    20101331.723 7  83516052.80607     -1821.460 7        46.866
C02        57.000                                                                                                                                    41072262.960 5                      -548.288 5        30.325    41072272.750 6 165380776.11206      -424.062 6        36.125    41072271.484 5                      -445.282 5        30.558
I03        58.000   121658448.971 5 401628324.13405       884.164 5        33.569
C14        59.000                                                                                                                                    23791242.800 7 123887143.07907     -2232.547 7        45.419    23791246.403 8  95797361.25308     -1726.336 8        50.097    23791242.681 7 100668416.09507     -1814.003 7        47.413
R13        60.000    19892265.763 7 106223669.93707       657.520 7        46.074
> 2025 01 01 11 16  5.0000000  0 54
G19         1.000    21387970.009 7 112394701.70707       219.143 7        47.002                                    21387970.721 6  87580376.07706       170.759 6        38.198
G25         2.000    25054767.061 6 131663683.57906      3096.860 6        36.291                                    25054778.802 4 102595129.07204      2413.145 4        26.611    25054780.002 5 102595139.08905      2413.299 5        33.467
G24         3.000    20244412.180 8 106385124.86008       229.342 8        50.021                                    20244415.876 8  82897533.80008       178.707 8        52.359    20244416.113 7  82897530.80807       178.666 7        46.049
R02         4.000    21489058.092 8 114669607.14908     -4418.124 8        49.308                                                                    21489065.979 7  89187455.77207     -3436.269 7        44.822
S21         5.000    38533244.455 7 202493224.98907      -558.399 7        42.827
G17         7.000    22566038.388 7 118585471.71307     -2283.977 7        45.225                                    22566042.337 7  92404346.82207     -1779.717 7        42.349    22566042.604 6  92404342.82506     -1779.856 6        41.530
R21         8.000    22447877.895 7 120123192.40407     -1521.561 7        46.051                                                                    22447888.077 7  93429226.87207     -1183.399 7        42.195
E12         9.000    28893616.003 5 151837034.23405     -1089.475 5        32.263                                                                    28893624.729 6 113384866.15406      -813.612 6        36.718    28893622.997 6 116342718.88106      -834.629 6        36.949
E30        10.000    25210844.173 7 132484004.00707      1425.888 7        45.774                                                                    25210852.497 8  98932962.82608      1064.796 8        48.618    25210851.096 8 101513812.14308      1092.558 8        49.260
C26        11.000                                                                                                                                    21936197.233 8 114227540.61608     -1337.735 8        50.808                                                                    21936200.464 8  92819248.87208     -1087.038 8        49.219
S27        12.000    39287614.815 6 206457578.66906      -587.982 6        36.737
G15        13.000    21990954.675 7 115563134.05607     -3729.010 7        47.194                                    21990957.922 7  90049150.86307     -2905.714 7        44.494    21990958.170 7  90049142.84507     -2905.710 7        42.044
S36        14.000    38304683.353 7 201292844.31007      -559.224 7        44.706
G12        15.000    21929836.156 7 115242184.64707      2166.060 7        47.706                                    21929838.498 7  89799174.05407      1687.838 7        45.737    21929839.024 7  89799174.05707      1687.856 7        43.281
R11        16.000    24468951.016 6 130754471.80006     -4017.010 6        41.135                                                                    24468963.933 6 101697873.00506     -3124.288 6        39.162
S45        17.000    63491713.439 6 333652279.63906      -616.375 6        36.476
R03        18.000    20266010.598 8 108485493.17408      -665.926 8        51.614                                                                    20266014.445 7  84377608.44507      -517.942 7        47.081
C35        19.000                                                                                                                                    24090892.146 7 125447700.34307      1651.482 7        46.455                                                                    24090897.820 7 101936602.29707      1341.952 7        45.843
E11        20.000    28029624.021 5 147296682.36605      1113.953 5        33.617                                                                    28029637.756 6 109994337.02806       831.839 6        36.465    28029635.594 6 112863745.66806       853.598 6        36.752
R14        21.000    24004774.715 7 127958931.28007      2776.109 7        42.715                                                                    24004787.697 6  99523658.59506      2159.149 6        37.297
I06        22.000    38394442.166 6 150668080.77806      -527.610 6        41.008
S28        23.000    40992417.253 5 215416390.45105      -568.973 5        35.319
G14        24.000    24465644.898 6 128567663.69806     -3866.734 6        39.559                                    24465655.398 3 100182554.04803     -3013.039 3        22.400    24465655.726 6 100182556.03706     -3012.919 6        38.739
S23        25.000    38239596.137 7 200950264.60207      -562.225 7        45.195
E08        26.000    24070250.427 8 126489935.64208     -2028.166 8        48.511                                                                    24070255.473 8  94456743.82408     -1514.527 8        50.066    24070254.353 8  96920833.30608     -1554.016 8        50.852
C07        27.000                                                                                                                                    39383723.288 6 205081302.71306     -1274.698 6        40.288    39383727.494 7 158581865.34107      -985.800 7        43.211    39383723.499 6 166645340.74006     -1036.004 6        40.038
G13        28.000    23353503.243 7 122723333.88607     -4307.924 7        43.027                                    23353508.736 4  95628511.95604     -3356.826 4        25.805
I02        29.000    36996111.631 7 145180674.69107      -376.286 7        43.111
G10        30.000    24443702.182 6 128452379.84806      -786.314 6        41.254                                    24443712.567 5 100092732.88805      -612.701 5        34.362    24443712.318 6 100092724.88006      -612.755 6        38.132
E07        31.000    24887940.895 7 130786939.15207       879.721 7        45.234                                                                    24887949.654 8  97665568.60308       656.937 8        48.577    24887948.427 8 100213364.09708       674.021 8        49.576
E03        32.000    27100986.760 6 142416471.52806     -3691.910 6        39.538                                                                    27101001.140 7 106349924.41607     -2756.966 7        43.854    27100999.523 7 109124270.78207     -2828.832 7        44.822
E10        33.000    28269912.259 6 148559393.15706       -27.268 6        36.820                                                                    28269929.010 6 110937280.56506       -20.291 6        40.775    28269927.067 6 113831285.01306       -20.852 6        40.996
G02        34.000    26163089.876 5 137488087.06305     -2004.140 5        33.222                                    26163090.342 1 107133641.00401     -1561.714 1         7.500
C24        35.000                                                                                                                                    22570865.075 8 117532448.63708      1240.820 8        49.474                                                                    22570866.980 8  95504762.76308      1008.218 8        49.232
G23        36.000    24213652.870 6 127243427.90806     -2933.247 6        41.197                                    24213662.170 3  99150662.17003     -2285.636 3        23.771    24213662.229 6  99150663.15606     -2285.584 6        38.072
R04        38.000    22609937.079 7 121075066.70507      2794.920 7        46.490                                                                    22609944.858 7  94169475.66007      2173.826 7        42.216
C33        39.000                                                                                                                                    24075060.350 7 125365137.26707      -723.691 7        46.742                                                                    24075078.494 7 101869513.28707      -588.102 7        46.613
E25        40.000    26363795.586 6 138542575.47006     -3048.585 6        40.732                                                                    26363808.406 7 103457089.32907     -2276.541 7        44.632    26363806.794 7 106155965.68707     -2335.891 7        45.567
S44        42.000    40939733.446 6 215139728.91806      -508.744 6        37.425
R22        43.000    22253750.315 7 118792128.41907      2209.234 7        46.652                                                                    22253758.959 7  92393957.05607      1718.293 7        43.560
C05        44.000                                                                                                                                    39539697.236 6 205893436.69106      -585.058 6        38.718    39539702.961 7 159209844.24707      -452.456 7        42.747    39539702.035 6 167305349.45106      -475.387 6        39.234
C40        45.000                                                                                                                                    39620559.203 6 206314566.77306     -1536.089 6        41.220                                                                    39620566.677 6 167647483.42606     -1248.285 6        40.749
G32        46.000    26172866.405 6 137539329.10506      2948.616 6        37.989                                    26172870.824 4 107173526.21904      2297.642 4        26.742    26172872.328 5 107173528.19505      2297.752 5        32.910
C10        49.000                                                                                                                                    38716900.448 6 201609049.14706      -934.476 6        41.569    38716906.152 7 155896916.70007      -722.705 7        44.849    38716902.184 6 163823866.44506      -759.531 6        41.147
C42        50.000                                                                                                                                    24479637.573 7 127471754.36507     -3398.921 7        45.464                                                                    24479652.287 7 103581249.26907     -2761.847 7        45.901
S48        51.000    77241894.399 6 405909152.16806      -557.745 6        38.195
E02        53.000    23310661.841 8 122498434.68008     -1079.517 8        48.677                                                                    23310667.068 8  91476179.79708      -806.107 8        51.508    23310665.553 8  93862496.56308      -827.160 8        51.289
C60        54.000                                                                                                                                    40939737.638 6 213183930.57606      -504.261 6        40.322                                                                    40939732.627 6 173229328.34206      -409.598 6        39.084
C45        55.000                                                                                                                                    25447041.736 6 132509246.89406     -3263.919 6        41.492                                                                    25447043.224 7 107674553.86007     -2652.141 7        43.464
R12        56.000    20103519.033 8 107389455.83508     -2343.791 8        50.994                                                                    20103525.046 7  83525164.17807     -1822.953 7        47.100
C02        57.000                                                                                                                                    41072790.531 5                      -548.649 5        30.136    41072799.172 6 165382896.39206      -424.016 6        36.185    41072797.785 5                      -445.639 5        30.460
I03        58.000   121657321.949 5 401623903.88705       884.076 5        33.539
C14        59.000                                                                                                                                    23793387.954 7 123898312.86107     -2235.195 7        45.410    23793391.255 8  95805998.41508     -1728.406 8        50.092    23793387.752 7 100677492.45207     -1816.326 7        47.200
R13        60.000    19891651.187 7 106220388.32307       655.179 7        45.618
> 2025 01 01 11 16 10.0000000  0 54
G19         1.000    21387763.185 7 112393614.17307       215.898 7        47.640                                    21387763.734 6  87579528.64006       168.235 6        38.141
G25         2.000    25051820.478 6 131648200.03306      3096.692 6        37.002                                    25051832.458 4 102583063.97604      2413.012 4        26.395    25051832.347 5 102583073.97405      2412.971 5        33.204
G24         3.000    20244195.211 8 106383984.54508       226.811 8        49.866                                    20244198.882 8  82896645.23608       176.739 8        52.268    20244199.367 7  82896642.23407       176.798 7        46.357
R02         4.000    21493198.349 8 114691703.08608     -4420.383 8        49.163                                                                    21493207.124 7  89204641.45207     -3438.073 7        44.853
S21         5.000    38533775.550 7 202496016.99407      -558.395 7        42.777
G17         7.000    22568213.442 7 118596898.18707     -2286.736 7        45.743                                    22568216.753 7  92413250.55207     -1781.869 7        42.299    22568216.994 6  92413246.53806     -1781.718 6        41.504
R21         8.000    22449301.777 7 120130811.05407     -1525.948 7        45.616                                                                    22449311.842 7  93435152.45507     -1186.853 7        42.209
E12         9.000    28894653.344 5 151842486.43605     -1091.605 5        32.054                                                                    28894662.283 6 113388937.67006      -815.402 6        37.168    28894660.749 6 116346896.58806      -836.417 6        37.017
E30        10.000    25209488.295 7 132476877.51907      1424.712 7        45.982                                                                    25209496.393 8  98927641.10408      1063.857 8        48.708    25209494.962 8 101508351.59008      1091.628 8        49.160
C26        11.000                                                                                                                                    21937482.375 8 114234232.40208     -1339.004 8        50.685                                                                    21937485.558 8  92824686.48908     -1088.137 8        49.181
S27        12.000    39288173.365 6 206460517.47506      -587.591 6        36.870
G15        13.000    21994503.530 7 115581783.76307     -3730.957 7        47.475                                    21994506.915 7  90063683.06907     -2907.233 7        44.399    21994507.790 7  90063675.05407     -2907.177 7        42.512
S36        14.000    38305215.252 7 201295638.77807      -558.832 7        44.748
G12        15.000    21927775.939 7 115231358.58507      2164.292 7        47.958                                    21927778.373 7  89790738.16807      1686.462 7        45.648    21927778.679 7  89790738.15307      1686.596 7        42.933
R11        16.000    24472710.240 6 130774556.14506     -4016.812 6        40.729                                                                    24472722.858 6 101713494.16106     -3124.000 6        39.258
S45        17.000    63492250.530 6 333655361.21206      -616.149 6        36.529
R03        18.000    20266634.083 8 108488834.14408      -670.503 8        51.532                                                                    20266638.078 7  84380206.97007      -521.506 7        47.066
C35        19.000                                                                                                                                    24089306.891 7 125439447.57807      1649.539 7        46.610                                                                    24089312.718 7 101929896.24707      1340.406 7        45.588
E11        20.000    28028565.600 5 147291117.11205      1112.188 5        34.048                                                                    28028578.826 6 109990181.13706       830.401 6        36.775    28028576.747 6 112859481.37006       852.125 6        36.658
R14        21.000    24002172.093 7 127945051.76307      2775.752 7        44.286                                                                    24002184.621 6  99512863.39606      2158.843 6        38.102
I06        22.000    38395114.420 6 150670718.22006      -527.374 6        40.994
S28        23.000    40992958.838 5 215419234.00405      -568.704 5        34.857
G14        24.000    24469324.396 6 128586997.89706     -3866.894 6        39.438                                    24469334.689 3 100197619.63103     -3013.161 3        22.457    24469334.534 6 100197621.62006     -3013.213 6        39.012
S23        25.000    38240131.640 7 200953075.30407      -562.097 7        45.202
E08        26.000    24072181.122 8 126500081.19508     -2030.119 8        48.667                                                                    24072186.142 8  94464320.03808     -1516.049 8        50.149    24072185.034 8  96928607.15608     -1555.557 8        50.791
C07        27.000                                                                                                                                    39384947.248 6 205087677.33706     -1275.143 6        40.350    39384951.300 7 158586794.58607      -986.081 7        42.995    39384947.635 6 166650520.62606     -1036.018 6        39.967
G13        28.000    23357602.434 7 122744875.89307     -4308.822 7        42.480                                    23357607.949 4  95645297.88304     -3357.502 4        25.173
I02        29.000    36996591.123 7 145182556.47507      -376.481 7        43.096
G10        30.000    24444451.291 6 128456318.73506      -789.073 6        41.118                                    24444462.083 5 100095802.11605      -614.852 5        34.281    24444461.738 6 100095794.09606      -615.065 6        37.285
E07        31.000    24887104.652 7 130782545.34807       877.813 7        45.186                                                                    24887113.530 8  97662287.51408       655.505 8        48.623    24887112.259 8 100209997.41008       672.589 8        49.398
E03        32.000    27104499.979 6 142434932.45506     -3692.451 6        39.862                                                                    27104514.334 7 106363710.10607     -2757.320 7        44.003    27104512.535 7 109138416.10907     -2829.309 7        44.734
E10        33.000    28269939.201 6 148559535.41606       -29.686 6        37.251                                                                    28269955.891 6 110937386.79906       -22.230 6        41.104    28269954.098 6 113831394.02106       -22.829 6        40.973
G02        34.000    26164997.405 5 137498113.78305     -2006.645 5        32.928                                    26164998.312 1 107141454.15701     -1563.647 1         9.524
C24        35.000                                                                                                                                    22569674.240 8 117526247.18608      1239.681 8        49.595                                                                    22569676.031 8  95499723.56508      1007.396 8        49.120
G23        36.000    24216445.213 6 127258098.74706     -2935.094 6        41.340                                    24216453.916 3  99162093.95803     -2287.084 3        23.714    24216453.801 6  99162094.94406     -2287.021 6        37.879
R04        38.000    22607328.710 7 121061099.18007      2792.093 7        45.726                                                                    22607337.130 7  94158612.04507      2171.511 7        43.075
C33        39.000                                                                                                                                    24075756.660 7 125368763.08707      -726.649 7        46.858                                                                    24075774.734 7 101872459.54707      -590.433 7        46.538
E25        40.000    26366696.442 6 138557818.50806     -3048.822 6        40.865                                                                    26366708.990 7 103468472.07707     -2276.698 7        44.680    26366707.481 7 106167645.38407     -2336.135 7        45.508
S44        42.000    40940218.567 6 215142272.91606      -508.812 6        37.244
R22        43.000    22251682.645 7 118781089.66007      2206.257 7        47.407                                                                    22251691.285 7  92385371.37707      1715.917 7        43.613
C05        44.000                                                                                                                                    39540258.402 6 205896361.05706      -584.820 6        38.685    39540264.740 7 159212105.53207      -452.263 7        42.701    39540263.488 6 167307725.71406      -475.171 6        39.162
C40        45.000                                                                                                                                    39622034.489 6 206322247.97706     -1536.527 6        41.259                                                                    39622041.814 6 167653725.00606     -1248.484 6        40.565
G32        46.000    26170061.015 6 137524587.09706      2948.080 6        37.221                                    26170065.748 4 107162038.86404      2297.225 4        25.865    26170066.575 5 107162040.83005      2297.263 5        32.557
C10        49.000                                                                                                                                    38717797.867 6 201613723.16106      -934.916 6        41.592    38717803.525 7 155900530.92407      -722.965 7        44.640    38717799.873 6 163827664.44606      -759.804 6        41.123
C42        50.000                                                                                                                                    24482901.806 7 127488751.91607     -3400.240 7        45.756                                                                    24482916.507 7 103595061.13507     -2762.929 7        45.794
S48        51.000    77242425.069 6 405911940.24106      -557.693 6        38.168
E02        53.000    23311689.663 8 122503835.61708     -1080.955 8        48.847                                                                    23311694.848 8  91480212.94508      -807.209 8        51.555    23311693.306 8  93866634.92708      -828.299 8        51.214
C60        54.000                                                                                                                                    40940221.477 6 213186451.44106      -504.072 6        40.350                                                                    40940216.712 6 173231376.73306      -409.741 6        38.856
C45        55.000                                                                                                                                    25450175.381 6 132525566.54606     -3264.079 6        41.294                                                                    25450177.345 7 107687814.88107     -2652.424 7        43.295
R12        56.000    20105713.378 8 107401178.97108     -2345.475 8        50.737                                                                    20105719.984 7  83534282.15207     -1824.215 7        47.608
C02        57.000                                                                                                                                    41073316.689 5                      -548.278 5        30.430    41073325.629 6 165385016.62506      -423.909 6        36.004    41073324.610 4                      -445.837 4        29.924
I03        58.000   121656196.410 5 401619483.52705       883.952 5        33.234
C14        59.000                                                                                                                                    23795535.212 7 123909495.05707     -2237.638 7        45.050    23795538.545 8  95814645.17708     -1730.304 8        50.032    23795535.168 7 100686578.88007     -1818.268 7        47.108
R13        60.000    19891038.638 7 106217117.14107       653.134 7        45.905
> 2025 01 01 11 16 15.0000000  0 54
G19         1.000    21387559.540 7 112392543.58707       212.476 7        47.334                                    21387560.016 6  87578694.41406       165.567 6        38.168
G25         2.000    25048874.352 6 131632718.91306      3096.052 6        37.244                                    25048886.661 4 102571000.75404      2412.522 4        26.407    25048886.640 5 102571010.72705      2412.520 5        33.012
G24         3.000    20243980.761 8 106382857.43008       224.132 8        50.017                                    20243984.405 8  82895766.96608       174.649 8        52.314    20243984.994 7  82895763.96507       174.677 7        46.500
R02         4.000    21497341.773 8 114713811.47908     -4422.821 8        49.202                                                                    21497349.900 7  89221836.81707     -3439.894 7        44.901
S21         5.000    38534307.709 7 202498809.38907      -558.460 7        42.754
G17         7.000    22570390.197 7 118608338.62907     -2289.496 7        45.299                                    22570393.838 7  92422165.15807     -1784.018 7        42.341    22570393.979 6  92422161.14906     -1783.954 6        41.101
R21         8.000    22450728.817 7 120138452.29707     -1530.409 7        45.497                                                                    22450739.296 6  93441095.62006     -1190.284 6        41.642
E12         9.000    28895693.064 5 151847951.23205     -1093.904 5        31.713                                                                    28895702.116 6 113393018.57106      -817.210 6        36.862    28895700.760 6 116351083.94906      -838.271 6        36.979
E30        10.000    25208133.259 7 132469757.51607      1423.445 7        46.158                                                                    25208141.480 8  98922324.21708      1062.932 8        48.683    25208139.994 8 101502896.00008      1090.688 8        49.108
C26        11.000                                                                                                                                    21938768.990 8 114240931.85308     -1340.618 8        50.545                                                                    21938772.201 8  92830130.34008     -1089.437 8        49.159
S27        12.000    39288736.763 6 206463456.82006      -587.728 6        36.544
G15        13.000    21998054.518 7 115600443.79607     -3733.013 7        46.591                                    21998057.853 7  90078223.32407     -2908.835 7        44.397    21998058.214 7  90078215.30007     -2908.850 7        42.504
S36        14.000    38305747.358 7 201298434.27707      -559.021 7        44.751
G12        15.000    21925717.608 7 115220542.01407      2162.441 7        47.968                                    21925720.058 7  89782309.67507      1685.020 7        45.713    21925720.361 7  89782309.67607      1685.009 7        42.872
R11        16.000    24476468.593 6 130794640.10406     -4016.841 6        40.360                                                                    24476480.102 6 101729115.06206     -3124.092 6        37.641
S45        17.000    63492789.562 6 333658443.26106      -616.332 6        36.336
R03        18.000    20267262.810 8 108492199.01108      -675.374 8        51.651                                                                    20267266.887 7  84382824.07907      -525.245 7        46.655
C35        19.000                                                                                                                                    24087723.666 7 125431204.91507      1647.594 7        46.071                                                                    24087729.827 7 101923198.43207      1338.722 7        45.562
E11        20.000    28027508.117 5 147285561.68705      1109.809 5        34.295                                                                    28027521.577 6 109986032.57406       828.850 6        36.654    28027519.324 6 112855224.59306       850.651 6        36.820
R14        21.000    23999569.525 7 127931175.22307      2775.100 7        44.534                                                                    23999582.623 6  99502070.46506      2158.534 6        38.408
I06        22.000    38395786.295 6 150673356.06106      -527.636 6        40.920
S28        23.000    40993500.473 5 215422078.10105      -568.936 5        35.033
G14        24.000    24473003.717 6 128606333.71206     -3867.111 6        39.544                                    24473014.258 3 100212686.47803     -3013.333 3        22.743    24473014.171 6 100212688.46606     -3013.510 6        38.889
S23        25.000    38240665.167 7 200955886.35107      -562.174 7        45.136
E08        26.000    24074113.610 8 126510237.63808     -2032.321 8        48.594                                                                    24074118.919 8  94471904.37008     -1517.654 8        50.183    24074117.717 8  96936389.34908     -1557.289 8        50.757
C07        27.000                                                                                                                                    39386171.874 6 205094054.30506     -1275.573 6        40.215    39386176.153 7 158591725.63907      -986.339 7        43.086    39386172.330 6 166655702.42906     -1036.470 6        40.021
G13        28.000    23361702.850 7 122766422.97007     -4309.821 7        43.052                                    23361708.225 4  95662087.76604     -3358.294 4        25.564
I02        29.000    36997071.008 7 145184439.64607      -376.672 7        43.071
G10        30.000    24445204.112 6 128460273.52006      -792.382 6        40.534                                    24445214.603 5 100098883.72805      -617.433 5        34.233    24445213.889 6 100098875.73206      -617.392 6        36.117
E07        31.000    24886270.288 7 130778161.61207       875.849 7        45.533                                                                    24886279.326 8  97659013.94008       653.989 8        48.669    24886278.083 8 100206638.44108       671.051 8        49.401
E03        32.000    27108013.562 6 142453396.54506     -3693.070 6        40.145                                                                    27108028.052 7 106377498.14307     -2757.739 7        44.066    27108026.161 7 109152563.84507     -2829.780 7        44.674
E10        33.000    28269968.459 6 148559690.25406       -32.405 6        36.998                                                                    28269985.490 6 110937502.38106       -24.082 6        40.901    28269983.464 6 113831512.62406       -24.778 6        41.123
G02        34.000    26166906.574 5 137508153.01805     -2009.161 5        31.721                                    26166908.687 1 107149277.00801     -1565.570 1         9.429
C24        35.000                                                                                                                                    22568484.263 8 117520051.84108      1238.518 8        49.274                                                                    22568486.240 8  95494689.36208      1006.335 8        49.190
G23        36.000    24219238.615 6 127272779.27206     -2937.042 6        40.801                                    24219247.701 3  99173533.28703     -2288.586 3        23.829    24219248.321 6  99173534.27506     -2288.697 6        37.338
R04        38.000    22604722.651 7 121047146.03807      2789.198 7        46.112                                                                    22604731.602 7  94147759.59907      2169.447 7        42.982
C33        39.000                                                                                                                                    24076455.955 7 125372404.13607      -729.717 7        46.702                                                                    24076473.991 7 101875418.19707      -593.001 7        46.580
E25        40.000    26369597.609 6 138573063.96206     -3049.332 6        41.309                                                                    26369610.198 7 103479856.62307     -2277.026 7        44.531    26369608.689 7 106179326.91607     -2336.401 7        45.384
S44        42.000    40940703.278 6 215144817.27206      -508.833 6        37.520
R22        43.000    22249618.604 7 118770066.50607      2203.169 7        47.161                                                                    22249626.244 7  92376797.82707      1713.539 7        43.949
C05        44.000                                                                                                                                    39540820.239 6 205899285.80706      -585.003 6        38.592    39540826.376 7 159214367.11907      -452.322 7        42.641    39540825.285 6 167310102.31306      -475.287 6        39.186
C40        45.000                                                                                                                                    39623510.015 6 206329931.89206     -1536.888 6        41.166                                                                    39623517.488 6 167659968.80806     -1248.961 6        40.553
G32        46.000    26167256.822 6 137509848.34806      2947.455 6        38.189                                    26167261.236 4 107150554.07104      2296.721 4        26.228    26167261.405 5 107150556.03305      2297.124 5        32.533
C10        49.000                                                                                                                                    38718696.381 6 201618399.90106      -935.459 6        41.437    38718701.564 7 155904147.27007      -723.453 7        44.492    38718697.854 6 163831464.67806      -760.200 6        41.087
C42        50.000                                                                                                                                    24486167.549 7 127505756.97807     -3401.713 7        45.103                                                                    24486182.183 7 103608879.11107     -2764.161 7        45.865
S48        51.000    77242953.342 6 405914729.04206      -557.688 6        38.147
E02        53.000    23312718.774 8 122509244.55708     -1082.499 8        48.990                                                                    23312724.126 8  91484252.07608      -808.349 8        51.627    23312722.619 8  93870779.42708      -829.445 8        51.150
C60        54.000                                                                                                                                    40940705.946 6 213188972.66506      -504.218 6        40.083                                                                    40940700.827 6 173233425.42106      -409.719 6        38.898
C45        55.000                                                                                                                                    25453309.324 6 132541888.27406     -3264.321 6        41.416                                                                    25453311.779 7 107701077.60407     -2652.702 7        43.369
R12        56.000    20107909.572 8 107412911.07608     -2347.234 8        50.919                                                                    20107915.804 7  83543407.10807     -1825.623 7        47.623
C02        57.000                                                                                                                                    41073842.887 5                      -548.456 5        30.430    41073851.546 6 165387137.09706      -424.190 6        36.227    41073851.420 5                      -445.396 5        30.181
I03        58.000   121655069.838 5 401615063.29905       884.149 5        33.323
C14        59.000                                                                                                                                    23797684.468 7 123920690.01507     -2240.167 7        44.935    23797688.613 8  95823301.81108     -1732.288 8        50.111    23797685.098 7 100695675.69807     -1820.389 7        47.136
R13        60.000    19890428.256 7 106213857.06107       651.057 7        45.995
> 2025 01 01 11 16 20.0000000  0 54
G19         1.000    21387358.834 7 112391489.50507       209.274 7        47.491                                    21387359.459 6  87577873.04106       163.071 6        38.174
G25         2.000    25045928.651 6 131617239.79906      3095.589 6        36.979                                    25045941.082 4 102558939.09204      2412.146 4        26.168    25045942.185 5 102558949.05305      2412.236 5        32.808
G24         3.000    20243768.693 8 106381743.07808       221.648 8        50.321                                    20243772.360 8  82894898.63508       172.711 8        52.351    20243772.421 7  82894895.63507       172.785 7        46.495
R02         4.000    21501487.245 8 114735931.53908     -4425.170 8        49.519                                                                    21501495.588 7  89239041.26507     -3441.793 7        45.287
S21         5.000    38534839.675 7 202501601.97707      -558.407 7        42.798
G17         7.000    22572569.739 7 118619792.63307     -2292.058 7        45.609                                    22572573.495 7  92431090.33507     -1786.014 7        42.347    22572574.106 6  92431086.32706     -1785.963 6        41.101
R21         8.000    22452161.335 7 120146115.71307     -1534.814 7        46.336                                                                    22452172.012 6  93447056.01906     -1193.680 6        41.385
E12         9.000    28896735.359 5 151853428.20605     -1096.650 5        31.306                                                                    28896744.325 6 113397108.61106      -818.915 6        37.096    28896743.000 6 116355280.68906      -840.157 6        37.096
E30        10.000    25206779.561 7 132462643.52907      1422.268 7        46.271                                                                    25206787.731 8  98917011.83208      1062.026 8        48.662    25206786.307 8 101497445.03708      1089.726 8        49.145
C26        11.000                                                                                                                                    21940057.123 8 114247638.48808     -1342.019 8        50.598                                                                    21940060.089 8  92835579.99608     -1090.460 8        49.096
S27        12.000    39289292.684 6 206466396.07706      -587.725 6        37.032
G15        13.000    22001607.239 7 115619113.69907     -3734.938 7        47.020                                    22001610.664 7  90092771.26507     -2910.334 7        44.399    22001610.824 7  90092763.24707     -2910.267 7        42.468
S36        14.000    38306279.794 7 201301229.55807      -558.916 7        44.694
G12        15.000    21923660.884 8 115209734.46608      2160.715 8        48.240                                    21923663.447 7  89773888.21207      1683.675 7        45.792    21923664.236 7  89773888.21607      1683.601 7        43.100
R11        16.000    24480225.512 6 130814723.23306     -4016.594 6        40.350                                                                    24480238.440 6 101744735.31006     -3123.761 6        37.607
S45        17.000    63493324.015 6 333659825.45016      -616.332 6        36.215
R03        18.000    20267895.659 8 108495587.66208      -680.013 8        51.395                                                                    20267900.514 7  84385459.69807      -528.890 7        47.069
C35        19.000                                                                                                                                    24086142.001 7 125422971.91107      1645.768 7        45.515                                                                    24086148.845 7 101916508.43107      1337.329 7        45.552
E11        20.000    28026452.384 5 147280015.61605      1108.122 5        34.429                                                                    28026466.216 6 109981891.02706       827.474 6        36.824    28026464.093 6 112850974.98406       849.151 6        36.741
R14        21.000    23996965.554 7 127917300.97707      2774.699 7        43.164                                                                    23996979.262 6  99491279.38306      2158.120 6        38.318
I06        22.000    38396458.761 6 150675993.95606      -527.483 6        40.951
S28        23.000    40994042.961 5 215424921.82405      -568.794 5        35.071
G14        24.000    24476683.286 6 128625670.70106     -3867.501 6        39.697                                    24476693.961 3 100227754.22503     -3013.640 3        22.552    24476694.124 6 100227756.20906     -3013.676 6        38.850
S23        25.000    38241200.801 7 200958697.24307      -562.143 7        44.965
E08        26.000    24076048.273 8 126520404.52508     -2034.364 8        48.725                                                                    24076053.610 8  94479496.51008     -1519.176 8        50.084    24076052.461 8  96944179.54308     -1558.810 8        50.768
C07        27.000                                                                                                                                    39387396.752 6 205100433.12306     -1275.821 6        40.281    39387401.113 7 158596658.13207      -986.596 7        43.043    39387397.372 6 166660885.70706     -1036.746 6        39.865
G13        28.000    23365804.275 7 122787974.69807     -4310.719 7        43.435                                    23365809.454 4  95678881.27104     -3358.992 4        25.970
I02        29.000    36997551.224 7 145186323.81107      -376.726 7        43.024
G10        30.000    24445959.365 6 128464243.73706      -795.470 6        41.125                                    24445970.008 5 100101977.36205      -619.839 5        34.200    24445970.138 6 100101969.35706      -619.991 6        36.253
E07        31.000    24885438.036 7 130773787.50207       873.874 7        45.484                                                                    24885446.971 8  97655747.56008       652.538 8        48.556    24885445.721 8 100203286.84808       669.655 8        49.481
E03        32.000    27111527.596 6 142471863.28806     -3693.567 6        40.131                                                                    27111542.277 7 106391288.19107     -2758.216 7        44.065    27111540.335 7 109166713.64207     -2830.223 7        44.631
E10        33.000    28269999.917 6 148559857.18806       -34.543 6        37.047                                                                    28270017.489 6 110937627.02606       -25.877 6        40.837    28270015.405 6 113831640.52206       -26.555 6        41.216
G02        34.000    26168820.360 5 137518204.49405     -2011.420 5        32.066                                    26168821.326 1 107157109.42201     -1567.428 1         7.625
C24        35.000                                                                                                                                    22567295.400 8 117513862.16908      1237.448 8        49.141                                                                    22567297.608 8  95489659.72108      1005.561 8        49.096
G23        36.000    24222033.368 6 127287469.00806     -2938.913 6        40.272                                    24222042.921 3  99184979.79003     -2290.050 3        23.752    24222043.576 6  99184980.76806     -2289.937 6        38.604
R04        38.000    22602119.536 7 121033207.07107      2786.489 7        45.765                                                                    22602128.344 7  94136918.17207      2167.298 7        42.986
C33        39.000                                                                                                                                    24077157.910 7 125376059.95507      -732.629 7        46.601                                                                    24077176.088 7 101878388.81707      -595.245 7        46.421
E25        40.000    26372499.142 6 138588311.35206     -3049.617 6        41.569                                                                    26372511.757 7 103491242.63207     -2277.323 7        44.448    26372510.160 7 106191009.95407     -2336.652 7        45.476
S44        42.000    40941189.245 6 215147361.54406      -508.851 6        37.410
R22        43.000    22247555.238 7 118759058.52207      2200.154 7        45.959                                                                    22247563.981 7  92368236.10507      1711.208 7        44.253
C05        44.000                                                                                                                                    39541381.647 6 205902210.47306      -584.882 6        38.745    39541388.048 7 159216628.63007      -452.157 7        42.555    39541386.925 6 167312478.82406      -475.185 6        39.006
C40        45.000                                                                                                                                    39624985.616 6 206337618.02106     -1537.391 6        40.968                                                                    39624993.563 6 167666214.37606     -1249.256 6        40.639
G32        46.000    26164452.510 6 137495112.30606      2946.948 6        38.898                                    26164457.095 4 107139071.35404      2296.350 4        27.222    26164457.587 5 107139073.29205      2296.414 5        33.725
C10        49.000                                                                                                                                    38719594.559 6 201623078.89606      -935.985 6        41.292    38719600.264 7 155907765.34707      -723.706 7        44.331    38719596.406 6 163835266.70506      -760.491 6        41.094
C42        50.000                                                                                                                                    24489434.342 7 127522769.05007     -3403.006 7        45.231                                                                    24489449.236 7 103622702.75507     -2765.154 7        45.801
S48        51.000    77243482.670 6 405917517.90506      -557.612 6        37.996
E02        53.000    23313749.776 8 122514661.06308     -1083.972 8        48.921                                                                    23313754.907 8  91488296.85208      -809.480 8        51.558    23313753.348 8  93874929.72208      -830.584 8        51.197
C60        54.000                                                                                                                                    40941189.829 6 213191493.79506      -504.072 6        40.217                                                                    40941185.019 6 173235474.01306      -409.589 6        39.057
C45        55.000                                                                                                                                    25456444.365 6 132558211.65406     -3264.699 6        41.640                                                                    25456446.518 7 107714341.63307     -2652.730 7        43.143
R12        56.000    20110107.938 8 107424651.63408     -2348.881 8        51.344                                                                    20110113.627 7  83552538.63107     -1826.869 7        47.418
C02        57.000                                                                                                                                    41074368.987 5                      -548.477 5        30.000    41074378.844 6 165389257.46006      -423.892 6        36.102    41074377.775 5                      -445.738 5        30.113
I03        58.000   121653943.037 5 401610642.88005       884.333 5        33.491
C14        59.000                                                                                                                                    23799836.141 7 123931897.31107     -2242.649 7        44.787    23799840.590 8  95831967.96808     -1734.151 8        50.161    23799837.368 7 100704782.49007     -1822.267 7        47.003
R13        60.000    19889819.993 7 106210607.46007       649.049 7        46.489
> 2025 01 01 11 16 25.0000000  0 54
G19         1.000    21387161.355 7 112390452.30907       206.032 7        47.601                                    21387162.086 6  87577064.82706       160.545 6        38.297
G25         2.000    25042983.831 5 131601762.96305      3095.414 5        35.962                                    25042995.951 4 102546879.20404      2412.010 4        26.060    25042995.886 5 102546889.23305      2411.739 5        33.222
G24         3.000    20243559.358 8 106380641.79808       219.177 8        50.216                                    20243562.793 8  82894040.49408       170.786 8        52.473    20243562.979 7  82894037.49907       170.737 7        46.440
R02         4.000    21505634.931 8 114758063.73308     -4427.489 8        49.598                                                                    21505642.942 7  89256255.14307     -3443.520 7        44.805
S21         5.000    38535369.308 7 202504394.93107      -558.417 7        42.749
G17         7.000    22574752.024 7 118631260.47607     -2294.669 7        45.627                                    22574755.754 7  92440026.29207     -1788.050 7        42.453    22574756.531 6  92440022.29706     -1788.194 6        41.137
R21         8.000    22453598.592 7 120153801.63407     -1539.283 7        45.810                                                                    22453608.328 6  93453033.93106     -1197.190 6        41.721
E12         9.000    28897779.999 5 151858917.75605     -1098.903 5        31.592                                                                    28897788.882 6 113401208.03306      -820.636 6        37.096    28897787.496 6 116359487.04806      -842.017 6        37.365
E30        10.000    25205427.029 7 132455535.91307      1421.141 7        45.803                                                                    25205435.209 8  98911704.19308      1061.223 8        48.705    25205433.806 8 101491998.93608      1088.885 8        49.177
C26        11.000                                                                                                                                    21941346.377 8 114254352.62008     -1343.375 8        50.564                                                                    21941349.504 8  92841035.78008     -1091.730 8        49.235
S27        12.000    39289850.787 6 206469335.96106      -587.794 6        36.544
G15        13.000    22005162.231 7 115637793.81907     -3736.781 7        46.869                                    22005165.407 7  90107327.17307     -2911.769 7        44.498    22005165.935 7  90107319.16607     -2911.771 7        42.332
S36        14.000    38306812.122 7 201304024.72207      -558.951 7        44.540
G12        15.000    21921605.965 7 115198936.27907      2158.952 7        47.542                                    21921608.625 7  89765474.04507      1682.300 7        45.902    21921609.047 7  89765474.04307      1682.264 7        43.035
R11        16.000    24483984.443 6 130834805.82006     -4016.256 6        40.687                                                                    24483997.133 6 101760355.13506     -3123.663 6        37.792
S45        17.000    63493865.604 6 333662907.92806      -616.457 6        36.329
R03        18.000    20268532.786 8 108499000.15408      -684.614 8        51.190                                                                    20268537.461 7  84388113.84707      -532.518 7        46.926
C35        19.000                                                                                                                                    24084563.154 7 125414748.90907      1643.773 7        45.505                                                                    24084569.927 7 101909826.58207      1335.680 7        45.804
E11        20.000    28025398.996 5 147274479.24205      1106.397 5        34.395                                                                    28025412.671 6 109977756.70406       826.116 6        36.775    28025410.471 6 112846732.84006       847.616 6        36.707
R14        21.000    23994362.298 7 127903429.54707      2774.280 7        43.539                                                                    23994377.214 6  99480490.45006      2157.661 6        39.117
I06        22.000    38397131.498 6 150678632.15106      -527.586 6        40.937
S28        23.000    40994580.030 5 215427766.22505      -568.649 5        34.829
G14        24.000    24480363.208 6 128645009.14106     -3867.520 6        39.637                                    24480374.115 3 100242823.10303     -3013.641 3        22.419    24480374.033 6 100242825.09506     -3013.763 6        38.604
S23        25.000    38241736.067 7 200961508.43707      -562.058 7        44.965
E08        26.000    24077985.290 8 126530582.14408     -2036.448 8        48.363                                                                    24077990.314 8  94487096.66508     -1520.724 8        50.074    24077989.224 8  96951977.96208     -1560.357 8        50.771
C07        27.000                                                                                                                                    39388622.476 6 205106814.14506     -1276.250 6        40.427    39388626.493 7 158601592.32407      -986.812 7        42.936    39388622.787 6 166666070.81306     -1037.157 6        40.033
G13        28.000    23369906.414 7 122809531.40507     -4311.593 7        42.887                                    23369911.618 4  95695678.65604     -3359.668 4        26.240
I02        29.000    36998031.474 7 145188209.19807      -377.016 7        42.876
G10        30.000    24446718.061 6 128468229.70106      -798.466 6        40.930                                    24446728.413 5 100105083.27105      -622.175 5        34.281    24446728.865 6 100105075.25506      -622.037 6        36.794
E07        31.000    24884607.555 7 130769423.33707       872.062 7        45.594                                                                    24884616.523 8  97652488.60508       651.195 8        48.590    24884615.294 8 100199942.87808       668.216 8        49.400
E03        32.000    27115042.564 6 142490333.03106     -3693.822 6        39.892                                                                    27115057.005 7 106405080.46207     -2758.530 7        44.042    27115055.074 7 109180865.71407     -2830.429 7        44.650
E10        33.000    28270034.660 6 148560036.55506       -36.784 6        36.858                                                                    28270051.629 6 110937760.96206       -27.589 6        40.760    28270049.667 6 113831777.95306       -28.416 6        41.471
G02        34.000    26170735.302 5 137528268.41405     -2013.878 5        30.747                                    26170736.365 1 107164951.64401     -1569.315 1         7.250
C24        35.000                                                                                                                                    22566107.980 8 117507678.48108      1236.369 8        49.096                                                                    22566110.047 8  95484634.98308      1004.559 8        49.190
G23        36.000    24224831.518 6 127302168.24206     -2940.587 6        40.405                                    24224840.288 3  99196433.68903     -2291.358 3        23.657    24224840.935 6  99196434.67306     -2291.321 6        38.754
R04        38.000    22599519.259 7 121019282.32207      2783.739 7        47.643                                                                    22599528.389 7  94126087.80207      2165.130 7        42.916
C33        39.000                                                                                                                                    24077862.830 7 125379730.84707      -735.472 7        46.427                                                                    24077881.019 7 101881371.73507      -597.780 7        46.587
E25        40.000    26375401.078 6 138603561.01606     -3049.851 6        41.285                                                                    26375413.729 7 103502630.32907     -2277.570 7        44.489    26375412.192 7 106202694.73007     -2336.922 7        45.428
S44        42.000    40941670.463 6 215149906.03306      -508.601 6        37.248
R22        43.000    22245495.391 7 118748066.04507      2197.234 7        46.276                                                                    22245504.775 7  92359686.42607      1708.882 7        43.998
C05        44.000                                                                                                                                    39541943.533 6 205905135.39106      -584.783 6        38.826    39541949.657 7 159218890.35007      -452.198 7        42.491    39541948.610 6 167314855.55506      -475.311 6        39.045
C40        45.000                                                                                                                                    39626462.606 6 206345306.70906     -1537.783 6        40.851                                                                    39626469.964 6 167672462.06006     -1249.810 6        40.822
G32        46.000    26161648.981 6 137480379.38206      2946.507 6        38.772                                    26161653.513 4 107127591.05404      2295.998 4        27.964    26161654.025 5 107127593.02305      2295.673 5        32.958
C10        49.000                                                                                                                                    38720493.327 6 201627760.43406      -936.354 6        41.263    38720499.288 7 155911385.39507      -724.091 7        44.102    38720495.527 6 163839070.85206      -761.039 6        41.201
C42        50.000                                                                                                                                    24492703.049 7 127539788.46007     -3404.244 7        44.808                                                                    24492717.737 7 103636532.39707     -2766.459 7        45.840
S48        51.000    77244013.264 6 405920307.29406      -557.737 6        38.021
E02        53.000    23314781.827 8 122520085.43908     -1085.479 8        48.713                                                                    23314787.111 8  91492347.50808      -810.594 8        51.538    23314785.571 8  93879086.04608      -831.759 8        51.166
C60        54.000                                                                                                                                    40941674.057 6 213194015.16306      -503.976 6        40.119                                                                    40941669.269 6 173237522.83006      -409.617 6        38.964
C45        55.000                                                                                                                                    25459579.676 6 132574536.99306     -3265.050 6        41.723                                                                    25459581.668 7 107727607.29707     -2653.280 7        43.270
R12        56.000    20112307.394 8 107436400.94308     -2350.554 8        51.183                                                                    20112312.992 7  83561676.96507     -1828.220 7        46.801
C02        57.000                                                                                                                                    41074896.464 5                      -548.081 5        30.249    41074905.628 5 165391377.98005      -424.018 5        35.795    41074904.353 5                      -445.796 5        30.264
I03        58.000   121652816.742 5 401606222.48605       884.478 5        33.629
C14        59.000                                                                                                                                    23801990.549 7 123943117.19907     -2244.995 7        44.924    23801995.597 8  95840643.88408     -1736.021 8        50.255    23801991.971 7 100713899.57507     -1824.320 7        47.137
R13        60.000    19889213.547 7 106207368.63207       646.941 7        46.270
> 2025 01 01 11 16 30.0000000  0 54
G19         1.000    21386967.151 7 112389431.85307       202.447 7        47.705                                    21386967.919 6  87576269.66206       157.750 6        38.336
G25         2.000    25040038.962 5 131586288.34905      3094.660 5        35.395                                    25040051.222 4 102534821.04604      2411.429 4        25.414    25040051.213 5 102534831.05905      2411.399 5        32.473
G24         3.000    20243351.810 8 106379553.51708       216.363 8        50.243                                    20243355.690 8  82893192.47708       168.596 8        52.510    20243355.905 7  82893189.48607       168.499 7        46.153
R02         4.000    21509784.667 8 114780207.95408     -4430.015 8        50.040                                                                    21509792.684 7  89273478.39007     -3445.558 7        44.752
S21         5.000    38535900.031 7 202507188.00807      -558.619 7        42.610
G17         7.000    22576936.762 7 118642742.03407     -2297.671 7        45.618                                    22576940.660 7  92448972.93907     -1790.391 7        42.548    22576941.209 6  92448968.93506     -1790.438 6        40.672
R21         8.000    22455037.936 7 120161509.90807     -1543.924 7        45.622                                                                    22455048.833 7  93459029.22507     -1200.786 7        42.521
E12         9.000    28898826.845 5 151864419.57505     -1101.521 5        31.079                                                                    28898835.815 6 113405316.64706      -822.683 6        36.745    28898834.210 6 116363702.83706      -844.197 6        36.790
E30        10.000    25204075.783 7 132448434.53307      1419.745 7        45.821                                                                    25204083.874 8  98906401.21708      1060.137 8        48.544    25204082.406 8 101486557.62308      1087.833 8        49.218
C26        11.000                                                                                                                                    21942637.070 8 114261074.15408     -1345.007 8        50.625                                                                    21942640.327 8  92846497.55908     -1092.932 8        49.247
S27        12.000    39290410.692 6 206472275.93106      -588.161 6        36.681
G15        13.000    22008718.576 7 115656484.00507     -3739.051 7        46.913                                    22008722.051 7  90121890.91807     -2913.540 7        44.524    22008722.169 7  90121882.90307     -2913.521 7        42.004
S36        14.000    38307342.470 7 201306820.55407      -559.289 7        44.477
G12        15.000    21919552.763 7 115188147.37807      2156.892 7        47.763                                    21919555.560 7  89757067.10907      1680.693 7        45.955    21919556.051 7  89757067.11007      1680.741 7        42.954
R11        16.000    24487742.686 6 130854887.80906     -4016.337 6        41.094                                                                    24487755.422 6 101775974.50906     -3124.043 6        37.524
S45        17.000    63494399.127 6 333665990.63506      -616.652 6        36.155
R03        18.000    20269175.338 8 108502436.47708      -689.591 8        51.554                                                                    20269179.624 7  84390786.53407      -536.356 7        47.046
C35        19.000                                                                                                                                    24082986.440 7 125406535.79107      1641.716 7        45.487                                                                    24082992.628 7 101903152.76007      1333.947 7        45.717
E11        20.000    28024347.687 5 147268952.44905      1104.101 5        34.943                                                                    28024361.019 6 109973629.54006       824.761 6        36.870    28024358.828 6 112842497.99206       846.288 6        37.066
R14        21.000    23991761.392 7 127889560.57707      2773.622 7        43.128                                                                    23991775.960 6  99469703.46706      2157.076 6        39.165
I06        22.000    38397803.463 6 150681270.52606      -527.675 6        40.877
S28        23.000    40995126.064 5 215430610.86905      -568.862 5        34.629
G14        24.000    24484043.419 6 128664348.95906     -3868.067 6        39.544                                    24484054.439 3 100257893.05603     -3014.069 3        22.419    24484054.307 6 100257895.04906     -3014.045 6        38.222
S23        25.000    38242271.106 7 200964319.82307      -562.267 7        44.897
E08        26.000    24079923.926 8 126540770.40108     -2038.714 8        48.367                                                                    24079929.144 8  94494704.76308     -1522.401 8        49.973    24079928.054 8  96959784.53908     -1562.131 8        50.868
C07        27.000                                                                                                                                    39389848.106 6 205113197.24506     -1276.868 6        40.164    39389852.329 7 158606528.12407      -987.287 7        42.789    39389848.467 6 166671257.58306     -1037.611 6        39.964
G13        28.000    23374009.318 7 122831092.92707     -4312.742 7        43.020                                    23374014.815 4  95712479.79004     -3360.566 4        26.323
I02        29.000    36998512.506 7 145190095.99707      -377.525 7        42.872
G10        30.000    24447479.135 6 128472231.30206      -801.906 6        41.716                                    24447489.805 5 100108201.35705      -624.853 5        34.367    24447490.322 6 100108193.34306      -624.819 6        36.726
E07        31.000    24883779.065 7 130765069.02407       869.887 7        45.190                                                                    24883787.919 8  97649237.00408       649.624 8        48.452    24883786.658 8 100196606.45308       666.616 8        49.544
E03        32.000    27118557.619 6 142508805.66206     -3694.802 6        39.862                                                                    27118572.203 7 106418874.88307     -2759.117 7        43.848    27118570.256 7 109195020.01307     -2831.175 7        44.754
E10        33.000    28270070.704 6 148560228.28706       -39.655 6        36.665                                                                    28270088.045 6 110937904.11506       -29.561 6        40.746    28270086.127 6 113831924.84706       -30.348 6        41.464
G02        34.000    26172652.074 4 137538344.57104     -2016.275 4        29.839                                    26172653.685 1 107172803.26901     -1571.073 1         7.000
C24        35.000                                                                                                                                    22564921.881 8 117501500.66308      1234.949 8        49.224                                                                    22564923.707 8  95479614.98808      1003.581 8        49.206
G23        36.000    24227630.950 6 127316876.85106     -2942.549 6        40.918                                    24227639.148 3  99207894.91103     -2292.885 3        23.771    24227639.615 6  99207895.88206     -2292.902 6        38.682
R04        38.000    22596923.078 7 121005371.91007      2780.628 7        46.681                                                                    22596930.379 7  94115268.56407      2162.754 7        42.457
C33        39.000                                                                                                                                    24078570.515 7 125383416.73207      -738.645 7        46.322                                                                    24078588.915 7 101884366.79507      -600.146 7        46.619
E25        40.000    26378303.173 6 138618812.83706     -3050.552 6        41.142                                                                    26378316.311 7 103514019.63007     -2277.965 7        44.453    26378314.424 7 106214381.14907     -2337.408 7        45.544
S44        42.000    40942157.172 6 215152450.65106      -508.925 6        37.380
R22        43.000    22243439.208 7 118737089.01207      2193.869 7        46.487                                                                    22243447.875 7  92351148.74407      1706.335 7        43.647
C05        44.000                                                                                                                                    39542505.298 6 205908060.43806      -584.934 6        38.754    39542511.592 7 159221152.16007      -452.303 7        42.366    39542510.398 6 167317232.37406      -475.395 6        39.195
C40        45.000                                                                                                                                    39627939.707 6 206352997.82606     -1538.386 6        40.939                                                                    39627947.115 6 167678711.68706     -1250.047 6        40.841
G32        46.000    26158846.623 6 137465649.56006      2945.632 6        39.264                                    26158850.365 4 107116113.18204      2295.320 4        28.123    26158850.855 5 107116115.14805      2295.388 5        33.240
C10        49.000                                                                                                                                    38721392.928 6 201632444.48106      -937.157 6        41.151    38721398.842 7 155915007.38407      -724.477 7        43.977    38721395.063 6 163842876.99906      -761.370 6        41.225
C42        50.000                                                                                                                                    24495972.587 7 127556815.07207     -3405.942 7        44.790                                                                    24495987.694 7 103650367.87007     -2767.666 7        45.943
S48        51.000    77244542.820 6 405923096.96306      -557.827 6        37.830
E02        53.000    23315815.576 8 122525517.56608     -1087.174 8        48.641                                                                    23315820.840 8  91496403.95208      -811.800 8        51.374    23315819.247 8  93883248.31508      -833.016 8        51.233
C60        54.000                                                                                                                                    40942158.490 6 213196536.65106      -504.255 6        40.274                                                                    40942153.577 6 173239571.73606      -409.869 6        38.859
C45        55.000                                                                                                                                    25462714.711 6 132590864.19206     -3265.480 6        41.824                                                                    25462717.236 7 107740874.42807     -2653.445 7        43.185
R12        56.000    20114508.219 8 107448158.93608     -2352.479 8        51.049                                                                    20114514.343 7  83570822.05207     -1829.670 7        47.267
C02        57.000                                                                                                                                    41075423.972 5                      -548.496 5        30.626    41075432.059 6 165393498.49906      -424.013 6        36.064    41075431.343 5                      -445.648 5        30.091
I03        58.000   121651690.680 5 401601802.05805       883.916 5        33.180
C14        59.000                                                                                                                                    23804148.572 7 123954349.61407     -2247.724 7        45.103    23804152.845 8  95849329.48308     -1738.058 8        50.148    23804149.119 7 100723026.81007     -1826.414 7        47.138
R13        60.000    19888608.614 7 106204140.55207       644.570 7        46.216
> 2025 01 01 11 16 35.0000000  0 54
G19         1.000    21386776.269 8 112388427.76008       199.158 8        48.313                                    21386776.856 6  87575487.24406       155.190 6        38.411
G25         2.000    25037094.944 6 131570815.59306      3094.086 6        36.888                                    25037106.609 4 102522764.34004      2410.976 4        25.759    25037106.617 5 102522774.32305      2411.361 5        32.012
G24         3.000    20243147.338 8 106378477.86108       213.895 8        50.237                                    20243151.002 8  82892354.30308       166.673 8        52.605    20243151.379 7  82892351.30807       166.649 7        46.383
R02         4.000    21513936.288 8 114802363.90608     -4432.356 8        49.437                                                                    21513945.102 7  89290710.74207     -3447.419 7        45.276
S21         5.000    38536430.741 7 202509980.62807      -558.541 7        42.597
G17         7.000    22579124.119 7 118654236.92407     -2300.338 7        45.997                                    22579128.089 7  92457929.97607     -1792.468 7        42.681    22579128.629 6  92457925.96506     -1792.404 6        40.930
R21         8.000    22456483.059 7 120169240.08907     -1548.263 7        45.670                                                                    22456493.346 6  93465041.55506     -1204.189 6        41.917
E12         9.000    28899876.290 5 151869933.51705     -1104.082 5        31.140                                                                    28899884.904 6 113409434.29806      -824.561 6        37.055    28899883.239 6 116367927.87206      -845.986 6        37.074
E30        10.000    25202725.539 7 132441339.05507      1418.604 7        45.676                                                                    25202733.653 8  98901102.64008      1059.323 8        48.650    25202732.246 8 101481120.82308      1086.937 8        49.178
C26        11.000                                                                                                                                    21943929.211 8 114267802.74308     -1346.389 8        50.645                                                                    21943932.467 8  92851965.08008     -1094.069 8        49.198
S27        12.000    39290970.378 6 206475215.89106      -588.116 6        36.620
G15        13.000    22012277.168 7 115675183.90107     -3740.933 7        47.328                                    22012280.546 7  90136462.23107     -2915.008 7        44.590    22012281.159 7  90136454.21807     -2915.082 7        42.144
S36        14.000    38307874.227 7 201309616.23907      -559.218 7        44.519
G12        15.000    21917501.659 8 115177367.40008      2155.151 8        48.057                                    21917504.185 7  89748667.12907      1679.338 7        46.085    21917504.805 7  89748667.13507      1679.332 7        43.001
R11        16.000    24491501.026 6 130874968.81806     -4016.163 6        41.750                                                                    24491512.651 6 101791593.08906     -3123.607 6        38.129
S45        17.000    63494936.598 6 333669073.22506      -616.576 6        36.386
R03        18.000    20269821.765 8 108505896.24208      -694.301 8        52.069                                                                    20269825.818 7  84393477.44607      -540.031 7        47.383
C35        19.000                                                                                                                                    24081411.129 7 125398332.24007      1639.749 7        45.538                                                                    24081416.902 7 101896486.70707      1332.390 7        45.585
E11        20.000    28023298.143 5 147263434.90305      1102.707 5        34.724                                                                    28023311.462 6 109969509.28706       823.600 6        36.858    28023308.917 6 112838270.27206       844.800 6        37.168
R14        21.000    23989160.713 7 127875693.94107      2773.216 7        43.663                                                                    23989174.137 6  99458918.26006      2156.835 6        39.192
I06        22.000    38398475.907 6 150683908.88706      -527.786 6        40.937
S28        23.000    40995666.576 5 215433455.45705      -568.815 5        34.910
G14        24.000    24487724.131 6 128683689.77206     -3868.296 6        39.571                                    24487734.911 3 100272963.79703     -3014.250 3        22.019    24487734.579 6 100272965.77806     -3014.209 6        37.894
S23        25.000    38242806.896 7 200967131.09707      -562.258 7        44.837
E08        26.000    24081864.637 8 126550968.93408     -2040.705 8        48.271                                                                    24081869.888 8  94502320.53308     -1523.911 8        50.007    24081868.733 8  96967598.97908     -1563.640 8        50.744
C07        27.000                                                                                                                                    39391074.382 6 205119582.09506     -1277.104 6        40.255    39391078.675 7 158611465.28707      -987.654 7        42.895    39391074.783 6 166676445.79206     -1037.910 6        40.040
G13        28.000    23378113.086 7 122852658.90507     -4313.568 7        43.219                                    23378118.731 4  95729284.40304     -3361.210 4        26.072
I02        29.000    36998993.812 7 145191983.71907      -377.624 7        42.840
G10        30.000    24448244.527 7 128476248.16807      -804.702 7        42.133                                    24448254.229 5 100111331.34805      -627.032 5        34.386    24448254.899 6 100111323.35906      -627.312 6        37.618
E07        31.000    24882952.278 7 130760724.22007       868.075 7        45.028                                                                    24882961.058 8  97645992.49908       648.246 8        48.528    24882959.916 8 100193277.31808       665.071 8        49.383
E03        32.000    27122073.329 6 142527280.81006     -3695.223 6        39.652                                                                    27122087.893 7 106432671.19207     -2759.348 7        43.822    27122085.976 7 109209176.22707     -2831.504 7        44.638
E10        33.000    28270110.132 6 148560431.98006       -41.993 6        36.862                                                                    28270126.881 6 110938056.22406       -31.241 6        40.803    28270124.830 6 113832080.92106       -32.191 6        41.404
G02        34.000    26174571.648 4 137548432.75704     -2019.004 4        29.365                                    26174573.254 1 107180664.27801     -1573.271 1         7.250
C24        35.000                                                                                                                                    22563736.697 8 117495328.37608      1233.939 8        49.368                                                                    22563738.376 8  95474599.51608      1002.517 8        49.222
G23        36.000    24230431.235 6 127331594.46606     -2944.405 6        41.085                                    24230439.819 4  99219363.14304     -2294.342 4        24.015    24230439.995 6  99219364.14006     -2294.261 6        38.090
R04        38.000    22594326.421 7 120991475.25707      2778.034 7        46.209                                                                    22594335.804 7  94104460.04607      2160.659 7        42.555
C33        39.000                                                                                                                                    24079281.292 7 125387117.24307      -741.516 7        46.324                                                                    24079299.613 7 101887373.76307      -602.642 7        46.546
E25        40.000    26381205.704 6 138634066.45206     -3050.769 6        40.884                                                                    26381219.044 7 103525410.27607     -2278.311 7        44.582    26381216.932 7 106226068.94807     -2337.728 7        45.269
S44        42.000    40942641.051 6 215154995.04906      -508.798 6        37.127
R22        43.000    22241386.462 7 118726127.08107      2190.847 7        46.923                                                                    22241394.446 7  92342622.82407      1703.969 7        43.918
C05        44.000                                                                                                                                    39543067.144 6 205910985.24306      -584.790 6        38.799    39543073.165 7 159223413.79507      -452.310 7        42.518    39543072.078 6 167319609.00406      -475.288 6        39.255
C40        45.000                                                                                                                                    39629417.165 6 206360691.07206     -1538.788 6        40.818                                                                    39629424.592 6 167684963.05006     -1250.486 6        40.834
G32        46.000    26156043.920 6 137450922.37006      2945.231 6        38.607                                    26156047.856 4 107104637.35604      2295.002 4        28.408    26156048.835 5 107104639.33205      2295.000 5        34.452
C10        49.000                                                                                                                                    38722292.760 6 201637130.62906      -937.449 6        41.163    38722298.764 7 155918631.00307      -724.903 7        43.894    38722294.956 6 163846684.88706      -761.832 6        41.137
C42        50.000                                                                                                                                    24499243.908 7 127573848.54607     -3407.318 7        45.053                                                                    24499258.737 7 103664208.92707     -2768.826 7        45.776
S48        51.000    77245072.090 6 405925886.48806      -557.678 6        38.018
E02        53.000    23316850.659 8 122530957.10508     -1088.642 8        48.588                                                                    23316855.953 8  91500465.93208      -812.926 8        51.445    23316854.401 8  93887416.25808      -834.146 8        51.181
C60        54.000                                                                                                                                    40942642.605 6 213199057.91006      -504.205 6        40.148                                                                    40942637.742 6 173241620.44506      -409.800 6        39.003
C45        55.000                                                                                                                                    25465850.643 7 132607192.86707     -3265.977 7        42.051                                                                    25465853.020 7 107754142.80207     -2653.972 7        42.925
R12        56.000    20116710.445 8 107459925.34108     -2354.077 8        50.884                                                                    20116716.963 7  83579973.68507     -1830.929 7        46.873
C02        57.000                                                                                                                                    41075949.209 5                      -548.088 5        30.506    41075958.856 5 165395618.86705      -423.939 5        35.800    41075957.792 5                      -445.697 5        30.045
I03        58.000   121650563.281 5 401597381.30205       884.070 5        33.539
C14        59.000                                                                                                                                    23806308.218 7 123965594.17407     -2250.093 7        44.877    23806311.968 8  95858024.47008     -1739.921 8        50.164    23806308.530 7 100732163.92507     -1828.469 7        47.056
R13        60.000    19888006.205 7 106200922.88207       642.566 7        45.849
> 2025 01 01 11 16 40.0000000  0 54
G19         1.000    21386588.315 7 112387440.22007       195.837 7        47.389                                    21386588.927 6  87574717.72506       152.603 6        38.535
G25         2.000    25034151.597 6 131555344.88606      3093.892 6        37.081                                    25034162.422 4 102510709.22104      2410.830 4        26.251    25034163.337 5 102510719.19605      2411.047 5        32.677
G24         3.000    20242944.958 8 106377415.03508       211.312 8        50.016                                    20242948.750 8  82891526.12508       164.659 8        52.711    20242949.147 7  82891523.13007       164.638 7        46.428
R02         4.000    21518090.515 8 114824531.52808     -4434.706 8        49.178                                                                    21518098.855 7  89307952.18607     -3449.203 7        44.202
S21         5.000    38536964.340 7 202512773.19707      -558.434 7        42.595
G17         7.000    22581314.499 7 118665745.34207     -2303.048 7        46.001                                    22581318.097 7  92466897.55307     -1794.575 7        42.800    22581318.941 6  92466893.54406     -1794.485 6        41.778
R21         8.000    22457932.431 7 120176992.51807     -1552.683 7        44.825                                                                    22457942.254 6  93471071.20906     -1207.621 6        41.712
E12         9.000    28900927.568 5 151875459.59205     -1106.744 5        30.936                                                                    28900936.218 6 113413560.99906      -826.101 6        37.002    28900934.698 6 116372162.23506      -847.889 6        36.571
E30        10.000    25201376.136 7 132434249.65707      1417.222 7        45.740                                                                    25201384.558 8  98895808.61108      1058.375 8        48.552    25201383.179 8 101475688.68408      1085.949 8        49.110
C26        11.000                                                                                                                                    21945222.847 8 114274538.56708     -1347.865 8        50.809                                                                    21945226.015 8  92857438.48708     -1095.194 8        49.184
S27        12.000    39291529.456 6 206478155.25806      -587.895 6        36.684
G15        13.000    22015837.588 7 115693893.68307     -3742.963 7        46.856                                    22015840.919 7  90151041.25007     -2916.590 7        44.715    22015841.284 7  90151033.23607     -2916.594 7        42.299
S36        14.000    38308407.056 7 201312412.23607      -559.189 7        44.358
G12        15.000    21915451.991 7 115166596.52407      2153.250 7        47.894                                    21915454.545 7  89740274.24407      1677.855 7        46.212    21915454.854 7  89740274.25607      1677.878 7        42.942
R11        16.000    24495258.393 6 130895048.95806     -4015.850 6        41.600                                                                    24495270.379 6 101807211.00506     -3123.581 6        38.378
S45        17.000    63495474.083 6 333672155.96906      -616.406 6        36.340
R03        18.000    20270472.529 8 108509379.57608      -699.056 8        51.786                                                                    20270476.661 7  84396186.70507      -543.713 7        47.033
C35        19.000                                                                                                                                    24079837.753 7 125390138.41507      1637.833 7        45.809                                                                    24079843.147 7 101889828.57607      1330.885 7        45.330
E11        20.000    28022249.211 5 147257926.81305      1100.554 5        34.576                                                                    28022263.153 6 109965396.08906       821.947 6        37.089    28022260.756 6 112834049.76906       843.262 6        37.395
R14        21.000    23986559.637 7 127861829.64307      2772.444 7        43.710                                                                    23986573.448 6  99448134.87106      2156.371 6        39.261
I06        22.000    38399148.420 6 150686547.30106      -527.600 6        41.054
S28        23.000    40996204.185 5 215436300.01705      -569.012 5        34.824
G14        24.000    24491404.670 6 128703031.78306     -3868.443 6        39.249                                    24491415.325 3 100288035.45903     -3014.377 3        21.595    24491415.268 6 100288037.44506     -3014.573 6        37.819
S23        25.000    38243341.831 7 200969942.56107      -562.288 7        44.808
E08        26.000    24083807.207 8 126561177.92408     -2042.783 8        48.386                                                                    24083812.553 8  94509944.11408     -1525.475 8        49.961    24083811.457 8  96975421.44208     -1565.240 8        50.661
C07        27.000                                                                                                                                    39392300.723 6 205125968.84306     -1277.458 6        40.243    39392304.958 7 158616403.92007      -987.770 7        42.851    39392301.177 6 166681635.55706     -1038.196 6        39.961
G13        28.000    23382217.965 7 122874229.55207     -4314.657 7        42.360                                    23382223.712 4  95746092.64904     -3362.053 4        25.970
I02        29.000    36999474.900 7 145193872.66407      -377.818 7        42.825
G10        30.000    24449011.007 6 128480280.51406      -808.064 6        41.025                                    24449021.582 5 100114473.39805      -629.653 5        34.438    24449021.796 6 100114465.37106      -629.561 6        37.297
E07        31.000    24882127.635 7 130756389.11207       866.007 7        45.223                                                                    24882136.146 8  97642755.24108       646.725 8        48.525    24882134.954 8 100189955.60708       663.573 8        49.302
E03        32.000    27125589.623 6 142545758.65806     -3695.785 6        39.393                                                                    27125604.068 7 106446469.52607     -2759.853 7        43.592    27125602.252 7 109223334.52407     -2831.889 7        44.485
E10        33.000    28270151.394 6 148560647.82606       -44.431 6        37.384                                                                    28270167.818 6 110938217.40806       -33.147 6        40.694    28270165.936 6 113832246.31006       -34.057 6        41.340
G02        34.000    26176492.980 4 137558533.11404     -2021.048 4        29.697                                    26176495.073 1 107188534.81501     -1574.929 1         6.250
C24        35.000                                                                                                                                    22562552.528 8 117489161.80108      1232.716 8        49.313                                                                    22562554.146 8  95469588.67108      1001.728 8        49.228
G23        36.000    24233233.158 6 127346321.29706     -2946.319 6        41.230                                    24233242.131 3  99230838.54403     -2295.833 3        23.943    24233242.403 6  99230839.53506     -2295.754 6        38.468
R04        38.000    22591733.478 7 120977592.81607      2775.081 7        45.758                                                                    22591743.213 7  94093662.60907      2158.422 7        43.416
C33        39.000                                                                                                                                    24079994.731 7 125390832.56307      -744.573 7        46.458                                                                    24080013.096 7 101890392.76607      -604.957 7        46.607
E25        40.000    26384109.152 6 138649322.04506     -3051.157 6        40.663                                                                    26384122.073 7 103536802.39207     -2278.530 7        44.566    26384119.959 7 106237758.25907     -2337.946 7        45.050
S44        42.000    40943126.397 6 215157539.39406      -508.853 6        37.384
R22        43.000    22239335.740 7 118715180.42407      2187.797 7        46.845                                                                    22239344.579 7  92334108.77007      1701.657 7        44.033
C05        44.000                                                                                                                                    39543628.512 6 205913910.02306      -584.894 6        38.850    39543634.797 7 159225675.41007      -452.330 7        42.648    39543633.750 6 167321985.62606      -475.163 6        39.186
C40        45.000                                                                                                                                    39630895.088 6 206368386.57206     -1539.338 6        40.698                                                                    39630902.323 6 167691216.26006     -1250.751 6        40.791
G32        46.000    26153241.363 6 137436198.07006      2944.503 6        38.285                                    26153245.928 4 107093163.78404      2294.427 4        28.351    26153247.336 5 107093165.77705      2294.307 5        34.190
C10        49.000                                                                                                                                    38723192.528 6 201641819.10206      -937.960 6        41.128    38723199.289 7 155922256.40707      -725.164 7        44.057    38723195.374 6 163850494.65006      -762.252 6        41.094
C42        50.000                                                                                                                                    24502516.412 7 127590889.02707     -3408.792 7        45.047                                                                    24502531.195 7 103678055.68307     -2769.895 7        45.785
S48        51.000    77245604.111 6 405928676.27406      -557.956 6        37.890
E02        53.000    23317887.176 8 122536404.21608     -1090.114 8        48.592                                                                    23317892.543 8  91504533.56408      -814.050 8        51.395    23317890.978 8  93891590.00708      -835.293 8        51.076
C60        54.000                                                                                                                                    40943126.730 6 213201579.12406      -504.173 6        40.303                                                                    40943121.911 6 173243669.12906      -409.750 6        39.081
C45        55.000                                                                                                                                    25468987.071 6 132623523.23306     -3266.203 6        41.890                                                                    25468989.011 7 107767412.52707     -2654.028 7        42.641
R12        56.000    20118915.360 8 107471700.11508     -2355.801 8        50.868                                                                    20118921.553 7  83589131.82407     -1832.286 7        47.369
C02        57.000                                                                                                                                    41076476.038 5                      -548.026 5        30.589    41076485.654 5 165397739.14205      -424.202 5        35.843    41076484.486 5                      -445.801 5        30.287
I03        58.000   121649437.235 5 401592960.43005       884.069 5        33.545
C14        59.000                                                                                                                                    23808469.294 7 123976851.04007     -2252.565 7        45.070    23808473.667 8  95866728.97708     -1741.846 8        50.008    23808470.357 7 100741311.04607     -1830.440 7        47.029
R13        60.000    19887405.683 7 106197715.80907       640.371 7        45.473
> 2025 01 01 11 16 45.0000000  0 54
G19         1.000    21386403.302 7 112386469.38307       192.756 7        47.248                                    21386404.204 6  87573961.22206       150.199 6        38.450
G25         2.000    25031206.860 5 131539876.35005      3093.675 5        35.757                                    25031218.927 4 102498655.78504      2410.648 4        26.311    25031220.879 5 102498665.79005      2410.781 5        33.515
G24         3.000    20242745.313 8 106376365.12308       208.938 8        50.047                                    20242748.962 8  82890708.01108       162.811 8        52.663    20242749.326 7  82890705.01807       162.805 7        46.411
R02         4.000    21522246.965 8 114846711.09208     -4436.814 8        48.591                                                                    21522255.497 7  89325202.91207     -3450.789 7        44.950
S21         5.000    38537494.952 7 202515565.74507      -558.298 7        42.588
G17         7.000    22583506.642 7 118677267.36907     -2305.482 7        45.661                                    22583510.717 7  92475875.73507     -1796.474 7        42.751    22583511.347 7  92475871.73507     -1796.402 7        42.140
R21         8.000    22459384.932 7 120184767.19107     -1556.888 7        45.306                                                                    22459395.284 7  93477118.14407     -1210.903 7        43.143
E12         9.000    28901981.620 5 151880997.78405     -1108.321 5        30.785                                                                    28901989.993 6 113417696.68906      -827.720 6        36.465    28901988.538 6 116376405.81606      -849.412 6        36.628
E30        10.000    25200028.491 7 132427166.43007      1416.237 7        45.949                                                                    25200036.666 8  98890519.18108      1057.634 8        48.681    25200035.283 8 101470261.27508      1085.210 8        49.049
C26        11.000                                                                                                                                    21946517.712 8 114281281.71608     -1349.139 8        51.061                                                                    21946520.996 8  92862917.83908     -1096.384 8        49.284
S27        12.000    39292091.629 6 206481095.51706      -588.060 6        36.616
G15        13.000    22019399.783 7 115712613.42707     -3744.737 7        46.652                                    22019403.206 7  90165628.03007     -2917.967 7        44.647    22019403.608 6  90165620.01206     -2917.896 6        41.635
S36        14.000    38308940.056 7 201315208.29507      -558.923 7        44.366
G12        15.000    21913404.363 7 115155834.90007      2151.665 7        47.866                                    21913406.672 7  89731888.56807      1676.621 7        46.142    21913407.134 7  89731888.57107      1676.697 7        43.225
R11        16.000    24499015.990 6 130915128.37306     -4015.556 6        41.604                                                                    24499028.098 6 101822828.37006     -3123.172 6        38.282
S45        17.000    63496010.060 6 333675239.03006      -616.452 6        36.140
R03        18.000    20271127.503 8 108512886.79108      -703.514 8        51.399                                                                    20271131.615 7  84398914.53107      -547.194 7        46.811
C35        19.000                                                                                                                                    24078266.247 7 125381954.45107      1636.095 7        46.365                                                                    24078271.388 7 101883178.44107      1329.301 7        45.303
E11        20.000    28021202.657 5 147252428.23005      1099.061 5        34.290                                                                    28021216.468 6 109961290.00606       820.624 6        36.968    28021214.634 6 112829836.56006       842.114 6        37.558
R14        21.000    23983959.339 7 127847967.91607      2772.322 7        44.330                                                                    23983971.793 6  99437353.50806      2156.244 6        37.773
I06        22.000    38399820.663 6 150689185.89806      -527.524 6        41.094
S28        23.000    40996749.638 5 215439144.70105      -568.773 5        34.910
G14        24.000    24495085.339 6 128722375.05206     -3868.635 6        38.967                                    24495096.011 3 100303108.11203     -3014.538 3        20.905    24495096.117 6 100303110.09606     -3014.543 6        37.849
S23        25.000    38243876.315 7 200972754.20107      -562.165 7        44.856
E08        26.000    24085752.280 8 126571397.49008     -2044.799 8        48.479                                                                    24085757.288 8  94517575.58908     -1526.920 8        50.055    24085756.138 8  96983251.99808     -1566.699 8        50.706
C07        27.000                                                                                                                                    39393527.102 6 205132357.55906     -1277.666 6        40.353    39393531.961 7 158621344.06707      -988.022 7        42.863    39393528.216 6 166686826.89106     -1038.402 6        40.043
G13        28.000    23386323.715 7 122895804.92907     -4315.394 7        42.514                                    23386329.775 4  95762904.57904     -3362.630 4        26.347
I02        29.000    36999956.559 7 145195762.75807      -377.776 7        42.667
G10        30.000    24449781.146 6 128484328.40406      -811.004 6        40.965                                    24449791.895 5 100117627.56005      -631.949 5        34.476    24449792.170 6 100117619.55506      -631.894 6        37.879
E07        31.000    24881304.618 7 130752063.78407       864.409 7        45.222                                                                    24881313.126 8  97639525.28408       645.519 8        48.555    24881311.882 8 100186641.39308       662.293 8        49.259
E03        32.000    27129106.377 6 142564239.31006     -3696.199 6        39.255                                                                    27129120.853 7 106460269.93607     -2760.149 7        43.668    27129118.902 7 109237494.94407     -2832.066 7        44.468
E10        33.000    28270194.773 6 148560875.94606       -46.552 6        37.365                                                                    28270211.192 6 110938387.75206       -34.840 6        40.694    28270209.429 6 113832421.08606       -35.614 6        41.569
G02        34.000    26178419.049 4 137568645.70604     -2023.858 4        29.659                                    26178419.386 1 107196414.93501     -1577.017 1         6.250
C24        35.000                                                                                                                                    22561369.350 8 117483001.04908      1231.825 8        49.562                                                                    22561371.032 8  95464582.55008      1000.849 8        49.213
G23        36.000    24236037.257 6 127361057.38506     -2947.950 6        40.560                                    24236046.469 4  99242321.17804     -2297.102 4        24.045    24236047.179 6  99242322.15906     -2296.996 6        38.856
R04        38.000    22589144.543 7 120963724.60207      2772.375 7        45.606                                                                    22589153.710 7  94082876.25407      2156.264 7        43.784
C33        39.000                                                                                                                                    24080711.335 7 125394562.78607      -747.317 7        46.941                                                                    24080729.431 7 101893423.86907      -607.354 7        46.622
E25        40.000    26387012.695 6 138664579.72706     -3051.469 6        40.732                                                                    26387025.492 7 103548196.06107     -2278.634 7        44.552    26387023.584 7 106249449.16307     -2338.169 7        45.109
S44        42.000    40943608.433 6 215160083.78206      -508.547 6        37.206
R22        43.000    22237287.952 7 118704249.18407      2184.877 7        46.814                                                                    22237296.156 7  92325606.72607      1699.444 7        44.033
C05        44.000                                                                                                                                    39544190.228 6 205916834.88806      -584.631 6        38.862    39544196.598 7 159227937.08707      -452.217 7        42.781    39544195.502 6 167324362.30906      -475.298 6        39.192
C40        45.000                                                                                                                                    39632373.534 6 206376084.44906     -1539.537 6        40.806                                                                    39632380.691 6 167697471.39606     -1251.171 6        40.987
G32        46.000    26150440.194 6 137421476.80006      2944.183 6        37.002                                    26150444.671 4 107081692.60904      2294.175 4        26.778    26150445.458 5 107081694.60105      2293.998 5        33.784
C10        49.000                                                                                                                                    38724093.760 6 201646509.96406      -938.221 6        41.342    38724100.237 7 155925883.66807      -725.503 7        44.004    38724096.120 6 163854306.34206      -762.432 6        41.249
C42        50.000                                                                                                                                    24505789.896 7 127607936.61207     -3409.919 7        45.600                                                                    24505805.092 7 103691908.21107     -2770.962 7        45.937
S48        51.000    77246133.135 6 405931466.26506      -557.740 6        38.024
E02        53.000    23318925.300 8 122541859.01408     -1091.485 8        48.698                                                                    23318930.552 8  91508606.93008      -815.050 8        51.454    23318929.000 8  93895769.63808      -836.314 8        51.055
C60        54.000                                                                                                                                    40943610.859 6 213204100.39706      -504.005 6        40.448                                                                    40943606.076 6 173245717.84006      -409.572 6        39.060
C45        55.000                                                                                                                                    25472123.906 7 132639855.35207     -3266.421 7        42.409                                                                    25472125.412 7 107780683.68507     -2654.291 7        42.548
R12        56.000    20121121.179 8 107483483.53408     -2357.301 8        51.215                                                                    20121127.315 7  83598296.68207     -1833.420 7        47.507
C02        57.000                                                                                                                                    41077003.640 5                      -548.347 5        30.196    41077012.201 6 165399859.39006      -423.790 6        36.023    41077011.078 4                      -445.282 4        29.981
I03        58.000   121648310.961 5 401588539.40605       884.381 5        33.766
C14        59.000                                                                                                                                    23810634.034 7 123988120.31307     -2254.893 7        45.299    23810637.492 8  95875443.06408     -1743.549 8        49.968    23810634.429 7 100750468.23107     -1832.371 7        47.160
R13        60.000    19886806.859 7 106194519.29307       638.444 7        46.139
> 2025 01 01 11 16 50.0000000  0 54
G19         1.000    21386221.767 7 112385515.14607       189.219 7        47.139                                    21386222.643 6  87573217.65306       147.445 6        38.508
G25         2.000    25028263.746 5 131524409.87305      3092.984 5        35.510                                    25028275.942 4 102486603.97004      2410.119 4        26.527    25028278.004 5 102486613.98605      2410.073 5        34.100
G24         3.000    20242547.980 8 106375328.08608       206.106 8        49.752                                    20242551.621 8  82889899.92508       160.602 8        52.702    20242551.878 7  82889896.93107       160.592 7        46.481
R02         4.000    21526406.130 8 114868902.53008     -4439.415 8        49.272                                                                    21526414.591 7  89342462.87507     -3452.903 7        45.147
S21         5.000    38538026.632 7 202518358.04507      -558.316 7        42.557
G17         7.000    22585701.919 7 118688802.94707     -2308.432 7        45.514                                    22585705.930 7  92484864.47407     -1798.772 7        42.775    22585706.483 7  92484860.46507     -1798.785 7        42.233
R21         8.000    22460842.517 7 120192564.02707     -1561.543 7        45.539                                                                    22460852.458 7  93483182.31507     -1214.531 7        42.813
E12         9.000    28903038.005 5 151886548.24505     -1111.318 5        30.694                                                                    28903046.414 6 113421841.56006      -829.718 6        36.507    28903044.763 6 116380658.78406      -851.489 6        37.017
E30        10.000    25198681.807 7 132420089.31007      1414.851 7        45.941                                                                    25198689.876 8  98885234.32308      1056.490 8        48.518    25198688.550 8 101464838.54808      1084.033 8        49.164
C26        11.000                                                                                                                                    21947814.250 8 114288032.12208     -1350.826 8        50.989                                                                    21947817.328 8  92868403.07908     -1097.763 8        49.236
S27        12.000    39292650.005 6 206484035.74706      -588.128 6        36.276
G15        13.000    22022963.852 7 115731343.05107     -3746.944 7        46.760                                    22022967.339 7  90180222.50607     -2919.689 7        44.689    22022967.897 7  90180214.49007     -2919.558 7        42.186
S36        14.000    38309472.501 7 201318004.11607      -559.082 7        44.464
G12        15.000    21911357.795 7 115145082.40207      2149.632 7        47.641                                    21911360.538 7  89723510.00007      1675.038 7        46.198    21911361.268 7  89723510.00307      1675.003 7        42.971
R11        16.000    24502773.110 6 130935207.04706     -4015.590 6        40.853                                                                    24502785.799 6 101838445.14206     -3123.354 6        38.132
S45        17.000    63496548.828 6 333676722.14516      -616.628 6        36.008
R03        18.000    20271787.017 8 108516417.48808      -708.437 8        51.425                                                                    20271791.383 7  84401660.62007      -550.983 7        46.974
C35        19.000                                                                                                                                    24076696.426 7 125373780.28607      1633.872 7        46.087                                                                    24076701.824 7 101876536.27007      1327.517 7        45.348
E11        20.000    28020158.544 5 147246939.16505      1096.979 5        34.424                                                                    28020171.927 6 109957191.01606       819.133 6        37.112    28020170.195 6 112825630.66206       840.312 6        37.837
R14        21.000    23981359.388 7 127834108.69907      2771.627 7        43.223                                                                    23981372.416 6  99426574.12106      2155.582 6        38.129
I06        22.000    38400493.059 6 150691824.59006      -527.786 6        40.865
S28        23.000    40997295.807 5 215441989.35005      -568.771 5        34.752
G14        24.000    24498766.676 6 128741719.52206     -3869.094 6        37.807                                    24498776.930 3 100318181.69503     -3014.869 3        20.643    24498777.110 6 100318183.67206     -3014.806 6        37.414
S23        25.000    38244411.291 7 200975565.99307      -562.360 7        44.825
E08        26.000    24087698.847 8 126581627.52608     -2047.020 8        48.405                                                                    24087704.009 8  94525214.88308     -1528.639 8        49.922    24087702.815 8  96991090.58208     -1568.491 8        50.781
C07        27.000                                                                                                                                    39394754.681 6 205138748.25806     -1278.274 6        40.215    39394759.290 7 158626285.74907      -988.581 7        42.988    39394755.535 6 166692019.84006     -1038.811 6        40.000
G13        28.000    23390430.233 7 122917384.95207     -4316.453 7        43.012                                    23390436.576 4  95779720.12304     -3363.461 4        26.335
I02        29.000    37000438.627 7 145197654.10307      -378.430 7        42.497
G10        30.000    24450554.524 6 128488391.75606      -814.156 6        41.094                                    24450565.123 5 100120793.77005      -634.400 5        34.519    24450564.902 6 100120785.76706      -634.479 6        37.221
E07        31.000    24880482.907 7 130747748.20307       862.182 7        45.336                                                                    24880491.866 8  97636302.60608       643.876 8        48.443    24880490.622 8 100183334.64508       660.639 8        49.394
E03        32.000    27132623.634 6 142582722.65606     -3696.912 6        39.336                                                                    27132638.212 7 106474072.36907     -2760.617 7        43.384    27132636.355 7 109251657.45707     -2832.716 7        44.390
E10        33.000    28270240.359 6 148561116.27606       -49.248 6        37.077                                                                    28270256.797 6 110938567.21006       -36.850 6        40.281    28270255.185 6 113832605.23306       -37.861 6        41.745
G02        34.000    26180344.477 4 137578770.37904     -2025.943 4        29.289                                    26180346.132 1 107204304.40801     -1578.706 1         6.125
C24        35.000                                                                                                                                    22560187.406 8 117476846.02708      1230.457 8        49.610                                                                    22560189.029 8  95459581.08908       999.748 8        49.289
G23        36.000    24238843.418 6 127375802.65606     -2949.964 6        40.687                                    24238852.627 3  99253810.96003     -2298.666 3        23.829    24238852.874 6  99253811.94406     -2298.617 6        39.051
R04        38.000    22586556.403 7 120949870.60907      2769.312 7        45.437                                                                    22586566.230 7  94072100.93407      2153.974 7        42.891
C33        39.000                                                                                                                                    24081430.568 7 125398307.84707      -750.476 7        46.856                                                                    24081448.627 7 101896467.02607      -609.850 7        46.605
E25        40.000    26389916.372 6 138679839.40006     -3052.210 6        40.889                                                                    26389929.408 7 103559591.23507     -2279.252 7        44.468    26389927.625 7 106261141.59207     -2338.620 7        45.183
S44        42.000    40944091.301 6 215162628.17306      -508.906 6        37.251
R22        43.000    22235242.188 7 118693333.28507      2181.674 7        46.378                                                                    22235252.007 7  92317116.60507      1696.753 7        44.163
C05        44.000                                                                                                                                    39544751.855 6 205919759.73006      -584.986 6        38.760    39544758.453 7 159230198.73507      -452.385 7        42.768    39544757.075 6 167326738.95506      -475.373 6        39.255
C40        45.000                                                                                                                                    39633852.272 6 206383784.62106     -1540.335 6        40.613                                                                    39633859.460 6 167703728.39706     -1251.723 6        40.953
G32        46.000    26147639.860 5 137406758.42705      2943.455 5        35.524                                    26147643.969 4 107070223.66004      2293.615 4        25.639    26147643.835 5 107070225.65205      2293.717 5        34.314
C10        49.000                                                                                                                                    38724995.169 6 201651203.10006      -938.721 6        41.485    38725001.706 7 155929512.70107      -725.861 7        44.257    38724997.725 6 163858119.89506      -762.951 6        41.323
C42        50.000                                                                                                                                    24509065.322 7 127624991.22007     -3411.576 7        45.868                                                                    24509080.287 7 103705766.44007     -2772.265 7        46.000
S48        51.000    77246660.321 6 405934256.30406      -557.981 6        37.913
E02        53.000    23319964.727 8 122547321.40508     -1093.227 8        48.736                                                                    23319970.017 8  91512685.97908      -816.332 8        51.350    23319968.450 8  93899955.09908      -837.653 8        51.154
C60        54.000                                                                                                                                    40944095.234 6 213206621.63206      -504.129 6        40.451                                                                    40944090.429 6 173247766.54306      -409.781 6        39.444
C45        55.000                                                                                                                                    25475260.620 7 132656189.17607     -3266.811 7        42.210                                                                    25475262.140 7 107793956.22007     -2654.710 7        42.554
R12        56.000    20123328.395 8 107495275.39608     -2359.169 8        51.018                                                                    20123334.524 7  83607468.11407     -1834.893 7        47.478
C02        57.000                                                                                                                                    41077530.576 5                      -548.039 5        30.309    41077538.171 6 165401979.65906      -424.074 6        36.008    41077537.509 5                      -445.470 5        30.475
I03        58.000   121647183.961 5 401584118.29005       883.970 5        33.395
C14        59.000                                                                                                                                    23812800.479 7 123999401.92607     -2257.449 7        45.213    23812804.102 8  95884166.70908     -1745.698 8        50.104    23812800.930 7 100759635.44807     -1834.516 7        47.154
R13        60.000    19886210.472 7 106191333.49307       636.097 7        46.061
> 2025 01 01 11 16 55.0000000  0 54
G19         1.000    21386043.642 7 112384577.67507       185.787 7        47.078                                    21386044.274 6  87572487.15106       144.773 6        38.312
G25         2.000    25025322.327 6 131508945.66406      3092.532 6        37.259                                    25025333.230 4 102474553.92404      2409.776 4        26.563    25025333.696 5 102474563.94605      2409.718 5        34.157
G24         3.000    20242353.082 8 106374304.07408       203.365 8        49.356                                    20242356.765 8  82889101.98808       158.466 8        52.571    20242357.239 7  82889098.99807       158.409 7        46.705
R02         4.000    21530566.947 8 114891105.82008     -4442.035 8        49.292                                                                    21530575.204 7  89359732.05507     -3454.917 7        45.056
S21         5.000    38538559.529 7 202521150.62407      -558.645 7        42.404
G17         7.000    22587899.757 7 118700352.20007     -2311.354 7        44.873                                    22587903.760 7  92493863.87007     -1801.050 7        42.631    22587903.827 7  92493859.86007     -1801.020 7        42.006
R21         8.000    22462303.604 7 120200383.27407     -1566.277 7        46.196                                                                    22462312.591 6  93489263.92506     -1218.152 6        41.688
E12         9.000    28904096.583 5 151892111.09305     -1113.862 5        31.547                                                                    28904104.657 6 113425995.69006      -831.700 6        36.412    28904103.273 6 116384921.29806      -853.575 6        36.544
E30        10.000    25197336.041 7 132413018.45807      1413.485 7        45.862                                                                    25197344.409 8  98879954.14808      1055.498 8        48.551    25197342.990 8 101459420.62808      1083.014 8        49.185
C26        11.000                                                                                                                                    21949112.063 8 114294789.94108     -1352.462 8        50.797                                                                    21949115.113 8  92873894.35508     -1098.943 8        49.209
S27        12.000    39293208.770 6 206486976.27706      -588.209 6        36.431
G15        13.000    22026530.054 7 115750082.72207     -3749.056 7        46.371                                    22026533.382 7  90194824.81607     -2921.333 7        44.522    22026534.007 7  90194816.78707     -2921.318 7        42.516
S36        14.000    38310003.488 7 201320800.42707      -559.534 7        44.304
G12        15.000    21909313.574 7 115134339.21707      2147.629 7        47.342                                    21909316.175 7  89715138.69007      1673.478 7        46.071    21909316.800 7  89715138.69007      1673.506 7        42.923
R11        16.000    24506531.168 6 130955285.08206     -4015.787 6        40.558                                                                    24506542.942 6 101854061.42106     -3123.369 6        38.300
S45        17.000    63497087.238 5 333679805.62605      -616.853 5        35.776
R03        18.000    20272451.575 8 108519972.06508      -713.405 8        52.267                                                                    20272455.460 7  84404425.28507      -554.913 7        46.881
C35        19.000                                                                                                                                    24075128.691 7 125365616.09407      1631.769 7        46.329                                                                    24075134.212 7 101869902.20207      1325.944 7        45.487
E11        20.000    28019116.023 5 147241459.70205      1095.205 5        34.429                                                                    28019129.105 6 109953099.22806       817.588 6        36.752    28019127.437 6 112821432.11506       838.852 6        37.758
R14        21.000    23978759.825 7 127820252.10707      2770.890 7        42.796                                                                    23978773.061 6  99415796.74606      2155.236 6        37.822
I06        22.000    38401165.402 6 150694463.49706      -527.878 6        40.977
S28        23.000    40997828.574 5 215444834.56805      -568.975 5        34.567
G14        24.000    24502448.273 6 128761065.32906     -3869.284 6        37.074                                    24502458.144 3 100333256.32103     -3015.018 3        20.238    24502458.480 6 100333258.30806     -3015.147 6        37.395
S23        25.000    38244946.661 7 200978378.09507      -562.534 7        44.698
E08        26.000    24089647.360 8 126591868.20708     -2049.293 8        48.408                                                                    24089652.790 8  94532862.13208     -1530.380 8        49.933    24089651.602 8  96998937.32908     -1570.268 8        50.829
C07        27.000                                                                                                                                    39395982.218 6 205145141.04306     -1278.893 6        39.847    39395986.737 7 158631229.02907      -988.946 7        42.957    39395983.229 6 166697214.49006     -1039.274 6        40.119
G13        28.000    23394537.677 7 122938969.77707     -4317.560 7        42.542                                    23394544.222 4  95796539.41304     -3364.322 4        26.335
I02        29.000    37000920.757 7 145199546.54007      -378.611 7        42.474
G10        30.000    24451330.706 6 128492470.76406      -817.413 6        40.081                                    24451341.361 5 100123972.17305      -636.936 5        34.205    24451341.986 6 100123964.18206      -637.271 6        37.391
E07        31.000    24879663.819 7 130743442.52007       860.014 7        45.251                                                                    24879672.447 8  97633087.31708       642.277 8        48.417    24879671.309 8 100180035.47808       658.962 8        49.419
E03        32.000    27136141.442 6 142601208.90306     -3697.594 6        39.237                                                                    27136156.072 7 106487876.97007     -2761.325 7        43.475    27136154.213 7 109265822.16707     -2833.203 7        44.349
E10        33.000    28270288.521 6 148561368.94406       -51.899 6        37.028                                                                    28270304.813 6 110938755.86906       -38.770 6        40.279    28270303.317 6 113832798.82306       -39.835 6        41.881
G02        34.000    26182272.291 4 137588907.34504     -2028.715 4        28.607                                    26182275.114 1 107212203.39201     -1580.861 1         4.000
C24        35.000                                                                                                                                    22559006.379 8 117470696.92208      1229.126 8        49.464                                                                    22559008.128 8  95454584.44808       998.742 8        49.201
G23        36.000    24241651.468 6 127390557.28406     -2951.973 6        40.303                                    24241660.412 3  99265308.02503     -2300.229 3        23.276    24241660.087 6  99265309.00706     -2300.297 6        38.982
R04        38.000    22583972.074 7 120936030.96107      2766.348 7        45.738                                                                    22583981.293 7  94061336.74907      2151.591 7        42.525
C33        39.000                                                                                                                                    24082152.336 7 125402067.90207      -753.593 7        46.533                                                                    24082170.739 7 101899522.39207      -612.451 7        46.548
E25        40.000    26392820.543 6 138695101.21406     -3052.742 6        40.934                                                                    26392833.509 7 103570988.00507     -2279.662 7        44.339    26392831.968 7 106272835.67407     -2339.054 7        45.458
S44        42.000    40944579.289 6 215165172.68206      -508.929 6        37.040
R22        43.000    22233200.045 7 118682432.97207      2178.396 7        46.421                                                                    22233209.780 7  92308638.61107      1694.293 7        44.074
C05        44.000                                                                                                                                    39545313.862 6 205922684.71706      -585.045 6        38.694    39545319.901 7 159232460.50707      -452.430 7        42.804    39545318.966 6 167329115.74606      -475.510 6        39.267
C40        45.000                                                                                                                                    39635331.320 6 206391487.25906     -1540.948 6        40.462                                                                    39635338.710 6 167709987.40506     -1252.168 6        40.758
G32        46.000    26144839.602 6 137392043.19806      2942.651 6        36.291                                    26144844.053 4 107058757.17404      2292.996 4        25.910    26144844.655 5 107058759.12505      2292.946 5        35.433
C10        49.000                                                                                                                                    38725896.990 6 201655898.77106      -939.591 6        41.414    38725903.345 7 155933143.67607      -726.501 7        44.284    38725899.388 6 163861935.49906      -763.376 6        41.321
C42        50.000                                                                                                                                    24512342.135 7 127642053.01207     -3413.124 7        45.324                                                                    24512356.915 7 103719630.52007     -2773.555 7        45.892
S48        51.000    77247193.790 6 405937046.35906      -558.245 6        37.667
E02        53.000    23321005.860 8 122552791.57408     -1094.953 8        48.666                                                                    23321010.955 8  91516770.82908      -817.644 8        51.390    23321009.452 8  93904146.50508      -838.922 8        51.135
C60        54.000                                                                                                                                    40944579.538 6 213209143.03606      -504.397 6        40.160                                                                    40944574.563 6 173249815.37706      -409.973 6        39.096
C45        55.000                                                                                                                                    25478397.745 7 132672524.87207     -3267.394 7        42.165                                                                    25478399.394 7 107807230.29307     -2655.164 7        42.506
R12        56.000    20125537.496 8 107507075.94208     -2361.072 8        50.842                                                                    20125543.654 7  83616646.29707     -1836.433 7        47.372
C02        57.000                                                                                                                                    41078056.403 5 213904032.91215      -548.327 5        30.128    41078064.959 6 165404099.98306      -424.051 6        36.291    41078063.921 4                      -445.644 4        29.943
I03        58.000   121646058.155 5 401579697.13105       884.008 5        33.569
C14        59.000                                                                                                                                    23814969.522 7 124010696.04607     -2260.225 7        44.993    23814973.465 8  95892900.01408     -1747.722 8        50.168    23814969.959 7 100768812.83507     -1836.656 7        47.078
R13        60.000    19885615.687 7 106188158.31807       633.824 7        46.276
