     3.04           OBSERVATION DATA    M                   RINEX VERSION / TYPE
ssrcrin-15.6.1x                         20250101 050000 UTC PGM / RUN BY / DATE 
(00000000023479385599111004) Septentrio proprietary         COMMENT             
rref                                                        MARKER NAME         
01                                                          MARKER NUMBER       
geodetic                                                    MARKER TYPE         
NFB                 CLIMERS@TUW                             OBSERVER / AGENCY   
3297213             SEPT ASTERX SB3 PROB4.14.4              REC # / TYPE / VERS 
Unknown             Unknown                                 ANT # / TYPE        
  4127831.4224  1207193.0006  4695247.3605                  APPROX POSITION XYZ 
        0.0000        0.0000        0.0000                  ANTENNA: DELTA H/E/N
G   23 X1  C1C L1C D1C S1C C1W S1W C2W L2W D2W S2W C2L L2L  SYS / # / OBS TYPES 
       D2L S2L C5Q L5Q D5Q S5Q C1L L1L D1L S1L              SYS / # / OBS TYPES 
E   21 X1  C1C L1C D1C S1C C6C L6C D6C S6C C5Q L5Q D5Q S5Q  SYS / # / OBS TYPES 
       C7Q L7Q D7Q S7Q C8Q L8Q D8Q S8Q                      SYS / # / OBS TYPES 
S    9 X1  C1C L1C D1C S1C C5I L5I D5I S5I                  SYS / # / OBS TYPES 
R   17 X1  C1C L1C D1C S1C C2P L2P D2P S2P C2C L2C D2C S2C  SYS / # / OBS TYPES 
       C3Q L3Q D3Q S3Q                                      SYS / # / OBS TYPES 
C   25 X1  C1P L1P D1P S1P C5P L5P D5P S5P C2I L2I D2I S2I  SYS / # / OBS TYPES 
       C7I L7I D7I S7I C6I L6I D6I S6I C7D L7D D7D S7D      SYS / # / OBS TYPES 
J   17 X1  C1C L1C D1C S1C C2L L2L D2L S2L C5Q L5Q D5Q S5Q  SYS / # / OBS TYPES 
       C1L L1L D1L S1L                                      SYS / # / OBS TYPES 
I    5 X1  C5A L5A D5A S5A                                  SYS / # / OBS TYPES 
SEPTENTRIO RECEIVERS OUTPUT ALIGNED CARRIER PHASES.         COMMENT             
NO FURTHER PHASE SHIFT APPLIED IN THE RINEX ENCODER.        COMMENT             
G L1C                                                       SYS / PHASE SHIFT   
G L2W                                                       SYS / PHASE SHIFT   
G L2L  0.00000                                              SYS / PHASE SHIFT   
G L5Q  0.00000                                              SYS / PHASE SHIFT   
G L1L  0.00000                                              SYS / PHASE SHIFT   
E L1C  0.00000                                              SYS / PHASE SHIFT   
E L6C  0.00000                                              SYS / PHASE SHIFT   
E L5Q  0.00000                                              SYS / PHASE SHIFT   
E L7Q  0.00000                                              SYS / PHASE SHIFT   
E L8Q  0.00000                                              SYS / PHASE SHIFT   
S L1C                                                       SYS / PHASE SHIFT   
S L5I                                                       SYS / PHASE SHIFT   
R L1C                                                       SYS / PHASE SHIFT   
R L2P  0.00000                                              SYS / PHASE SHIFT   
R L2C                                                       SYS / PHASE SHIFT   
R L3Q  0.00000                                              SYS / PHASE SHIFT   
C L1P  0.00000                                              SYS / PHASE SHIFT   
C L5P  0.00000                                              SYS / PHASE SHIFT   
C L2I                                                       SYS / PHASE SHIFT   
C L7I                                                       SYS / PHASE SHIFT   
C L6I                                                       SYS / PHASE SHIFT   
C L7D                                                       SYS / PHASE SHIFT   
J L1C                                                       SYS / PHASE SHIFT   
J L2L  0.00000                                              SYS / PHASE SHIFT   
J L5Q  0.00000                                              SYS / PHASE SHIFT   
J L1L  0.00000                                              SYS / PHASE SHIFT   
I L5A                                                       SYS / PHASE SHIFT   
  2025     1     1     5     0    0.0000000     GPS         TIME OF FIRST OBS   
 C1C    0.000 C2C    0.000 C2P    0.000                     GLONASS COD/PHS/BIS 
DBHZ                                                        SIGNAL STRENGTH UNIT
    18                                                      LEAP SECONDS        
 24 R01  1 R02 -4 R03  5 R04  6 R05  1 R06 -4 R07  5 R08  6 GLONASS SLOT / FRQ #
    R09 -2 R10 -7 R11  0 R12 -1 R13 -2 R14 -7 R15  0 R16 -1 GLONASS SLOT / FRQ #
    R17  4 R18 -3 R19  3 R20  2 R21  4 R22 -3 R23  3 R24  2 GLONASS SLOT / FRQ #
                                                            END OF HEADER       
> 2025 01 01 05 00  0.0000000  0 58
G16         1.000    23555794.984 6 123786558.08806      -867.382 6        40.060                                    23555790.341 3  96457043.13403      -675.892 3        22.324
G29         2.000    25707613.105 6 135094408.51106      -502.743 6        37.191                                    25707609.711 4 105268355.88604      -391.758 4        28.209    25707610.058 5 105268357.92005      -391.937 5        34.448
G09         3.000    20518761.913 8 107826868.04008     -1855.274 8        48.722                                    20518759.460 8  84020947.40708     -1445.664 8        51.802    20518759.649 7  84020948.40507     -1445.663 7        46.068
E34         4.000    24720657.554 7 129907940.52007     -2161.729 7        46.862                                                                    24720657.539 8  97009184.00408     -1614.269 8        49.361    24720657.337 8  99539857.71508     -1656.383 8        50.101
S21         5.000    38458801.231 7 202102206.40207      -391.313 7        43.473
E05         6.000    21836898.364 8 114753722.22008      -245.736 8        48.811                                                                    21836897.652 8  85692745.36108      -183.496 8        51.086    21836897.549 8  87928200.22208      -188.265 8        51.720
E15         7.000    25634518.605 7 134710327.10007       694.065 7        43.729                                                                    25634519.129 7 100595398.35707       518.309 7        46.876    25634518.622 7 103219623.82607       531.784 7        47.268
R10         8.000    22178871.016 7 118225866.05907      3841.617 7        42.021
E31         9.000    26407525.860 6 138772498.33206       440.059 6        41.771                                                                    26407527.088 7 103628838.39407       328.633 7        44.625    26407526.461 7 106332197.29507       337.172 7        45.058
G04        10.000    22354788.439 7 117475243.03007     -3055.963 7        44.281                                    22354785.286 5  91539157.95705     -2381.261 5        31.577    22354785.606 7  91539152.94907     -2381.186 7        42.963
E09        11.000    25501836.363 7 134013097.94407     -2401.139 7        45.213                                                                    25501835.974 7 100074731.63507     -1793.017 7        47.427    25501835.522 8 102685376.21508     -1839.783 8        48.359
S27        12.000    39094285.268 6 205441807.24706      -404.269 6        36.548
G06        13.000    22287131.328 7 117119686.91107     -2957.934 7        45.351                                    22287129.887 7  91262096.88307     -2304.882 7        44.889    22287130.314 7  91262107.88107     -2304.878 7        43.189
S36        14.000    38226695.688 7 200883148.71907      -391.652 7        45.076
G20        15.000    22213934.785 7 116735024.92007      2377.879 7        45.360                                    22213929.743 5  90962339.25605      1852.893 5        32.030
E36        16.000    27333343.745 6 143637702.51506     -3690.279 6        38.574                                                                    27333345.413 7 107261932.63607     -2755.607 7        42.555    27333344.941 7 110060065.34607     -2827.470 7        43.710
S45        17.000    63412543.133 6 333236684.45806      -431.622 6        37.323
G03        18.000    25162612.143 3                     -4071.815 3        20.048                                                                                                    25162609.879 3                     -3172.454 3        20.262
E24        19.000    27311684.742 6 143523868.03006      2348.663 6        39.282                                                                    27311684.779 7 107176926.77407      1753.812 7        43.562    27311684.206 7 109972843.07107      1799.623 7        43.490
R23        20.000    21493018.785 7 114973156.40707     -2440.744 7        46.842
G30        21.000    22584393.836 7 118681809.51207      2665.128 7        45.527                                    22584391.735 7  92479339.23607      2076.722 7        43.606    22584392.659 6  92479343.23106      2076.711 6        40.422
I06        22.000    37982400.317 7 149051326.46507      -274.819 7        43.291
S28        23.000    40887485.652 5 214865166.33905      -391.167 5        35.167
S23        25.000    38165666.496 7 200561931.38607      -387.763 7        45.038
E06        26.000    27337602.309 6 143660109.14206     -2838.214 6        39.378                                                                    27337603.319 7 107278646.27407     -2119.411 7        42.434    27337603.104 7 110077218.87507     -2174.676 7        42.332
C34        27.000                                                                                                                                    25560845.975 6 133102032.11506      -515.367 6        41.743                                                                    25560846.052 6 108156308.63406      -418.819 6        41.921
G26        28.000    25251515.160 6 132697589.36206     -2905.851 6        36.026                                    25251515.486 4 103400714.98704     -2264.293 4        27.245    25251515.852 5 103400715.98205     -2264.377 5        35.762
R09        29.000    20222962.982 8 107989503.58408      1161.419 8        50.094                                                                    20222961.996 8  83991839.87808       903.363 8        48.311
C22        30.000                                                                                                                                    21893583.568 8 114005665.21308       816.037 8        51.932                                                                    21893576.819 8  92638929.29708       663.032 8        50.054
I01        31.000   340265625.276 7  32134581.69007     -2845.631 7        42.385
E03        32.000    25850089.911 7 135843155.66807      1720.255 7        43.638                                                                    25850089.831 7 101441336.17107      1284.607 7        45.868    25850089.513 7 104087625.80507      1318.073 7        46.429
G05        33.000    25196092.933 6 132406373.11406      3301.654 6        39.201                                    25196089.854 4 103173792.35204      2572.702 4        29.204    25196090.524 6 103173795.36606      2572.678 6        36.136
R24        34.000    22872813.992 7 122311231.04807      1611.190 7        44.089                                                                    22872813.792 7  95130959.44107      1253.114 7        42.800
C36        35.000                                                                                                                                    23140327.804 8 120497769.27008      2069.644 8        48.793                                                                    23140332.378 8  97914330.90808      1681.689 8        48.596
G11        36.000    22132034.467 7 116304657.67607      -560.300 7        46.342                                    22132030.416 5  90627006.40605      -436.599 5        35.167    22132030.478 7  90627006.40907      -436.512 7        44.543
C35        37.000                                                                                                                                    26988424.793 6 140535804.66306     -3352.281 6        38.574                                                                    26988424.058 6 114196847.94006     -2724.316 6        36.212
I09        38.000    38115785.016 7 149574515.13907      -726.736 7        43.079
R08        39.000    20746909.451 8 111098773.42808      1931.730 8        49.997                                                                    20746907.129 7  86410159.00507      1502.442 7        45.488
R22        40.000    23112833.237 7 123377887.18907     -4532.012 7        45.025                                                                    23112832.192 6  95960589.90106     -3525.008 6        41.564
S44        42.000    40814533.062 6 214481974.57806      -456.446 6        37.629
C09        43.000                                                                                                                                    39095463.331 6 203580358.10906     -1113.616 6        40.825    39095459.200 7 157421238.17107      -861.124 7        45.082    39095457.149 6 165425698.33006      -904.865 6        41.399
C05        44.000                                                                                                                                    39221457.854 6 204236456.43906      -441.511 6        38.601    39221453.496 7 157928606.43407      -341.444 7        43.437    39221455.338 6 165958952.88506      -358.815 6        40.248
R06        45.000    22230105.241 6 118624136.85906     -3368.662 6        38.117
C44        46.000                                                                                                                                    25379689.425 7 132158726.56807     -2731.519 7        43.960                                                                    25379687.569 6 107389793.07206     -2219.567 6        40.679
C39        47.000                                                                                                                                    41150398.736 6 214280929.35206     -1568.991 6        37.890                                                                    41150395.677 6 174120794.99706     -1275.086 6        38.489
C20        48.000                                                                                                                                    26605953.875 6 138544185.31506     -3239.412 6        40.768                                                                    26605950.348 6 112578481.81106     -2632.425 6        40.577
C06        49.000                                                                                                                                    39659375.046 6 206516793.00906     -1437.904 6        37.936    39659368.493 6 159691867.51906     -1111.859 6        40.937    39659368.804 6 167811789.87606     -1168.626 6        38.631
C16        50.000                                                                                                                                    40239926.820 6 209539873.98706     -1427.691 6        39.132    40239926.404 6 162029530.83906     -1104.054 6        40.155    40239924.184 6 170268309.91606     -1159.886 6        36.669
S48        51.000    77193741.127 6 405655804.67806      -377.658 6        38.498
C19        52.000                                                                                                                                    22776919.940 8 118605454.78608     -1981.342 8        50.301                                                                    22776915.059 8  96376650.05408     -1610.054 8        50.161
C12        53.000                                                                                                                                    25135756.585 6 130888490.78106     -1719.372 6        39.571    25135754.029 7 101211265.82407     -1329.610 7        45.083    25135753.702 7 106357597.75607     -1397.272 7        43.016
C60        54.000                                                                                                                                    40814532.179 6 212532157.69706      -452.438 6        40.439                                                                    40814516.915 6 172699752.33606      -367.690 6        39.868
R16        55.000    21824271.125 7 116581363.11007     -2959.803 7        47.077                                                                    21824270.573 7  90674415.34907     -2301.982 7        43.824
C37        56.000                                                                                                                                    26712421.807 6 139098593.48406     -3265.221 6        38.222                                                                    26712425.823 6 113029017.17506     -2653.265 6        39.709
C02        57.000                                                                                                                                    40770834.956 5 212304459.24505      -470.763 5        34.781    40770829.883 6 164167261.94906      -364.237 6        38.982    40770833.679 5 172514761.41105      -382.963 5        35.505
I03        58.000   128670354.574 6 429144837.50606       912.965 6        41.399
R07        59.000    19586547.666 8 104848351.04108     -1000.521 8        51.795                                                                    19586545.355 7  81548720.35107      -778.186 7        47.676
G07        60.000    20989926.713 8 110302839.73208       655.542 8        48.772                                    20989922.064 8  85950259.55408       510.812 8        49.089    20989922.326 7  85950260.54907       510.868 7        44.820
> 2025 01 01 05 00  5.0000000  0 58
G16         1.000    23556621.918 6 123790904.44606      -871.049 6        40.091                                    23556617.073 3  96460429.89403      -678.745 3        22.000
G29         2.000    25708092.647 6 135096930.77006      -506.154 6        37.217                                    25708089.592 4 105270321.33704      -394.409 4        28.152    25708090.005 5 105270323.35405      -394.569 5        33.784
G09         3.000    20520528.179 8 107836149.20808     -1857.262 8        49.061                                    20520525.616 8  84028179.48408     -1447.217 8        51.627    20520525.998 7  84028180.47807     -1447.189 7        45.803
E34         4.000    24722715.580 7 129918754.99707     -2164.123 7        46.782                                                                    24722715.428 8  97017259.74708     -1616.038 8        49.263    24722715.254 8  99548144.12908     -1658.161 8        50.091
S21         5.000    38459174.652 7 202104163.38107      -391.427 7        43.553
E05         6.000    21837132.619 8 114754954.03808      -246.988 8        48.748                                                                    21837132.070 8  85693665.23108      -184.481 8        51.003    21837131.941 8  87929144.08808      -189.284 8        51.672
E15         7.000    25633859.574 7 134706863.17607       691.390 7        43.536                                                                    25633859.983 7 100592811.66307       516.308 7        46.824    25633859.445 7 103216969.64607       529.920 7        47.247
R10         8.000    22175268.171 6 118206662.56306      3839.865 6        41.998
E31         9.000    26407108.346 6 138770303.86306       437.642 6        41.690                                                                    26407109.472 7 103627199.67407       326.715 7        44.694    26407108.829 7 106330515.81807       335.296 7        45.106
G04        10.000    22357696.705 7 117490525.58207     -3057.165 7        44.376                                    22357693.536 5  91551066.43605     -2382.207 5        31.547    22357693.883 7  91551061.42207     -2382.079 7        43.410
E09        11.000    25504121.220 7 134025105.06807     -2401.793 7        45.338                                                                    25504120.828 7 100083697.99907     -1793.557 7        47.354    25504120.466 8 102694576.48408     -1840.351 8        48.448
S27        12.000    39094671.853 6 205443828.76106      -404.473 6        36.272
G06        13.000    22289947.046 7 117134483.16907     -2960.500 7        45.363                                    22289945.600 7  91273626.43107     -2306.882 7        44.804    22289946.513 7  91273637.42807     -2306.830 7        43.113
S36        14.000    38227070.888 7 200885107.90707      -391.882 7        45.059
G20        15.000    22211672.981 7 116723139.96507      2376.052 7        44.876                                    22211668.121 5  90953078.25105      1851.469 5        31.894
E36        16.000    27336855.258 6 143656154.45306     -3690.458 6        39.147                                                                    27336856.688 7 107275711.67907     -2755.816 7        42.584    27336856.079 7 110074203.84507     -2827.857 7        43.534
S45        17.000    63412910.494 6 333237243.59116      -432.076 6        37.236
G03        18.000                                                                                                                                                                    25166484.562 3                     -3171.344 3        20.048
E24        19.000    27309450.970 6 143512127.25606      2347.615 6        39.495                                                                    27309450.711 7 107168159.31407      1753.047 7        43.615    27309450.022 7 109963846.89407      1798.793 7        43.340
R23        20.000    21495300.877 7 114985369.96607     -2444.830 7        46.428
G30        21.000    22581858.882 7 118668488.36807      2663.411 7        45.675                                    22581856.822 7  92468959.12307      2075.386 7        43.513    22581858.063 6  92468963.13106      2075.363 6        41.185
I06        22.000    37982750.472 7 149052700.51607      -274.871 7        43.418
S28        23.000    40887856.399 5 214867122.62205      -391.479 5        35.109
S23        25.000    38166036.044 7 200563870.50607      -387.939 7        45.038
E06        26.000    27340302.516 6 143674301.10706     -2838.592 6        39.021                                                                    27340304.112 7 107289244.13807     -2119.673 7        42.478    27340304.018 7 110088093.20907     -2174.955 7        42.578
C34        27.000                                                                                                                                    25561342.290 6 133104616.03706      -518.240 6        41.890                                                                    25561342.100 6 108158408.29106      -421.059 6        41.726
G26        28.000    25254280.112 6 132712123.69906     -2908.271 6        36.113                                    25254281.283 4 103412040.43804     -2266.181 4        26.838    25254281.673 5 103412041.41405     -2266.152 5        34.957
R09        29.000    20221877.402 8 107983707.38208      1156.989 8        50.559                                                                    20221876.675 8  83987331.71708       899.901 8        48.057
C22        30.000                                                                                                                                    21892800.900 8 114001589.09708       814.390 8        52.017                                                                    21892794.081 8  92635617.10608       661.797 8        49.985
I01        31.000   340269250.994 7  32148810.77707     -2845.946 7        42.576
E03        32.000    25848453.549 7 135834556.59007      1719.409 7        43.264                                                                    25848453.472 7 101434914.77507      1283.967 7        45.673    25848453.208 7 104081036.89007      1317.428 7        46.438
G05        33.000    25192951.722 6 132389865.89606      3301.257 6        38.853                                    25192948.799 4 103160929.61804      2572.414 4        29.592    25192949.058 5 103160932.62405      2572.195 5        34.624
R24        34.000    22871309.033 7 122303184.81907      1607.203 7        43.033                                                                    22871309.338 7  95124701.24507      1250.111 7        42.375
C36        35.000                                                                                                                                    23138341.505 8 120487426.21108      2067.539 8        48.680                                                                    23138346.139 8  97905926.31508      1680.089 8        48.555
G11        36.000    22132569.362 7 116307468.02407      -563.901 7        46.045                                    22132565.218 5  90629196.28605      -439.401 5        35.038    22132565.288 7  90629196.28507      -439.298 7        44.278
C35        37.000                                                                                                                                    26991643.424 6 140552564.88406     -3351.875 6        37.694                                                                    26991642.895 6 114210466.99006     -2723.668 6        36.374
I09        38.000    38116711.082 7 149578149.06207      -726.923 7        43.259
R08        39.000    20745106.006 8 111089118.58608      1930.221 8        49.982                                                                    20745103.932 7  86402649.67307      1501.312 7        45.443
R22        40.000    23117078.294 7 123400549.73907     -4533.163 7        45.213                                                                    23117076.852 6  95978216.30006     -3525.704 6        41.273
S44        42.000    40814967.391 6 214484257.95406      -456.862 6        37.350
C09        43.000                                                                                                                                    39096532.921 6 203585927.01206     -1114.075 6        40.839    39096528.716 7 157425544.38607      -861.435 7        45.192    39096526.586 6 165430223.49406      -905.174 6        41.130
C05        44.000                                                                                                                                    39221881.692 6 204238664.50906      -441.754 6        38.408    39221877.598 7 157930313.84507      -341.624 7        43.488    39221879.395 6 165960747.08606      -358.932 6        40.389
R06        45.000    22233262.135 6 118640983.86306     -3369.954 6        37.834
C44        46.000                                                                                                                                    25382312.893 7 132172388.20107     -2733.151 7        43.153                                                                    25382311.180 6 107400894.24506     -2220.879 6        40.725
C39        47.000                                                                                                                                    41151905.801 6 214288774.89506     -1569.150 6        38.015                                                                    41151902.327 6 174127170.10906     -1275.030 6        38.685
C20        48.000                                                                                                                                    26609064.509 6 138560383.79106     -3239.938 6        40.348                                                                    26609061.124 6 112591644.35306     -2632.650 6        40.455
C06        49.000                                                                                                                                    39660755.578 6 206523983.28506     -1438.198 6        38.054    39660749.671 6 159697427.50706     -1112.139 6        40.760    39660749.644 6 167817632.52206     -1168.557 6        38.865
C16        50.000                                                                                                                                    40241297.538 6 209547012.97106     -1427.922 6        39.210    40241297.135 6 162035051.16406     -1104.325 6        40.088    40241295.271 6 170274110.92506     -1160.232 6        36.631
S48        51.000    77194107.929 6 405657694.22306      -377.960 6        38.351
C19        52.000                                                                                                                                    22778823.065 8 118615365.33708     -1982.926 8        50.310                                                                    22778818.259 8  96384703.17208     -1611.284 8        50.247
C12        53.000                                                                                                                                    25137410.988 6 130897094.64106     -1722.006 6        39.955    25137407.016 7 101217918.86707     -1331.661 7        45.460    25137405.884 7 106364589.09107     -1399.417 7        43.098
C60        54.000                                                                                                                                    40814966.642 6 212534420.31306      -452.550 6        40.439                                                                    40814951.516 6 172701590.87706      -367.836 6        39.937
R16        55.000    21827043.127 7 116596171.39607     -2963.530 7        47.038                                                                    21827043.548 7  90685932.91107     -2304.983 7        44.876
C37        56.000                                                                                                                                    26715557.596 6 139114922.97406     -3266.667 6        38.150                                                                    26715561.757 6 113042286.18706     -2654.305 6        39.784
C02        57.000                                                                                                                                    40771287.230 5 212306814.98805      -471.235 5        34.581    40771282.943 6 164169083.53006      -364.360 6        39.174    40771285.908 5 172516675.58305      -382.637 5        35.510
I03        58.000   128669191.707 6 429140273.48406       912.815 6        41.430
R07        59.000    19587482.953 8 104853359.33608     -1002.832 8        51.900                                                                    19587480.620 7  81552615.69107      -779.992 7        47.457
G07        60.000    20989304.305 8 110299568.60608       652.833 8        48.907                                    20989299.592 8  85947710.62108       508.702 8        48.946    20989299.850 7  85947711.62607       508.735 7        44.743
> 2025 01 01 05 00 10.0000000  0 58
G16         1.000    23557452.734 6 123795268.83506      -875.162 6        39.204                                    23557447.690 3  96463830.73603      -681.948 3        21.976
G29         2.000    25708575.758 6 135099468.45106      -509.320 6        37.845                                    25708572.460 4 105272298.83804      -396.877 4        28.028    25708572.833 5 105272300.84405      -396.806 5        34.086
G09         3.000    20522296.323 8 107845439.36208     -1859.402 8        49.141                                    20522293.486 8  84035418.56208     -1448.884 8        51.631    20522293.621 7  84035419.56007     -1448.894 7        45.687
E34         4.000    24724775.398 7 129929580.50507     -2166.624 7        46.618                                                                    24724775.465 8  97025343.72408     -1617.910 8        49.261    24724775.328 8  99556438.99308     -1660.133 8        50.149
S21         5.000    38459548.958 7 202106120.76207      -392.083 7        43.541
E05         6.000    21837368.195 8 114756191.97608      -248.694 8        48.741                                                                    21837367.629 8  85694589.65908      -185.675 8        51.067    21837367.504 8  87930092.63208      -190.502 8        51.731
E15         7.000    25633202.664 7 134703411.42207       688.694 7        43.539                                                                    25633203.174 7 100590234.05707       514.330 7        46.940    25633202.649 7 103214324.80207       527.724 7        47.369
R10         8.000    22171667.384 7 118187467.33507      3837.860 7        42.106
E31         9.000    26406692.932 6 138768121.32006       434.845 6        41.802                                                                    26406694.092 7 103625569.83507       324.730 7        44.844    26406693.468 7 106328843.47407       333.173 7        45.081
G04        10.000    22360605.604 7 117505812.93907     -3058.421 7        44.280                                    22360602.729 5  91562978.65405     -2383.179 5        31.585    22360602.805 7  91562973.64107     -2383.095 7        43.464
E09        11.000    25506406.749 7 134037115.12607     -2402.784 7        45.327                                                                    25506406.129 7 100092666.53907     -1794.270 7        47.424    25506405.935 8 102703778.98908     -1841.093 8        48.491
S27        12.000    39095056.654 6 205445850.97406      -404.818 6        36.386
G06        13.000    22292764.649 7 117149291.24107     -2963.200 7        45.753                                    22292763.550 7  91285165.18407     -2308.985 7        44.852    22292764.262 7  91285176.18907     -2309.002 7        43.158
S36        14.000    38227440.548 7 200887066.84607      -392.283 7        44.990
G20        15.000    22209412.806 7 116711263.53407      2374.000 7        45.055                                    22209408.154 5  90943823.89005      1849.873 5        31.857
E36        16.000    27340367.022 6 143674607.98906     -3691.153 6        39.610                                                                    27340368.423 7 107289491.91007     -2756.482 7        42.842    27340367.449 7 110088343.56107     -2828.430 7        43.348
S45        17.000    63413278.312 6 333239403.13506      -432.334 6        37.490
G03        18.000                                                                                                                                                                    25170360.211 3                     -3176.008 3        20.024
E24        19.000    27307217.769 6 143500390.60606      2346.482 6        39.495                                                                    27307217.456 7 107159394.92707      1752.263 7        43.922    27307216.526 7 109954853.87507      1797.974 7        43.200
R23        20.000    21497588.177 7 114997603.62707     -2449.249 7        46.588
G30        21.000    22579324.910 7 118655175.07907      2661.436 7        45.374                                    22579323.433 7  92458585.13607      2073.844 7        43.572    22579324.614 6  92458589.14406      2073.911 6        41.492
I06        22.000    37983100.669 7 149054075.02707      -275.267 7        43.695
S28        23.000    40888223.564 5 214869079.32105      -391.612 5        35.138
S23        25.000    38166407.488 7 200565809.79607      -388.346 7        45.061
E06        26.000    27343003.449 6 143688493.97906     -2839.202 6        38.919                                                                    27343004.912 7 107299842.67707     -2120.004 7        42.389    27343005.016 7 110098968.24507     -2175.533 7        42.855
C34        27.000                                                                                                                                    25561841.337 7 133107213.74007      -521.309 7        42.127                                                                    25561840.818 6 108160519.14006      -423.649 6        41.859
G26        28.000    25257048.404 5 132726669.60505     -2910.734 5        35.367                                    25257049.307 4 103423374.87804     -2268.084 4        26.635    25257049.604 5 103423375.88205     -2268.269 5        35.052
R09        29.000    20220796.460 8 107977932.70708      1152.318 8        49.976                                                                    20220795.208 8  83982840.30108       896.297 8        48.225
C22        30.000                                                                                                                                    21892019.317 8 113997520.29808       812.555 8        52.052                                                                    21892012.697 8  92632310.88208       660.332 8        49.897
I01        31.000   340272877.920 7  32163040.81707     -2846.348 7        42.855
E03        32.000    25846818.014 7 135825961.04907      1718.256 7        43.462                                                                    25846817.793 7 101428496.02407      1283.279 7        45.789    25846817.458 7 104074450.70507      1316.626 7        46.479
G05        33.000    25189811.331 6 132373359.79306      3300.483 6        39.000                                    25189807.613 4 103148067.72604      2571.799 4        29.488    25189807.603 5 103148070.65705      2572.241 5        34.838
R24        34.000    22869807.767 7 122295158.32207      1602.802 7        43.475                                                                    22869807.863 7  95118458.41007      1246.683 7        42.667
C36        35.000                                                                                                                                    23136357.215 8 120477093.00608      2065.124 8        48.721                                                                    23136361.771 8  97897529.74208      1678.204 8        48.487
G11        36.000    22133107.638 7 116310295.75107      -567.775 7        45.810                                    22133103.342 5  90631399.71305      -442.421 5        35.019    22133103.710 7  90631399.71307      -442.479 7        44.683
C35        37.000                                                                                                                                    26994861.225 6 140569322.65506     -3351.611 6        37.992                                                                    26994861.235 6 114224084.06706     -2723.443 6        36.854
I09        38.000    38117637.026 7 149581783.82207      -727.288 7        43.522
R08        39.000    20743304.705 8 111079470.27008      1928.512 8        50.048                                                                    20743302.589 7  86395145.42807      1500.000 7        46.069
R22        40.000    23121324.905 7 123423217.14407     -4534.277 7        45.001                                                                    23121323.303 6  95995846.49806     -3526.865 6        41.175
S44        42.000    40815403.003 6 214486541.60706      -457.290 6        37.478
C09        43.000                                                                                                                                    39097602.269 6 203591497.33506     -1114.658 6        40.648    39097598.308 7 157429851.70807      -861.917 7        45.183    39097596.378 6 165434749.84506      -905.615 6        41.156
C05        44.000                                                                                                                                    39222305.767 6 204240872.98306      -442.191 6        38.378    39222301.651 7 157932021.57707      -341.990 7        43.562    39222303.319 6 165962541.67006      -359.335 6        40.243
R06        45.000    22236419.718 6 118657836.64506     -3371.594 6        36.703
C44        46.000                                                                                                                                    25384937.082 7 132186056.88607     -2734.808 7        43.776                                                                    25384936.235 6 107412001.18106     -2222.327 6        40.896
C39        47.000                                                                                                                                    41153412.643 6 214296620.33106     -1569.463 6        38.081                                                                    41153408.911 6 174133545.16506     -1275.233 6        38.655
C20        48.000                                                                                                                                    26612176.049 6 138576584.52006     -3240.950 6        40.553                                                                    26612172.469 6 112604808.76106     -2633.409 6        40.510
C06        49.000                                                                                                                                    39662136.446 6 206531174.30106     -1438.704 6        37.875    39662130.501 6 159702988.05106     -1112.465 6        40.946    39662130.530 6 167823475.82906     -1169.048 6        38.805
C16        50.000                                                                                                                                    40242668.821 6 209554152.44906     -1428.247 6        39.243    40242668.152 6 162040571.84706     -1104.583 6        40.133    40242666.496 6 170279912.32306     -1160.584 6        36.582
S48        51.000    77194473.283 6 405659583.91606      -378.396 6        38.655
C19        52.000                                                                                                                                    22780727.711 8 118625283.20108     -1984.785 8        50.519                                                                    22780722.904 8  96392762.25208     -1612.726 8        50.142
C12        53.000                                                                                                                                    25139065.631 6 130905710.93006     -1725.058 6        39.739    25139061.697 7 101224581.52107     -1333.834 7        45.237    25139060.603 7 106371590.51707     -1401.663 7        42.836
C60        54.000                                                                                                                                    40815401.168 6 212536683.21506      -453.040 6        40.341                                                                    40815386.073 6 172703429.64906      -368.134 6        39.820
R16        55.000    21829818.859 7 116610998.10607     -2967.584 7        47.089                                                                    21829818.765 7  90697464.80007     -2308.172 7        44.474
C37        56.000                                                                                                                                    26718695.169 6 139131258.99006     -3268.313 6        38.309                                                                    26718698.807 6 113055560.53706     -2655.655 6        39.523
C02        57.000                                                                                                                                    40771739.606 5 212309171.03505      -471.776 5        34.795    40771735.118 6 164170905.37006      -364.630 6        39.099    40771738.324 5 172518590.08405      -383.355 5        35.671
I03        58.000   128668028.618 6 429135709.75306       912.436 6        41.564
R07        59.000    19588420.201 8 104858378.60908     -1005.402 8        51.243                                                                    19588418.816 7  81556519.56307      -781.957 7        47.305
G07        60.000    20988684.449 8 110296310.40808       649.887 8        49.228                                    20988679.583 8  85945171.76908       506.405 8        48.997    20988679.987 7  85945172.77107       506.451 7        44.939
> 2025 01 01 05 00 15.0000000  0 57
G16         1.000    23558286.206 6 123799651.25406      -878.408 6        39.598                                    23558281.509 3  96467245.61003      -684.468 3        21.786
G29         2.000    25709060.705 6 135102021.42206      -512.481 6        37.376                                    25709058.204 4 105274288.19504      -399.346 4        28.028    25709058.735 5 105274290.19505      -399.477 5        33.856
G09         3.000    20524065.661 8 107854738.54508     -1860.939 8        49.125                                    20524063.072 8  84042664.67908     -1450.082 8        51.648    20524063.467 7  84042665.67807     -1450.082 7        45.732
E34         4.000    24726837.458 7 129940417.04607     -2168.533 7        46.981                                                                    24726837.629 8  97033435.95008     -1619.406 8        49.314    24726837.457 8  99564742.32108     -1661.596 8        50.035
S21         5.000    38459920.693 7 202108078.47807      -391.790 7        43.649
E05         6.000    21837604.904 8 114757436.02708      -249.618 8        48.589                                                                    21837604.360 8  85695518.65808      -186.353 8        51.070    21837604.234 8  87931045.86208      -191.229 8        51.624
E15         7.000    25632548.251 7 134699971.85007       686.523 7        43.450                                                                    25632548.592 7 100587665.54207       512.701 7        46.922    25632548.133 7 103211689.28607       526.106 7        47.154
R10         8.000    22168068.262 7 118168280.32507      3836.394 7        42.045
E31         9.000    26406279.913 6 138765950.65906       432.818 6        41.614                                                                    26406280.979 7 103623948.90007       323.131 7        44.897    26406280.495 7 106327180.24707       331.591 7        44.935
G04        10.000    22363515.553 7 117521105.09107     -3059.043 7        44.256                                    22363512.829 5  91574894.61105     -2383.668 5        31.623    22363512.775 7  91574889.60507     -2383.737 7        43.520
E09        11.000    25508692.855 7 134049128.11607     -2403.071 7        45.232                                                                    25508692.078 7 100101637.27007     -1794.431 7        47.510    25508692.017 8 102712983.73808     -1841.216 8        48.360
S27        12.000    39095438.740 6 205447873.30906      -404.531 6        36.526
G06        13.000    22295584.678 7 117164111.11807     -2965.221 7        45.585                                    22295583.695 7  91296713.13307     -2310.563 7        44.882    22295584.447 7  91296724.13207     -2310.581 7        43.575
S36        14.000    38227814.613 7 200889026.25107      -392.115 7        45.059
G20        15.000    22207154.930 7 116699395.64507      2372.565 7        45.034                                    22207149.757 5  90934576.18905      1848.751 5        31.872
E36        16.000    27343879.010 6 143693063.11906     -3691.373 6        39.883                                                                    27343880.403 7 107303273.33107     -2756.512 7        43.090    27343879.198 7 110102484.49807     -2828.403 7        42.912
S45        17.000    63413646.622 6 333241563.04606      -432.107 6        37.316
E24        19.000    27304985.187 6 143488658.10206      2346.052 6        39.670                                                                    27304984.940 7 107150633.64307      1751.856 7        44.120    27304983.773 7 109945864.03907      1797.528 7        43.109
R23        20.000    21499879.487 7 115009857.51607     -2452.925 7        46.481
G30        21.000    22576792.929 7 118641869.69907      2660.093 7        45.970                                    22576791.565 7  92448217.31507      2072.803 7        43.642    22576791.836 6  92448221.31206      2072.826 6        41.025
I06        22.000    37983451.112 7 149055449.97307      -275.126 7        43.708
S28        23.000    40888602.587 5 214871035.90605      -391.402 5        35.167
S23        25.000    38166775.293 7 200567749.66207      -388.134 7        45.094
E06        26.000    27345704.688 6 143702687.74406     -2838.826 6        39.270                                                                    27345705.782 7 107310441.91407     -2119.936 7        42.383    27345705.915 7 110109843.98307     -2175.238 7        42.872
C34        27.000                                                                                                                                    25562342.872 7 133109825.20007      -523.684 7        42.354                                                                    25562342.417 7 108162641.17807      -425.637 7        42.006
G26        28.000    25259819.571 5 132741227.05805     -2912.962 5        35.367                                    25259819.486 4 103434718.31804     -2269.833 4        26.120    25259819.620 5 103434719.29505     -2269.630 5        34.862
R09        29.000    20219718.785 8 107972179.45708      1148.374 8        49.975                                                                    20219717.942 8  83978365.56808       893.189 8        48.455
C22        30.000                                                                                                                                    21891239.312 8 113993458.82808       811.450 8        51.885                                                                    21891232.745 8  92629010.60608       659.234 8        49.939
I01        31.000   340276504.272 7  32177271.82207     -2846.316 7        42.993
E03        32.000    25845183.065 7 135817369.08107      1717.898 7        43.609                                                                    25845182.698 7 101422079.96307      1282.793 7        45.776    25845182.529 7 104067867.25507      1316.300 7        46.371
G05        33.000    25186670.402 6 132356854.71606      3300.676 6        37.667                                    25186666.625 4 103135206.62004      2571.961 4        29.175    25186666.247 5 103135209.61105      2572.233 5        35.033
R24        34.000    22868310.669 7 122287151.65107      1599.303 7        44.474                                                                    22868310.606 7  95112230.98707      1243.860 7        42.419
C36        35.000                                                                                                                                    23134374.950 8 120466769.64608      2063.546 8        48.796                                                                    23134379.270 8  97889141.17208      1676.707 8        48.659
G11        36.000    22133649.011 7 116313140.88307      -570.960 7        45.890                                    22133644.717 5  90633616.69405      -444.905 5        35.152    22133645.293 7  90633616.68607      -444.790 7        44.995
C35        37.000                                                                                                                                    26998079.138 6 140586077.98006     -3350.961 6        37.981                                                                    26998078.677 6 114237699.14506     -2723.070 6        36.941
I09        38.000    38118563.758 7 149585419.44707      -727.274 7        43.422
R08        39.000    20741504.241 8 111069828.51808      1927.572 8        50.023                                                                    20741501.990 7  86387646.29007      1499.260 7        46.273
R22        40.000    23125571.453 7 123445889.48807     -4535.026 7        43.835                                                                    23125569.986 6  96013480.54006     -3527.302 6        41.201
S44        42.000    40815837.399 6 214488825.55606      -457.023 6        37.629
C09        43.000                                                                                                                                    39098671.774 6 203597069.05606     -1114.656 6        40.620    39098668.338 7 157434160.11707      -861.807 7        45.169    39098666.235 6 165439277.32606      -905.774 6        41.116
C05        44.000                                                                                                                                    39222729.744 6 204243081.88606      -442.152 6        38.462    39222726.004 7 157933729.62107      -341.754 7        43.507    39222727.823 6 165964336.57106      -359.157 6        40.455
R06        45.000    22239577.974 6 118674695.13006     -3372.279 6        37.009
C44        46.000                                                                                                                                    25387563.933 7 132199732.67007     -2736.047 7        43.117                                                                    25387562.575 6 107423113.86806     -2223.430 6        40.899
C39        47.000                                                                                                                                    41154918.922 6 214304465.65806     -1569.109 6        38.069                                                                    41154915.568 6 174139920.13606     -1275.132 6        38.802
C20        48.000                                                                                                                                    26615287.668 6 138592787.51506     -3241.019 6        40.501                                                                    26615284.006 6 112617974.99406     -2633.599 6        40.431
C06        49.000                                                                                                                                    39663517.365 6 206538366.11506     -1438.690 6        37.955    39663511.571 6 159708549.19706     -1112.402 6        40.894    39663511.578 6 167829319.75206     -1169.044 6        38.859
C16        50.000                                                                                                                                    40244040.002 6 209561292.44106     -1428.191 6        38.835    40244039.545 6 162046092.92906     -1104.369 6        39.973    40244037.312 6 170285714.16106     -1160.705 6        36.529
S48        51.000    77194836.571 6 405661473.93906      -378.187 6        38.661
C19        52.000                                                                                                                                    22782633.953 8 118635208.40208     -1985.912 8        50.332                                                                    22782628.907 8  96400827.29108     -1613.791 8        50.137
C12        53.000                                                                                                                                    25140721.794 6 130914339.61206     -1727.144 6        40.052    25140718.167 7 101231253.75607     -1335.500 7        45.323    25140717.677 7 106378602.01707     -1403.492 7        43.084
C60        54.000                                                                                                                                    40815835.470 6 212538946.38406      -452.771 6        40.451                                                                    40815820.702 6 172705268.66306      -368.098 6        39.697
R16        55.000    21832598.190 7 116625843.13607     -2971.074 7        46.875                                                                    21832597.759 7  90709010.93307     -2310.756 7        45.020
C37        56.000                                                                                                                                    26721833.380 6 139147601.55306     -3269.304 6        38.474                                                                    26721837.207 6 113068840.19806     -2656.734 6        39.811
C02        57.000                                                                                                                                    40772192.308 5 212311527.42505      -471.380 5        34.843    40772187.575 6 164172727.46206      -364.419 6        39.237    40772190.857 5 172520504.82105      -382.968 5        35.676
I03        58.000   128666865.744 6 429131146.34606       912.563 6        41.576
R07        59.000    19589359.728 8 104863408.74808     -1007.253 8        51.031                                                                    19589358.533 7  81560431.90807      -783.442 7        47.252
G07        60.000    20988066.969 8 110293065.14508       647.628 8        49.042                                    20988062.043 8  85942642.99408       504.644 8        49.120    20988062.347 7  85942644.00007       504.628 7        45.129
> 2025 01 01 05 00 20.0000000  0 57
G16         1.000    23559124.325 6 123804051.53106      -881.798 6        39.544                                    23559118.914 3  96470674.39703      -687.116 3        22.019
G29         2.000    25709549.284 6 135104589.66806      -515.284 6        37.187                                    25709546.823 4 105276289.52004      -401.535 4        28.038    25709547.441 5 105276291.58005      -401.588 5        34.014
G09         3.000    20525836.664 8 107864046.51208     -1862.514 8        49.345                                    20525834.313 8  84049917.63508     -1451.309 8        51.668    20525834.752 7  84049918.63807     -1451.292 7        45.541
E34         4.000    24728901.933 7 129951264.42407     -2170.609 7        46.972                                                                    24728901.696 8  97041536.25108     -1620.880 8        49.218    24728901.691 8  99573053.93808     -1663.193 8        49.939
S21         5.000    38460295.129 7 202110036.41607      -391.662 7        43.700
E05         6.000    21837842.679 8 114758685.97408      -250.635 8        48.600                                                                    21837842.218 8  85696452.05408      -187.143 8        51.052    21837842.095 8  87932003.61108      -191.994 8        51.546
E15         7.000    25631895.815 7 134696544.28507       684.328 7        43.403                                                                    25631896.328 7 100585106.00107       510.954 7        46.912    25631895.890 7 103209062.97007       524.277 7        47.155
R10         8.000    22164469.826 7 118149101.40107      3834.984 7        42.660
E31         9.000    26405869.173 6 138763791.71906       430.517 6        40.973                                                                    26405870.062 7 103622336.70307       321.496 7        44.959    26405869.607 7 106325525.99107       329.905 7        44.823
G04        10.000    22366426.280 7 117536401.84807     -3059.913 7        43.983                                    22366423.829 5  91586814.15005     -2384.349 5        31.426    22366423.935 7  91586809.14007     -2384.276 7        43.027
E09        11.000    25510979.411 7 134061143.82307     -2403.373 7        45.124                                                                    25510978.598 7 100110610.03607     -1794.751 7        47.401    25510978.424 8 102722190.57608     -1841.582 8        48.200
S27        12.000    39095824.664 6 205449895.85406      -404.531 6        36.801
G06        13.000    22298406.684 7 117178942.61107     -2967.525 7        45.148                                    22298406.040 7  91308270.13807     -2312.357 7        44.882    22298406.743 7  91308281.13207     -2312.348 7        43.238
S36        14.000    38228187.072 7 200890986.10107      -392.012 7        45.138
G20        15.000    22204897.966 7 116687536.09107      2371.047 7        44.992                                    22204893.027 5  90925334.97705      1847.565 5        31.955
E36        16.000    27347391.042 6 143711519.61106     -3691.410 6        39.949                                                                    27347392.642 7 107317055.76207     -2756.442 7        43.073    27347391.272 7 110116626.47607     -2828.523 7        42.540
S45        17.000    63414016.260 6 333243723.12306      -432.090 6        37.452
E24        19.000    27302753.072 6 143476929.54106      2345.348 6        39.583                                                                    27302753.095 7 107141875.31707      1751.380 7        44.257    27302751.775 7 109936877.22007      1797.053 7        42.976
R23        20.000    21502173.869 7 115022131.17107     -2456.719 7        47.126
G30        21.000    22574262.807 7 118628571.99907      2658.792 7        45.500                                    22574261.181 7  92437855.47207      2071.784 7        43.723    22574261.788 6  92437859.48006      2071.793 6        41.089
I06        22.000    37983801.437 7 149056825.22807      -275.141 7        43.790
S28        23.000    40888975.914 5 214872993.11505      -391.757 5        35.429
S23        25.000    38167143.267 7 200569689.77807      -388.043 7        45.148
E06        26.000    27348405.761 6 143716882.25506     -2839.006 6        39.760                                                                    27348406.792 7 107321041.67807     -2119.967 7        42.286    27348406.842 7 110120720.26307     -2175.407 7        42.764
C34        27.000                                                                                                                                    25562846.615 7 133112450.25007      -526.423 7        42.140                                                                    25562846.593 6 108164774.25606      -427.732 6        41.476
G26        28.000    25262591.476 5 132755795.86105     -2914.945 5        35.876                                    25262591.919 4 103446070.61604     -2271.383 4        26.299    25262592.288 5 103446071.59005     -2271.249 5        34.852
R09        29.000    20218645.647 8 107966447.51708      1144.192 8        50.293                                                                    20218644.894 8  83973907.38708       889.899 8        48.864
C22        30.000                                                                                                                                    21890460.750 8 113989404.46508       810.107 8        51.856                                                                    21890454.145 8  92625716.11708       658.379 8        49.615
I01        31.000   340280131.009 7  32191503.60807     -2846.417 7        43.024
E03        32.000    25843548.689 7 135808780.46807      1717.368 7        43.333                                                                    25843548.334 7 101415666.38807      1282.448 7        45.704    25843548.165 7 104061286.37307      1315.855 7        46.231
G05        33.000    25183529.180 6 132340350.51406      3300.698 6        38.345                                    25183525.753 4 103122346.20004      2571.978 4        29.024    25183526.167 5 103122349.16705      2571.959 5        34.910
R24        34.000    22866818.441 7 122279164.46207      1595.473 7        45.090                                                                    22866816.749 6  95106018.69806      1240.867 6        41.805
C36        35.000                                                                                                                                    23132394.350 8 120456455.94908      2061.715 8        48.876                                                                    23132398.659 8  97880760.46608      1675.441 8        48.339
G11        36.000    22134193.547 7 116316003.19807      -574.244 7        45.395                                    22134189.396 5  90635847.06705      -447.465 5        34.981    22134189.495 7  90635847.05807      -447.394 7        44.703
C35        37.000                                                                                                                                    27001296.435 6 140602830.67406     -3350.141 6        37.176                                                                    27001295.824 6 114251312.09406     -2722.428 6        36.541
I09        38.000    38119490.203 7 149589055.75607      -727.309 7        43.465
R08        39.000    20739704.424 8 111060193.11008      1926.412 8        49.677                                                                    20739702.256 7  86380152.09007      1498.329 7        46.123
R22        40.000    23129819.625 7 123468566.49007     -4535.949 7        44.321                                                                    23129819.043 6  96031118.19006     -3527.885 6        40.961
S44        42.000    40816269.339 6 214491109.57206      -456.872 6        37.474
C09        43.000                                                                                                                                    39099741.971 6 203602642.04306     -1114.752 6        40.503    39099738.563 7 157438469.49707      -861.975 7        45.184    39099736.575 6 165443805.84106      -905.709 6        40.861
C05        44.000                                                                                                                                    39223154.186 6 204245290.96006      -441.914 6        38.480    39223150.226 7 157935437.82907      -341.691 7        43.528    39223151.983 6 165966131.64406      -358.991 6        39.847
R06        45.000    22242738.744 6 118691559.24106     -3373.507 6        36.760
C44        46.000                                                                                                                                    25390191.381 7 132213415.29707     -2737.271 7        42.864                                                                    25390189.922 6 107434232.12406     -2224.264 6        40.472
C39        47.000                                                                                                                                    41156425.337 6 214312310.68406     -1569.043 6        38.054                                                                    41156422.213 6 174146294.87806     -1274.922 6        38.459
C20        48.000                                                                                                                                    26618399.653 6 138608992.56506     -3241.246 6        40.934                                                                    26618395.838 6 112631142.90506     -2633.691 6        40.126
C06        49.000                                                                                                                                    39664898.549 6 206545558.46406     -1438.575 6        38.015    39664893.153 6 159714110.78906     -1112.455 6        40.942    39664892.865 6 167835164.13706     -1168.804 6        38.625
C16        50.000                                                                                                                                    40245410.750 6 209568432.72406     -1428.251 6        39.021    40245410.237 6 162051614.24506     -1104.300 6        39.580    40245408.772 6 170291516.21906     -1160.359 6        36.333
S48        51.000    77195200.025 6 405663364.23406      -378.126 6        38.438
C19        52.000                                                                                                                                    22784541.204 8 118645140.74108     -1987.224 8        50.340                                                                    22784536.344 8  96408898.13508     -1614.706 8        49.832
C12        53.000                                                                                                                                    25142382.078 6 130922980.48706     -1729.339 6        40.174    25142377.968 7 101237935.42507     -1337.284 7        45.287    25142376.947 7 106385623.44907     -1405.219 7        42.717
C60        54.000                                                                                                                                    40816270.688 6 212541209.63906      -452.741 6        40.393                                                                    40816255.361 6 172707107.72506      -367.763 6        39.297
R16        55.000    21835379.956 7 116640706.44507     -2974.459 7        46.420                                                                    21835380.006 7  90720571.27307     -2313.460 7        44.060
C37        56.000                                                                                                                                    26724973.419 6 139163950.42506     -3270.298 6        38.625                                                                    26724976.990 6 113082125.00106     -2657.512 6        39.553
C02        57.000                                                                                                                                    40772644.814 5 212313884.00905      -471.590 5        34.667    40772640.282 6 164174549.69806      -364.516 6        38.970    40772643.501 5 172522419.72705      -382.875 5        35.381
I03        58.000   128665703.013 6 429126583.08306       912.670 6        41.700
R07        59.000    19590301.566 8 104868449.41808     -1009.201 8        51.439                                                                    19590300.124 7  81564352.42407      -784.950 7        47.660
G07        60.000    20987451.594 8 110289832.59108       645.220 8        48.915                                    20987446.918 8  85940124.12008       502.766 8        49.014    20987447.104 7  85940125.12607       502.756 7        44.939
> 2025 01 01 05 00 25.0000000  0 57
G16         1.000    23559964.687 6 123808469.58006      -885.391 6        39.937                                    23559959.588 3  96474117.02403      -689.911 3        22.019
G29         2.000    25710041.245 6 135107172.93906      -518.084 6        38.495                                    25710038.285 4 105278302.54304      -403.707 4        28.152    25710039.180 5 105278304.54005      -403.718 5        35.119
G09         3.000    20527609.803 8 107873363.22308     -1864.292 8        49.285                                    20527607.231 8  84057177.40808     -1452.694 8        51.667    20527607.693 7  84057178.41107     -1452.730 7        45.731
E34         4.000    24730967.920 7 129962122.53807     -2172.773 7        47.007                                                                    24730968.016 8  97049644.59108     -1622.526 8        49.295    24730967.935 8  99581373.79708     -1664.800 8        49.915
S21         5.000    38460667.150 7 202111994.26807      -391.553 7        43.809
E05         6.000    21838081.586 8 114759941.75808      -251.764 8        48.590                                                                    21838081.223 8  85697389.82108      -187.998 8        51.064    21838081.064 8  87932965.84108      -192.930 8        51.498
E15         7.000    25631245.850 7 134693128.65207       681.871 7        43.427                                                                    25631246.373 7 100582555.36007       509.180 7        46.979    25631245.882 7 103206445.79807       522.427 7        47.094
R10         8.000    22160873.770 6 118129930.49906      3833.369 6        41.981
E31         9.000    26405460.776 6 138761644.42406       428.319 6        41.566                                                                    26405461.367 7 103620733.20507       319.827 7        45.025    26405461.012 7 106323880.66407       328.151 7        44.671
G04        10.000    22369338.203 7 117551703.12507     -3060.785 7        43.699                                    22369335.544 5  91598737.21305     -2385.026 5        31.509    22369335.303 7  91598732.20207     -2385.006 7        43.225
E09        11.000    25513266.331 7 134073162.18907     -2403.925 7        45.004                                                                    25513265.683 7 100119584.78907     -1795.167 7        47.271    25513265.326 8 102731399.45608     -1842.042 8        48.122
S27        12.000    39096212.805 6 205451918.58006      -404.487 6        36.817
G06        13.000    22301231.316 7 117193785.59407     -2969.821 7        45.302                                    22301230.545 7  91319836.09507     -2314.146 7        44.799    22301231.335 7  91319847.09907     -2314.246 7        42.971
S36        14.000    38228561.253 7 200892946.32407      -392.130 7        45.315
G20        15.000    22202642.815 7 116675684.85107      2369.416 7        45.306                                    22202637.782 5  90916100.24605      1846.298 5        32.030
E36        16.000    27350903.483 6 143729977.41006     -3691.627 6        40.002                                                                    27350905.029 7 107330839.18407     -2756.786 7        43.344    27350903.976 7 110130769.46707     -2828.699 7        42.548
S45        17.000    63414386.058 6 333245883.14006      -432.006 6        37.743
E24        19.000    27300521.649 6 143465204.90006      2344.601 6        39.817                                                                    27300522.016 7 107133119.89307      1750.728 7        44.515    27300520.692 7 109927893.40007      1796.390 7        42.954
R23        20.000    21504472.151 7 115034424.76307     -2460.758 7        46.928
G30        21.000    22571733.553 7 118615281.96107      2657.164 7        45.640                                    22571732.214 7  92427499.60407      2070.517 7        43.719    22571732.685 6  92427503.60706      2070.490 6        41.008
I06        22.000    37984151.870 7 149058200.73107      -275.169 7        43.587
S28        23.000    40889345.337 5 214874950.22605      -391.746 5        35.371
S23        25.000    38167512.994 7 200571629.70607      -388.067 7        45.335
E06        26.000    27351107.354 6 143731077.40106     -2839.148 6        40.076                                                                    27351107.942 7 107331641.94107     -2120.141 7        42.301    27351107.919 7 110131597.04507     -2175.433 7        42.637
C34        27.000                                                                                                                                    25563353.591 7 133115088.78107      -529.153 7        42.440                                                                    25563353.274 6 108166918.25406      -429.923 6        41.673
G26        28.000    25265365.469 5 132770375.91905     -2917.350 5        35.771                                    25265366.556 4 103457431.67704     -2273.257 4        26.311    25265366.240 5 103457432.68205     -2273.042 5        35.214
R09        29.000    20217576.331 8 107960736.77408      1140.008 8        50.151                                                                    20217574.904 8  83969465.70708       886.591 8        48.689
C22        30.000                                                                                                                                    21889683.488 8 113985357.18208       808.699 8        52.014                                                                    21889676.936 8  92622427.36408       657.215 8        49.760
I01        31.000   340283757.715 7  32205736.17507     -2846.698 7        42.916
E03        32.000    25841915.010 7 135800195.16107      1716.672 7        43.401                                                                    25841914.643 7 101409255.27707      1281.876 7        45.806    25841914.521 7 104054708.02207      1315.306 7        46.257
G05        33.000    25180388.750 6 132323847.15206      3300.459 6        38.030                                    25180385.136 4 103109486.41404      2571.800 4        29.242    25180386.200 5 103109489.41205      2572.001 5        35.690
R24        34.000    22865327.502 7 122271196.73607      1591.546 7        44.865                                                                    22865327.235 7  95099821.58907      1237.800 7        42.256
C36        35.000                                                                                                                                    23130415.238 8 120446151.87508      2059.780 8        48.949                                                                    23130419.846 8  97872387.56208      1673.745 8        48.538
G11        36.000    22134741.227 7 116318882.62207      -577.629 7        46.574                                    22134737.335 5  90638090.77205      -450.099 5        34.990    22134737.434 7  90638090.77907      -450.151 7        44.689
C35        37.000                                                                                                                                    27004512.960 6 140619580.62906     -3349.807 6        37.724                                                                    27004512.647 6 114264922.80906     -2721.893 6        36.756
I09        38.000    38120416.942 7 149592692.72607      -727.494 7        43.344
R08        39.000    20737906.855 8 111050564.02908      1925.125 8        49.288                                                                    20737904.003 7  86372662.80807      1497.358 7        46.292
R22        40.000    23134069.756 7 123491248.09907     -4536.967 7        45.196                                                                    23134067.751 6  96048759.44306     -3528.757 6        40.830
S44        42.000    40816707.863 6 214493393.59606      -456.861 6        37.826
C09        43.000                                                                                                                                    39100812.502 6 203608216.15906     -1115.080 6        40.639    39100808.861 7 157442779.76407      -862.241 7        45.308    39100807.017 6 165448335.26406      -906.008 6        40.951
C05        44.000                                                                                                                                    39223578.736 6 204247500.21906      -441.945 6        38.571    39223574.351 7 157937146.17007      -341.747 7        43.587    39223576.193 6 165967926.83506      -359.082 6        40.136
R06        45.000    22245901.131 6 118708428.69606     -3374.504 6        37.040
C44        46.000                                                                                                                                    25392820.118 7 132227104.70807     -2738.626 7        43.075                                                                    25392818.826 6 107445355.88706     -2225.361 6        40.663
C39        47.000                                                                                                                                    41157931.844 6 214320155.32706     -1568.973 6        38.420                                                                    41157928.644 6 174152669.28806     -1274.949 6        38.703
C20        48.000                                                                                                                                    26621512.116 6 138625199.58806     -3241.737 6        41.518                                                                    26621508.294 6 112644312.41906     -2634.121 6        40.231
C06        49.000                                                                                                                                    39666280.422 6 206552751.30006     -1438.618 6        37.788    39666274.871 6 159719672.75406     -1112.421 6        41.249    39666274.323 6 167841008.91706     -1169.036 6        38.712
C16        50.000                                                                                                                                    40246781.876 6 209575573.21206     -1428.086 6        39.021    40246781.618 6 162057135.72706     -1104.394 6        39.441    40246779.860 6 170297318.46606     -1160.550 6        36.420
S48        51.000    77195566.286 6 405665254.83006      -377.964 6        38.652
C19        52.000                                                                                                                                    22786449.952 8 118655080.13408     -1988.621 8        50.508                                                                    22786445.121 8  96416974.69808     -1615.864 8        50.031
C12        53.000                                                                                                                                    25144044.152 6 130931633.48206     -1731.766 6        40.010    25144039.855 7 101244626.48707     -1339.220 7        45.503    25144038.747 7 106392654.71307     -1407.197 7        42.825
C60        54.000                                                                                                                                    40816705.214 6 212543472.89906      -452.711 6        40.505                                                                    40816690.016 6 172708946.79706      -367.724 6        39.772
R16        55.000    21838166.274 7 116655587.78907     -2978.111 7        46.570                                                                    21838166.033 7  90732145.67207     -2316.368 7        44.628
C37        56.000                                                                                                                                    26728114.212 6 139180305.55606     -3271.735 6        38.703                                                                    26728117.923 6 113095414.85006     -2658.485 6        39.450
C02        57.000                                                                                                                                    40773097.696 5 212316240.63105      -471.278 5        34.905    40773093.020 6 164176372.00406      -364.649 6        39.201    40773096.011 5 172524334.68605      -383.021 5        35.567
I03        58.000   128664540.530 6 429122019.93106       912.546 6        41.533
R07        59.000    19591245.369 8 104873500.63008     -1011.435 8        51.199                                                                    19591243.488 7  81568281.13707      -786.661 7        47.125
G07        60.000    20986838.848 8 110286612.66708       642.697 8        49.121                                    20986834.176 8  85937615.09108       500.803 8        49.032    20986834.115 7  85937616.09407       500.850 7        44.870
> 2025 01 01 05 00 30.0000000  0 57
G16         1.000    23560808.624 6 123812905.64606      -888.837 6        40.486                                    23560803.768 3  96477573.70303      -692.596 3        22.514
G29         2.000    25710535.767 6 135109771.12606      -520.917 6        37.365                                    25710532.552 4 105280326.99404      -405.889 4        28.322    25710533.086 5 105280328.97405      -405.955 5        35.343
G09         3.000    20529384.219 8 107882688.88508     -1865.970 8        48.958                                    20529381.853 8  84064444.15808     -1454.002 8        51.743    20529382.170 7  84064445.15807     -1454.043 7        45.625
E34         4.000    24733036.429 7 129972991.64507     -2174.767 7        46.946                                                                    24733036.391 8  97057761.12208     -1624.037 8        49.115    24733036.283 8  99589702.07308     -1666.462 8        49.891
S21         5.000    38461038.111 7 202113952.19407      -391.582 7        43.729
E05         6.000    21838321.874 8 114761203.61908      -252.910 8        48.653                                                                    21838321.325 8  85698332.12508      -188.869 8        50.982    21838321.190 8  87933932.73008      -193.789 8        51.474
E15         7.000    25630598.272 7 134689725.18207       679.593 7        43.253                                                                    25630598.685 7 100580013.80707       507.473 7        46.824    25630598.180 7 103203837.94307       520.661 7        47.072
R10         8.000    22157278.550 6 118110767.75806      3831.790 6        41.111
E31         9.000    26405054.683 6 138759509.02106       425.998 6        41.704                                                                    26405055.047 7 103619138.59007       318.092 7        44.936    26405054.627 7 106322244.44607       326.412 7        44.676
G04        10.000    22372250.748 7 117567009.14607     -3061.624 7        43.863                                    22372248.148 5  91610663.97405     -2385.676 5        31.517    22372248.117 7  91610658.96807     -2385.621 7        43.281
E09        11.000    25515553.951 7 134085183.45207     -2404.415 7        44.858                                                                    25515553.309 7 100128561.69107     -1795.496 7        47.185    25515552.913 8 102740610.53808     -1842.376 8        48.068
S27        12.000    39096594.507 6 205453941.67206      -404.381 6        36.715
G06        13.000    22304058.031 7 117208640.32807     -2972.010 7        45.348                                    22304057.286 7  91331411.20807     -2315.849 7        44.816    22304057.964 7  91331422.21007     -2315.905 7        42.938
S36        14.000    38228931.539 7 200894907.28607      -392.067 7        45.305
G20        15.000    22200389.274 7 116663842.15007      2367.780 7        45.193                                    22200384.196 5  90906872.17705      1845.025 5        32.000
E36        16.000    27354416.278 6 143748436.73206     -3691.946 6        39.760                                                                    27354417.820 7 107344623.73207     -2757.022 7        43.098    27354416.891 7 110144913.62707     -2828.986 7        42.650
S45        17.000    63414757.462 6 333248043.62406      -432.026 6        37.520
E24        19.000    27298291.808 6 143453484.38306      2343.696 6        40.033                                                                    27298291.612 7 107124367.55807      1750.238 7        44.330    27298290.347 7 109918912.74507      1795.783 7        43.035
R23        20.000    21506774.180 7 115046738.34007     -2464.687 7        46.968
G30        21.000    22569206.186 7 118601999.77707      2655.725 7        45.254                                    22569204.733 7  92417149.85207      2069.393 7        43.793    22569204.938 6  92417153.86206      2069.347 6        41.294
I06        22.000    37984502.679 7 149059576.67007      -275.185 7        43.611
S28        23.000    40889719.947 5 214876907.93205      -391.228 5        35.386
S23        25.000    38167882.520 7 200573570.01407      -388.023 7        45.406
E06        26.000    27353808.422 6 143745273.42606     -2839.168 6        39.778                                                                    27353809.508 7 107342242.85007     -2120.190 7        42.292    27353809.335 7 110142474.50307     -2175.425 7        42.516
C34        27.000                                                                                                                                    25563862.755 7 133117741.08507      -531.755 7        42.138                                                                    25563862.633 6 108169073.46406      -432.275 6        41.442
G26        28.000    25268142.272 5 132784967.44005     -2919.207 5        35.357                                    25268143.228 4 103468801.67204     -2274.696 4        26.503    25268144.123 5 103468802.66705     -2274.884 5        34.505
R09        29.000    20216510.660 8 107955047.58008      1135.720 8        50.053                                                                    20216509.415 8  83965040.78308       883.326 8        48.600
C22        30.000                                                                                                                                    21888907.812 8 113981317.18908       807.399 8        52.059                                                                    21888901.055 8  92619144.54308       655.943 8        49.582
I01        31.000   340287384.709 7  32219969.68407     -2846.695 7        42.597
E03        32.000    25840282.200 7 135791613.37407      1716.088 7        43.122                                                                    25840281.574 7 101402846.79807      1281.468 7        45.696    25840281.339 7 104048132.36207      1314.891 7        46.330
G05        33.000    25177249.417 6 132307344.83506      3300.537 6        37.652                                    25177244.952 4 103096627.46504      2571.849 4        29.137    25177245.118 5 103096630.50505      2571.616 5        35.548
R24        34.000    22863840.853 7 122263248.54307      1587.819 7        43.623                                                                    22863840.701 7  95093639.68907      1234.730 7        42.068
C36        35.000                                                                                                                                    23128438.796 8 120435857.64108      2057.951 8        49.438                                                                    23128442.959 8  97864022.66108      1672.153 8        48.338
G11        36.000    22135292.954 7 116321779.39707      -581.012 7        46.432                                    22135288.543 5  90640347.99705      -452.737 5        35.038    22135288.911 7  90640348.00807      -452.722 7        44.910
C35        37.000                                                                                                                                    27007729.425 6 140636328.07706     -3348.931 6        37.890                                                                    27007728.680 6 114278531.48206     -2721.600 6        36.987
I09        38.000    38121343.920 7 149596330.50807      -727.465 7        43.164
R08        39.000    20736109.731 8 111040941.47508      1923.942 8        50.064                                                                    20736107.100 7  86365178.60907      1496.462 7        46.087
R22        40.000    23138320.081 7 123513934.50107     -4537.862 7        45.517                                                                    23138318.532 6  96066404.40606     -3529.237 6        41.230
S44        42.000    40817139.584 6 214495677.87206      -456.769 6        37.769
C09        43.000                                                                                                                                    39101883.095 6 203613791.67306     -1115.169 6        40.582    39101879.573 7 157447091.11307      -862.299 7        45.065    39101877.788 6 165452865.83306      -906.142 6        40.882
C05        44.000                                                                                                                                    39224003.012 6 204249709.84206      -441.922 6        38.529    39223998.601 7 157938854.78007      -341.668 7        43.416    39224000.662 6 165969722.33606      -359.189 6        39.907
R06        45.000    22249065.237 6 118725303.91806     -3375.461 6        37.546
C44        46.000                                                                                                                                    25395450.475 7 132240801.12307     -2739.779 7        42.908                                                                    25395449.347 6 107456485.34706     -2226.597 6        40.651
C39        47.000                                                                                                                                    41159438.146 6 214327999.83706     -1568.712 6        38.501                                                                    41159435.131 6 174159043.60206     -1274.825 6        38.504
C20        48.000                                                                                                                                    26624625.000 7 138641408.83307     -3241.918 7        42.100                                                                    26624620.980 6 112657483.74306     -2634.416 6        40.102
C06        49.000                                                                                                                                    39667661.846 6 206559944.88706     -1438.734 6        37.913    39667656.186 6 159725235.27506     -1112.579 6        41.256    39667655.717 6 167846854.27306     -1169.126 6        38.598
C16        50.000                                                                                                                                    40248153.072 6 209582714.14106     -1428.001 6        38.928    40248153.096 6 162062657.56706     -1104.402 6        39.246    40248151.294 6 170303121.07606     -1160.723 6        36.435
S48        51.000    77195932.834 6 405667145.62806      -378.081 6        38.790
C19        52.000                                                                                                                                    22788360.181 8 118665026.81408     -1989.948 8        50.533                                                                    22788355.234 8  96425057.20008     -1617.123 8        49.834
C12        53.000                                                                                                                                    25145706.987 6 130940298.83606     -1734.286 6        40.205    25145703.658 7 101251327.08307     -1341.044 7        45.499    25145702.756 7 106399696.02707     -1409.317 7        42.688
C60        54.000                                                                                                                                    40817139.721 6 212545736.41206      -452.622 6        40.477                                                                    40817124.707 6 172710786.07306      -367.786 6        39.369
R16        55.000    21840955.256 7 116670487.42907     -2981.667 7        47.175                                                                    21840955.508 7  90743734.26307     -2319.077 7        44.807
C37        56.000                                                                                                                                    26731256.389 6 139196667.11606     -3272.896 6        38.781                                                                    26731259.947 6 113108709.96406     -2659.638 6        39.456
C02        57.000                                                                                                                                    40773550.564 5 212318597.58905      -471.352 5        34.819    40773545.209 6 164178194.52806      -364.570 6        39.147    40773548.826 5 172526249.88405      -383.129 5        35.248
I03        58.000   128663377.303 6 429117457.05706       912.613 6        41.456
R07        59.000    19592190.868 8 104878562.62208     -1013.390 8        51.147                                                                    19592189.138 7  81572218.24607      -788.198 7        47.311
G07        60.000    20986228.614 8 110283405.61408       640.222 8        49.179                                    20986223.893 8  85935116.08908       498.874 8        49.111    20986224.274 7  85935117.09007       498.797 7        44.804
> 2025 01 01 05 00 35.0000000  0 57
G16         1.000    23561656.726 6 123817359.91606      -892.705 6        40.753                                    23561651.333 3  96481044.56003      -695.629 3        22.838
G29         2.000    25711033.001 6 135112384.83206      -524.205 6        36.333                                    25711029.957 4 105282363.53304      -408.444 4        28.313    25711030.685 5 105282365.47705      -408.396 5        34.852
G09         3.000    20531160.657 8 107892023.70408     -1867.996 8        48.959                                    20531158.214 8  84071718.03908     -1455.581 8        51.704    20531158.591 7  84071719.04007     -1455.537 7        45.625
E34         4.000    24735106.711 7 129983871.92607     -2177.318 7        46.839                                                                    24735106.765 8  97065886.00208     -1625.849 8        49.220    24735106.739 8  99598038.90208     -1668.273 8        49.963
S21         5.000    38461411.661 7 202115910.56307      -391.893 7        43.812
E05         6.000    21838563.272 8 114762471.75608      -254.369 8        48.605                                                                    21838562.641 8  85699279.10708      -189.945 8        50.997    21838562.474 8  87934904.41408      -194.900 8        51.545
E15         7.000    25629952.839 7 134686334.09207       676.924 7        43.678                                                                    25629953.403 7 100577481.49507       505.499 7        46.881    25629952.853 7 103201239.57007       518.651 7        47.149
R10         8.000    22153685.769 6 118091613.48806      3829.873 6        41.793
E31         9.000    26404650.467 6 138757385.69906       423.349 6        41.731                                                                    26404650.881 7 103617552.97607       316.247 7        45.001    26404650.486 7 106320617.48007       324.431 7        44.722
G04        10.000    22375164.998 7 117582320.11407     -3062.797 7        44.042                                    22375161.688 5  91622594.59505     -2386.595 5        31.608    22375161.519 7  91622589.58807     -2386.566 7        43.263
E09        11.000    25517842.016 7 134097207.78507     -2405.274 7        44.816                                                                    25517841.397 7 100137540.89407     -1796.089 7        47.218    25517841.095 8 102749823.98008     -1842.965 8        48.131
S27        12.000    39096977.681 6 205455965.42606      -404.846 6        36.760
G06        13.000    22306887.479 7 117223506.96607     -2974.530 7        45.708                                    22306886.298 7  91342995.59807     -2317.815 7        44.764    22306887.227 7  91343006.61207     -2317.939 7        42.955
S36        14.000    38229305.819 7 200896868.87107      -392.481 7        45.198
G20        15.000    22198137.405 7 116652008.22007      2365.832 7        45.418                                    22198132.327 5  90897650.92905      1843.505 5        32.048
E36        16.000    27357929.231 6 143766897.78606     -3692.544 6        39.465                                                                    27357930.847 7 107358409.57107     -2757.316 7        43.196    27357930.160 7 110159059.08907     -2829.304 7        42.991
S45        17.000    63415124.967 6 333250204.67606      -432.383 6        37.524
E24        19.000    27296062.352 6 143441768.21806      2342.680 6        40.229                                                                    27296061.892 7 107115618.48007      1749.460 7        44.345    27296060.818 7 109909935.41807      1795.079 7        43.456
R23        20.000    21509080.308 7 115059072.29307     -2468.885 7        47.302
G30        21.000    22566680.163 7 118588725.69107      2653.961 7        45.934                                    22566678.762 7  92406806.41407      2068.021 7        43.765    22566679.356 6  92406810.42206      2067.992 6        41.661
I06        22.000    37984853.271 7 149060953.17507      -275.420 7        43.562
S28        23.000    40890089.930 5 214878866.00605      -391.854 5        34.800
S23        25.000    38168251.474 7 200575511.03007      -388.388 7        45.177
E06        26.000    27356510.135 6 143759470.53806     -2839.677 6        39.757                                                                    27356511.144 7 107352844.55107     -2120.416 7        42.375    27356511.006 7 110153352.78107     -2175.814 7        42.705
C34        27.000                                                                                                                                    25564374.469 6 133120407.32106      -534.682 6        41.371                                                                    25564374.681 6 108171239.98606      -434.482 6        41.762
G26        28.000    25270920.904 5 132799570.62205     -2921.838 5        35.424                                    25270922.051 4 103480180.74404     -2276.752 4        26.275    25270922.668 5 103480181.72505     -2276.628 5        34.586
R09        29.000    20215449.083 8 107949380.08508      1131.240 8        50.451                                                                    20215448.219 8  83960632.72008       879.864 8        48.443
C22        30.000                                                                                                                                    21888133.477 8 113977284.69808       805.672 8        51.897                                                                    21888126.703 8  92615867.80708       654.583 8        49.738
I01        31.000   340291011.909 7  32234204.28607     -2847.176 7        42.552
E03        32.000    25838649.760 7 135783035.31207      1715.214 7        43.124                                                                    25838649.257 7 101396441.10707      1280.846 7        45.777    25838648.975 7 104041559.56607      1314.136 7        46.317
G05        33.000    25174109.147 6 132290843.88506      3299.905 6        37.996                                    25174105.023 4 103083769.59504      2571.372 4        29.175    25174105.740 5 103083772.57505      2571.339 5        35.381
R24        34.000    22862358.212 7 122255320.47007      1583.535 7        45.064                                                                    22862357.707 7  95087473.40707      1231.667 7        42.243
C36        35.000                                                                                                                                    23126463.577 8 120425573.45808      2055.758 8        49.779                                                                    23126468.001 8  97855665.92008      1670.407 8        48.424
G11        36.000    22135847.209 7 116324693.74107      -584.668 7        46.118                                    22135843.114 5  90642618.91605      -455.583 5        35.062    22135843.351 7  90642618.91307      -455.676 7        44.963
C35        37.000                                                                                                                                    27010944.986 6 140653073.22306     -3348.991 6        37.739                                                                    27010944.477 6 114292138.26706     -2721.280 6        37.289
I09        38.000    38122270.889 7 149599969.26307      -727.940 7        43.096
R08        39.000    20734313.896 8 111031325.80508      1922.380 8        50.060                                                                    20734311.315 7  86357699.74407      1495.179 7        46.326
R22        40.000    23142569.593 7 123536625.86007     -4538.796 7        45.076                                                                    23142568.749 6  96084053.23406     -3530.129 6        41.990
S44        42.000    40817575.921 6 214497962.61706      -457.085 6        37.822
C09        43.000                                                                                                                                    39102954.207 6 203619368.77406     -1115.639 6        40.660    39102950.547 7 157451403.66107      -862.629 7        44.895    39102948.815 6 165457397.67206      -906.542 6        41.080
C05        44.000                                                                                                                                    39224427.373 6 204251920.04606      -442.048 6        38.601    39224423.284 7 157940563.85507      -341.945 7        43.513    39224425.063 6 165971518.30106      -359.364 6        40.265
R06        45.000    22252227.021 6 118742185.04006     -3376.749 6        36.870
C44        46.000                                                                                                                                    25398082.517 7 132254504.73607     -2741.530 7        42.811                                                                    25398081.123 6 107467620.63906     -2227.695 6        40.822
C39        47.000                                                                                                                                    41160944.522 6 214335844.40606     -1568.815 6        38.501                                                                    41160941.579 6 174165417.94906     -1274.887 6        38.471
C20        48.000                                                                                                                                    26627738.413 6 138657620.52306     -3242.712 6        41.931                                                                    26627734.629 6 112670657.02506     -2635.015 6        40.224
C06        49.000                                                                                                                                    39669042.582 6 206567139.37906     -1439.159 6        37.539    39669037.607 6 159730798.52006     -1112.801 6        41.220    39669037.381 6 167852700.37706     -1169.421 6        38.802
C16        50.000                                                                                                                                    40249524.730 6 209589855.75506     -1428.390 6        38.814    40249524.034 6 162068179.91306     -1104.698 6        38.958    40249522.739 6 170308924.20506     -1160.723 6        36.654
S48        51.000    77196296.395 6 405669036.96306      -378.664 6        38.700
C19        52.000                                                                                                                                    22790271.770 8 118674981.00608     -1991.715 8        50.370                                                                    22790266.813 8  96433145.78008     -1618.445 8        49.949
C12        53.000                                                                                                                                    25147373.920 6 130948976.71806     -1736.886 6        39.772    25147370.149 7 101258037.37207     -1343.119 7        45.920    25147369.176 7 106406747.52107     -1411.447 7        42.770
C60        54.000                                                                                                                                    40817574.873 6 212548000.38006      -453.128 6        40.441                                                                    40817559.550 6 172712625.70106      -368.023 6        39.345
R16        55.000    21843749.510 8 116685405.60608     -2985.576 8        48.150                                                                    21843748.075 7  90755337.27807     -2322.092 7        44.471
C37        56.000                                                                                                                                    26734399.518 6 139213035.35706     -3274.457 6        38.877                                                                    26734403.102 6 113122010.46006     -2660.594 6        39.477
C02        57.000                                                                                                                                    40774002.748 5 212320955.11505      -471.740 5        34.914    40773998.390 6 164180017.46906      -364.549 6        39.426    40774001.582 5 172528165.53805      -383.327 5        35.276
I03        58.000   128662214.747 6 429112894.59706       912.421 6        41.456
R07        59.000    19593138.735 8 104883635.71608     -1015.843 8        51.228                                                                    19593136.885 7  81576163.97707      -790.066 7        46.795
G07        60.000    20985620.763 8 110280211.65608       637.442 8        48.911                                    20985616.088 8  85932627.29408       496.708 8        49.131    20985616.420 7  85932628.29107       496.776 7        45.275
> 2025 01 01 05 00 40.0000000  0 57
G16         1.000    23562507.391 6 123821832.59406      -896.237 6        40.739                                    23562502.529 3  96484529.75803      -698.353 3        22.933
G29         2.000    25711534.673 6 135115014.36106      -527.306 6        36.836                                    25711530.452 4 105284412.39804      -410.890 4        28.237    25711531.408 5 105284414.39105      -410.864 5        34.981
G09         3.000    20532938.868 8 107901367.87808     -1869.742 8        48.965                                    20532936.350 8  84078999.21108     -1456.942 8        51.882    20532936.520 7  84079000.21607     -1456.993 7        45.401
E34         4.000    24737179.507 7 129994763.56707     -2179.405 7        46.764                                                                    24737179.453 8  97074019.37208     -1627.501 8        49.044    24737179.257 8  99606384.44208     -1669.919 8        50.158
S21         5.000    38461785.610 7 202117869.61107      -391.803 7        43.645
E05         6.000    21838805.653 8 114763746.35308      -255.455 8        48.552                                                                    21838805.198 8  85700230.91408      -190.757 8        50.938    21838805.066 8  87935881.05008      -195.732 8        51.747
E15         7.000    25629310.119 7 134682955.57507       674.602 7        43.403                                                                    25629310.437 7 100574958.57707       503.712 7        46.775    25629310.081 7 103198650.83607       516.815 7        47.359
R10         8.000    22150093.603 6 118072467.98306      3828.223 6        41.254
E31         9.000    26404248.861 7 138755274.67407       421.159 7        42.182                                                                    26404249.300 7 103615976.57207       314.472 7        44.870    26404248.780 7 106318999.94907       322.633 7        44.977
G04        10.000    22378079.120 7 117597636.22407     -3063.681 7        43.977                                    22378076.255 5  91634529.21805     -2387.280 5        31.774    22378076.521 7  91634524.21007     -2387.218 7        43.312
E09        11.000    25520130.822 7 134109235.39907     -2405.749 7        44.841                                                                    25520130.152 7 100146522.55907     -1796.567 7        47.184    25520129.928 8 102759039.94908     -1843.436 8        48.371
S27        12.000    39097365.375 6 205457989.91406      -404.921 6        36.707
G06        13.000    22309718.811 7 117238385.73607     -2976.842 7        45.070                                    22309717.622 7  91354589.44307     -2319.616 7        44.930    22309718.821 7  91354600.43907     -2319.598 7        43.570
S36        14.000    38229680.026 7 200898831.71407      -392.765 7        45.300
G20        15.000    22195886.947 7 116640183.25707      2364.165 7        44.969                                    22195882.046 5  90888436.67205      1842.207 5        32.263
E36        16.000    27361442.504 6 143785360.72206     -3692.705 6        39.342                                                                    27361444.028 7 107372196.82807     -2757.542 7        42.974    27361443.689 7 110173206.01407     -2829.461 7        43.439
S45        17.000    63415494.761 6 333250766.45516      -432.331 6        37.656
E24        19.000    27293833.574 6 143430056.61906      2341.825 6        40.424                                                                    27293833.194 7 107106872.79807      1748.861 7        44.143    27293832.264 7 109900961.58207      1794.465 7        43.941
R23        20.000    21511389.393 7 115071426.65007     -2472.865 7        47.387
G30        21.000    22564155.764 7 118575459.89807      2652.422 7        46.234                                    22564154.339 7  92396469.43407      2066.823 7        43.975    22564154.530 6  92396473.43606      2066.827 6        41.595
I06        22.000    37985204.501 7 149062330.40507      -275.516 7        43.695
S28        23.000    40890461.884 5 214880824.72605      -391.715 5        35.276
S23        25.000    38168621.062 7 200577452.67007      -388.395 7        45.317
E06        26.000    27359212.088 6 143773668.93106     -2839.807 6        39.207                                                                    27359213.138 7 107363447.22507     -2120.549 7        42.459    27359212.888 7 110164232.05207     -2175.889 7        42.863
C34        27.000                                                                                                                                    25564889.364 6 133123087.69806      -537.270 6        41.371                                                                    25564889.485 6 108173417.99706      -436.670 6        41.564
G26        28.000    25273701.474 5 132814185.68705     -2924.260 5        35.324                                    25273703.347 4 103491569.07404     -2278.643 4        25.970    25273703.919 5 103491570.07205     -2278.583 5        35.067
R09        29.000    20214392.074 8 107943734.54408      1126.947 8        50.501                                                                    20214391.003 8  83956241.75308       876.561 8        48.674
C22        30.000                                                                                                                                    21887360.360 8 113973259.90308       804.253 8        51.871                                                                    21887353.762 8  92612597.33108       653.455 8        49.716
I01        31.000   340294639.625 7  32248440.10807     -2847.336 7        42.345
E03        32.000    25837017.850 7 135774461.18307      1714.510 7        43.355                                                                    25837017.705 7 101390038.35307      1280.260 7        45.678    25837017.357 7 104034989.77407      1313.727 7        46.586
G05        33.000    25170969.563 6 132274344.41806      3299.746 6        38.393                                    25170965.479 4 103070912.86704      2571.225 4        28.730    25170966.159 6 103070915.89006      2571.373 6        36.227
R24        34.000    22860880.909 7 122247412.46807      1579.693 7        44.968                                                                    22860879.829 7  95081322.76507      1228.573 7        42.565
C36        35.000                                                                                                                                    23124490.046 8 120415299.55008      2053.817 8        49.212                                                                    23124494.974 8  97847317.52708      1668.845 8        48.474
G11        36.000    22136404.862 7 116327625.82007      -588.093 7        46.059                                    22136401.092 5  90644903.64905      -458.258 5        35.200    22136401.036 7  90644903.65607      -458.383 7        44.828
C35        37.000                                                                                                                                    27014160.254 6 140669816.22806     -3348.349 6        37.932                                                                    27014159.772 6 114305743.32806     -2720.798 6        37.013
I09        38.000    38123198.813 7 149603609.11207      -728.064 7        42.997
R08        39.000    20732520.014 8 111021717.01508      1921.123 8        49.721                                                                    20732517.437 7  86350226.24507      1494.259 7        46.961
R22        40.000    23146820.710 7 123559322.42007     -4539.612 7        45.011                                                                    23146820.997 6  96101706.13806     -3530.939 6        41.516
S44        42.000    40818009.301 6 214500247.96506      -457.084 6        37.554
C09        43.000                                                                                                                                    39104025.284 6 203624947.65606     -1115.823 6        40.722    39104021.851 7 157455717.61907      -862.899 7        44.761    39104020.248 6 165461930.97606      -906.871 6        40.899
C05        44.000                                                                                                                                    39224851.914 6 204254131.04606      -442.107 6        38.595    39224847.780 7 157942273.53407      -341.916 7        43.608    39224849.559 6 165973314.93606      -359.590 6        39.958
R06        45.000    22255391.329 6 118759072.23006     -3377.931 6        37.705
C44        46.000                                                                                                                                    25400715.532 7 132268215.74207     -2742.908 7        42.459                                                                    25400714.273 6 107478761.93006     -2228.763 6        40.708
C39        47.000                                                                                                                                    41162451.192 6 214343689.23206     -1568.822 6        38.108                                                                    41162448.198 6 174171792.51106     -1274.906 6        38.459
C20        48.000                                                                                                                                    26630851.948 6 138673834.79206     -3242.918 6        41.857                                                                    26630848.272 6 112683832.43306     -2635.227 6        40.315
C06        49.000                                                                                                                                    39670424.487 6 206574334.99806     -1439.155 6        37.335    39670419.630 6 159736362.61906     -1112.904 6        41.402    39670419.292 6 167858547.39806     -1169.428 6        38.631
C16        50.000                                                                                                                                    40250895.679 6 209596998.20306     -1428.577 6        38.802    40250896.225 6 162073702.89506     -1104.632 6        38.733    40250894.451 6 170314728.01706     -1160.746 6        36.518
S48        51.000    77196664.414 6 405670929.06406      -378.593 6        38.589
C19        52.000                                                                                                                                    22792184.642 8 118684942.87308     -1993.098 8        50.315                                                                    22792179.859 8  96441240.61408     -1619.613 8        49.896
C12        53.000                                                                                                                                    25149042.137 6 130957667.33006     -1739.377 6        39.736    25149039.348 7 101264757.50607     -1344.960 7        46.146    25149038.351 7 106413809.34907     -1413.407 7        42.760
C60        54.000                                                                                                                                    40818009.568 6 212550264.96106      -452.968 6        40.403                                                                    40817994.456 6 172714465.85306      -368.012 6        39.453
R16        55.000    21846545.496 7 116700342.48107     -2989.171 7        47.586                                                                    21846544.031 7  90766954.85307     -2324.911 7        44.093
C37        56.000                                                                                                                                    26737544.240 6 139229410.42606     -3275.542 6        38.775                                                                    26737547.877 6 113135316.54406     -2661.770 6        39.462
C02        57.000                                                                                                                                    40774456.058 5 212323313.30905      -471.670 5        34.767    40774450.958 6 164181840.95806      -364.718 6        39.243    40774454.437 5 172530081.74905      -383.320 5        35.471
I03        58.000   128661052.225 6 429108332.72706       912.304 6        41.216
R07        59.000    19594088.519 8 104888719.92408     -1017.853 8        51.187                                                                    19594086.730 7  81580118.35307      -791.709 7        46.855
G07        60.000    20985015.381 8 110277031.00708       634.861 8        48.985                                    20985010.818 8  85930148.86608       494.697 8        49.242    20985010.988 7  85930149.87507       494.684 7        45.287
> 2025 01 01 05 00 45.0000000  0 57
G16         1.000    23563361.601 6 123826323.05206      -900.264 6        40.365                                    23563357.105 3  96488028.81503      -701.519 3        22.400
G29         2.000    25712037.316 6 135117659.11006      -530.647 6        36.805                                    25712033.809 4 105286473.24604      -413.490 4        28.256    25712034.306 5 105286475.22205      -413.528 5        35.043
G09         3.000    20534718.641 8 107910720.78508     -1871.733 8        48.737                                    20534716.168 8  84086287.19108     -1458.493 8        51.722    20534716.698 7  84086288.19107     -1458.436 7        45.479
E34         4.000    24739254.113 7 130005665.95307     -2181.836 7        46.747                                                                    24739254.045 8  97082160.76008     -1629.260 8        49.071    24739253.902 8  99614738.22008     -1671.828 8        50.183
S21         5.000    38462156.728 7 202119828.62007      -392.048 7        43.769
E05         6.000    21839049.464 8 114765026.81308      -257.044 8        48.496                                                                    21839048.904 8  85701187.10208      -191.932 8        50.831    21839048.758 8  87936862.18408      -196.920 8        51.842
E15         7.000    25628669.582 7 134679589.03407       671.808 7        43.426                                                                    25628669.883 7 100572444.60207       501.676 7        46.806    25628669.364 7 103196071.28007       514.738 7        47.452
R10         8.000    22146502.787 6 118053330.50306      3826.454 6        41.805
E31         9.000    26403849.286 7 138753175.33407       418.382 7        42.341                                                                    26403849.813 7 103614408.88007       312.389 7        44.883    26403849.274 7 106317391.36407       320.523 7        45.016
G04        10.000    22380994.536 7 117612956.85807     -3064.834 7        44.169                                    22380991.668 5  91646467.36905     -2388.178 5        31.570    22380991.677 7  91646462.35507     -2388.134 7        43.081
E09        11.000    25522420.129 7 134121265.68807     -2406.645 7        44.667                                                                    25522419.494 7 100155506.20507     -1797.179 7        47.020    25522419.341 8 102768257.95308     -1844.038 8        48.367
S27        12.000    39097750.766 6 205460014.55406      -405.360 6        36.669
G06        13.000    22312552.068 7 117253275.98207     -2979.525 7        45.184                                    22312551.142 7  91366192.22607     -2321.707 7        44.802    22312552.159 7  91366203.23207     -2321.781 7        43.022
S36        14.000    38230053.152 7 200900795.95607      -393.261 7        45.326
G20        15.000    22193638.144 7 116628366.65707      2362.134 7        45.097                                    22193633.495 5  90879228.93705      1840.625 5        32.150
E36        16.000    27364956.265 6 143803824.96006     -3693.220 6        38.976                                                                    27364957.633 7 107385985.05407     -2757.984 7        42.864    27364957.272 7 110187353.93307     -2829.956 7        43.723
S45        17.000    63415864.403 6 333252928.34706      -432.720 6        37.580
E24        19.000    27291605.852 6 143418348.95906      2340.753 6        40.269                                                                    27291605.237 7 107098130.06707      1748.013 7        43.826    27291604.471 7 109891990.79007      1793.594 7        44.220
R23        20.000    21513702.456 7 115083800.80207     -2477.155 7        47.044
G30        21.000    22561632.907 7 118562201.80707      2650.509 7        46.354                                    22561631.347 7  92386138.45807      2065.333 7        43.858    22561631.816 6  92386142.44806      2065.410 6        41.325
I06        22.000    37985555.587 7 149063707.90207      -275.644 7        43.657
S28        23.000    40890839.664 5 214882783.62005      -392.082 5        35.281
S23        25.000    38168990.172 7 200579394.36507      -388.626 7        45.305
E06        26.000    27361914.283 6 143787867.96906     -2840.266 6        38.865                                                                    27361915.249 7 107374050.38007     -2120.964 7        42.453    27361914.968 7 110175111.81007     -2176.227 7        42.904
C34        27.000                                                                                                                                    25565407.127 7 133125781.55207      -540.523 7        42.011                                                                    25565406.884 6 108175606.98806      -439.154 6        41.425
G26        28.000    25276485.932 5 132828811.94605     -2926.722 5        35.605                                    25276486.645 4 103502966.12604     -2280.558 4        26.060    25276487.010 5 103502967.10705     -2280.586 5        34.629
R09        29.000    20213339.099 8 107938110.24808      1122.368 8        50.548                                                                    20213337.735 8  83951867.30108       872.990 8        48.450
C22        30.000                                                                                                                                    21886588.721 8 113969242.19808       802.562 8        51.805                                                                    21886582.250 8  92609332.62008       652.272 8        49.555
I01        31.000   340298267.633 7  32262676.68307     -2847.557 7        42.347
E03        32.000    25835386.827 7 135765890.34807      1713.568 7        42.842                                                                    25835386.774 7 101383638.05907      1279.646 7        45.630    25835386.348 7 104028422.52407      1312.964 7        46.599
G05        33.000    25167829.774 6 132257845.85706      3299.252 6        38.781                                    25167826.060 4 103058056.85404      2570.842 4        28.986    25167826.129 5 103058059.88005      2570.781 5        35.157
R24        34.000    22859404.832 7 122239523.93407      1575.457 7        44.731                                                                    22859404.227 7  95075187.23107      1225.333 7        42.457
C36        35.000                                                                                                                                    23122518.694 8 120405035.30208      2051.512 8        49.216                                                                    23122523.803 8  97838976.98708      1667.151 8        48.372
G11        36.000    22136966.396 7 116330575.02207      -591.826 7        45.418                                    22136962.303 5  90647201.72805      -461.163 5        35.138    22136962.401 7  90647201.73207      -461.193 7        44.932
C35        37.000                                                                                                                                    27017374.822 6 140686556.46906     -3348.037 6        37.588                                                                    27017374.545 6 114319346.16406     -2720.262 6        37.009
I09        38.000    38124126.580 7 149607249.63807      -728.441 7        42.959
R08        39.000    20730726.939 8 111012114.55108      1919.558 8        50.137                                                                    20730723.913 7  86342757.66107      1493.034 7        46.420
R22        40.000    23151074.203 7 123582023.49807     -4540.819 7        44.749                                                                    23151073.169 6  96119362.52506     -3531.952 6        41.042
S44        42.000    40818445.204 6 214502533.36706      -457.338 6        37.531
C09        43.000                                                                                                                                    39105096.975 6 203630527.70906     -1116.540 6        40.729    39105093.575 7 157460032.46507      -863.248 7        44.563    39105091.891 6 165466465.22806      -907.164 6        40.727
C05        44.000                                                                                                                                    39225276.235 6 204256342.20706      -442.582 6        38.513    39225272.579 7 157943983.33507      -342.119 7        43.217    39225274.318 6 165975111.66606      -359.521 6        40.019
R06        45.000    22258558.220 6 118775964.89606     -3379.536 6        37.595
C44        46.000                                                                                                                                    25403349.764 7 132281933.46407     -2744.462 7        43.251                                                                    25403348.341 6 107489908.72806     -2229.988 6        40.577
C39        47.000                                                                                                                                    41163957.751 6 214351533.69506     -1569.239 6        38.042                                                                    41163954.481 6 174178166.77806     -1274.928 6        38.610
C20        48.000                                                                                                                                    26633965.937 6 138690051.07606     -3243.854 6        41.881                                                                    26633962.451 6 112697009.45106     -2635.679 6        40.193
C06        49.000                                                                                                                                    39671806.340 6 206581531.09406     -1439.502 6        37.561    39671801.704 6 159741927.09706     -1113.157 6        41.249    39671801.250 6 167864394.82506     -1169.626 6        38.544
C16        50.000                                                                                                                                    40252267.822 6 209604140.89506     -1428.965 6        39.084    40252267.859 6 162079226.07306     -1104.932 6        38.234    40252266.162 6 170320532.05306     -1161.014 6        36.439
S48        51.000    77197024.210 6 405672821.06506      -378.727 6        38.393
C19        52.000                                                                                                                                    22794099.270 8 118694911.80908     -1994.747 8        50.521                                                                    22794094.298 8  96449341.19408     -1620.851 8        49.764
C12        53.000                                                                                                                                    25150714.459 6 130966370.03306     -1742.070 6        39.883    25150710.621 7 101271486.98507     -1347.082 7        45.725    25150709.513 7 106420881.01307     -1415.513 7        42.745
C60        54.000                                                                                                                                    40818444.348 6 212552529.57206      -453.186 6        40.281                                                                    40818429.124 6 172716306.03706      -368.142 6        39.330
R16        55.000    21849343.904 7 116715297.45207     -2993.105 7        47.205                                                                    21849343.600 7  90778586.49507     -2327.914 7        43.936
C37        56.000                                                                                                                                    26740690.088 6 139245791.72206     -3277.290 6        38.745                                                                    26740693.668 6 113148627.67406     -2662.872 6        38.997
C02        57.000                                                                                                                                    40774908.631 5 212325671.67505      -472.074 5        34.829    40774903.969 6 164183664.55906      -364.737 6        39.120    40774907.323 5 172531998.07905      -383.417 5        35.324
I03        58.000   128659889.851 6 429103770.96306       912.042 6        41.533
R07        59.000    19595040.209 8 104893814.64108     -1020.310 8        51.394                                                                    19595038.632 7  81584080.91707      -793.572 7        47.207
G07        60.000    20984412.604 8 110273863.02008       632.016 8        48.917                                    20984407.968 8  85927680.31008       492.480 8        49.130    20984408.102 7  85927681.31407       492.479 7        45.190
> 2025 01 01 05 00 50.0000000  0 57
G16         1.000    23564219.540 6 123830832.17206      -903.582 6        40.324                                    23564215.250 3  96491542.41803      -704.092 3        22.495
G29         2.000    25712543.550 6 135120319.79306      -533.313 6        38.318                                    25712540.109 4 105288546.49304      -415.579 4        28.436    25712541.050 5 105288548.53405      -415.620 5        34.443
G09         3.000    20536500.064 8 107920083.17308     -1873.219 8        48.846                                    20536497.783 8  84093582.55508     -1459.649 8        51.780    20536498.531 7  84093583.55507     -1459.677 7        45.931
E34         4.000    24741330.867 7 130016579.84107     -2183.718 7        46.730                                                                    24741330.891 8  97090310.73208     -1630.685 8        49.016    24741330.706 8  99623100.79908     -1673.251 8        50.106
S21         5.000    38462529.943 7 202121788.35407      -391.850 7        43.649
E05         6.000    21839294.370 8 114766313.87608      -257.890 8        48.585                                                                    21839293.777 8  85702148.21808      -192.573 8        50.855    21839293.624 8  87937848.37008      -197.597 8        51.735
E15         7.000    25628031.423 7 134676235.21407       669.666 7        43.249                                                                    25628031.665 7 100569940.12907       500.080 7        46.758    25628031.178 7 103193501.46907       513.129 7        47.372
R10         8.000    22142915.705 7 118034201.97607      3825.085 7        42.125
E31         9.000    26403451.809 7 138751088.43107       416.343 7        42.482                                                                    26403452.760 7 103612850.47007       311.037 7        44.789    26403452.163 7 106315792.29707       319.012 7        45.126
G04        10.000    22383910.981 7 117628282.77307     -3065.567 7        44.256                                    22383908.029 5  91658409.62905     -2388.746 5        31.706    22383907.953 7  91658404.62407     -2388.746 7        42.834
E09        11.000    25524710.049 7 134133299.39207     -2406.921 7        44.578                                                                    25524709.500 7 100164492.39907     -1797.303 7        46.990    25524709.289 8 102777478.57308     -1844.224 8        48.466
S27        12.000    39098132.553 6 205462040.13406      -405.051 6        36.567
G06        13.000    22315388.173 7 117268178.46007     -2981.535 7        44.990                                    22315387.009 7  91377804.53807     -2323.271 7        44.841    22315387.956 7  91377815.53507     -2323.275 7        43.873
S36        14.000    38230428.008 7 200902760.92907      -392.801 7        45.147
G20        15.000    22191391.120 7 116616559.18607      2360.727 7        45.019                                    22191386.590 5  90870028.31205      1839.524 5        32.198
E36        16.000    27368470.235 6 143822291.23706     -3693.254 6        38.766                                                                    27368471.665 7 107399774.79007     -2757.949 7        42.933    27368471.254 7 110201503.39307     -2829.889 7        43.587
S45        17.000    63416234.953 6 333255091.18006      -432.579 6        37.520
E24        19.000    27289379.021 6 143406646.02206      2340.216 6        40.717                                                                    27289378.146 7 107089390.85407      1747.583 7        43.653    27289377.502 7 109883023.60207      1793.245 7        44.278
R23        20.000    21516019.297 7 115096195.43807     -2480.808 7        47.326
G30        21.000    22559111.364 7 118548952.16407      2649.184 7        45.988                                    22559109.995 7  92375814.06207      2064.300 7        43.873    22559110.477 6  92375818.06806      2064.260 6        40.999
I06        22.000    37985906.715 7 149065086.22907      -275.530 7        43.649
S28        23.000    40891210.174 5 214884743.60405      -392.051 5        35.314
S23        25.000    38169361.062 7 200581336.98407      -388.402 7        45.207
E06        26.000    27364616.349 6 143802068.44706     -2840.164 6        38.853                                                                    27364617.682 7 107384654.59907     -2120.835 7        42.529    27364617.231 7 110185992.66507     -2176.141 7        42.940
C34        27.000                                                                                                                                    25565927.182 7 133128489.68007      -542.868 7        42.220                                                                    25565926.925 6 108177807.55406      -441.323 6        41.692
G26        28.000    25279271.905 5 132843450.20305     -2928.625 5        35.671                                    25279272.305 4 103514372.52104     -2282.042 4        26.024    25279271.974 5 103514373.52405     -2282.012 5        34.567
R09        29.000    20212289.822 8 107932508.07908      1118.400 8        50.265                                                                    20212288.550 8  83947510.06308       869.830 8        48.327
C22        30.000                                                                                                                                    21885818.848 8 113965232.36208       801.380 8        51.932                                                                    21885812.154 8  92606074.30308       650.902 8        49.787
I01        31.000   340301895.802 7  32276914.62607     -2847.587 7        42.411
E03        32.000    25833756.669 7 135757323.61307      1713.048 7        42.787                                                                    25833756.653 7 101377240.81807      1279.244 7        45.631    25833756.168 7 104021858.38907      1312.682 7        46.459
G05        33.000    25164690.169 6 132241348.93106      3299.286 6        39.246                                    25164686.847 4 103045202.11404      2570.882 4        29.232    25164686.264 5 103045205.09005      2570.949 5        34.505
R24        34.000    22857933.055 7 122231655.64907      1571.755 7        44.169                                                                    22857932.650 7  95069067.47407      1222.408 7        42.508
C36        35.000                                                                                                                                    23120549.885 8 120394781.47208      2049.870 8        49.191                                                                    23120554.700 8  97830644.91208      1665.455 8        48.526
G11        36.000    22137531.187 7 116333542.12807      -595.013 7        45.710                                    22137526.922 5  90649513.75705      -463.646 5        35.195    22137527.293 7  90649513.75907      -463.687 7        45.133
C35        37.000                                                                                                                                    27020589.109 6 140703294.72306     -3347.318 6        37.051                                                                    27020588.727 6 114332947.34706     -2720.040 6        36.578
I09        38.000    38125054.336 7 149610891.37807      -728.361 7        42.995
R08        39.000    20728934.928 8 111002519.30108      1918.555 8        50.052                                                                    20728931.806 7  86335294.68407      1492.239 7        46.226
R22        40.000    23155327.803 7 123604729.85207     -4541.678 7        44.311                                                                    23155326.835 6  96137023.00006     -3532.415 6        41.192
S44        42.000    40818876.904 6 214504819.55606      -457.197 6        37.440
C09        43.000                                                                                                                                    39106169.170 6 203636109.68206     -1116.388 6        40.648    39106165.400 7 157464348.80307      -863.372 7        44.570    39106163.840 6 165471001.03506      -907.368 6        41.004
C05        44.000                                                                                                                                    39225701.415 6 204258554.30106      -442.234 6        38.426    39225697.236 7 157945693.87407      -342.199 7        43.329    39225699.190 6 165976909.19006      -359.769 6        40.048
R06        45.000    22261724.287 6 118792863.82606     -3380.315 6        37.134
C44        46.000                                                                                                                                    25405985.958 7 132295658.70707     -2745.628 7        43.060                                                                    25405984.024 6 107501061.61406     -2231.270 6        40.505
C39        47.000                                                                                                                                    41165464.303 6 214359378.56006     -1568.785 6        37.826                                                                    41165460.979 6 174184541.35706     -1274.919 6        38.498
C20        48.000                                                                                                                                    26637080.597 6 138706270.10806     -3243.943 6        41.540                                                                    26637077.259 6 112710188.71506     -2636.196 6        40.367
C06        49.000                                                                                                                                    39673188.798 6 206588728.46306     -1439.517 6        37.902    39673183.792 6 159747492.54306     -1112.972 6        41.192    39673183.461 6 167870243.27406     -1169.934 6        38.550
C16        50.000                                                                                                                                    40253640.470 6 209611284.55006     -1428.602 6        39.721    40253639.266 6 162084749.99306     -1104.771 6        38.009    40253637.946 6 170326336.86706     -1161.307 6        36.847
S48        51.000    77197389.067 6 405674714.13106      -378.689 6        38.508
C19        52.000                                                                                                                                    22796015.190 8 118704888.58808     -1995.972 8        50.786                                                                    22796010.225 8  96457448.14008     -1622.092 8        49.901
C12        53.000                                                                                                                                    25152388.416 6 130975085.60506     -1744.255 6        40.193    25152383.894 7 101278226.40307     -1348.779 7        45.469    25152383.302 7 106427963.11007     -1417.445 7        42.751
C60        54.000                                                                                                                                    40818879.182 6 212554794.98306      -453.060 6        40.524                                                                    40818864.499 6 172718146.86706      -368.413 6        39.520
R16        55.000    21852146.609 7 116730271.21407     -2996.313 7        46.715                                                                    21852147.143 7  90790232.76107     -2330.586 7        44.584
C37        56.000                                                                                                                                    26743837.123 6 139262179.96706     -3278.215 6        38.841                                                                    26743840.877 6 113161944.45406     -2663.952 6        39.147
C02        57.000                                                                                                                                    40775362.085 5 212328030.85105      -471.800 5        34.705    40775357.065 6 164185488.81206      -364.792 6        39.078    40775360.298 5 172533915.10005      -383.567 5        35.552
I03        58.000   128658727.746 6 429099209.88806       912.265 6        41.397
R07        59.000    19595994.078 8 104898920.77408     -1022.205 8        51.676                                                                    19595992.460 7  81588052.34507      -795.013 7        47.397
G07        60.000    20983812.605 8 110270708.47308       629.739 8        48.979                                    20983807.679 8  85925222.22108       490.706 8        49.206    20983807.821 7  85925223.21707       490.743 7        45.055
> 2025 01 01 05 00 55.0000000  0 57
G16         1.000    23565081.089 6 123835359.00206      -907.442 6        40.167                                    23565076.372 3  96495069.81903      -707.109 3        22.419
G29         2.000    25713052.627 6 135122995.40806      -536.645 6        37.875                                    25713049.141 4 105290631.40204      -418.160 4        28.493    25713048.884 5 105290633.40605      -418.339 5        33.066
G09         3.000    20538283.533 8 107929454.24408     -1875.114 8        48.769                                    20538281.048 8  84100884.68608     -1461.128 8        51.707    20538281.492 7  84100885.68207     -1461.189 7        45.932
E34         4.000    24743409.727 7 130027504.41707     -2186.084 7        46.732                                                                    24743409.769 8  97098468.69008     -1632.491 8        49.068    24743409.631 8  99631471.57208     -1675.055 8        50.063
S21         5.000    38462902.934 7 202123748.12607      -392.117 7        43.687
E05         6.000    21839540.353 8 114767606.74608      -259.310 8        48.613                                                                    21839539.787 8  85703113.67408      -193.668 8        50.902    21839539.623 8  87938839.01208      -198.687 8        51.701
E15         7.000    25627395.188 7 134672893.32307       667.080 7        43.179                                                                    25627395.751 7 100567444.55807       498.139 7        46.758    25627395.203 7 103190940.80107       511.110 7        47.375
R10         8.000    22139328.183 6 118015081.61306      3823.194 6        41.990
E31         9.000    26403057.001 7 138749013.16607       413.786 7        42.209                                                                    26403057.791 7 103611300.76607       308.974 7        44.837    26403057.242 7 106314202.16307       317.150 7        45.133
G04        10.000    22386828.406 7 117643613.14407     -3066.636 7        44.466                                    22386825.280 5  91670355.36805     -2389.580 5        31.555    22386825.295 7  91670350.36207     -2389.562 7        42.811
E09        11.000    25527000.691 7 134145335.70807     -2407.623 7        44.773                                                                    25526999.906 7 100173480.55207     -1797.943 7        47.039    25526999.776 8 102786701.19808     -1844.797 8        48.349
S27        12.000    39098522.617 6 205464065.96806      -405.128 6        36.703
G06        13.000    22318226.250 7 117283092.33107     -2984.014 7        45.520                                    22318225.031 7  91389425.73307     -2325.205 7        44.802    22318225.895 7  91389436.73607     -2325.247 7        43.264
S36        14.000    38230800.146 7 200904725.69107      -393.035 7        45.269
G20        15.000    22189146.264 7 116604760.03807      2358.916 7        45.279                                    22189141.272 5  90860834.16905      1838.120 5        32.240
E36        16.000    27371984.312 6 143840758.73206     -3693.809 6        38.661                                                                    27371985.979 7 107413565.43007     -2758.291 7        42.957    27371985.296 7 110215653.80107     -2830.281 7        43.283
S45        17.000    63416605.132 6 333257254.12306      -432.622 6        37.637
E24        19.000    27287152.748 6 143394947.01506      2339.214 6        41.001                                                                    27287151.843 7 107080654.57307      1746.883 7        43.537    27287151.194 7 109874059.42207      1792.438 7        44.372
R23        20.000    21518341.123 7 115108609.72407     -2484.979 7        47.693
G30        21.000    22556591.381 7 118535710.15907      2647.538 7        45.133                                    22556590.106 7  92365495.61707      2063.016 7        43.793    22556590.661 6  92365499.62706      2062.948 6        41.216
I06        22.000    37986258.096 7 149066464.79107      -275.828 7        43.556
S28        23.000    40891584.610 5 214886703.78505      -391.938 5        35.448
S23        25.000    38169730.212 7 200583279.82407      -388.686 7        45.314
E06        26.000    27367318.464 6 143816269.50406     -2840.337 6        38.700                                                                    27367320.045 7 107395259.25807     -2121.023 7        42.523    27367319.621 7 110196873.97607     -2176.377 7        42.859
C34        27.000                                                                                                                                    25566449.639 7 133131211.31207      -545.760 7        42.305                                                                    25566449.539 6 108180019.10606      -443.536 6        41.690
G26        28.000    25282059.095 6 132858099.69806     -2931.312 6        36.223                                    25282060.116 4 103525787.69504     -2284.138 4        26.012    25282059.611 5 103525788.70305     -2284.024 5        34.405
R09        29.000    20211244.553 8 107926927.19308      1113.963 8        50.049                                                                    20211243.232 7  83943169.36807       866.381 7        47.797
C22        30.000                                                                                                                                    21885050.160 8 113961229.57908       799.706 8        51.974                                                                    21885043.466 8  92602821.71408       649.867 8        49.674
I01        31.000   340305524.642 7  32291153.27007     -2847.965 7        42.404
E03        32.000    25832127.307 7 135748760.12807      1712.269 7        42.756                                                                    25832127.047 7 101370846.01307      1278.644 7        45.567    25832126.608 7 104015296.76807      1311.998 7        46.436
G05        33.000    25161550.991 6 132224852.91206      3298.994 6        38.670                                    25161547.741 4 103032348.07204      2570.643 4        28.853    25161547.527 5 103032351.07405      2570.750 5        35.105
R24        34.000    22856465.110 7 122223806.93707      1567.730 7        44.746                                                                    22856465.616 7  95062962.89207      1219.256 7        42.411
C36        35.000                                                                                                                                    23118582.418 8 120384537.28908      2047.753 8        48.992                                                                    23118587.350 8  97822320.67208      1664.010 8        48.452
G11        36.000    22138099.034 7 116336526.30507      -598.653 7        46.220                                    22138094.836 5  90651839.09105      -466.480 5        35.186    22138095.217 7  90651839.09107      -466.554 7        45.029
C35        37.000                                                                                                                                    27023803.464 6 140720030.16006     -3347.012 6        37.524                                                                    27023802.458 6 114346546.28606     -2719.641 6        36.110
I09        38.000    38125982.526 7 149614533.74707      -728.655 7        42.902
R08        39.000    20727144.149 8 110992930.25108      1917.050 8        50.137                                                                    20727140.909 7  86327836.54307      1490.966 7        45.874
R22        40.000    23159581.752 7 123627440.62807     -4542.712 7        43.835                                                                    23159581.043 6  96154686.93306     -3533.112 6        40.853
S44        42.000    40819314.327 6 214507105.73306      -457.451 6        37.304
C09        43.000                                                                                                                                    39107241.246 6 203641692.76906     -1116.898 6        40.870    39107237.682 7 157468665.98907      -863.676 7        44.460    39107235.871 6 165475537.75006      -907.416 6        40.975
C05        44.000                                                                                                                                    39226126.299 6 204260766.50406      -442.673 6        38.742    39226122.103 7 157947404.46307      -342.139 7        43.209    39226123.980 6 165978706.76706      -359.621 6        40.064
R06        45.000    22264891.984 6 118809768.08706     -3381.557 6        36.904
C44        46.000                                                                                                                                    25408622.486 7 132309390.64207     -2747.142 7        43.145                                                                    25408621.147 6 107512219.91806     -2232.197 6        40.639
C39        47.000                                                                                                                                    41166971.058 6 214367223.01306     -1568.923 6        38.321                                                                    41166967.566 6 174190915.63806     -1274.842 6        38.604
C20        48.000                                                                                                                                    26640195.725 6 138722491.08906     -3244.508 6        41.077                                                                    26640192.284 6 112723369.55406     -2636.305 6        40.563
C06        49.000                                                                                                                                    39674571.365 6 206595926.28406     -1439.709 6        37.883    39674565.728 6 159753058.36206     -1113.326 6        41.218    39674565.778 6 167876092.09906     -1169.870 6        38.652
C16        50.000                                                                                                                                    40255012.592 6 209618428.42806     -1428.872 6        40.107    40255011.313 6 162090274.09006     -1104.968 6        37.459    40255010.052 6 170332141.83006     -1161.163 6        36.548
S48        51.000    77197757.046 6 405676607.20006      -378.736 6        38.538
C19        52.000                                                                                                                                    22797932.576 8 118714872.40208     -1997.604 8        50.822                                                                    22797927.541 8  96465560.80808     -1623.207 8        49.877
C12        53.000                                                                                                                                    25154064.335 6 130983813.23106     -1746.870 6        39.973    25154059.803 7 101284975.14807     -1350.758 7        45.234    25154059.401 7 106435055.02407     -1419.455 7        42.790
C60        54.000                                                                                                                                    40819314.607 6 212557060.37306      -453.178 6        40.558                                                                    40819299.458 6 172719987.65706      -368.248 6        39.489
R16        55.000    21854953.790 7 116745262.82807     -3000.308 7        46.832                                                                    21854953.627 7  90801892.88407     -2333.552 7        44.841
C37        56.000                                                                                                                                    26746985.179 6 139278574.39506     -3279.645 6        38.910                                                                    26746989.384 6 113175266.26506     -2665.094 6        39.264
C02        57.000                                                                                                                                    40775814.694 5 212330390.08305      -472.136 5        34.733    40775810.385 6 164187313.10906      -364.969 6        38.877    40775813.493 5 172535832.17705      -383.574 5        35.733
I03        58.000   128657565.357 6 429094648.90006       912.029 6        41.242
R07        59.000    19596949.892 8 104904037.42508     -1024.536 8        51.219                                                                    19596948.055 7  81592031.96207      -796.853 7        47.212
G07        60.000    20983214.514 8 110267566.57208       627.003 8        48.928                                    20983209.787 8  85922773.98708       488.576 8        49.218    20983210.001 7  85922774.99107       488.517 7        44.990
> 2025 01 01 05 01  0.0000000  0 57
G16         1.000    23565945.808 6 123839903.71506      -910.914 6        40.012                                    23565940.929 3  96498611.15403      -709.796 3        22.419
G29         2.000    25713564.570 6 135125685.97806      -539.663 6        38.114                                    25713561.021 4 105292727.84804      -420.482 4        28.806    25713561.913 5 105292729.77505      -420.484 5        34.686
G09         3.000    20540068.408 8 107938834.14308     -1877.046 8        48.991                                    20540065.981 8  84108193.69708     -1462.630 8        51.995    20540066.321 7  84108194.69307     -1462.647 7        45.974
E34         4.000    24745490.573 7 130038439.81607     -2188.340 7        46.906                                                                    24745490.777 8  97106634.73208     -1634.178 8        48.987    24745490.555 8  99639850.63908     -1676.812 8        50.118
S21         5.000    38463277.298 7 202125708.29007      -392.172 7        43.653
E05         6.000    21839787.511 8 114768905.55908      -260.615 8        48.722                                                                    21839786.970 8  85704083.56208      -194.575 8        50.835    21839786.771 8  87939834.20608      -199.679 8        51.759
E15         7.000    25626761.541 7 134669563.51607       664.672 7        43.249                                                                    25626762.125 7 100564958.01707       496.272 7        46.770    25626761.590 7 103188389.38707       509.215 7        47.383
R10         8.000    22135742.397 7 117995969.50807      3821.413 7        42.000
E31         9.000    26402664.286 6 138746949.68606       411.404 6        41.936                                                                    26402665.174 7 103609759.86607       307.109 7        44.766    26402664.684 7 106312621.05807       315.191 7        45.251
G04        10.000    22389746.401 7 117658948.12307     -3067.650 7        44.412                                    22389743.318 5  91682304.69405     -2390.371 5        31.940    22389743.844 7  91682299.69007     -2390.332 7        43.075
E09        11.000    25529291.665 7 134157374.78107     -2408.246 7        45.148                                                                    25529290.898 7 100182470.76307     -1798.351 7        47.108    25529290.620 8 102795925.93608     -1845.251 8        48.474
S27        12.000    39098906.752 6 205466092.01606      -405.208 6        36.783
G06        13.000    22321066.366 7 117298017.74607     -2986.429 7        45.415                                    22321065.250 7  91401055.92307     -2327.089 7        45.053    22321065.824 7  91401066.91607     -2327.111 7        43.355
S36        14.000    38231175.288 7 200906690.10107      -393.076 7        45.202
G20        15.000    22186902.583 7 116592969.37707      2357.076 7        45.052                                    22186897.577 5  90851646.64505      1836.685 5        32.479
E36        16.000    27375498.756 6 143859227.57806     -3694.034 6        38.417                                                                    27375500.523 7 107427357.09807     -2758.555 7        42.995    27375499.592 7 110229805.24207     -2830.527 7        43.075
S45        17.000    63416972.418 6 333259417.22306      -432.745 6        37.418
E24        19.000    27284927.355 6 143383252.07806      2338.369 6        41.211                                                                    27284926.476 7 107071921.34307      1746.182 7        43.577    27284925.840 7 109865098.37307      1791.714 7        44.537
R23        20.000    21520664.830 7 115121043.97007     -2488.969 7        46.932
G30        21.000    22554072.862 7 118522475.97607      2645.892 7        45.779                                    22554071.729 7  92355183.27207      2061.733 7        44.071    22554072.142 6  92355187.28106      2061.677 6        41.545
I06        22.000    37986609.544 7 149067843.70407      -276.058 7        43.780
S28        23.000    40891954.502 5 214888663.93105      -392.202 5        34.962
S23        25.000    38170101.272 7 200585222.74007      -388.781 7        45.112
E06        26.000    27370021.500 6 143830471.33906     -2840.641 6        38.859                                                                    27370022.555 7 107405864.50307     -2121.370 7        42.307    27370022.186 7 110207755.88407     -2176.625 7        42.993
C34        27.000                                                                                                                                    25566975.056 7 133133946.59707      -548.615 7        42.402                                                                    25566974.764 6 108182241.74806      -445.659 6        41.697
G26        28.000    25284849.582 6 132872760.50706     -2933.442 6        36.234                                    25284850.055 4 103537211.70604     -2285.807 4        26.731    25284850.090 5 103537212.70205     -2285.874 5        34.614
R09        29.000    20210203.218 8 107921367.69908      1109.575 8        50.258                                                                    20210202.195 8  83938845.31508       863.072 8        48.398
C22        30.000                                                                                                                                    21884282.924 8 113957233.99508       798.270 8        51.987                                                                    21884276.176 8  92599574.95308       648.743 8        49.773
I01        31.000   340309152.891 7  32305392.77907     -2848.045 7        42.696
E03        32.000    25830498.209 7 135740200.06807      1711.521 7        43.168                                                                    25830498.146 7 101364453.75907      1278.092 7        45.679    25830497.686 7 104008737.76007      1311.427 7        46.551
G05        33.000    25158411.644 6 132208357.87706      3298.939 6        37.713                                    25158408.931 4 103019494.82104      2570.603 4        28.512    25158408.885 5 103019497.81605      2570.435 5        35.038
R24        34.000    22855001.032 7 122215977.88707      1563.676 7        44.278                                                                    22855000.731 6  95056873.63506      1216.227 6        41.595
C36        35.000                                                                                                                                    23116617.093 8 120374302.87408      2045.693 8        49.017                                                                    23116621.891 8  97814004.35708      1662.447 8        48.484
G11        36.000    22138670.280 7 116339527.69707      -602.167 7        46.017                                    22138666.000 5  90654177.83405      -469.222 5        35.410    22138666.184 7  90654177.83407      -469.248 7        45.004
C35        37.000                                                                                                                                    27027016.571 6 140736762.92506     -3346.464 6        38.027                                                                    27027015.824 6 114360143.00106     -2719.103 6        36.749
I09        38.000    38126911.245 7 149618176.84307      -728.814 7        43.158
R08        39.000    20725354.837 8 110983347.64408      1915.705 8        50.375                                                                    20725351.956 7  86320383.39807      1489.951 7        46.110
R22        40.000    23163836.835 7 123650155.97707     -4543.682 7        43.674                                                                    23163836.372 6  96172354.42306     -3533.904 6        40.911
S44        42.000    40819749.505 6 214509392.03606      -457.497 6        37.350
C09        43.000                                                                                                                                    39108313.838 6 203647277.12306     -1117.221 6        40.877    39108310.338 7 157472984.16107      -863.794 7        44.366    39108308.167 6 165480075.48506      -907.751 6        40.963
C05        44.000                                                                                                                                    39226551.309 6 204262978.97206      -442.740 6        38.634    39226547.103 7 157949115.29107      -342.409 7        43.352    39226548.834 6 165980504.55706      -359.602 6        40.122
R06        45.000    22268060.455 6 118826677.99806     -3382.756 6        37.062
C44        46.000                                                                                                                                    25411261.493 7 132323129.39307     -2748.666 7        43.439                                                                    25411259.704 6 107523383.75806     -2233.364 6        40.543
C39        47.000                                                                                                                                    41168477.485 6 214375067.20406     -1568.941 6        38.480                                                                    41168473.817 6 174197289.66406     -1274.733 6        38.541
C20        48.000                                                                                                                                    26643310.651 6 138738714.15906     -3245.059 6        40.560                                                                    26643307.918 6 112736552.08206     -2636.728 6        40.412
C06        49.000                                                                                                                                    39675953.268 6 206603124.70606     -1439.898 6        38.327    39675948.304 6 159758624.63706     -1113.494 6        41.259    39675948.019 6 167881941.38706     -1169.894 6        38.480
C16        50.000                                                                                                                                    40256384.348 6 209625572.61806     -1429.043 6        40.241    40256383.564 6 162095798.42906     -1105.006 6        37.607    40256382.161 6 170337947.04006     -1161.111 6        36.681
S48        51.000    77198121.291 6 405678500.37306      -378.750 6        38.369
C19        52.000                                                                                                                                    22799851.012 8 118724863.39408     -1999.127 8        50.610                                                                    22799846.273 8  96473679.27808     -1624.270 8        50.038
C12        53.000                                                                                                                                    25155742.732 6 130992553.02206     -1749.272 6        39.868    25155738.773 7 101291733.31807     -1352.795 7        45.106    25155737.858 7 106442156.79807     -1421.334 7        42.942
C60        54.000                                                                                                                                    40819749.382 6 212559325.88506      -453.168 6        40.429                                                                    40819734.449 6 172721828.55106      -368.285 6        39.673
R16        55.000    21857763.623 7 116760272.69107     -3003.992 7        46.840                                                                    21857763.368 7  90813567.22107     -2336.400 7        44.707
C37        56.000                                                                                                                                    26750134.812 6 139294975.07606     -3280.903 6        38.802                                                                    26750139.000 6 113188593.12306     -2665.932 6        39.174
C02        57.000                                                                                                                                    40776267.937 5 212332749.50205      -472.019 5        34.838    40776263.436 6 164189137.55206      -364.984 6        39.150    40776266.714 5 172537749.36205      -383.386 5        35.567
I03        58.000   128656402.977 6 429090088.07406       912.048 6        41.428
R07        59.000    19597907.562 8 104909164.84308     -1026.655 8        51.215                                                                    19597905.848 7  81596019.95907      -798.585 7        47.069
G07        60.000    20982619.021 8 110264437.41908       624.385 8        48.736                                    20982614.333 8  85920335.68608       486.531 8        49.341    20982614.720 7  85920336.69007       486.548 7        45.148
> 2025 01 01 05 01  5.0000000  0 57
G16         1.000    23566814.236 6 123844466.33506      -914.194 6        40.312                                    23566809.175 3  96502166.44203      -712.348 3        22.248
G29         2.000    25714079.879 6 135128392.00906      -542.585 6        38.480                                    25714075.982 4 105294836.31704      -422.802 4        28.834    25714077.482 5 105294838.33605      -422.851 5        34.833
G09         3.000    20541855.252 8 107948222.90008     -1878.523 8        49.165                                    20541852.604 8  84115509.60908     -1463.785 8        51.949    20541852.832 7  84115510.61007     -1463.780 7        45.750
E34         4.000    24747573.847 7 130049386.09307     -2190.203 7        47.223                                                                    24747573.740 8  97114808.89308     -1635.590 8        49.103    24747573.583 8  99648238.04008     -1678.206 8        49.971
S21         5.000    38463648.805 7 202127668.73607      -392.099 7        43.448
E05         6.000    21840035.888 8 114770210.37608      -261.450 8        48.925                                                                    21840035.275 8  85705057.94408      -195.215 8        51.021    21840035.130 8  87940834.00208      -200.326 8        51.543
E15         7.000    25626130.372 7 134666245.85007       662.401 7        43.361                                                                    25626130.837 7 100562480.53107       494.715 7        46.861    25626130.285 7 103185847.27407       507.549 7        47.169
R10         8.000    22132159.401 7 117976865.62107      3820.104 7        42.030
E31         9.000    26402273.808 6 138744898.07806       409.201 6        41.671                                                                    26402274.776 7 103608227.80907       305.656 7        44.941    26402274.237 7 106311049.03907       313.642 7        45.087
G04        10.000    22392665.221 7 117674287.76607     -3068.339 7        44.399                                    22392662.340 5  91694257.65505     -2390.910 5        31.706    22392662.767 7  91694252.65707     -2390.884 7        43.202
E09        11.000    25531582.990 7 134169416.66707     -2408.524 7        45.511                                                                    25531582.338 7 100191463.07607     -1798.554 7        47.277    25531582.087 8 102805152.83308     -1845.525 8        48.278
S27        12.000    39099295.305 6 205468118.08106      -405.256 6        36.544
G06        13.000    22323908.933 7 117312954.76707     -2988.382 7        45.106                                    22323907.677 7  91412695.15607     -2328.607 7        44.969    22323908.382 7  91412706.16007     -2328.606 7        43.039
S36        14.000    38231548.896 7 200908653.99507      -392.467 7        45.032
G20        15.000    22184660.337 7 116581187.28407      2355.714 7        44.652                                    22184655.505 5  90842465.79005      1835.620 5        32.455
E36        16.000    27379013.406 6 143877697.83206     -3693.970 6        38.739                                                                    27379015.242 7 107441149.81307     -2758.540 7        43.056    27379014.291 7 110243957.77607     -2830.509 7        42.650
S45        17.000    63417341.810 6 333261580.62906      -432.599 6        37.233
E24        19.000    27282702.553 6 143371561.29706      2337.892 6        41.378                                                                    27282701.953 7 107063191.20607      1745.805 7        43.909    27282701.218 7 109856140.49207      1791.407 7        44.287
R23        20.000    21522992.032 7 115133497.96907     -2492.662 7        46.819
G30        21.000    22551556.563 7 118509249.67107      2644.679 7        45.684                                    22551554.876 7  92344877.06707      2060.787 7        44.054    22551555.360 6  92344881.06306      2060.860 6        41.392
I06        22.000    37986960.724 7 149069222.97407      -275.708 7        43.608
S28        23.000    40892327.002 5 214890624.09605      -391.767 5        35.300
S23        25.000    38170469.631 7 200587165.83307      -388.499 7        44.998
E06        26.000    27372724.173 6 143844673.96806     -2840.599 6        39.498                                                                    27372725.244 7 107416470.34307     -2121.240 7        42.178    27372724.787 7 110218638.40007     -2176.468 7        42.773
C34        27.000                                                                                                                                    25567502.942 7 133136695.51407      -551.019 7        42.038                                                                    25567502.753 6 108184475.48006      -447.800 6        41.666
G26        28.000    25287640.685 6 132887432.64406     -2935.268 6        36.129                                    25287642.065 4 103548644.54004     -2287.221 4        26.695    25287641.891 5 103548645.54505     -2287.414 5        34.152
R09        29.000    20209166.662 8 107915829.81208      1105.572 8        50.428                                                                    20209165.622 8  83934538.07808       859.890 8        48.641
C22        30.000                                                                                                                                    21883517.002 8 113953245.68208       797.085 8        51.871                                                                    21883510.215 8  92596334.12808       647.620 8        49.683
I01        31.000   340312782.159 7  32319633.18607     -2848.075 7        42.571
E03        32.000    25828869.890 7 135731643.50007      1711.118 7        43.526                                                                    25828869.798 7 101358064.10907      1277.822 7        45.716    25828869.450 7 104002181.42407      1311.096 7        46.326
G05        33.000    25155273.006 6 132191863.93906      3298.935 6        38.087                                    25155270.232 4 103006642.41204      2570.612 4        28.986    25155269.388 5 103006645.42905      2570.427 5        35.748
R24        34.000    22853541.188 7 122208168.54207      1559.984 7        46.031                                                                    22853540.562 7  95050799.69107      1213.329 7        42.224
C36        35.000                                                                                                                                    23114653.963 8 120364078.32308      2044.012 8        49.080                                                                    23114658.428 8  97805696.08008      1660.866 8        48.464
G11        36.000    22139244.342 7 116342546.38007      -605.368 7        46.461                                    22139240.416 5  90656530.05505      -471.715 5        35.276    22139240.160 7  90656530.05707      -471.795 7        44.661
C35        37.000                                                                                                                                    27030229.311 6 140753493.06106     -3345.629 6        38.093                                                                    27030228.856 6 114373737.65606     -2718.894 6        36.858
I09        38.000    38127839.628 7 149621820.72307      -728.766 7        42.995
R08        39.000    20723566.691 8 110973771.62708      1914.719 8        50.230                                                                    20723563.741 7  86312935.38707      1489.151 7        45.884
R22        40.000    23168093.848 7 123672875.94007     -4544.398 7        44.391                                                                    23168092.724 6  96190025.49006     -3534.407 6        40.610
S44        42.000    40820184.106 6 214511678.49806      -456.978 6        37.297
C09        43.000                                                                                                                                    39109386.343 6 203652862.79706     -1117.230 6        40.794    39109383.229 7 157477303.36907      -863.847 7        44.382    39109381.101 6 165484614.31106      -907.911 6        40.951
C05        44.000                                                                                                                                    39226976.301 6 204265191.76406      -442.485 6        38.610    39226972.046 7 157950826.36107      -342.201 7        43.244    39226973.830 6 165982302.64706      -359.710 6        40.162
R06        45.000    22271230.707 6 118843593.47506     -3383.527 6        37.388
C44        46.000                                                                                                                                    25413900.694 7 132336875.04407     -2749.713 7        42.256                                                                    25413899.322 6 107534553.22706     -2234.500 6        40.582
C39        47.000                                                                                                                                    41169983.675 6 214382911.18006     -1568.498 6        38.366                                                                    41169980.173 6 174203663.55206     -1274.439 6        38.486
C20        48.000                                                                                                                                    26646427.209 6 138754939.38306     -3245.132 6        40.572                                                                    26646423.988 6 112749736.38806     -2637.170 6        40.360
C06        49.000                                                                                                                                    39677336.011 6 206610323.78706     -1439.761 6        38.513    39677330.810 6 159764191.41906     -1113.461 6        41.025    39677330.485 6 167887791.24706     -1170.324 6        38.465
C16        50.000                                                                                                                                    40257756.550 6 209632717.18506     -1428.814 6        40.343    40257755.695 6 162101323.07506     -1105.088 6        37.735    40257753.947 6 170343752.61206     -1161.212 6        36.654
S48        51.000    77198485.970 6 405680393.83006      -378.556 6        38.225
C19        52.000                                                                                                                                    22801771.029 8 118734861.61608     -2000.283 8        50.425                                                                    22801766.368 8  96481803.65708     -1625.478 8        49.984
C12        53.000                                                                                                                                    25157422.832 6 131001305.04406     -1751.415 6        39.730    25157419.370 7 101298500.91707     -1354.385 7        45.238    25157418.601 7 106449268.54007     -1423.319 7        42.745
C60        54.000                                                                                                                                    40820184.775 6 212561591.59006      -452.999 6        40.594                                                                    40820169.533 6 172723669.61306      -368.257 6        39.535
R16        55.000    21860576.795 7 116775300.63707     -3007.227 7        47.515                                                                    21860576.750 7  90825255.61907     -2339.011 7        44.667
C37        56.000                                                                                                                                    26753286.336 6 139311382.12706     -3281.909 6        38.949                                                                    26753289.756 6 113201925.18206     -2666.862 6        39.309
C02        57.000                                                                                                                                    40776720.376 5 212335109.21905      -471.758 5        34.871    40776716.635 6 164190962.21706      -365.066 6        38.658    40776719.680 5 172539666.80005      -383.440 5        35.457
I03        58.000   128655240.706 6 429085527.52406       912.170 6        41.406
R07        59.000    19598867.657 8 104914302.77208     -1028.599 8        51.254                                                                    19598865.945 7  81600016.11207      -799.952 7        47.241
G07        60.000    20982025.780 8 110261321.10608       622.091 8        48.816                                    20982021.306 8  85917907.39208       484.745 8        49.309    20982021.446 7  85917908.40107       484.696 7        45.019
> 2025 01 01 05 01 10.0000000  0 57
G16         1.000    23567686.317 6 123849046.69306      -917.659 6        40.820                                    23567680.847 3  96505735.56703      -715.052 3        22.400
G29         2.000    25714597.662 6 135131113.27006      -545.626 6        37.996                                    25714594.010 4 105296956.86104      -425.171 4        28.569    25714594.578 5 105296958.88205      -424.992 5        34.838
G09         3.000    20543643.487 8 107957620.36708     -1880.290 8        49.182                                    20543640.873 8  84122832.30508     -1465.161 8        51.918    20543641.309 7  84122833.30507     -1465.108 7        45.883
E34         4.000    24749658.757 7 130060343.05907     -2192.272 7        46.934                                                                    24749658.784 8  97122991.04208     -1637.110 8        49.139    24749658.646 8  99656633.63808     -1679.835 8        49.836
S21         5.000    38464022.776 7 202129629.49207      -392.065 7        43.456
E05         6.000    21840285.307 8 114771521.02008      -262.547 8        48.669                                                                    21840284.699 8  85706036.67308      -196.075 8        51.001    21840284.531 8  87941838.26408      -201.194 8        51.513
E15         7.000    25625501.155 7 134662940.14007       660.120 7        43.585                                                                    25625501.709 7 100560011.97807       492.941 7        46.899    25625501.233 7 103183314.32207       505.779 7        47.143
R10         8.000    22128576.736 6 117957769.93406      3818.586 6        41.414
E31         9.000    26401885.652 6 138742858.14106       406.980 6        41.781                                                                    26401886.598 7 103606704.48607       303.898 7        44.835    26401885.935 7 106309485.97907       311.852 7        44.912
G04        10.000    22395585.014 7 117689631.88907     -3069.081 7        44.184                                    22395582.220 5  91706214.10805     -2391.487 5        31.766    22395582.544 7  91706209.10407     -2391.532 7        43.573
E09        11.000    25533874.725 7 134181461.17007     -2408.991 7        45.294                                                                    25533874.350 7 100200457.34807     -1798.950 7        47.240    25533873.913 8 102814381.73908     -1845.923 8        48.179
S27        12.000    39099679.109 6 205470144.49206      -405.247 6        36.529
G06        13.000    22326753.221 7 117327903.17707     -2990.731 7        45.607                                    22326752.290 7  91424343.26107     -2330.440 7        44.891    22326753.394 7  91424354.25607     -2330.381 7        43.496
S36        14.000    38231922.152 7 200910617.43107      -392.276 7        45.050
G20        15.000    22182419.753 7 116569413.57907      2354.070 7        44.665                                    22182415.053 5  90833291.47405      1834.338 5        32.413
E36        16.000    27382528.759 6 143896169.30806     -3694.189 6        38.772                                                                    27382530.278 7 107454943.43507     -2758.623 7        43.098    27382529.342 7 110258111.23507     -2830.574 7        42.603
S45        17.000    63417710.844 6 333263743.97506      -432.512 6        37.391
E24        19.000    27280478.570 6 143359874.47406      2337.105 6        41.011                                                                    27280478.226 7 107054464.03307      1745.245 7        44.155    27280477.297 7 109847185.66507      1790.736 7        44.289
R23        20.000    21525323.969 7 115145971.73907     -2496.573 7        46.663
G30        21.000    22549041.315 7 118496031.07207      2643.128 7        46.510                                    22549039.463 7  92334576.86107      2059.578 7        44.047    22549039.945 6  92334580.86606      2059.540 6        41.809
I06        22.000    37987312.593 7 149070602.50607      -275.842 7        43.471
S28        23.000    40892701.670 5 214892584.36105      -391.894 5        35.448
S23        25.000    38170839.908 7 200589109.10507      -388.566 7        45.070
E06        26.000    27375427.015 6 143858877.22706     -2840.524 6        39.667                                                                    27375427.943 7 107427076.65907     -2121.294 7        42.152    27375427.619 7 110229521.40407     -2176.584 7        42.736
C34        27.000                                                                                                                                    25568033.138 7 133139457.89407      -553.656 7        42.224                                                                    25568033.231 6 108186720.15906      -450.010 6        41.769
G26        28.000    25290435.172 5 132902115.88105     -2937.556 5        35.890                                    25290436.082 4 103560086.02004     -2288.988 4        26.287    25290436.035 5 103560087.01405     -2288.890 5        33.569
R09        29.000    20208133.512 8 107910313.34508      1101.241 8        50.484                                                                    20208132.452 8  83930247.49508       856.502 8        48.241
C22        30.000                                                                                                                                    21882752.303 8 113949264.46508       795.652 8        51.922                                                                    21882745.694 8  92593099.07008       646.449 8        49.851
I01        31.000   340316410.952 7  32333874.30507     -2848.177 7        42.457
E03        32.000    25827242.084 7 135723090.20707      1710.482 7        43.355                                                                    25827242.094 7 101351676.91307      1277.291 7        45.630    25827241.793 7 103995627.60407      1310.649 7        46.279
G05        33.000    25152134.777 6 132175370.90306      3298.690 6        38.808                                    25152131.609 4 102993790.70004      2570.413 4        29.346    25152131.549 5 102993793.68905      2570.530 5        35.662
R24        34.000    22852085.576 7 122200378.80207      1556.119 7        45.678                                                                    22852084.423 7  95044741.01907      1210.292 7        42.409
C36        35.000                                                                                                                                    23112692.222 8 120353863.45408      2042.040 8        49.287                                                                    23112696.843 8  97797395.67008      1659.310 8        48.538
G11        36.000    22139822.091 7 116345582.16007      -608.690 7        46.230                                    22139818.109 5  90658895.59305      -474.308 5        35.338    22139818.316 7  90658895.59607      -474.306 7        44.855
C35        37.000                                                                                                                                    27033441.199 6 140770220.38006     -3345.180 6        38.426                                                                    27033441.153 6 114387329.95106     -2718.100 6        38.153
I09        38.000    38128768.776 7 149625465.23607      -728.800 7        43.058
R08        39.000    20721779.376 8 110964201.92408      1913.467 8        49.937                                                                    20721776.467 7  86305492.29007      1488.215 7        45.839
R22        40.000    23172351.898 7 123695600.27407     -4545.145 7        45.154                                                                    23172349.867 6  96207699.95906     -3535.032 6        40.830
S44        42.000    40820615.953 6 214513965.02506      -457.265 6        37.176
C09        43.000                                                                                                                                    39110459.383 6 203658449.60206     -1117.376 6        40.889    39110456.059 7 157481623.44007      -863.883 7        44.748    39110453.823 6 165489154.04906      -907.941 6        41.089
C05        44.000                                                                                                                                    39227400.962 6 204267404.72606      -442.572 6        38.604    39227397.038 7 157952537.55807      -342.200 7        43.452    39227398.777 6 165984100.84606      -359.595 6        40.315
R06        45.000    22274402.012 6 118860514.36406     -3384.486 6        36.949
C44        46.000                                                                                                                                    25416541.298 7 132350627.34107     -2751.032 7        42.428                                                                    25416540.221 6 107545728.10006     -2235.481 6        40.596
C39        47.000                                                                                                                                    41171490.032 6 214390754.78406     -1568.528 6        38.667                                                                    41171486.410 6 174210037.11206     -1274.525 6        38.682
C20        48.000                                                                                                                                    26649543.686 6 138771166.56506     -3245.417 6        40.965                                                                    26649540.228 6 112762922.27806     -2637.315 6        40.539
C06        49.000                                                                                                                                    39678719.308 6 206617523.33606     -1439.908 6        38.589    39678713.540 6 159769758.56706     -1113.445 6        41.159    39678713.117 6 167893641.44806     -1170.099 6        38.592
C16        50.000                                                                                                                                    40259129.168 6 209639861.97106     -1428.779 6        40.629    40259128.131 6 162106847.84406     -1104.760 6        38.000    40259126.381 6 170349558.33206     -1161.227 6        36.597
S48        51.000    77198851.592 6 405682287.44406      -378.437 6        38.270
C19        52.000                                                                                                                                    22803692.431 8 118744866.87808     -2001.655 8        50.518                                                                    22803687.792 8  96489933.75408     -1626.557 8        50.029
C12        53.000                                                                                                                                    25159106.317 6 131010069.10706     -1753.867 6        39.883    25159102.847 7 101305277.84507     -1356.219 7        45.249    25159101.680 7 106456390.05407     -1425.272 7        42.940
C60        54.000                                                                                                                                    40820620.101 6 212563857.31006      -453.031 6        40.496                                                                    40820604.819 6 172725510.67706      -368.164 6        39.796
R16        55.000    21863393.987 7 116790346.68107     -3010.860 7        47.340                                                                    21863393.313 7  90836958.08707     -2341.764 7        44.369
C37        56.000                                                                                                                                    26756438.131 6 139327795.30706     -3283.128 6        39.562                                                                    26756441.831 6 113215262.23006     -2667.893 6        39.649
C02        57.000                                                                                                                                    40777174.769 5 212337468.96405      -471.734 5        34.790    40777169.450 6 164192786.90306      -364.839 6        39.078    40777173.215 5 172541584.29905      -383.581 5        35.619
I03        58.000   128654078.872 6 429080967.05006       912.157 6        41.170
R07        59.000    19599829.424 8 104919451.41008     -1030.624 8        51.247                                                                    19599827.436 7  81604020.61707      -801.571 7        47.033
G07        60.000    20981435.554 8 110258217.42808       619.599 8        49.465                                    20981430.703 8  85915488.94308       482.806 8        49.368    20981430.842 7  85915489.94507       482.797 7        45.275
> 2025 01 01 05 01 15.0000000  0 57
G16         1.000    23568561.474 6 123853644.67106      -921.232 6        40.596                                    23568555.903 3  96509318.39703      -717.842 3        22.457
G29         2.000    25715118.238 6 135133849.15406      -548.806 6        38.234                                    25715114.807 4 105299088.65804      -427.626 4        28.332    25715114.975 5 105299090.62605      -427.645 5        34.957
G09         3.000    20545433.134 8 107967026.37108     -1882.062 8        48.896                                    20545430.783 8  84130161.65808     -1466.540 8        51.797    20545430.934 7  84130162.65507     -1466.509 7        45.776
E34         4.000    24751745.728 7 130071310.57407     -2194.520 7        46.881                                                                    24751745.860 8  97131181.06908     -1638.784 8        49.285    24751745.675 8  99665037.31508     -1681.528 8        49.831
S21         5.000    38464396.045 7 202131590.18807      -392.017 7        43.484
E05         6.000    21840535.796 8 114772837.35608      -263.760 8        48.632                                                                    21840535.161 8  85707019.64708      -196.976 8        51.135    21840535.049 8  87942846.88408      -202.130 8        51.485
E15         7.000    25624874.153 7 134659646.27407       657.507 7        43.964                                                                    25624874.887 7 100557552.26407       491.091 7        47.028    25624874.418 7 103180790.44207       503.914 7        47.117
R10         8.000    22124995.721 6 117938682.25706      3816.738 6        41.802
E31         9.000    26401500.002 6 138740829.74006       404.642 6        41.638                                                                    26401500.521 7 103605189.78107       302.098 7        44.897    26401499.957 7 106307931.76107       310.028 7        44.752
G04        10.000    22398505.996 7 117704980.35107     -3070.120 7        44.355                                    22398503.070 5  91718173.93705     -2392.297 5        31.660    22398503.282 7  91718168.92007     -2392.220 7        43.644
E09        11.000    25536167.090 7 134193508.17707     -2409.593 7        44.894                                                                    25536166.932 7 100209453.48007     -1799.432 7        47.283    25536166.468 8 102823612.55508     -1846.371 8        48.055
S27        12.000    39100063.722 6 205472171.00406      -405.203 6        36.575
G06        13.000    22329599.742 7 117342862.83207     -2993.036 7        45.767                                    22329599.024 7  91436000.12907     -2332.234 7        44.769    22329600.010 7  91436011.11307     -2332.148 7        42.872
S36        14.000    38232296.333 7 200912581.09907      -392.835 7        44.986
G20        15.000    22180181.204 7 116557648.14807      2352.322 7        45.518                                    22180176.187 5  90824123.61105      1832.980 5        32.347
E36        16.000    27386044.153 6 143914641.84606     -3694.479 6        39.264                                                                    27386045.566 7 107468737.85907     -2758.936 7        42.933    27386044.658 7 110272265.52007     -2830.949 7        42.671
S45        17.000    63418083.062 6 333265907.23506      -432.480 6        37.493
E24        19.000    27278255.226 6 143348191.52106      2336.293 6        40.870                                                                    27278255.097 7 107045739.75507      1744.508 7        44.466    27278254.134 7 109838233.79407      1790.089 7        44.256
R23        20.000    21527660.540 7 115158465.01907     -2500.494 7        46.543
G30        21.000    22546527.281 7 118482820.06407      2641.533 7        46.697                                    22546525.495 7  92324282.56807      2058.338 7        44.018    22546525.690 6  92324286.57806      2058.227 6        41.547
I06        22.000    37987664.078 7 149071982.17007      -275.838 7        43.401
S28        23.000    40893076.678 5 214894545.12905      -392.047 5        35.281
S23        25.000    38171208.790 7 200591052.32207      -388.613 7        45.046
E06        26.000    27378129.720 6 143873080.98406     -2840.851 6        39.568                                                                    27378130.785 7 107437683.32307     -2121.292 7        42.138    27378130.749 7 110240404.77607     -2176.744 7        42.855
C34        27.000                                                                                                                                    25568566.294 6 133142233.66306      -556.545 6        41.816                                                                    25568566.163 6 108188975.69406      -452.314 6        41.712
G26        28.000    25293231.225 5 132916810.13905     -2939.689 5        35.443                                    25293232.385 4 103571536.06504     -2290.657 4        25.714    25293232.286 5 103571537.08105     -2290.915 5        33.401
R09        29.000    20207104.405 8 107904818.01408      1097.046 8        50.361                                                                    20207103.400 8  83925973.35108       853.165 8        48.586
C22        30.000                                                                                                                                    21881989.128 8 113945290.20208       794.189 8        51.938                                                                    21881982.482 8  92589869.64608       645.234 8        49.860
I01        31.000   340320040.278 7  32348116.06407     -2848.376 7        42.591
E03        32.000    25825615.082 7 135714540.08407      1709.796 7        43.708                                                                    25825615.138 7 101345292.08007      1276.753 7        45.937    25825614.841 7 103989076.20907      1310.070 7        46.292
G05        33.000    25148996.732 6 132158878.65506      3298.398 6        39.018                                    25148993.066 4 102980939.62204      2570.178 4        29.118    25148993.460 5 102980942.62705      2570.238 5        35.609
R24        34.000    22850631.255 7 122192608.52107      1552.259 7        44.778                                                                    22850630.359 7  95038697.48907      1207.223 7        42.102
C36        35.000                                                                                                                                    23110732.245 8 120343658.13808      2040.177 8        49.190                                                                    23110736.995 8  97789103.01608      1657.673 8        48.598
G11        36.000    22140402.989 7 116348634.92207      -612.259 7        46.256                                    22140399.036 5  90661274.37105      -477.086 5        35.314    22140399.432 7  90661274.36107      -477.050 7        44.793
C35        37.000                                                                                                                                    27036653.033 6 140786944.70906     -3344.492 6        37.909                                                                    27036652.919 6 114400919.84206     -2717.897 6        37.853
I09        38.000    38129697.627 7 149629110.29807      -728.958 7        42.931
R08        39.000    20719993.207 8 110954638.48308      1912.102 8        50.308                                                                    20719990.591 7  86298054.05807      1487.201 7        45.958
R22        40.000    23176609.250 7 123718328.84407     -4546.017 7        44.883                                                                    23176608.147 6  96225377.72906     -3535.880 6        40.610
S44        42.000    40821052.106 6 214516251.38606      -456.915 6        37.312
C09        43.000                                                                                                                                    39111532.446 6 203664037.40806     -1117.600 6        40.799    39111529.095 7 157485944.28107      -864.163 7        44.930    39111526.907 6 165493694.58206      -908.250 6        41.044
C05        44.000                                                                                                                                    39227825.883 6 204269617.67006      -442.485 6        38.607    39227822.061 7 157954248.74607      -342.236 7        43.598    39227823.711 6 165985899.05206      -359.882 6        40.248
R06        45.000    22277573.484 6 118877440.59706     -3385.714 6        36.348
C44        46.000                                                                                                                                    25419183.635 6 132364386.20306     -2752.471 6        41.859                                                                    25419182.409 6 107556908.27906     -2236.641 6        40.543
C39        47.000                                                                                                                                    41172996.044 6 214398597.86706     -1568.587 6        38.652                                                                    41172992.658 6 174216410.24906     -1274.549 6        38.610
C20        48.000                                                                                                                                    26652660.554 6 138787395.57006     -3245.960 6        41.354                                                                    26652656.807 6 112776109.63406     -2637.786 6        40.300
C06        49.000                                                                                                                                    39680102.167 6 206624723.17606     -1440.052 6        38.859    39680095.845 6 159775325.94006     -1113.486 6        41.387    39680095.795 6 167899491.92406     -1170.349 6        38.664
C16        50.000                                                                                                                                    40260501.005 6 209647006.81206     -1428.874 6        40.522    40260500.333 6 162112372.71506     -1105.104 6        38.216    40260498.362 6 170355364.09306     -1161.252 6        36.662
S48        51.000    77199221.069 6 405684180.96106      -378.456 6        38.096
C19        52.000                                                                                                                                    22805615.269 8 118754879.06608     -2003.057 8        50.604                                                                    22805610.508 8  96498069.47308     -1627.759 8        50.032
C12        53.000                                                                                                                                    25160791.392 6 131018845.10306     -1756.466 6        40.167    25160788.005 7 101312063.98607     -1358.059 7        45.517    25160786.796 7 106463521.24907     -1427.303 7        42.993
C60        54.000                                                                                                                                    40821054.680 6 212566122.90106      -453.093 6        40.586                                                                    40821039.760 6 172727351.63506      -368.241 6        39.679
R16        55.000    21866213.774 7 116805410.36307     -3014.508 7        47.264                                                                    21866213.606 7  90848674.29107     -2344.569 7        44.879
C37        56.000                                                                                                                                    26759591.421 6 139344214.50206     -3284.359 6        39.471                                                                    26759594.899 6 113228604.16406     -2668.980 6        39.366
C02        57.000                                                                                                                                    40777627.709 5 212339828.72905      -471.818 5        34.714    40777622.667 6 164194611.59506      -364.750 6        39.231    40777626.168 5 172543501.76105      -383.568 5        35.386
I03        58.000   128652917.105 6 429076406.57906       912.090 6        41.104
R07        59.000    19600793.234 8 104924610.41708     -1032.848 8        51.192                                                                    19600791.361 7  81608033.17307      -803.346 7        47.393
G07        60.000    20980847.393 8 110255126.24308       616.995 8        49.408                                    20980842.470 8  85913080.22808       480.774 8        49.276    20980842.562 7  85913081.23107       480.694 7        44.968
> 2025 01 01 05 01 20.0000000  0 57
G16         1.000    23569439.366 6 123858260.87306      -925.045 6        40.520                                    23569434.317 3  96512915.42903      -720.820 3        22.686
G29         2.000    25715642.040 6 135136600.60906      -551.623 6        37.992                                    25715638.528 4 105301232.57204      -429.812 4        28.019    25715638.695 5 105301234.54205      -429.854 5        34.629
G09         3.000    20547224.724 8 107976441.53208     -1883.829 8        49.072                                    20547222.437 8  84137498.14408     -1467.919 8        51.737    20547222.760 7  84137499.14607     -1467.946 7        45.375
E34         4.000    24753835.092 7 130082289.24607     -2196.775 7        47.035                                                                    24753835.037 8  97139379.42208     -1640.433 8        49.211    24753834.849 8  99673449.54208     -1683.244 8        49.792
S21         5.000    38464768.236 7 202133551.66107      -392.214 7        43.397
E05         6.000    21840787.420 8 114774159.98708      -265.045 8        48.674                                                                    21840786.860 8  85708007.32708      -197.954 8        50.996    21840786.667 8  87943860.32408      -203.116 8        51.381
E15         7.000    25624249.709 7 134656364.84207       655.133 7        44.114                                                                    25624250.469 7 100555101.85907       489.157 7        47.007    25624250.020 7 103178276.10707       501.992 7        47.113
R10         8.000    22121417.132 7 117919603.29307      3814.958 7        42.254
E31         9.000    26401116.060 6 138738813.51506       402.270 6        41.638                                                                    26401116.682 7 103603684.15307       300.423 7        44.754    26401116.231 7 106306386.85407       308.162 7        44.634
G04        10.000    22401428.022 7 117720333.75707     -3071.130 7        44.602                                    22401424.882 5  91730137.62105     -2393.080 5        31.623    22401424.816 7  91730132.60307     -2393.024 7        43.551
E09        11.000    25538460.255 7 134205558.29207     -2410.230 7        44.494                                                                    25538459.946 7 100218451.93507     -1799.838 7        47.231    25538459.466 8 102832845.75108     -1846.838 8        48.001
S27        12.000    39100448.523 6 205474197.96306      -405.473 6        36.435
G06        13.000    22332448.944 7 117357834.32007     -2995.474 7        45.908                                    22332447.993 7  91447666.22107     -2334.134 7        44.743    22332448.721 7  91447677.22207     -2334.085 7        42.855
S36        14.000    38232669.382 7 200914544.92407      -392.949 7        45.269
G20        15.000    22177944.149 7 116545891.57907      2350.594 7        45.469                                    22177939.034 5  90814962.65105      1831.636 5        32.263
E36        16.000    27389559.687 6 143933116.09006     -3695.074 6        39.619                                                                    27389560.964 7 107482533.53907     -2759.201 7        42.574    27389560.370 7 110286421.08307     -2831.123 7        42.902
S45        17.000    63418449.144 6 333266471.21916      -432.761 6        37.350
E24        19.000    27276032.899 6 143336513.03906      2335.293 6        40.253                                                                    27276032.856 7 107037018.80207      1743.948 7        44.734    27276031.685 7 109829285.35107      1789.391 7        44.176
R23        20.000    21529999.403 7 115170978.42707     -2504.565 7        47.154
G30        21.000    22544014.534 7 118469617.24807      2639.846 7        46.558                                    22544013.069 7  92313994.66407      2057.025 7        44.000    22544013.452 6  92313998.66606      2057.022 6        41.442
I06        22.000    37988015.745 7 149073362.45807      -276.052 7        43.200
S28        23.000    40893446.084 5 214896506.14605      -391.906 5        35.590
S23        25.000    38171579.474 7 200592995.99207      -388.703 7        44.816
E06        26.000    27380832.853 6 143887285.84206     -2840.902 6        39.474                                                                    27380833.742 6 107448290.83906     -2121.598 6        41.733    27380834.137 7 110251288.99407     -2176.790 7        43.016
C34        27.000                                                                                                                                    25569101.868 7 133145023.33907      -559.137 7        42.220                                                                    25569101.956 6 108191242.56406      -454.569 6        41.507
G26        28.000    25296029.247 5 132931515.97805     -2942.131 5        35.357                                    25296030.927 4 103582995.13504     -2292.552 4        25.293    25296031.604 5 103582996.10305     -2292.500 5        34.105
R09        29.000    20206079.245 8 107899344.53308      1092.667 8        49.985                                                                    20206078.214 8  83921716.19008       849.861 8        48.332
C22        30.000                                                                                                                                    21881227.458 8 113941323.52208       792.680 8        52.071                                                                    21881220.704 8  92586646.41208       644.101 8        49.737
I01        31.000   340323669.667 7  32362358.95507     -2848.663 7        42.518
E03        32.000    25823988.743 7 135705993.73607      1709.000 7        43.841                                                                    25823988.687 7 101338910.06207      1276.170 7        45.694    25823988.476 7 103982527.70407      1309.509 7        46.191
G05        33.000    25145858.400 6 132142387.87506      3297.990 6        40.534                                    25145854.922 4 102968089.66604      2569.866 4        29.611    25145855.595 6 102968092.67006      2570.167 6        36.076
R24        34.000    22849180.756 7 122184858.19407      1548.181 7        44.932                                                                    22849181.113 6  95032669.47006      1204.118 6        41.776
C36        35.000                                                                                                                                    23108774.166 8 120333463.00508      2038.101 8        49.052                                                                    23108779.154 8  97780818.64308      1656.124 8        48.487
G11        36.000    22140987.469 7 116351705.23107      -615.775 7        45.958                                    22140983.294 5  90663666.81605      -479.826 5        35.176    22140983.609 7  90663666.82207      -479.746 7        44.773
C35        37.000                                                                                                                                    27039864.550 6 140803666.68406     -3343.934 6        38.327                                                                    27039864.296 6 114414507.82606     -2717.482 6        36.922
I09        38.000    38130626.736 7 149632756.35507      -729.304 7        42.787
R08        39.000    20718208.492 8 110945081.89408      1910.742 8        50.076                                                                    20718206.197 7  86290621.15907      1486.095 7        45.806
R22        40.000    23180867.255 7 123741062.26107     -4546.768 7        44.397                                                                    23180866.861 6  96243059.27306     -3536.758 6        39.958
S44        42.000    40821488.899 6 214518538.25406      -457.350 6        37.584
C09        43.000                                                                                                                                    39112606.011 6 203669626.82306     -1117.979 6        40.915    39112602.429 7 157490266.36907      -864.481 7        44.992    39112600.369 6 165498236.46606      -908.498 6        41.030
C05        44.000                                                                                                                                    39228250.906 6 204271831.23206      -442.630 6        38.757    39228247.098 7 157955960.40007      -342.251 7        43.530    39228248.752 6 165987697.75006      -359.631 6        40.162
R06        45.000    22280746.970 6 118894372.71006     -3386.921 6        36.801
C44        46.000                                                                                                                                    25421827.339 7 132378152.15107     -2753.775 7        42.906                                                                    25421826.112 6 107568094.26106     -2237.628 6        40.491
C39        47.000                                                                                                                                    41174501.946 6 214406441.01006     -1568.460 6        38.610                                                                    41174498.892 6 174222783.48606     -1274.682 6        38.405
C20        48.000                                                                                                                                    26655777.388 6 138803627.02406     -3246.387 6        41.487                                                                    26655773.757 6 112789299.00806     -2637.986 6        40.010
C06        49.000                                                                                                                                    39681484.687 6 206631924.00506     -1440.124 6        38.814    39681478.921 6 159780894.06006     -1113.589 6        41.404    39681478.571 6 167905343.18306     -1170.214 6        38.393
C16        50.000                                                                                                                                    40261873.489 6 209654152.35206     -1429.133 6        40.701    40261872.817 6 162117898.06806     -1105.199 6        38.318    40261870.319 6 170361170.42806     -1161.355 6        36.393
S48        51.000    77199583.485 6 405686075.15806      -378.577 6        38.387
C19        52.000                                                                                                                                    22807539.386 8 118764898.78008     -2004.572 8        50.623                                                                    22807534.685 8  96506211.32208     -1628.893 8        49.930
C12        53.000                                                                                                                                    25162479.220 6 131027633.58806     -1758.770 6        40.117    25162475.658 7 101318859.80607     -1360.002 7        45.630    25162474.547 7 106470662.63307     -1429.218 7        42.773
C60        54.000                                                                                                                                    40821489.971 6 212568388.96506      -453.301 6        40.625                                                                    40821475.086 6 172729192.99906      -368.259 6        39.667
R16        55.000    21869036.542 7 116820492.45707     -3018.125 7        46.509                                                                    21869036.824 7  90860404.81607     -2347.469 7        44.372
C37        56.000                                                                                                                                    26762746.073 6 139360640.30406     -3285.721 6        39.802                                                                    26762749.365 6 113241951.48306     -2670.089 6        39.631
C02        57.000                                                                                                                                    40778081.033 5 212342189.01205      -471.829 5        34.876    40778076.308 6 164196436.70906      -364.923 6        39.018    40778079.577 5 172545419.71205      -383.688 5        35.376
I03        58.000   128651754.966 6 429071846.54906       912.059 6        40.756
R07        59.000    19601759.067 8 104929780.56908     -1035.011 8        51.734                                                                    19601757.066 7  81612054.40407      -805.041 7        46.940
G07        60.000    20980261.372 8 110252048.18908       614.390 8        49.511                                    20980256.750 8  85910681.74608       478.746 8        49.263    20980257.001 7  85910682.74107       478.814 7        44.743
> 2025 01 01 05 01 25.0000000  0 57
G16         1.000    23570321.123 6 123862894.78206      -928.537 6        40.503                                    23570316.202 3  96516526.27403      -723.534 3        22.552
G29         2.000    25716168.356 6 135139367.10206      -554.776 6        37.161                                    25716164.967 4 105303388.19704      -432.280 4        28.142    25716165.543 5 105303390.16805      -432.263 5        33.677
G09         3.000    20549018.057 8 107985865.35208     -1885.617 8        48.994                                    20549015.732 8  84144841.37908     -1469.312 8        51.916    20549016.298 7  84144842.37707     -1469.222 7        45.728
E34         4.000    24755926.058 7 130093278.56007     -2198.959 7        46.928                                                                    24755926.246 8  97147585.72308     -1642.012 8        49.074    24755926.036 8  99681869.92208     -1684.854 8        49.863
S21         5.000    38465142.721 7 202135513.46007      -392.320 7        43.505
E05         6.000    21841040.110 8 114775488.40808      -266.228 8        48.778                                                                    21841039.682 8  85708999.33008      -198.814 8        50.928    21841039.511 8  87944878.20508      -203.978 8        51.461
E15         7.000    25623627.376 7 134653095.38107       652.728 7        43.791                                                                    25623628.320 7 100552660.36907       487.392 7        46.814    25623627.867 7 103175770.93107       500.131 7        47.076
R10         8.000    22117839.651 7 117900532.54507      3813.348 7        42.172
E31         9.000    26400734.259 6 138736808.94806       399.834 6        41.652                                                                    26400735.221 7 103602187.24107       298.496 7        44.606    26400734.776 7 106304850.89107       306.376 7        44.618
G04        10.000    22404350.366 7 117735691.58907     -3071.952 7        44.625                                    22404347.454 5  91742104.75905     -2393.727 5        31.940    22404347.238 7  91742099.75307     -2393.769 7        43.306
E09        11.000    25540754.054 7 134217610.99407     -2410.703 7        44.528                                                                    25540753.523 7 100227452.31907     -1800.226 7        47.164    25540753.054 7 102842080.93507     -1847.256 7        47.968
S27        12.000    39100831.803 6 205476225.01806      -405.649 6        36.571
G06        13.000    22335300.084 7 117372817.13307     -2997.677 7        45.606                                    22335299.113 7  91459341.13807     -2335.852 7        44.974    22335299.658 7  91459352.15407     -2335.923 7        42.643
S36        14.000    38233044.194 7 200916507.81907      -392.455 7        45.166
G20        15.000    22175708.588 7 116534143.44307      2348.865 7        45.582                                    22175703.380 5  90805808.26105      1830.282 5        32.503
E36        16.000    27393075.407 6 143951591.46006     -3695.060 6        39.829                                                                    27393076.590 7 107496330.09207     -2759.456 7        42.368    27393076.246 7 110300577.54507     -2831.418 7        42.973
S45        17.000    63418823.254 6 333268635.34206      -432.867 6        37.316
E24        19.000    27273811.252 6 143324838.50506      2334.605 6        40.126                                                                    27273811.330 7 107028300.82407      1743.317 7        44.758    27273810.069 7 109820339.93607      1788.775 7        44.143
R23        20.000    21532342.630 7 115183511.48507     -2508.510 7        46.845
G30        21.000    22541503.123 7 118456422.12007      2638.245 7        45.842                                    22541502.087 7  92303712.74907      2055.772 7        44.123    22541502.410 6  92303716.74206      2055.854 6        41.240
I06        22.000    37988367.548 7 149074742.95907      -276.099 7        43.101
S28        23.000    40893825.451 5 214898467.24405      -392.212 5        35.743
S23        25.000    38171949.237 7 200594939.65307      -388.773 7        45.211
E06        26.000    27383535.938 6 143901491.30606     -2841.230 6        39.153                                                                    27383536.945 6 107458898.77906     -2121.530 6        41.390    27383537.307 7 110262173.67107     -2176.960 7        43.164
C34        27.000                                                                                                                                    25569640.641 7 133147826.45007      -561.870 7        42.554                                                                    25569640.229 6 108193520.27106      -456.414 6        41.685
G26        28.000    25298829.466 5 132946232.86905     -2944.436 5        34.705                                    25298831.522 4 103594462.79404     -2294.354 4        25.338    25298831.776 5 103594463.78105     -2294.373 5        34.162
R09        29.000    20205057.987 8 107893892.27508      1088.264 8        50.103                                                                    20205057.093 8  83917475.56508       846.427 8        48.837
C22        30.000                                                                                                                                    21880466.931 8 113937363.91908       791.264 8        52.089                                                                    21880460.332 8  92583428.88208       643.074 8        49.781
I01        31.000   340327299.043 7  32376602.57307     -2848.810 7        42.557
E03        32.000    25822363.186 7 135697450.64007      1708.273 7        43.503                                                                    25822363.038 7 101332530.47707      1275.717 7        45.630    25822362.805 7 103975981.70407      1308.986 7        46.273
G05        33.000    25142720.400 6 132125897.99606      3297.804 6        39.895                                    25142716.970 5 102955240.42005      2569.716 5        30.483    25142717.142 5 102955243.41205      2569.757 5        35.786
R24        34.000    22847736.588 7 122177127.51607      1544.239 7        46.100                                                                    22847735.604 6  95026656.70806      1201.092 6        41.857
C36        35.000                                                                                                                                    23106818.296 8 120323277.54808      2036.092 8        49.226                                                                    23106823.094 8  97772542.09808      1654.658 8        48.605
G11        36.000    22141574.789 7 116354792.61107      -619.123 7        45.539                                    22141570.766 5  90666072.57005      -482.430 5        35.310    22141570.906 7  90666072.57307      -482.374 7        44.868
C35        37.000                                                                                                                                    27043074.945 6 140820385.74106     -3343.461 6        38.757                                                                    27043075.090 5 114428093.41105     -2716.910 5        35.962
I09        38.000    38131555.815 7 149636403.02007      -729.423 7        42.817
R08        39.000    20716425.216 8 110935531.63208      1909.446 8        50.140                                                                    20716422.444 7  86283193.18307      1485.008 7        45.514
R22        40.000    23185126.777 7 123763799.98807     -4547.947 7        44.387                                                                    23185125.966 6  96260744.15406     -3537.313 6        40.634
S44        42.000    40821922.253 6 214520825.07706      -457.104 6        37.369
C09        43.000                                                                                                                                    39113679.455 6 203675217.33106     -1118.257 6        40.889    39113676.062 7 157494589.29407      -864.580 7        45.141    39113673.784 6 165502779.17706      -908.516 6        41.032
C05        44.000                                                                                                                                    39228675.938 6 204274044.92006      -442.760 6        38.658    39228672.139 7 157957672.16107      -342.326 7        43.634    39228674.021 6 165989496.52206      -359.520 6        40.174
R06        45.000    22283921.611 6 118911310.28406     -3387.989 6        37.183
C44        46.000                                                                                                                                    25424472.221 7 132391924.73507     -2755.199 7        42.976                                                                    25424471.253 6 107579285.57306     -2238.553 6        40.651
C39        47.000                                                                                                                                    41176008.206 6 214414283.76206     -1568.522 6        38.462                                                                    41176004.973 6 174229156.32406     -1274.442 6        38.453
C20        48.000                                                                                                                                    26658894.768 6 138819860.39406     -3246.957 6        41.342                                                                    26658891.277 6 112802489.90006     -2638.268 6        39.841
C06        49.000                                                                                                                                    39682867.933 6 206639125.26206     -1440.277 6        38.907    39682862.201 6 159786462.52206     -1113.652 6        41.459    39682861.417 6 167911194.77806     -1170.219 6        38.658
C16        50.000                                                                                                                                    40263245.559 6 209661298.05106     -1429.152 6        40.634    40263245.032 6 162123423.57806     -1104.995 6        38.592    40263242.539 6 170366976.87006     -1161.265 6        36.329
S48        51.000    77199948.338 6 405687969.25806      -378.954 6        38.321
C19        52.000                                                                                                                                    22809464.859 8 118774925.51808     -2006.035 8        50.452                                                                    22809460.160 8  96514358.83208     -1629.930 8        49.950
C12        53.000                                                                                                                                    25164168.737 6 131036434.04906     -1761.296 6        40.150    25164165.386 7 101325664.88607     -1361.947 7        45.691    25164164.720 7 106477813.70907     -1431.094 7        42.923
C60        54.000                                                                                                                                    40821925.046 6 212570654.99706      -453.242 6        40.729                                                                    40821910.148 6 172731034.30006      -368.184 6        39.679
R16        55.000    21871862.857 7 116835592.47507     -3021.735 7        46.834                                                                    21871863.768 7  90872149.27207     -2350.287 7        44.612
C37        56.000                                                                                                                                    26765901.798 6 139377072.17906     -3286.961 6        39.790                                                                    26765904.840 6 113255303.67806     -2670.752 6        39.138
C02        57.000                                                                                                                                    40778533.758 5 212344549.39605      -472.073 5        34.657    40778529.427 6 164198261.86706      -365.105 6        39.147    40778532.561 5 172547337.64505      -383.539 5        35.595
I03        58.000   128650592.635 6 429067286.59806       911.857 6        41.023
R07        59.000    19602726.728 8 104934961.18808     -1037.186 8        51.263                                                                    19602724.778 7  81616083.77707      -806.719 7        46.879
G07        60.000    20979678.144 8 110248982.78508       611.905 8        49.179                                    20979673.427 8  85908293.12208       476.809 8        49.458    20979673.631 7  85908294.12207       476.787 7        44.814
> 2025 01 01 05 01 30.0000000  0 57
G16         1.000    23571206.194 6 123867546.48306      -932.091 6        40.451                                    23571201.619 3  96520150.98003      -726.312 3        22.552
G29         2.000    25716697.243 6 135142148.79406      -557.969 6        36.355                                    25716694.206 4 105305555.70204      -434.773 4        27.653    25716694.885 5 105305557.67105      -434.685 5        33.754
G09         3.000    20550813.216 8 107995297.86608     -1887.458 8        48.854                                    20550810.686 8  84152191.38808     -1470.748 8        51.777    20550811.255 7  84152192.38607     -1470.717 7        45.896
E34         4.000    24758019.430 7 130104278.56007     -2201.121 7        47.091                                                                    24758019.471 8  97155800.01008     -1643.723 8        49.034    24758019.265 8  99690298.49408     -1686.624 8        49.973
S21         5.000    38465515.565 7 202137475.33107      -392.510 7        43.543
E05         6.000    21841294.035 8 114776822.66108      -267.568 8        48.919                                                                    21841293.575 8  85709995.68508      -199.755 8        50.900    21841293.380 8  87945900.55408      -204.994 8        51.590
E15         7.000    25623007.713 7 134649837.91207       650.225 7        43.841                                                                    25623008.442 7 100550227.84107       485.531 7        46.781    25623007.957 7 103173274.94907       498.221 7        47.292
R10         8.000    22114263.072 7 117881470.01807      3811.613 7        42.180
E31         9.000    26400355.456 6 138734816.11006       397.293 6        41.850                                                                    26400355.961 7 103600699.06707       296.744 7        44.540    26400355.586 7 106303323.90207       304.407 7        44.855
G04        10.000    22407273.363 7 117751053.91407     -3072.963 7        44.585                                    22407270.858 5  91754075.39105     -2394.520 5        31.653    22407270.444 7  91754070.38407     -2394.546 7        42.790
E09        11.000    25543048.282 7 134229666.34207     -2411.453 7        45.025                                                                    25543047.640 7 100236454.67707     -1800.714 7        47.162    25543047.123 8 102851318.13308     -1847.659 8        48.023
S27        12.000    39101219.574 6 205478252.29106      -405.499 6        36.624
G06        13.000    22338153.268 7 117387811.32207     -3000.014 7        45.585                                    22338152.393 7  91471024.91707     -2337.673 7        44.793    22338153.590 7  91471035.90907     -2337.699 7        43.583
S36        14.000    38233417.292 7 200918470.85007      -392.661 7        45.258
G20        15.000    22173474.360 7 116522403.75207      2347.029 7        45.679                                    22173469.370 5  90796660.45405      1828.857 5        32.527
E36        16.000    27396591.109 6 143970068.05106     -3695.414 6        39.658                                                                    27396592.582 7 107510127.53607     -2759.575 7        42.290    27396592.291 7 110314734.92707     -2831.701 7        43.234
S45        17.000    63419192.364 6 333270799.48406      -432.903 6        37.357
E24        19.000    27271590.311 6 143313168.04106      2333.580 6        40.126                                                                    27271590.446 7 107019585.84907      1742.697 7        44.987    27271589.247 7 109811397.61807      1788.049 7        44.324
R23        20.000    21534688.650 7 115196064.17207     -2512.604 7        47.168
G30        21.000    22538993.480 7 118443234.76307      2636.576 7        45.747                                    22538992.581 7  92293436.89107      2054.475 7        44.012    22538993.042 6  92293440.87906      2054.573 6        41.220
I06        22.000    37988719.520 7 149076123.72407      -276.178 7        43.132
S28        23.000    40894193.623 5 214900428.49305      -392.581 5        35.362
S23        25.000    38172320.002 7 200596883.52407      -388.865 7        45.117
E06        26.000    27386239.381 6 143915697.38406     -2841.226 6        39.108                                                                    27386240.133 6 107469507.22206     -2121.917 6        41.175    27386240.628 7 110273058.83907     -2177.175 7        43.410
C34        27.000                                                                                                                                    25570181.527 6 133150643.07806      -564.723 6        41.952                                                                    25570181.066 6 108195809.00906      -458.800 6        41.585
G26        28.000    25301633.204 5 132960960.97305     -2946.768 5        34.229                                    25301634.179 4 103605939.20104     -2296.191 4        24.932    25301634.634 5 103605940.20405     -2296.044 5        34.052
R09        29.000    20204041.872 8 107888461.49408      1083.930 8        50.968                                                                    20204040.211 8  83913251.61308       843.130 8        48.381
C22        30.000                                                                                                                                    21879707.846 8 113933411.42908       789.738 8        52.129                                                                    21879701.286 8  92580217.16608       641.825 8        49.822
I01        31.000   340330928.965 7  32390846.95507     -2849.057 7        42.406
E03        32.000    25820738.388 7 135688910.85707      1707.633 7        43.788                                                                    25820738.052 7 101326153.37407      1275.060 7        45.609    25820737.714 7 103969438.23307      1308.406 7        46.371
G05        33.000    25139581.763 6 132109409.00506      3297.810 6        37.966                                    25139579.286 4 102942391.86804      2569.720 4        29.886    25139579.611 6 102942394.88406      2569.491 6        36.238
R24        34.000    22846295.302 7 122169416.40207      1540.222 7        45.654                                                                    22846293.816 7  95020659.17607      1197.871 7        42.508
C36        35.000                                                                                                                                    23104864.301 8 120313101.82808      2034.131 8        48.964                                                                    23104868.965 8  97764273.50108      1653.021 8        48.643
G11        36.000    22142165.658 7 116357897.10407      -622.694 7        45.890                                    22142161.539 5  90668491.64905      -485.215 5        35.252    22142161.706 7  90668491.65007      -485.225 7        44.873
C35        37.000                                                                                                                                    27046285.205 6 140837101.96606     -3342.961 6        38.114                                                                    27046284.890 6 114441676.76206     -2716.322 6        36.412
I09        38.000    38132485.227 7 149640050.35907      -729.612 7        42.762
R08        39.000    20714643.636 8 110925987.80808      1908.102 8        50.404                                                                    20714640.073 7  86275770.19007      1484.103 7        45.642
R22        40.000    23189387.180 7 123786542.03707     -4548.833 7        44.831                                                                    23189387.148 6  96278432.42106     -3538.169 6        41.097
S44        42.000    40822355.339 6 214523111.92506      -457.298 6        37.350
C09        43.000                                                                                                                                    39114753.299 6 203680808.99406     -1118.424 6        40.923    39114749.663 7 157498913.13907      -865.050 7        45.159    39114747.689 6 165507322.85906      -908.568 6        41.075
C05        44.000                                                                                                                                    39229101.288 6 204276258.75806      -442.897 6        38.919    39229097.162 7 157959384.03907      -342.423 7        43.651    39229099.165 6 165991295.46006      -359.807 6        40.153
R06        45.000    22287095.963 6 118928253.20906     -3389.091 6        37.070
C44        46.000                                                                                                                                    25427118.393 7 132405703.95907     -2756.588 7        43.113                                                                    25427117.334 6 107590482.33506     -2239.698 6        40.543
C39        47.000                                                                                                                                    41177514.534 6 214422126.11906     -1568.494 6        38.562                                                                    41177510.880 6 174235528.89506     -1274.408 6        38.393
C20        48.000                                                                                                                                    26662012.256 6 138836095.74606     -3247.362 6        40.865                                                                    26662009.042 6 112815682.42606     -2638.560 6        39.604
C06        49.000                                                                                                                                    39684250.909 6 206646327.00606     -1440.651 6        38.928    39684244.674 6 159792031.36106     -1113.968 6        41.285    39684244.526 6 167917046.76406     -1170.347 6        38.544
C16        50.000                                                                                                                                    40264617.572 6 209668443.96906     -1429.301 6        40.493    40264617.344 6 162128949.24506     -1105.381 6        38.751    40264614.904 6 170372783.50406     -1161.259 6        36.367
S48        51.000    77200310.571 6 405689863.50406      -378.976 6        38.408
C19        52.000                                                                                                                                    22811391.663 8 118784959.31608     -2007.526 8        50.648                                                                    22811387.025 8  96522512.11808     -1631.143 8        49.998
C12        53.000                                                                                                                                    25165861.649 6 131045246.56306     -1763.714 6        40.210    25165857.739 7 101332479.27107     -1363.905 7        45.589    25165857.039 7 106484974.58207     -1432.956 7        42.819
C60        54.000                                                                                                                                    40822360.613 6 212572921.06806      -453.204 6        40.608                                                                    40822345.385 6 172732875.65006      -368.227 6        39.610
R16        55.000    21874694.201 7 116850710.46207     -3025.471 7        47.614                                                                    21874693.726 7  90883907.68207     -2353.155 7        44.503
C37        56.000                                                                                                                                    26769058.075 6 139393510.20406     -3288.342 6        40.060                                                                    26769061.654 6 113268660.91306     -2672.105 6        39.378
C02        57.000                                                                                                                                    40778986.881 5 212346909.82205      -472.223 5        34.957    40778982.720 6 164200087.08706      -365.246 6        39.189    40778986.033 5 172549255.66605      -383.587 5        35.529
I03        58.000   128649430.941 6 429062726.75906       911.909 6        40.889
R07        59.000    19603695.855 8 104940152.52808     -1039.421 8        51.086                                                                    19603694.974 7  81620121.47407      -808.398 7        47.161
G07        60.000    20979097.165 8 110245930.07108       609.197 8        49.011                                    20979092.519 8  85905914.38408       474.697 8        49.318    20979092.692 7  85905915.37807       474.703 7        44.781
> 2025 01 01 05 01 35.0000000  0 57
G16         1.000    23572094.695 6 123872216.00906      -935.578 6        40.346                                    23572090.309 3  96523789.57603      -729.025 3        22.609
G29         2.000    25717229.609 6 135144945.28506      -560.619 6        37.372                                    25717226.329 4 105307734.68804      -436.802 4        27.904    25717227.777 5 105307736.59705      -436.695 5        33.910
G09         3.000    20552609.818 8 108004739.11108     -1889.016 8        49.094                                    20552607.313 8  84159548.20008     -1471.958 8        51.707    20552607.396 7  84159549.19607     -1471.977 7        45.816
E34         4.000    24760114.798 7 130115289.28707     -2203.095 7        47.282                                                                    24760114.772 8  97164022.29808     -1645.171 8        49.031    24760114.487 8  99698735.27808     -1688.132 8        50.002
S21         5.000    38465887.617 7 202139437.49007      -392.319 7        43.708
E05         6.000    21841549.213 8 114778162.80108      -268.421 8        48.928                                                                    21841548.577 8  85710996.43908      -200.449 8        50.917    21841548.425 8  87946927.41608      -205.703 8        51.697
E15         7.000    25622390.576 7 134646592.49907       648.005 7        43.655                                                                    25622390.822 7 100547804.31407       483.910 7        46.770    25622390.399 7 103170788.20207       496.541 7        47.303
R10         8.000    22110689.066 7 117862415.92807      3810.128 7        42.347
E31         9.000    26399978.187 6 138732835.00406       395.132 6        41.833                                                                    26399978.925 7 103599219.67607       295.066 7        44.521    26399978.636 7 106301805.91107       302.776 7        44.915
G04        10.000    22410197.286 7 117766420.74807     -3073.687 7        44.488                                    22410195.044 5  91766049.53505     -2395.074 5        31.547    22410194.806 7  91766044.53107     -2395.136 7        42.745
E09        11.000    25545342.895 7 134241724.35607     -2411.732 7        45.234                                                                    25545342.102 7 100245459.04407     -1801.025 7        47.143    25545341.776 8 102860557.38908     -1847.926 8        48.153
S27        12.000    39101609.360 6 205480279.81106      -405.479 6        36.760
G06        13.000    22341008.836 7 117402816.90307     -3002.118 7        45.701                                    22341007.810 7  91482717.57207     -2339.314 7        44.724    22341008.717 7  91482728.56807     -2339.280 7        43.113
S36        14.000    38233791.411 7 200920433.79507      -392.360 7        45.184
G20        15.000    22171241.888 7 116510672.56707      2345.496 7        45.803                                    22171237.034 5  90787519.27305      1827.663 5        32.419
E36        16.000    27400107.382 6 143988545.88206     -3695.652 6        39.541                                                                    27400108.799 7 107523925.90307     -2759.626 7        42.254    27400108.465 7 110328893.25007     -2831.694 7        43.270
S45        17.000    63419562.198 6 333272963.75706      -432.780 6        37.459
E24        19.000    27269370.794 6 143301501.64106      2332.954 6        40.677                                                                    27269370.406 7 107010873.93407      1742.229 7        45.112    27269369.183 7 109802458.43207      1787.629 7        44.346
R23        20.000    21537039.334 7 115208636.47607     -2516.261 7        47.338
G30        21.000    22536485.865 7 118430055.19207      2635.333 7        45.071                                    22536484.569 7  92283167.09707      2053.504 7        43.930    22536485.201 6  92283171.10606      2053.331 6        41.783
I06        22.000    37989071.387 7 149077504.78707      -276.048 7        43.177
S28        23.000    40894572.423 5 214902389.95705      -392.347 5        35.271
S23        25.000    38172687.900 7 200598827.53207      -388.693 7        45.171
E06        26.000    27388942.971 6 143929904.16106     -2841.201 6        39.159                                                                    27388943.686 6 107480116.14606     -2121.680 6        40.982    27388943.912 7 110283944.52807     -2177.070 7        43.300
C34        27.000                                                                                                                                    25570724.790 6 133153473.23106      -567.171 6        41.890                                                                    25570724.516 6 108198108.72806      -460.722 6        41.940
G26        28.000    25304438.207 5 132975700.22805     -2948.800 5        35.476                                    25304438.973 4 103617424.32904     -2297.764 4        24.962    25304439.147 5 103617425.29205     -2297.660 5        33.820
R09        29.000    20203028.776 8 107883052.22808      1079.882 8        50.773                                                                    20203026.859 8  83909044.40408       839.906 8        48.556
C22        30.000                                                                                                                                    21878950.093 8 113929466.12008       788.467 8        52.198                                                                    21878943.615 8  92577011.27208       640.830 8        49.921
I01        31.000   340334559.195 7  32405092.14207     -2848.978 7        42.707
E03        32.000    25819113.816 7 135680374.44707      1707.080 7        43.657                                                                    25819113.547 7 101319778.77607      1274.787 7        45.651    25819113.402 7 103962897.34407      1308.001 7        46.507
G05        33.000    25136444.059 6 132092921.06506      3297.630 6        38.766                                    25136441.731 4 102929544.13704      2569.583 4        29.545    25136441.892 5 102929547.14905      2569.675 5        35.776
R24        34.000    22844855.242 7 122161724.94507      1536.536 7        44.951                                                                    22844855.376 7  95014676.94107      1195.179 7        42.827
C36        35.000                                                                                                                                    23102912.117 8 120302935.89608      2032.327 8        48.878                                                                    23102916.773 8  97756012.84008      1651.583 8        48.791
G11        36.000    22142759.918 7 116361018.75107      -625.900 7        45.863                                    22142755.590 5  90670924.10205      -487.715 5        35.195    22142755.549 7  90670924.10207      -487.713 7        44.915
C35        37.000                                                                                                                                    27049495.239 6 140853815.41506     -3342.299 6        37.875                                                                    27049494.720 6 114455257.79806     -2715.663 6        37.618
I09        38.000    38133414.895 7 149643698.37507      -729.592 7        42.701
R08        39.000    20712862.346 8 110916450.37208      1907.020 8        50.422                                                                    20712859.476 7  86268352.19707      1483.235 7        46.109
R22        40.000    23193649.101 7 123809288.48107     -4549.660 7        44.766                                                                    23193648.277 6  96296124.06406     -3538.602 6        41.380
S44        42.000    40822790.678 6 214525398.87806      -457.436 6        37.293
C09        43.000                                                                                                                                    39115827.125 6 203686401.88606     -1118.567 6        40.884    39115823.914 7 157503237.89407      -865.005 7        45.222    39115821.793 6 165511867.52406      -908.767 6        41.220
C05        44.000                                                                                                                                    39229526.588 6 204278472.80806      -442.606 6        38.847    39229522.472 7 157961096.07907      -342.325 7        43.824    39229524.242 6 165993094.53606      -359.539 6        40.374
R06        45.000    22290272.142 6 118945201.67406     -3390.224 6        37.316
C44        46.000                                                                                                                                    25429766.116 7 132419489.86407     -2757.692 7        43.554                                                                    25429764.753 6 107601684.51606     -2240.789 6        40.880
C39        47.000                                                                                                                                    41179020.689 6 214429968.14106     -1568.259 6        38.865                                                                    41179016.919 6 174241901.17906     -1274.137 6        38.462
C20        48.000                                                                                                                                    26665130.242 6 138852333.13406     -3247.615 6        40.789                                                                    26665127.073 6 112828876.57706     -2638.776 6        39.535
C06        49.000                                                                                                                                    39685634.066 6 206653529.26706     -1440.390 6        38.649    39685627.775 6 159797600.60606     -1113.862 6        41.435    39685627.515 6 167922899.17006     -1170.142 6        38.544
C16        50.000                                                                                                                                    40265989.970 6 209675590.13406     -1429.153 6        40.234    40265989.545 6 162134475.11206     -1105.010 6        38.928    40265987.171 6 170378590.35306     -1161.276 6        36.318
S48        51.000    77200681.465 6 405691757.79706      -378.776 6        38.447
C19        52.000                                                                                                                                    22813320.233 8 118795000.22308     -2008.789 8        51.089                                                                    22813315.312 8  96530671.17308     -1632.185 8        50.124
C12        53.000                                                                                                                                    25167556.520 6 131054071.11806     -1765.984 6        40.582    25167552.297 7 101339302.97507     -1365.583 7        45.762    25167551.634 7 106492145.26907     -1435.010 7        43.020
C60        54.000                                                                                                                                    40822795.693 6 212575187.18706      -453.017 6        40.765                                                                    40822780.581 6 172734717.04606      -368.022 6        39.781
R16        55.000    21877528.146 7 116865846.33507     -3028.774 7        47.180                                                                    21877526.877 7  90895680.05007     -2355.778 7        44.153
C37        56.000                                                                                                                                    26772215.726 6 139409954.35706     -3289.256 6        39.793                                                                    26772219.529 6 113282023.10806     -2672.765 6        39.619
C02        57.000                                                                                                                                    40779440.545 5 212349270.43405      -472.385 5        34.757    40779436.044 6 164201912.43706      -365.033 6        39.150    40779439.688 5 172551173.85405      -383.461 5        35.581
I03        58.000   128648268.891 6 429058167.08206       912.035 6        40.996
R07        59.000    19604668.186 8 104945354.48608     -1041.281 8        51.114                                                                    19604666.514 7  81624167.44407      -809.934 7        47.292
G07        60.000    20978518.602 8 110242890.05308       606.851 8        49.016                                    20978514.007 8  85903545.54008       472.872 8        49.218    20978514.590 7  85903546.54607       472.873 7        45.290
> 2025 01 01 05 01 40.0000000  0 57
G16         1.000    23572986.864 6 123876903.14906      -939.366 6        40.844                                    23572982.013 3  96527441.89203      -731.979 3        22.552
G29         2.000    25717765.453 6 135147756.93606      -564.100 6        37.803                                    25717761.587 4 105309925.44804      -439.552 4        27.784    25717762.877 5 105309927.41705      -439.501 5        34.729
G09         3.000    20554408.177 8 108014188.91608     -1891.026 8        49.230                                    20554405.549 8  84166911.68308     -1473.524 8        51.665    20554405.819 7  84166912.67607     -1473.496 7        45.934
E34         4.000    24762212.028 7 130126310.55007     -2205.512 7        46.955                                                                    24762212.013 8  97172252.45908     -1646.979 8        49.075    24762211.781 8  99707180.13408     -1689.910 8        50.103
S21         5.000    38466263.980 7 202141399.50707      -392.562 7        43.659
E05         6.000    21841805.303 8 114779508.65208      -269.911 8        48.737                                                                    21841804.650 8  85712001.45908      -201.594 8        50.994    21841804.512 8  87947958.65308      -206.874 8        51.710
E15         7.000    25621775.022 7 134643358.96807       645.428 7        43.699                                                                    25621775.499 7 100545389.66507       481.933 7        46.907    25621775.116 7 103168310.56207       494.410 7        47.371
R10         8.000    22107115.947 7 117843369.95807      3808.275 7        42.402
E31         9.000    26399603.506 6 138730865.49006       392.631 6        41.180                                                                    26399604.272 7 103597748.94607       293.088 7        44.429    26399603.866 7 106300296.81107       300.826 7        45.008
G04        10.000    22413122.375 7 117781791.93107     -3074.873 7        44.546                                    22413120.004 5  91778027.07105     -2396.003 5        31.532    22413119.903 7  91778022.06607     -2395.951 7        42.669
E09        11.000    25547637.914 7 134253784.88607     -2412.570 7        45.141                                                                    25547637.192 7 100254465.27707     -1801.600 7        47.186    25547636.910 8 102869798.57208     -1848.612 8        48.256
S27        12.000    39101991.045 6 205482307.40206      -405.766 6        36.503
G06        13.000    22343866.421 7 117417833.69407     -3004.715 7        45.294                                    22343865.405 7  91494418.96407     -2341.336 7        44.676    22343866.159 7  91494429.95707     -2341.264 7        43.183
S36        14.000    38234163.615 7 200922396.22007      -392.593 7        45.102
G20        15.000    22169010.945 7 116498949.72507      2343.609 7        45.983                                    22169006.262 5  90778384.58405      1826.191 5        32.461
E36        16.000    27403623.656 6 144007024.76206     -3696.091 6        39.027                                                                    27403625.280 7 107537725.05907     -2760.061 7        42.400    27403624.858 7 110343052.37807     -2832.121 7        43.416
S45        17.000    63419933.379 6 333275127.96606      -432.844 6        37.202
E24        19.000    27267151.629 6 143289839.15806      2331.836 6        40.989                                                                    27267151.018 7 107002164.94207      1741.295 7        45.109    27267149.986 7 109793522.24007      1786.821 7        44.451
R23        20.000    21539392.820 7 115221228.34207     -2520.517 7        46.842
G30        21.000    22533979.553 7 118416883.28007      2633.402 7        45.207                                    22533978.037 7  92272903.26807      2052.001 7        43.901    22533978.504 6  92272907.27806      2051.911 6        41.976
I06        22.000    37989423.376 7 149078886.02107      -276.411 7        43.297
S28        23.000    40894940.540 5 214904351.40105      -392.564 5        35.167
S23        25.000    38173058.066 7 200600771.36707      -388.972 7        45.083
E06        26.000    27391646.490 6 143944111.45206     -2841.660 6        38.919                                                                    27391647.121 6 107490725.46306     -2122.108 6        41.042    27391647.379 7 110294830.60607     -2177.434 7        43.228
C34        27.000                                                                                                                                    25571271.158 7 133156316.74507      -570.242 7        42.235                                                                    25571270.646 6 108200419.34606      -463.499 6        41.912
G26        28.000    25307245.500 5 132990450.41905     -2951.090 5        35.467                                    25307245.752 4 103628917.97204     -2299.547 4        24.797    25307244.601 5 103628918.96705     -2299.740 5        33.653
R09        29.000    20202019.503 8 107877664.15708      1075.292 8        50.359                                                                    20202017.974 8  83904853.69108       836.304 8        48.708
C22        30.000                                                                                                                                    21878193.882 8 113925527.81108       786.756 8        52.265                                                                    21878187.249 8  92573811.08508       639.206 8        49.998
I01        31.000   340338189.579 7  32419338.01707     -2849.324 7        42.838
E03        32.000    25817489.933 7 135671841.21307      1706.127 7        43.433                                                                    25817489.714 7 101313406.56107      1274.011 7        45.660    25817489.429 7 103956358.89707      1307.256 7        46.471
G05        33.000    25133308.090 6 132076433.93406      3297.246 6        39.766                                    25133304.231 4 102916697.03704      2569.287 4        29.791    25133304.368 5 102916700.01705      2569.465 5        34.781
R24        34.000    22843420.632 7 122154053.00307      1532.333 7        45.019                                                                    22843420.382 7  95008709.87907      1191.695 7        42.665
C36        35.000                                                                                                                                    23100962.055 8 120292779.58908      2030.113 8        49.134                                                                    23100966.398 8  97747760.02708      1649.506 8        48.825
G11        36.000    22143357.308 7 116364157.37507      -629.600 7        46.118                                    22143352.860 5  90673369.78005      -490.595 5        35.190    22143353.025 7  90673369.78107      -490.626 7        44.904
C35        37.000                                                                                                                                    27052704.465 6 140870525.89106     -3342.130 6        38.144                                                                    27052703.888 6 114468836.42406     -2715.861 6        38.177
I09        38.000    38134344.580 7 149647346.94507      -729.877 7        42.775
R08        39.000    20711082.131 8 110906919.15708      1905.401 8        50.290                                                                    20711079.855 7  86260939.03307      1482.003 7        45.868
R22        40.000    23197910.986 7 123832039.08207     -4550.667 7        44.820                                                                    23197909.378 6  96313818.98106     -3539.396 6        41.495
S44        42.000    40823227.564 6 214527685.67906      -457.603 6        37.236
C09        43.000                                                                                                                                    39116901.397 6 203691995.74406     -1119.056 6        40.963    39116898.129 7 157507563.42007      -865.314 7        45.330    39116896.030 6 165516413.01406      -909.494 6        41.144
C05        44.000                                                                                                                                    39229951.732 6 204280686.91406      -443.290 6        39.075    39229947.808 7 157962808.14307      -342.574 7        43.858    39229949.431 6 165994893.67606      -360.045 6        40.253
R06        45.000    22293450.271 6 118962155.34606     -3391.379 6        36.461
C44        46.000                                                                                                                                    25432415.086 7 132433282.27307     -2759.207 7        43.594                                                                    25432413.511 6 107612891.97906     -2242.174 6        40.982
C39        47.000                                                                                                                                    41180526.367 6 214437809.66906     -1568.640 6        39.036                                                                    41180522.746 6 174248273.07406     -1274.535 6        38.366
C20        48.000                                                                                                                                    26668249.539 6 138868572.34406     -3248.089 6        41.395                                                                    26668245.880 6 112842072.26406     -2639.520 6        39.736
C06        49.000                                                                                                                                    39687016.782 6 206660731.88006     -1440.796 6        38.733    39687011.086 6 159803170.12006     -1114.140 6        41.661    39687010.786 6 167928751.91506     -1170.748 6        38.610
C16        50.000                                                                                                                                    40267362.146 6 209682736.41506     -1429.577 6        40.253    40267362.556 6 162140001.05906     -1105.343 6        39.192    40267359.619 6 170384397.28206     -1161.676 6        36.427
S48        51.000    77201045.728 6 405693652.21006      -379.168 6        38.526
C19        52.000                                                                                                                                    22815249.869 8 118805048.06508     -2010.379 8        50.917                                                                    22815244.918 8  96538835.87408     -1633.721 8        50.135
C12        53.000                                                                                                                                    25169253.520 6 131062907.57306     -1768.627 6        40.246    25169249.501 7 101346135.87907     -1367.624 7        45.834    25169248.508 7 106499325.61807     -1437.233 7        42.978
C60        54.000                                                                                                                                    40823230.796 6 212577453.23406      -453.256 6        40.758                                                                    40823215.822 6 172736558.38906      -368.560 6        39.796
R16        55.000    21880363.388 7 116881000.04407     -3032.765 7        46.218                                                                    21880364.151 7  90907466.25607     -2358.737 7        44.337
C37        56.000                                                                                                                                    26775374.926 6 139426404.51606     -3290.957 6        39.817                                                                    26775378.582 6 113295390.18606     -2674.152 6        39.480
C02        57.000                                                                                                                                    40779894.276 5 212351631.00005      -472.324 5        35.376    40779889.533 6 164203737.76206      -365.121 6        39.228    40779892.547 5 172553091.99905      -383.820 5        35.681
I03        58.000   128647106.581 6 429053607.42606       911.765 6        41.106
R07        59.000    19605641.913 8 104950566.73708     -1043.673 8        51.081                                                                    19605640.062 7  81628221.42307      -811.797 7        47.309
G07        60.000    20977942.762 8 110239862.61308       604.068 8        49.235                                    20977937.888 8  85901186.49608       470.702 8        49.265    20977938.063 7  85901187.50207       470.677 7        45.002
> 2025 01 01 05 01 45.0000000  0 57
G16         1.000    23573882.152 6 123881608.64306      -942.762 6        40.913                                    23573877.402 3  96531108.51003      -734.635 3        22.686
G29         2.000    25718302.957 6 135150584.42006      -566.890 6        37.388                                    25718299.876 4 105312128.70804      -441.742 4        28.019    25718301.004 5 105312130.72205      -441.848 5        34.805
G09         3.000    20556207.802 8 108023647.99508     -1892.768 8        49.129                                    20556205.556 8  84174282.39108     -1474.884 8        51.814    20556206.099 7  84174283.39207     -1474.936 7        45.919
E34         4.000    24764311.535 7 130137343.06707     -2207.552 7        46.797                                                                    24764311.415 8  97180491.02308     -1648.488 8        49.087    24764311.236 8  99715633.62108     -1691.491 8        49.944
S21         5.000    38466634.002 7 202143362.19807      -392.530 7        43.577
E05         6.000    21842062.600 8 114780860.91008      -271.010 8        48.731                                                                    21842061.987 8  85713011.26208      -202.412 8        51.000    21842061.831 8  87948994.79808      -207.650 8        51.629
E15         7.000    25621162.062 7 134640138.04907       642.952 7        43.573                                                                    25621162.630 7 100542984.43307       480.210 7        46.907    25621162.112 7 103165842.58107       492.673 7        47.256
R10         8.000    22103544.206 6 117824332.85606      3806.578 6        41.516
E31         9.000    26399231.188 6 138728908.28906       390.317 6        41.485                                                                    26399231.867 7 103596287.40307       291.454 7        44.534    26399231.325 7 106298797.13407       299.098 7        44.960
G04        10.000    22416048.576 7 117797168.16707     -3075.677 7        44.485                                    22416045.970 5  91790008.54205     -2396.627 5        31.645    22416046.079 7  91790003.54007     -2396.646 7        42.495
E09        11.000    25549933.327 7 134265848.63407     -2412.997 7        45.082                                                                    25549932.799 7 100263473.91507     -1801.877 7        47.117    25549932.647 8 102879042.22108     -1848.906 8        48.199
S27        12.000    39102376.669 6 205484335.88806      -405.428 6        36.688
G06        13.000    22346726.189 7 117432862.38607     -3006.776 7        45.156                                    22346725.285 7  91506129.62807     -2342.940 7        44.731    22346726.117 7  91506140.63607     -2343.023 7        43.054
S36        14.000    38234540.237 7 200924359.32707      -392.538 7        45.148
G20        15.000    22166781.825 7 116487235.94107      2341.898 7        45.920                                    22166777.216 5  90769256.96305      1824.854 5        32.593
E36        16.000    27407140.296 6 144025505.40206     -3696.301 6        38.706                                                                    27407142.073 7 107551525.52407     -2760.097 7        42.637    27407141.621 7 110357212.85807     -2832.100 7        43.113
S45        17.000    63420302.069 6 333277292.86606      -432.971 6        37.384
E24        19.000    27264932.958 6 143278181.34706      2331.235 6        40.911                                                                    27264932.590 7 106993459.43707      1740.788 7        45.100    27264931.644 7 109784589.64107      1786.238 7        44.327
R23        20.000    21541750.264 7 115233840.47907     -2524.291 7        46.209
G30        21.000    22531474.941 7 118403719.72207      2631.976 7        45.821                                    22531473.110 7  92262645.95607      2050.884 7        44.059    22531473.731 7  92262649.96607      2050.914 7        42.055
I06        22.000    37989775.416 7 149080267.93907      -276.423 7        43.378
S28        23.000    40895314.301 5 214906313.69705      -392.412 5        35.443
S23        25.000    38173428.508 7 200602716.10007      -388.972 7        45.180
E06        26.000    27394350.019 6 143958319.97706     -2841.819 6        39.078                                                                    27394351.144 6 107501335.69106     -2122.062 6        41.378    27394351.107 7 110305717.62807     -2177.408 7        42.993
C34        27.000                                                                                                                                    25571820.277 7 133159174.35807      -572.796 7        42.341                                                                    25571819.448 7 108202741.40507      -465.530 7        42.006
G26        28.000    25310054.383 5 133005212.37705     -2953.714 5        35.005                                    25310054.749 4 103640420.79704     -2301.601 4        24.962    25310054.579 5 103640421.80105     -2301.586 5        33.431
R09        29.000    20201014.224 8 107872298.18008      1071.113 8        50.389                                                                    20201013.364 8  83900680.15708       833.067 8        48.647
C22        30.000                                                                                                                                    21877439.110 8 113921597.22708       785.408 8        52.232                                                                    21877432.471 8  92570617.17808       638.111 8        50.047
I01        31.000   340341820.083 7  32433585.08907     -2849.411 7        42.863
E03        32.000    25815867.002 7 135663311.89407      1705.526 7        43.299                                                                    25815866.727 7 101307037.25907      1273.663 7        45.691    25815866.437 7 103949823.44007      1306.855 7        46.448
G05        33.000    25130170.972 6 132059948.46506      3297.130 6        39.009                                    25130166.950 4 102903851.22504      2569.193 4        29.754    25130167.704 5 102903854.25605      2568.888 5        34.152
R24        34.000    22841990.529 7 122146401.29407      1528.436 7        45.628                                                                    22841990.038 7  95002758.54007      1188.790 7        43.073
C36        35.000                                                                                                                                    23099013.627 8 120282633.62308      2028.259 8        49.228                                                                    23099018.025 8  97739515.61408      1648.004 8        48.978
G11        36.000    22143957.655 7 116367313.68307      -632.930 7        46.273                                    22143953.457 5  90675829.23905      -493.191 5        35.338    22143953.414 7  90675829.24007      -493.221 7        44.489
C35        37.000                                                                                                                                    27055912.702 6 140887234.07006     -3341.280 6        38.018                                                                    27055912.291 6 114482413.17606     -2715.212 6        37.917
I09        38.000    38135274.565 7 149650996.59207      -729.892 7        42.878
R08        39.000    20709303.288 8 110897395.00008      1904.231 8        49.971                                                                    20709300.689 7  86253531.36007      1481.067 7        45.506
R22        40.000    23202173.306 7 123854794.54907     -4551.544 7        44.435                                                                    23202172.272 6  96331517.65206     -3540.046 6        41.111
S44        42.000    40823664.473 6 214529973.11106      -457.358 6        37.395
C09        43.000                                                                                                                                    39117975.883 6 203697591.36306     -1119.264 6        40.927    39117972.468 7 157511890.30707      -865.320 7        45.287    39117970.656 6 165520959.90706      -909.463 6        41.170
C05        44.000                                                                                                                                    39230376.845 6 204282901.71506      -443.057 6        38.904    39230373.301 7 157964520.77607      -342.508 7        43.827    39230374.861 6 165996693.38706      -359.943 6        40.319
R06        45.000    22296628.347 6 118979115.14906     -3392.543 6        36.488
C44        46.000                                                                                                                                    25435065.448 7 132447081.90007     -2760.525 7        43.048                                                                    25435063.579 6 107624105.30706     -2243.255 6        41.035
C39        47.000                                                                                                                                    41182032.358 6 214445651.38506     -1568.289 6        39.006                                                                    41182028.788 6 174254645.13306     -1274.460 6        38.417
C20        48.000                                                                                                                                    26671368.861 6 138884814.09806     -3248.474 6        41.645                                                                    26671365.119 6 112855270.00106     -2639.719 6        39.856
C06        49.000                                                                                                                                    39688400.113 6 206667935.53406     -1440.837 6        38.583    39688394.646 6 159808740.43206     -1114.005 6        41.683    39688394.182 6 167934605.47906     -1170.981 6        38.613
C16        50.000                                                                                                                                    40268734.407 6 209689883.47006     -1429.312 6        39.901    40268734.820 6 162145527.61806     -1105.191 6        39.417    40268732.132 6 170390204.86706     -1161.433 6        36.454
S48        51.000    77201408.622 6 405695547.43106      -378.863 6        38.688
C19        52.000                                                                                                                                    22817180.788 8 118815103.56708     -2011.774 8        50.772                                                                    22817175.960 8  96547006.79208     -1634.747 8        50.173
C12        53.000                                                                                                                                    25170951.904 6 131071756.62506     -1770.911 6        40.274    25170949.146 7 101352978.53107     -1369.426 7        45.670    25170947.905 7 106506516.21107     -1439.186 7        43.027
C60        54.000                                                                                                                                    40823666.108 6 212579719.86706      -453.326 6        40.841                                                                    40823651.139 6 172738400.21206      -368.511 6        40.026
R16        55.000    21883204.046 7 116896172.13707     -3036.137 7        46.709                                                                    21883204.194 7  90919266.78307     -2361.524 7        44.424
C37        56.000                                                                                                                                    26778535.007 6 139442861.33206     -3291.916 6        39.399                                                                    26778539.019 6 113308762.69806     -2674.911 6        39.504
C02        57.000                                                                                                                                    40780347.229 5 212353992.21005      -472.101 5        35.205    40780343.001 6 164205563.60606      -365.163 6        39.189    40780346.287 5 172555010.67605      -383.883 5        35.867
I03        58.000   128645945.006 6 429049048.32506       911.695 6        41.199
R07        59.000    19606617.359 8 104955790.30008     -1045.752 8        50.891                                                                    19606616.313 7  81632284.18807      -813.409 7        47.622
G07        60.000    20977369.342 8 110236848.42608       601.572 8        49.146                                    20977364.304 8  85898837.78108       468.757 8        49.409    20977364.364 7  85898838.78507       468.783 7        44.995
