     3.04           OBSERVATION DATA    M                   RINEX VERSION / TYPE
ssrcrin-15.6.1x                         20250101 090000 UTC PGM / RUN BY / DATE 
(00000000023479385599111004) Septentrio proprietary         COMMENT             
rref                                                        MARKER NAME         
01                                                          MARKER NUMBER       
geodetic                                                    MARKER TYPE         
NFB                 CLIMERS@TUW                             OBSERVER / AGENCY   
3297213             SEPT ASTERX SB3 PROB4.14.4              REC # / TYPE / VERS 
Unknown             Unknown                                 ANT # / TYPE        
  4127832.5728  1207193.4686  4695248.0199                  APPROX POSITION XYZ 
        0.0000        0.0000        0.0000                  ANTENNA: DELTA H/E/N
G   23 X1  C1C L1C D1C S1C C1W S1W C2W L2W D2W S2W C2L L2L  SYS / # / OBS TYPES 
       D2L S2L C5Q L5Q D5Q S5Q C1L L1L D1L S1L              SYS / # / OBS TYPES 
E   21 X1  C1C L1C D1C S1C C6C L6C D6C S6C C5Q L5Q D5Q S5Q  SYS / # / OBS TYPES 
       C7Q L7Q D7Q S7Q C8Q L8Q D8Q S8Q                      SYS / # / OBS TYPES 
S    9 X1  C1C L1C D1C S1C C5I L5I D5I S5I                  SYS / # / OBS TYPES 
R   17 X1  C1C L1C D1C S1C C2P L2P D2P S2P C2C L2C D2C S2C  SYS / # / OBS TYPES 
       C3Q L3Q D3Q S3Q                                      SYS / # / OBS TYPES 
C   25 X1  C1P L1P D1P S1P C5P L5P D5P S5P C2I L2I D2I S2I  SYS / # / OBS TYPES 
       C7I L7I D7I S7I C6I L6I D6I S6I C7D L7D D7D S7D      SYS / # / OBS TYPES 
J   17 X1  C1C L1C D1C S1C C2L L2L D2L S2L C5Q L5Q D5Q S5Q  SYS / # / OBS TYPES 
       C1L L1L D1L S1L                                      SYS / # / OBS TYPES 
I    5 X1  C5A L5A D5A S5A                                  SYS / # / OBS TYPES 
SEPTENTRIO RECEIVERS OUTPUT ALIGNED CARRIER PHASES.         COMMENT             
NO FURTHER PHASE SHIFT APPLIED IN THE RINEX ENCODER.        COMMENT             
G L1C                                                       SYS / PHASE SHIFT   
G L2W                                                       SYS / PHASE SHIFT   
G L2L  0.00000                                              SYS / PHASE SHIFT   
G L5Q  0.00000                                              SYS / PHASE SHIFT   
G L1L  0.00000                                              SYS / PHASE SHIFT   
E L1C  0.00000                                              SYS / PHASE SHIFT   
E L6C  0.00000                                              SYS / PHASE SHIFT   
E L5Q  0.00000                                              SYS / PHASE SHIFT   
E L7Q  0.00000                                              SYS / PHASE SHIFT   
E L8Q  0.00000                                              SYS / PHASE SHIFT   
S L1C                                                       SYS / PHASE SHIFT   
S L5I                                                       SYS / PHASE SHIFT   
R L1C                                                       SYS / PHASE SHIFT   
R L2P  0.00000                                              SYS / PHASE SHIFT   
R L2C                                                       SYS / PHASE SHIFT   
R L3Q  0.00000                                              SYS / PHASE SHIFT   
C L1P  0.00000                                              SYS / PHASE SHIFT   
C L5P  0.00000                                              SYS / PHASE SHIFT   
C L2I                                                       SYS / PHASE SHIFT   
C L7I                                                       SYS / PHASE SHIFT   
C L6I                                                       SYS / PHASE SHIFT   
C L7D                                                       SYS / PHASE SHIFT   
J L1C                                                       SYS / PHASE SHIFT   
J L2L  0.00000                                              SYS / PHASE SHIFT   
J L5Q  0.00000                                              SYS / PHASE SHIFT   
J L1L  0.00000                                              SYS / PHASE SHIFT   
I L5A                                                       SYS / PHASE SHIFT   
  2025     1     1     9     0    0.0000000     GPS         TIME OF FIRST OBS   
 C1C    0.000 C2C    0.000 C2P    0.000                     GLONASS COD/PHS/BIS 
DBHZ                                                        SIGNAL STRENGTH UNIT
    18                                                      LEAP SECONDS        
 24 R01  1 R02 -4 R03  5 R04  6 R05  1 R06 -4 R07  5 R08  6 GLONASS SLOT / FRQ #
    R09 -2 R10 -7 R11  0 R12 -1 R13 -2 R14 -7 R15  0 R16 -1 GLONASS SLOT / FRQ #
    R17  4 R18 -3 R19  3 R20  2 R21  4 R22 -3 R23  3 R24  2 GLONASS SLOT / FRQ #
                                                            END OF HEADER       
> 2025 01 01 09 00  0.0000000  0 54
G08         1.000    25343369.503 4 133180370.59604     -3096.790 4        28.190                                    25343375.985 1 103776969.69901     -2413.135 1        11.037    25343377.348 4 103776979.77704     -2413.472 4        26.503
R01         2.000    19351215.332 8 103443263.13808     -2171.628 8        49.637                                                                    19351218.751 6  80455923.34706     -1688.959 6        41.869
G24         3.000    23720899.727 6 124654150.25006      2933.063 6        39.628                                    23720905.575 5  97133128.07705      2285.503 5        34.019    23720905.969 6  97133125.08406      2285.534 6        37.251
R02         4.000    20119109.729 8 107359370.25708      2052.571 8        51.922                                                                    20119113.034 7  83501733.64407      1596.414 7        46.613
S21         5.000    38362872.076 7 201598000.79107      -439.729 7        42.341
E05         6.000    25450795.338 6 133744670.04706     -3149.930 6        39.832                                                                    25450809.931 7  99874235.60907     -2352.398 7        42.933    25450808.585 7 102479649.56007     -2413.664 7        44.327
G17         7.000    23449684.646 7 123229002.47707      2253.398 7        42.618                                    23449692.839 6  96022667.19506      1755.893 6        37.716    23449693.059 6  96022663.20406      1755.891 6        39.733
R10         8.000    23563794.134 6 125608107.85506     -4449.562 6        37.803
R19         9.000    23813543.422 5 127386349.96005     -1527.728 5        33.096                                                                    23813549.166 6  99078333.97806     -1188.073 6        39.003
C26        11.000                                                                                                                                    22552981.807 8 117439311.45808      1419.990 8        48.804                                                                    22552984.371 8  95429078.20608      1153.804 8        48.571
S27        12.000    39067031.779 5 205298460.51705      -472.755 5        35.576
G15        13.000    20636917.865 8 108447677.42008      1442.131 8        48.005                                    20636917.803 7  84504652.95207      1123.740 7        47.611    20636918.274 7  84504644.94407      1123.722 7        44.310
S36        14.000    38132789.888 7 200389611.25207      -440.818 7        43.807
G20        15.000    24780821.859 6 130223869.65906     -4040.731 6        36.522                                    24780832.367 2 101473066.86202     -3148.621 2        16.679
R11        16.000    19587865.249 8 104671587.06608     -2376.590 8        51.225                                                                    19587868.221 8  81411225.66608     -1848.470 8        49.088
S45        17.000    63314857.475 6 332723281.37406      -489.368 6        36.008
E13        18.000    28746947.838 4 151066141.89504     -2985.611 4        27.533                                                                    28746958.062 4 112809089.77204     -2229.825 4        29.915    28746956.622 5 115751940.13705     -2288.331 5        31.185
E24        19.000    27035374.051 6 142071704.82206     -3063.796 6        40.486                                                                    27035383.759 7 106092478.58307     -2287.714 7        42.955    27035381.986 7 108860109.65807     -2347.504 7        43.418
E33        20.000    28772131.291 4 151198565.01404       676.673 4        29.280                                                                    28772136.427 6 112908037.66706       505.222 6        36.299    28772135.306 6 115853460.54506       518.207 6        36.476
G30        21.000    22306505.612 7 117221391.84307     -2915.059 7        44.665                                    22306510.623 7  91341324.83307     -2271.468 7        43.501    22306511.005 6  91341328.82806     -2271.429 6        41.626
I06        22.000    38016268.587 7 149184087.24907      -411.664 7        42.811
S28        23.000    40805742.420 5 214435405.27005      -449.697 5        34.852
G14        24.000    20525875.236 7 107864192.13907     -1207.061 7        47.301                                    20525876.138 6  84050018.60806      -940.561 6        39.874    20525876.300 8  84050020.60008      -940.592 8        48.236
S23        25.000    38065296.666 7 200034390.18407      -440.845 7        44.235
E08        26.000    24223618.836 7 127295919.16307      1184.764 7        46.864                                                                    24223622.151 8  95058622.32308       884.691 8        49.462    24223621.323 8  97538412.08208       907.838 8        50.216
C07        27.000                                                                                                                                    38775280.203 6 201913037.82706      -154.097 6        40.577    38775281.143 7 156131976.16607      -119.208 7        43.761    38775278.198 6 164070877.40106      -125.326 6        41.466
G13        28.000    19758174.974 8 103829866.13308      -577.287 8        48.351                                    19758174.080 6  80906356.75006      -449.834 6        40.899
I02        29.000    37311206.280 7 146417190.51107       110.564 7        42.455
C22        30.000                                                                                                                                    25660013.077 6 133618203.69106     -3975.274 6        41.659                                                                    25660018.719 7 108575671.52507     -3230.216 7        42.722
E07        31.000    28452227.495 5 149517442.75105      2362.273 5        34.319                                                                    28452233.130 6 111652647.61806      1764.172 6        38.198    28452231.851 6 114565321.73406      1810.175 6        38.820
E03        32.000    23466415.404 8 123316794.86508     -1446.229 8        48.616                                                                    23466420.175 8  92087216.02308     -1079.959 8        50.732    23466419.364 8  94489487.40408     -1108.155 8        50.986
G05        33.000    22759676.222 7 119602814.96707     -3582.273 7        44.864                                    22759678.938 6  93196968.37806     -2791.378 6        41.216    22759679.398 6  93196971.37806     -2791.381 6        41.230
E26        34.000    28270864.371 6 148564350.93606     -1381.213 6        37.244                                                                    28270868.393 6 110940899.97806     -1031.537 6        39.979    28270867.555 6 113835005.65706     -1058.391 6        40.298
C36        35.000                                                                                                                                    25254580.273 6 131507045.16306     -3386.004 6        41.459                                                                    25254594.819 7 106860228.87807     -2751.410 7        43.082
G23        36.000    23929150.623 6 125748475.16106      1977.200 6        39.541                                    23929152.356 4  97985793.70204      1540.672 4        24.932    23929152.612 6  97985794.71106      1540.693 6        40.739
I09        38.000    40146927.644 6 157544857.62506      -992.921 6        39.462
R08        39.000    23185881.518 6 124159129.15006     -4800.409 6        40.615                                                                    23185894.299 6  96568154.15306     -3733.749 6        41.294
E25        40.000    23568390.960 7 123852725.47007      -813.699 7        47.897                                                                    23568396.071 8  92487426.14108      -607.660 8        50.648    23568395.224 8  94900133.88208      -623.529 8        50.963
S44        42.000    40812003.161 6 214468452.03606      -435.801 6        36.767
C09        43.000                                                                                                                                    41008640.313 5 213542500.33405     -1053.249 5        34.829    41008654.337 6 165124527.15706      -814.514 6        40.124    41008648.400 6 173520697.58406      -855.778 6        36.389
C05        44.000                                                                                                                                    39296077.081 6 204624837.81006      -494.330 6        37.255    39296084.573 7 158228880.92107      -382.286 7        43.401    39296083.066 6 166274507.14006      -401.778 6        39.598
C40        45.000                                                                                                                                    38771110.814 7 201891329.45807      -162.366 7        43.098                                                                    38771114.598 7 164053254.51007      -131.991 7        43.354
C21        46.000                                                                                                                                    22550183.667 8 117424649.86908     -2336.862 8        50.932                                                                    22550181.751 8  95417103.61008     -1898.968 8        49.764
C10        49.000                                                                                                                                    38696231.757 6 201501444.01606       218.438 6        41.392    38696235.366 7 155813716.11607       168.859 7        44.488    38696231.596 6 163736433.68806       177.434 6        41.478
C42        50.000                                                                                                                                    22790138.506 8 118674171.98508       799.708 8        48.492                                                                    22790149.766 8  96432509.67508       649.837 8        49.471
S48        51.000    77077411.808 6 405042990.87706      -428.985 6        37.985
E02        53.000    24554141.301 7 129032956.19507      1913.706 7        46.644                                                                    24554146.742 8  96355852.99308      1428.983 8        48.872    24554145.492 8  98869465.80708      1466.276 8        48.872
C60        54.000                                                                                                                                    40812002.019 6 212518756.02506      -431.832 6        40.296                                                                    40811997.325 6 172688815.26206      -350.985 6        38.432
C45        55.000                                                                                                                                    21880129.805 8 113935532.62508     -1676.017 8        49.794                                                                    21880125.470 8  92581916.55808     -1361.936 8        50.049
R12        56.000    20124974.919 8 107504093.85508      1933.397 8        51.919                                                                    20124979.054 7  83614333.26307      1503.676 7        47.101
C02        57.000                                                                                                                                    40869666.481 5 212818854.08305      -480.545 5        32.491    40869678.029 6 164564961.07606      -371.569 6        37.267    40869676.445 5 172932698.20405      -390.610 5        32.084
I03        58.000   124124619.541 6 411306064.35106       909.989 6        39.958
C14        59.000                                                                                                                                    24494112.831 6 127547214.03006      2108.585 6        41.101    24494114.471 7  98627570.20507      1630.454 7        47.591    24494111.702 7 103642531.51307      1713.305 7        44.868
G07        60.000    25247940.869 6 132678577.07506     -3308.127 6        37.047                                    25247952.821 4 103385829.52104     -2577.761 4        26.144    25247952.989 5 103385830.51805     -2577.694 5        34.195
> 2025 01 01 09 00  5.0000000  0 54
G08         1.000    25346319.442 4 133195862.27304     -3099.094 4        27.713                                    25346323.920 1 103789041.20001     -2414.935 1        10.815    25346323.691 4 103789051.15804     -2414.868 4        26.216
R01         2.000    19353248.092 8 103454130.65708     -2175.162 8        49.594                                                                    19353251.738 6  80464375.84506     -1691.706 6        41.979
G24         3.000    23718108.701 6 124639486.43806      2932.667 6        38.643                                    23718115.207 5  97121701.73905      2285.191 5        33.820    23718115.493 6  97121698.72806      2285.403 6        36.930
R02         4.000    20117187.971 8 107349114.84408      2049.784 8        52.003                                                                    20117191.533 7  83493757.19707      1594.298 7        46.326
S21         5.000    38363291.062 7 201600199.52107      -439.512 7        42.428
E05         6.000    25453792.732 6 133760421.72306     -3150.462 6        40.110                                                                    25453807.492 7  99885998.15907     -2352.627 7        43.029    25453806.060 7 102491718.97707     -2414.039 7        44.242
G17         7.000    23447541.508 7 123217738.90007      2252.320 7        42.891                                    23447549.429 6  96013890.40306      1755.053 6        37.648    23447549.921 6  96013886.40006      1755.079 6        39.715
R10         8.000    23567967.645 6 125630356.23806     -4449.471 6        37.871
R19         9.000    23814973.993 5 127393997.86705     -1531.300 5        32.790                                                                    23814977.634 6  99084282.33406     -1191.055 6        38.405
C26        11.000                                                                                                                                    22551619.017 8 117432215.22208      1418.765 8        48.884                                                                    22551621.670 8  95423311.95208      1152.790 8        48.513
S27        12.000    39067480.869 5 205300824.07305      -472.482 5        35.862
G15        13.000    20635546.847 8 108440473.41608      1439.728 8        48.079                                    20635546.933 7  84499039.44007      1121.867 7        47.481    20635547.305 7  84499031.43707      1121.856 7        44.358
S36        14.000    38133211.705 7 200391815.07407      -440.286 7        43.871
G20        15.000    24784667.292 6 130244071.76406     -4040.013 6        36.779                                    24784676.818 2 101488808.70202     -3148.060 2        17.132
R11        16.000    19590090.213 8 104683476.24108     -2378.914 8        51.223                                                                    19590093.065 8  81420472.79008     -1850.246 8        49.225
S45        17.000    63315279.641 5 332724127.44115      -488.701 5        35.990
E13        18.000    28749789.601 4 151081075.39404     -2986.356 4        24.526                                                                    28749799.567 4 112820241.41204     -2230.277 4        27.641    28749798.230 4 115763382.71304     -2288.966 4        28.493
E24        19.000    27038289.571 6 142087024.96106     -3064.241 6        40.572                                                                    27038299.255 7 106103918.90207     -2288.179 7        42.995    27038297.327 7 108871848.41207     -2347.831 7        43.247
E33        20.000    28771489.096 4 151195188.85904       674.425 4        28.976                                                                    28771493.507 5 112905516.50805       503.474 5        35.924    28771493.011 5 115850873.61005       516.949 5        35.548
G30        21.000    22309279.282 7 117235969.01007     -2915.726 7        44.473                                    22309284.643 7  91352683.63007     -2271.987 7        43.416    22309284.974 6  91352687.61506     -2271.912 6        41.757
I06        22.000    38016793.173 7 149186145.67407      -411.516 7        42.700
S28        23.000    40806174.634 5 214437652.44405      -449.419 5        34.829
G14        24.000    20527025.257 7 107870234.20307     -1209.647 7        47.301                                    20527025.890 6  84054726.69806      -942.582 6        39.766    20527025.859 8  84054728.69408      -942.552 8        48.047
S23        25.000    38065715.863 7 200036593.96107      -440.556 7        44.363
E08        26.000    24222492.081 7 127289998.09307      1183.818 7        46.855                                                                    24222495.436 8  95054200.73008       884.034 8        49.490    24222494.581 8  97533875.14908       907.129 8        50.112
C07        27.000                                                                                                                                    38775428.837 6 201913810.10306      -154.697 6        40.448    38775429.832 7 156132573.31707      -119.497 7        43.674    38775426.533 6 164071504.93006      -125.741 6        41.266
G13        28.000    19758725.756 8 103832759.00708      -579.691 8        48.424                                    19758724.590 6  80908610.93606      -451.707 6        40.789
I02        29.000    37311065.665 7 146416638.36607       110.472 7        42.262
C22        30.000                                                                                                                                    25663830.116 6 133638080.88606     -3975.427 6        41.661                                                                    25663836.108 7 108591823.31607     -3230.320 7        42.701
E07        31.000    28449980.027 5 149505629.96705      2362.810 5        35.514                                                                    28449984.995 6 111643826.29306      1764.521 6        38.339    28449984.182 6 114556270.30906      1810.481 6        38.796
E03        32.000    23467792.073 8 123324029.78808     -1447.582 8        48.608                                                                    23467796.980 8  92092618.71408     -1080.920 8        50.748    23467796.186 8  94495031.03908     -1109.134 8        50.850
G05        33.000    22763085.257 7 119620730.06507     -3583.512 7        44.513                                    22763088.045 6  93210928.17106     -2792.337 6        41.080    22763088.468 6  93210931.15606     -2792.323 6        41.361
E26        34.000    28272180.332 6 148571262.59106     -1383.351 6        37.361                                                                    28272183.599 6 110946061.23306     -1032.790 6        40.095    28272182.846 6 113840301.56606     -1059.891 6        40.148
C36        35.000                                                                                                                                    25257831.918 6 131523975.33006     -3385.904 6        41.552                                                                    25257846.274 7 106873985.99107     -2751.297 7        43.228
G23        36.000    23927271.234 6 125738595.35906      1975.005 6        40.307                                    23927272.303 4  97978095.14004      1538.957 4        24.917    23927272.078 6  97978096.12706      1538.977 6        40.548
I09        38.000    40148192.689 6 157549822.11606      -992.680 6        39.375
R08        39.000    23190364.334 6 124183133.80006     -4801.084 6        40.620                                                                    23190376.913 6  96586824.34106     -3734.101 6        41.323
E25        40.000    23569166.140 7 123856799.26207      -815.541 7        47.895                                                                    23569171.342 8  92490468.24708      -609.022 8        50.669    23569170.460 8  94903255.34808      -624.905 8        50.855
S44        42.000    40812414.796 6 214470630.18406      -435.328 6        36.847
C09        43.000                                                                                                                                    41009651.761 5 213547766.56705     -1053.178 5        35.005    41009666.012 6 165128599.32006      -814.148 6        40.212    41009659.517 6 173524976.83306      -855.717 6        36.163
C05        44.000                                                                                                                                    39296551.158 6 204627309.30206      -494.010 6        37.195    39296559.253 7 158230792.03807      -382.000 7        43.412    39296557.666 6 166276515.45506      -401.473 6        39.414
C40        45.000                                                                                                                                    38771266.728 7 201892143.30507      -162.880 7        43.092                                                                    38771270.831 7 164053915.84207      -132.461 7        43.009
C21        46.000                                                                                                                                    22552428.468 8 117436339.95908     -2338.919 8        50.758                                                                    22552426.670 8  95426602.75808     -1900.608 8        49.637
C10        49.000                                                                                                                                    38696022.430 6 201500353.52106       218.021 6        41.480    38696025.792 7 155812872.86007       168.616 7        44.426    38696022.237 6 163735547.56806       177.162 6        41.278
C42        50.000                                                                                                                                    22789372.065 8 118670179.49108       797.474 8        48.527                                                                    22789383.055 8  96429265.44908       648.029 8        49.274
S48        51.000    77077823.564 6 405045135.98606      -428.761 6        38.036
E02        53.000    24552321.083 7 129023391.66607      1912.405 7        46.620                                                                    24552326.675 8  96348710.66208      1428.094 8        48.984    24552325.412 8  98862137.15208      1465.323 8        48.726
C60        54.000                                                                                                                                    40812416.377 6 212520914.36706      -431.213 6        40.343                                                                    40812411.657 6 172690569.10706      -350.717 6        38.357
C45        55.000                                                                                                                                    21881740.050 8 113943916.70108     -1677.403 8        49.888                                                                    21881735.576 8  92588729.30608     -1363.040 8        49.943
R12        56.000    20123166.458 8 107494433.52608      1930.957 8        51.698                                                                    20123170.793 7  83606819.68807      1501.809 7        47.341
C02        57.000                                                                                                                                    40870127.040 5 212821256.17105      -480.240 5        32.216    40870139.080 6 164566818.52506      -371.340 6        37.365    40870137.340 5 172934650.09105      -390.141 5        31.487
I03        58.000   124123459.565 6 411301513.83006       910.307 6        40.076
C14        59.000                                                                                                                                    24492088.830 6 127536674.92906      2107.121 6        41.211    24492090.718 7  98619420.69207      1629.468 7        47.653    24492087.772 7 103633967.62207      1712.237 7        44.763
G07        60.000    25251087.687 6 132695117.37606     -3307.806 6        36.881                                    25251100.441 4 103398718.05504     -2577.513 4        26.467    25251100.839 5 103398719.07205     -2577.544 5        34.514
> 2025 01 01 09 00 10.0000000  0 54
G08         1.000    25349268.630 4 133211364.47804     -3101.342 4        27.353                                    25349273.849 1 103801120.81301     -2416.671 1         9.238    25349275.746 4 103801130.85804     -2416.862 4        27.449
R01         2.000    19355284.937 8 103465017.92308     -2179.466 8        49.599                                                                    19355289.531 7  80472843.72007     -1695.133 7        42.436
G24         3.000    23715319.497 6 124624825.95506      2931.727 6        39.916                                    23715325.447 5  97110278.00605      2284.462 5        34.024    23715326.213 6  97110275.02206      2284.377 6        37.883
R02         4.000    20115268.669 8 107338875.19108      2046.401 8        51.189                                                                    20115272.759 7  83485793.02107      1591.689 7        47.038
S21         5.000    38363707.214 7 201602398.31707      -439.701 7        42.385
E05         6.000    25456790.855 6 133776176.85206     -3151.239 6        39.811                                                                    25456805.758 7  99897763.30907     -2353.250 7        43.185    25456804.089 7 102503791.04307     -2414.622 7        44.197
G17         7.000    23445399.313 7 123206482.25607      2250.743 7        43.107                                    23445407.352 6  96005119.00806      1753.818 6        37.656    23445406.755 6  96005115.02806      1753.618 6        39.273
R10         8.000    23572141.792 6 125652604.71206     -4449.791 6        38.279
R19         9.000    23816407.456 5 127401666.22905     -1535.712 5        33.485                                                                    23816411.747 6  99090246.61906     -1194.372 6        38.916
C26        11.000                                                                                                                                    22550257.764 8 117425127.21308      1416.742 8        48.896                                                                    22550260.466 8  95417552.35608      1151.184 8        48.411
S27        12.000    39067929.851 5 205303188.23605      -472.696 5        35.981
G15        13.000    20634178.652 7 108433283.37207      1436.677 7        47.938                                    20634178.711 7  84493436.80207      1119.488 7        47.604    20634179.425 7  84493428.80807      1119.463 7        44.331
S36        14.000    38133630.129 7 200394019.00507      -440.758 7        43.960
G20        15.000    24788510.563 6 130264272.54206     -4039.968 6        36.968                                    24788521.058 2 101504549.51202     -3148.014 2        17.434
R11        16.000    19592317.633 8 104695378.79008     -2381.833 8        51.254                                                                    19592320.239 8  81429730.32608     -1852.528 8        49.118
S45        17.000    63315699.772 5 332726573.43905      -489.229 5        35.948
E13        18.000    28752633.350 3                     -2987.849 3        22.857                                                                    28752642.417 4 112831395.74904     -2229.669 4        25.970    28752640.948 4 115774828.04304     -2289.321 4        26.635
E24        19.000    27041205.860 6 142102349.66706     -3065.572 6        40.255                                                                    27041215.439 7 106115362.61407     -2289.168 7        43.033    27041213.414 7 108883590.66907     -2348.821 7        43.281
E33        20.000    28770848.681 4 151191823.86304       672.310 4        28.512                                                                    28770853.217 5 112903003.68605       501.853 5        35.848    28770852.218 5 115848295.25505       514.795 5        35.886
G30        21.000    22312054.304 7 117250551.25207     -2916.953 7        44.290                                    22312059.580 7  91364046.38307     -2272.947 7        43.397    22312059.728 6  91364050.37006     -2272.982 6        41.805
I06        22.000    38017317.627 7 149188204.28407      -411.800 7        42.840
S28        23.000    40806600.551 5 214439899.72205      -449.933 5        35.086
G14        24.000    20528177.963 7 107876290.88307     -1212.837 7        47.450                                    20528178.464 6  84059446.17606      -945.064 6        39.898    20528178.712 8  84059448.17208      -945.033 8        48.208
S23        25.000    38066134.434 7 200038797.74107      -440.790 7        44.194
E08        26.000    24221366.510 7 127284083.14407      1182.321 7        46.677                                                                    24221369.811 8  95049783.71608       882.932 8        49.619    24221369.053 8  97529342.91008       906.014 8        50.204
C07        27.000                                                                                                                                    38775578.001 6 201914586.34006      -155.646 6        40.563    38775578.771 7 156133173.54007      -120.417 7        43.676    38775575.706 6 164072135.67906      -126.620 6        41.304
G13        28.000    19759278.703 8 103835665.62408      -582.757 8        48.606                                    19759277.685 6  80910875.82706      -454.097 6        40.839
I02        29.000    37310924.998 7 146416087.56707       109.947 7        42.459
C22        30.000                                                                                                                                    25667647.716 6 133657960.03106     -3976.085 6        41.733                                                                    25667653.668 7 108607976.68407     -3230.886 7        42.753
E07        31.000    28447732.599 5 149493816.73705      2362.654 5        35.781                                                                    28447736.919 6 111635004.70406      1764.297 6        38.477    28447736.253 6 114547218.58506      1810.298 6        38.949
E03        32.000    23469170.551 8 123331273.12508     -1449.557 8        48.377                                                                    23469175.333 8  92098027.69408     -1082.435 8        50.817    23469174.550 8  94500581.12008     -1110.651 8        50.986
G05        33.000    22766496.054 7 119638653.63007     -3585.499 7        44.975                                    22766498.788 6  93224894.54506     -2793.891 6        41.108    22766499.725 6  93224897.53906     -2793.942 6        41.218
E26        34.000    28273497.922 6 148578185.52106     -1385.584 6        36.779                                                                    28273501.099 6 110951230.96306     -1034.726 6        39.955    28273500.263 6 113845606.15406     -1061.797 6        40.396
C36        35.000                                                                                                                                    25261083.800 6 131540906.90706     -3386.532 6        41.249                                                                    25261097.949 7 106887744.22507     -2751.776 7        43.390
G23        36.000    23925393.074 6 125728728.01406      1972.255 6        40.067                                    23925394.673 4  97970406.27004      1536.835 4        24.902    23925394.657 6  97970407.28006      1536.570 6        40.431
I09        38.000    40149458.010 6 157554786.57506      -992.839 6        39.363
R08        39.000    23194849.178 6 124207143.34106     -4802.488 6        40.872                                                                    23194860.879 6  96605498.32606     -3735.168 6        41.590
E25        40.000    23569943.415 7 123860883.95507      -818.035 7        47.639                                                                    23569948.658 8  92493518.50308      -610.878 8        50.725    23569947.694 8  94906385.17508      -626.799 8        50.865
S44        42.000    40812831.158 6 214472808.24106      -435.615 6        37.028
C09        43.000                                                                                                                                    41010663.111 5 213553032.72905     -1053.285 5        35.129    41010677.511 6 165132671.48006      -814.511 6        40.353    41010670.901 6 173529256.03306      -856.056 6        36.423
C05        44.000                                                                                                                                    39297025.892 6 204629780.77206      -494.377 6        37.180    39297033.965 7 158232703.14807      -382.153 7        43.391    39297032.212 6 166278523.71106      -401.728 6        39.453
C40        45.000                                                                                                                                    38771423.841 7 201892962.20307      -164.229 7        43.278                                                                    38771428.091 7 164054581.26207      -133.455 7        43.137
C21        46.000                                                                                                                                    22554675.890 8 117448041.99108     -2341.615 8        50.643                                                                    22554673.937 8  95436111.60008     -1902.759 8        49.665
C10        49.000                                                                                                                                    38695813.402 6 201499266.71906       216.950 6        41.335    38695817.246 7 155812032.49007       167.753 7        44.307    38695813.496 6 163734664.46306       176.147 6        41.282
C42        50.000                                                                                                                                    22788608.103 8 118666199.69408       794.692 8        48.568                                                                    22788618.772 8  96426031.52608       645.706 8        49.340
S48        51.000    77078235.977 6 405048881.16516      -429.089 6        38.042
E02        53.000    24550502.535 7 129013834.76107      1910.620 7        46.608                                                                    24550507.995 8  96341574.02108      1426.755 8        48.970    24550506.757 8  98854814.33608      1464.003 8        48.915
C60        54.000                                                                                                                                    40812830.763 6 212523072.63306      -431.776 6        40.241                                                                    40812826.284 6 172692322.87006      -350.832 6        38.123
C45        55.000                                                                                                                                    21883351.683 8 113952309.34608     -1679.388 8        49.703                                                                    21883347.297 8  92595549.00308     -1364.667 8        50.016
R12        56.000    20121360.368 8 107484787.24508      1927.830 8        51.633                                                                    20121364.985 7  83599317.04107      1499.375 7        47.397
C02        57.000                                                                                                                                    40870588.936 5 212823658.18105      -480.488 5        32.371    40870600.636 6 164568675.90506      -371.673 6        37.146    40870599.223 5 172936601.93105      -390.550 5        31.645
I03        58.000   124122300.023 6 411296963.19906       910.108 6        40.072
C14        59.000                                                                                                                                    24490067.144 6 127526144.19006      2105.246 6        41.311    24490068.111 7  98611277.64007      1627.999 7        47.522    24490065.474 7 103625410.51207      1710.785 7        44.725
G07        60.000    25254235.678 6 132711658.54206     -3308.384 6        36.907                                    25254248.204 4 103411607.27304     -2577.958 4        26.096    25254248.291 5 103411608.29505     -2577.861 5        34.171
> 2025 01 01 09 00 15.0000000  0 54
G08         1.000    25352219.141 4 133226877.48704     -3103.698 4        28.076                                    25352225.867 1 103813208.87201     -2418.452 1         9.143    25352226.841 4 103813218.91304     -2418.762 4        25.955
R01         2.000    19357325.353 8 103475925.38108     -2183.312 8        49.791                                                                    19357328.936 6  80481327.27406     -1698.206 6        41.809
G24         3.000    23712530.568 6 124610169.04306      2931.135 6        39.880                                    23712536.281 5  97098857.04905      2283.997 5        33.838    23712536.870 6  97098854.03906      2284.107 6        37.021
R02         4.000    20113352.502 8 107328651.20608      2043.331 8        51.049                                                                    20113356.967 7  83477841.03107      1589.271 7        46.543
S21         5.000    38364128.097 7 201604597.59307      -439.695 7        42.542
E05         6.000    25459789.527 6 133791935.68406     -3151.997 6        39.886                                                                    25459804.647 7  99909531.21207     -2353.765 7        43.354    25459802.814 7 102515865.94307     -2415.235 7        44.084
G17         7.000    23443258.465 7 123195232.76707      2249.365 7        42.180                                    23443266.621 6  95996353.19406      1752.748 6        36.957    23443266.037 6  95996349.19006      1752.896 6        39.183
R10         8.000    23576315.956 6 125674853.56806     -4449.794 6        38.348
R19         9.000    23817844.728 5 127409355.27305     -1539.801 5        32.389                                                                    23817849.238 6  99096226.98706     -1197.504 6        39.201
C26        11.000                                                                                                                                    22548898.145 8 117418047.61308      1415.213 8        48.943                                                                    22548900.905 8  95411799.61008      1149.915 8        48.374
S27        12.000    39068377.992 6 205305552.18906      -472.750 6        36.193
G15        13.000    20632812.910 7 108426107.56707      1433.844 7        47.579                                    20632813.211 7  84487845.26107      1117.283 7        47.363    20632813.423 7  84487837.24807      1117.347 7        44.143
S36        14.000    38134050.068 7 200396222.90507      -440.546 7        44.135
G20        15.000    24792354.736 6 130284472.25306     -4039.864 6        36.885                                    24792364.968 2 101520289.49202     -3147.954 2        17.283
R11        16.000    19594547.118 8 104707294.94508     -2384.467 8        50.986                                                                    19594550.186 8  81438998.44208     -1854.585 8        49.046
S45        17.000    63316119.720 6 332729019.85906      -489.373 6        36.348
E13        18.000    28755475.683 3                     -2988.683 3        21.762                                                                    28755485.269 4 112842553.05304     -2231.564 4        24.226    28755484.115 4 115786276.32104     -2289.376 4        25.158
E24        19.000    27044122.836 6 142117679.11606     -3066.121 6        40.298                                                                    27044132.658 7 106126809.88207     -2289.623 7        43.149    27044130.581 7 108895336.58007     -2349.460 7        43.048
E33        20.000    28770210.526 4 151188470.27404       670.106 4        29.175                                                                    28770214.951 5 112900499.37105       500.390 5        34.748    28770214.219 5 115845725.59205       513.441 5        34.690
G30        21.000    22314830.558 7 117265138.78107     -2917.879 7        44.200                                    22314835.434 7  91375413.26107     -2273.665 7        42.929    22314835.790 6  91375417.24206     -2273.624 6        41.559
I06        22.000    38017842.488 7 149190263.24407      -411.754 7        42.677
S28        23.000    40807027.171 5 214442147.27105      -449.259 5        35.248
G14        24.000    20529333.227 7 107882362.38007     -1215.597 7        47.409                                    20529333.838 6  84064177.20006      -947.213 6        39.634    20529334.132 8  84064179.19408      -947.228 8        48.016
S23        25.000    38066555.719 7 200041001.81007      -440.719 7        44.349
E08        26.000    24220242.103 7 127278174.55207      1181.202 7        46.586                                                                    24220245.509 8  95045371.45008       882.119 8        49.617    24220244.674 8  97524815.54608       905.036 8        50.116
C07        27.000                                                                                                                                    38775727.706 6 201915366.82306      -156.362 6        40.801    38775728.732 7 156133777.03407      -120.846 7        43.738    38775725.634 6 164072769.85306      -127.065 6        41.201
G13        28.000    19759834.655 8 103838586.18908      -585.362 8        48.625                                    19759833.454 6  80913151.58906      -456.129 6        40.570
I02        29.000    37310785.510 7 146415538.09907       109.899 7        42.362
C22        30.000                                                                                                                                    25671465.898 6 133677841.32706     -3976.322 6        41.986                                                                    25671471.773 7 108624131.80707     -3231.077 7        42.754
E07        31.000    28445484.446 5 149482003.34305      2362.853 5        35.357                                                                    28445489.105 6 111626182.98306      1764.195 6        38.571    28445488.118 6 114538166.70206      1810.577 6        38.784
E03        32.000    23470550.715 8 123338525.08908     -1451.145 8        48.424                                                                    23470555.353 8  92103443.11108     -1083.618 8        50.840    23470554.580 8  94506137.81408     -1111.882 8        50.971
G05        33.000    22769908.681 7 119656585.83807     -3587.168 7        44.542                                    22769911.213 6  93238867.66306     -2795.192 6        40.896    22769911.767 6  93238870.64606     -2795.101 6        41.263
E26        34.000    28274817.605 6 148585119.99606     -1387.711 6        37.134                                                                    28274820.552 6 110956409.30406     -1036.336 6        39.838    28274819.827 6 113850919.58306     -1063.351 6        40.610
C36        35.000                                                                                                                                    25264335.544 6 131557840.06806     -3386.619 6        40.903                                                                    25264349.833 7 106901503.76907     -2751.973 7        43.395
G23        36.000    23923517.364 6 125718873.46906      1969.768 6        40.279                                    23923519.480 4  97962727.36004      1534.894 4        24.857    23923519.449 6  97962728.34706      1534.891 6        40.620
I09        38.000    40150722.709 6 157559751.18306      -992.714 6        39.174
R08        39.000    23199333.773 6 124231158.13306     -4803.305 6        40.877                                                                    23199345.533 6  96624176.39006     -3735.798 6        41.447
E25        40.000    23570722.982 7 123864979.78007      -820.154 7        47.647                                                                    23570728.089 8  92496577.05908      -612.431 8        50.740    23570727.100 8  94909523.52208      -628.403 8        50.934
S44        42.000    40813244.676 6 214474986.44006      -435.604 6        36.957
C09        43.000                                                                                                                                    41011674.103 5 213558299.09705     -1053.125 5        34.857    41011688.606 6 165136743.77306      -814.226 6        40.226    41011682.098 6 173533535.39306      -855.910 6        36.215
C05        44.000                                                                                                                                    39297500.702 6 204632252.47706      -494.271 6        37.191    39297508.731 7 158234614.43707      -382.203 7        43.517    39297506.902 6 166280532.19106      -401.631 6        39.495
C40        45.000                                                                                                                                    38771582.313 7 201893786.38407      -165.328 7        43.300                                                                    38771586.344 7 164055250.98407      -134.372 7        43.143
C21        46.000                                                                                                                                    22556925.502 8 117459756.17508     -2343.880 8        50.719                                                                    22556923.550 8  95445630.32608     -1904.672 8        49.587
C10        49.000                                                                                                                                    38695605.054 6 201498183.85206       216.209 6        41.340    38695609.250 7 155811195.13307       167.291 7        44.223    38695605.438 6 163733784.52006       175.788 6        41.313
C42        50.000                                                                                                                                    22787846.149 8 118662232.84408       792.232 8        48.502                                                                    22787857.018 8  96422808.12508       643.734 8        49.208
S48        51.000    77078645.886 6 405051026.80806      -428.975 6        38.255
E02        53.000    24548685.312 7 129004285.70007      1909.195 7        46.659                                                                    24548690.902 8  96334443.23508      1425.694 8        49.057    24548689.589 8  98847497.52908      1462.900 8        48.864
C60        54.000                                                                                                                                    40813245.363 6 212525231.02506      -431.458 6        40.184                                                                    40813240.718 6 172694076.78206      -350.786 6        38.060
C45        55.000                                                                                                                                    21884965.111 8 113960710.77108     -1681.075 8        49.692                                                                    21884960.690 8  92602375.83408     -1365.931 8        49.856
R12        56.000    20119556.941 8 107475155.17208      1925.139 8        51.676                                                                    20119561.584 7  83591825.42407      1497.419 7        46.954
C02        57.000                                                                                                                                    40871050.148 5 212826060.37205      -480.614 5        32.437    40871061.848 6 164570533.37906      -371.466 6        37.316    40871059.947 5 172938553.90105      -390.807 5        31.494
I03        58.000   124121140.621 6 411292412.60306       910.349 6        39.943
C14        59.000                                                                                                                                    24488045.977 6 127515622.00406      2103.743 6        41.380    24488047.436 7  98603141.22807      1626.713 7        47.683    24488044.801 7 103616860.38607      1709.461 7        44.724
G07        60.000    25257383.421 6 132728200.73706     -3308.439 6        36.665                                    25257395.963 4 103424497.29304     -2577.994 4        25.549    25257396.347 5 103424498.32305     -2578.128 5        33.515
> 2025 01 01 09 00 20.0000000  0 54
G08         1.000    25355173.381 4 133242401.23804     -3105.208 4        28.436                                    25355180.053 1 103825305.30201     -2419.671 1         9.429    25355182.442 4 103825315.35204     -2419.658 4        26.096
R01         2.000    19359369.748 8 103486852.85108     -2187.497 8        49.590                                                                    19359373.399 7  80489826.41007     -1701.339 7        42.150
G24         3.000    23709741.933 6 124595515.71706      2930.324 6        39.327                                    23709747.777 5  97087438.87605      2283.368 5        33.605    23709748.289 6  97087435.88006      2283.580 6        37.017
R02         4.000    20111439.987 8 107318443.14308      2040.052 8        51.736                                                                    20111443.403 7  83469901.43207      1586.664 7        46.852
S21         5.000    38364549.538 7 201606797.21407      -439.916 7        42.827
E05         6.000    25462789.073 6 133807698.23706     -3152.983 6        39.742                                                                    25462804.196 7  99921301.87507     -2354.368 7        43.357    25462802.293 7 102527943.67907     -2415.803 7        44.098
G17         7.000    23441118.171 6 123183990.48506      2247.747 6        41.097                                    23441127.182 6  95987592.99306      1751.485 6        36.189    23441127.271 6  95987589.00706      1751.482 6        39.231
R10         8.000    23580489.364 6 125697102.81806     -4449.854 6        38.057
R19         9.000    23819285.725 5 127417064.88905     -1543.390 5        31.026                                                                    23819289.718 6  99102223.38706     -1200.881 6        39.012
C26        11.000                                                                                                                                    22547540.187 8 117410976.45308      1413.419 8        49.035                                                                    22547542.938 8  95406053.68608      1148.610 8        48.417
S27        12.000    39068829.801 6 205307916.38006      -473.009 6        36.053
G15        13.000    20631450.134 8 108418945.95608      1430.911 8        48.049                                    20631450.417 7  84482264.77807      1114.993 7        47.099    20631450.725 7  84482256.77607      1114.900 7        44.081
S36        14.000    38134470.101 7 200398426.92607      -440.850 7        44.150
G20        15.000    24796198.471 6 130304670.80206     -4039.556 6        36.964                                    24796208.654 2 101536028.56702     -3147.695 2        16.604
R11        16.000    19596779.332 8 104719224.74208     -2387.294 8        51.034                                                                    19596783.003 8  81448277.16808     -1856.841 8        49.252
S45        17.000    63316540.437 6 332731466.57206      -489.234 6        36.473
E13        18.000    28758316.469 3                     -2989.833 3        19.343                                                                                                                                    28758328.042 3 115797727.68903     -2289.296 3        23.314
E24        19.000    27047040.683 6 142133013.39106     -3067.225 6        40.317                                                                    27047050.721 7 106138260.75407     -2290.578 7        43.052    27047048.505 7 108907086.16007     -2350.297 7        43.217
E33        20.000    28769574.827 4 151185128.19304       667.229 4        29.488                                                                    28769579.327 5 112898003.63405       498.354 5        35.033    28769578.254 5 115843164.75905       511.364 5        35.357
G30        21.000    22317607.650 7 117279731.60807     -2919.046 7        44.798                                    22317612.258 7  91386784.26307     -2274.576 7        42.609    22317612.433 6  91386788.25306     -2274.517 6        41.271
I06        22.000    38018366.961 7 149192322.54407      -411.899 7        42.724
S28        23.000    40807453.553 5 214444395.23405      -449.651 5        35.486
G14        24.000    20530491.477 7 107888448.72307     -1218.728 7        47.922                                    20530492.042 6  84068919.79406      -949.658 6        39.375    20530492.196 7  84068921.78507      -949.684 7        47.971
S23        25.000    38066976.387 7 200043206.04807      -440.892 7        44.542
E08        26.000    24219118.957 7 127272272.35107      1179.828 7        46.666                                                                    24219122.399 8  95040963.96008       881.025 8        49.592    24219121.460 8  97520293.07108       904.033 8        50.332
C07        27.000                                                                                                                                    38775877.938 6 201916151.57106      -157.468 6        40.906    38775879.524 7 156134383.80607      -121.611 7        43.799    38775876.393 6 164073407.46106      -127.743 6        41.323
G13        28.000    19760392.889 8 103841520.72708      -588.300 8        48.737                                    19760391.888 6  80915438.23706      -458.414 6        40.446
I02        29.000    37310645.685 7 146414990.25907       109.412 7        42.392
C22        30.000                                                                                                                                    25675284.495 6 133697724.79206     -3976.789 6        41.983                                                                    25675290.196 7 108640288.66907     -3231.416 7        42.785
E07        31.000    28443235.584 5 149470189.82105      2362.836 5        35.738                                                                    28443241.052 6 111617361.11806      1764.647 6        38.676    28443240.021 6 114529114.73906      1810.441 6        38.910
E03        32.000    23471932.263 8 123345785.69408     -1452.933 8        48.561                                                                    23471937.005 8  92108864.98708     -1084.999 8        50.812    23471936.158 8  94511701.12808     -1113.328 8        51.125
G05        33.000    22773322.452 7 119674526.68307     -3588.992 7        44.289                                    22773325.328 6  93252847.50506     -2796.611 6        40.746    22773325.693 6  93252850.49306     -2796.777 6        41.073
E26        34.000    28276139.505 6 148592065.95506     -1390.388 6        37.168                                                                    28276142.448 6 110961596.20706     -1038.358 6        40.031    28276141.885 6 113856241.78506     -1065.207 6        40.970
C36        35.000                                                                                                                                    25267587.460 6 131574774.84606     -3387.135 6        40.744                                                                    25267601.972 7 106915264.58407     -2752.198 7        43.427
G23        36.000    23921644.858 6 125709031.72306      1967.090 6        40.136                                    23921646.604 4  97955058.43204      1532.802 4        24.647    23921647.185 6  97955059.42506      1532.771 6        40.582
I09        38.000    40151988.536 6 157564715.94106      -992.901 6        39.111
R08        39.000    23203819.140 6 124255178.18506     -4804.337 6        40.925                                                                    23203831.503 6  96642858.56806     -3736.839 6        41.383
E25        40.000    23571504.356 7 123869086.74107      -822.449 7        47.895                                                                    23571509.606 8  92499643.94208      -614.232 8        50.698    23571508.658 8  94912670.41308      -630.232 8        51.123
S44        42.000    40813656.472 6 214477164.79306      -435.542 6        37.146
C09        43.000                                                                                                                                    41012684.980 5 213563565.67705     -1053.182 5        34.371    41012700.347 6 165140816.25406      -814.500 6        40.358    41012693.546 6 173537814.90506      -855.858 6        36.352
C05        44.000                                                                                                                                    39297975.665 6 204634724.43706      -494.413 6        37.304    39297983.201 7 158236525.91707      -382.312 7        43.541    39297981.672 6 166282540.83006      -401.633 6        39.535
C40        45.000                                                                                                                                    38771741.336 7 201894615.81507      -166.340 7        43.621                                                                    38771745.676 7 164055924.96207      -135.149 7        43.166
C21        46.000                                                                                                                                    22559177.373 8 117471482.54108     -2346.525 8        50.745                                                                    22559175.493 8  95455158.91108     -1906.554 8        49.591
C10        49.000                                                                                                                                    38695397.861 6 201497104.95506       215.444 6        41.104    38695401.936 7 155810360.87507       166.440 7        44.205    38695398.306 6 163732907.80806       175.292 6        41.242
C42        50.000                                                                                                                                    22787086.563 8 118658278.93408       789.539 8        48.543                                                                    22787097.692 8  96419595.21008       641.625 8        49.318
S48        51.000    77079063.429 6 405053172.80106      -429.250 6        38.246
E02        53.000    24546869.466 7 128994744.52607      1907.455 7        46.660                                                                    24546875.326 8  96327318.33508      1424.381 8        49.039    24546873.957 8  98840186.76008      1461.547 8        49.043
C60        54.000                                                                                                                                    40813659.757 6 212527389.58106      -431.823 6        40.338                                                                    40813655.104 6 172695830.76306      -350.801 6        38.177
C45        55.000                                                                                                                                    21886580.219 8 113969120.97608     -1682.929 8        49.872                                                                    21886575.755 8  92609209.77908     -1367.384 8        49.899
R12        56.000    20117756.979 8 107465537.39608      1922.169 8        51.598                                                                    20117761.456 7  83584344.94707      1495.031 7        47.199
C02        57.000                                                                                                                                    40871511.289 5 212828462.68505      -480.322 5        32.257    40871523.203 6 164572391.01806      -371.207 6        37.028    40871521.602 5 172940505.94105      -390.156 5        31.774
I03        58.000   124119980.709 6 411287862.09606       910.051 6        39.598
C14        59.000                                                                                                                                    24486027.656 6 127505108.45306      2101.920 6        41.600    24486028.879 7  98595011.48407      1625.268 7        47.784    24486025.752 7 103608317.23207      1708.110 7        44.849
G07        60.000    25260531.332 6 132744744.01706     -3308.949 6        37.077                                    25260544.079 4 103437388.15704     -2578.407 4        25.248    25260543.063 5 103437389.18005     -2578.508 5        32.677
> 2025 01 01 09 00 25.0000000  0 54
G08         1.000    25358130.100 4 133257935.70304     -3107.399 4        28.663                                    25358136.194 1 103837410.07201     -2421.273 1         9.714    25358136.100 4 103837420.11504     -2421.807 4        26.120
R01         2.000    19361417.442 8 103497800.40008     -2191.423 8        49.672                                                                    19361422.086 7  80498341.17207     -1704.449 7        42.345
G24         3.000    23706953.546 6 124580865.88206      2929.683 6        39.504                                    23706959.926 5  97076023.43305      2282.868 5        33.754    23706960.326 6  97076020.43706      2283.043 6        37.508
R02         4.000    20109530.156 8 107308250.94508      2036.931 8        51.515                                                                    20109533.763 7  83461974.15307      1584.198 7        46.564
S21         5.000    38364962.823 7 201608997.00007      -439.866 7        42.516
E05         6.000    25465789.260 6 133823464.40106     -3153.556 6        39.625                                                                    25465804.406 7  99933075.26407     -2354.934 7        43.194    25465802.684 7 102540024.19807     -2416.317 7        44.024
G17         7.000    23438980.243 6 123172755.36106      2246.362 6        41.478                                    23438989.080 6  95978838.38206      1750.406 6        36.045    23438989.120 6  95978834.37606      1750.457 6        39.216
R10         8.000    23584662.874 6 125719352.39506     -4449.932 6        36.998
R19         9.000    23820730.000 5 127424795.19305     -1547.991 5        32.054                                                                    23820736.037 6  99108235.76406     -1204.033 6        39.520
C26        11.000                                                                                                                                    22546183.609 8 117403913.66708      1411.803 8        48.755                                                                    22546186.621 8  95400314.61008      1147.115 8        48.443
S27        12.000    39069279.762 5 205310280.82205      -473.045 5        35.805
G15        13.000    20630090.357 8 108411798.50608      1428.203 8        48.177                                    20630090.311 7  84476695.33207      1112.887 7        47.299    20630090.656 7  84476687.33707      1112.841 7        44.343
S36        14.000    38134891.444 7 200400631.47907      -440.875 7        44.212
G20        15.000    24800042.463 6 130324868.15106     -4039.131 6        36.949                                    24800051.844 2 101551766.68702     -3147.373 2        16.415
R11        16.000    19599014.895 8 104731168.05608     -2389.951 8        51.338                                                                    19599018.132 8  81457566.38908     -1858.830 8        49.681
S45        17.000    63316963.480 6 332733913.55606      -489.215 6        36.159
E13        18.000    28761166.413 3                     -2989.006 3        18.627                                                                    28761173.914 3                     -2233.315 3        21.690    28761172.493 3                     -2290.520 3        22.400
E24        19.000    27049959.818 6 142148352.34806     -3068.180 6        40.217                                                                    27049969.495 7 106149715.10307     -2291.134 7        42.965    27049967.589 7 108918839.34207     -2350.984 7        42.925
E33        20.000    28768940.556 4 151181797.41204       664.456 4        28.730                                                                    28768945.439 5 112895516.37705       496.539 5        34.748    28768944.172 5 115840612.60405       509.460 5        33.982
G30        21.000    22320385.246 7 117294329.66207     -2920.134 7        45.147                                    22320390.115 7  91398159.34407     -2275.422 7        42.849    22320390.784 6  91398163.33206     -2275.368 6        41.297
I06        22.000    38018891.883 7 149194382.13607      -411.917 7        42.777
S28        23.000    40807879.154 5 214446643.52705      -449.698 5        35.119
G14        24.000    20531652.459 7 107894549.83007     -1221.675 7        47.762                                    20531653.067 6  84073673.89106      -951.952 6        39.556    20531653.375 8  84073675.88408      -951.909 8        48.100
S23        25.000    38067393.929 7 200045410.68707      -440.770 7        44.468
E08        26.000    24217997.083 7 127266376.46607      1178.612 7        46.714                                                                    24218000.387 8  95036561.18008       880.116 8        49.427    24217999.533 8  97515775.44008       903.082 8        50.287
C07        27.000                                                                                                                                    38776029.922 6 201916940.50906      -158.056 6        41.056    38776031.093 7 156134993.86707      -122.323 7        43.918    38776027.962 6 164074048.56606      -128.535 6        41.304
G13        28.000    19760953.886 8 103844469.15908      -591.026 8        48.675                                    19760952.943 6  80917735.71506      -460.539 6        40.610
I02        29.000    37310506.596 7 146414443.73307       109.078 7        42.601
C22        30.000                                                                                                                                    25679103.359 6 133717610.35706     -3977.268 6        41.847                                                                    25679109.149 7 108656447.27607     -3231.974 7        42.808
E07        31.000    28440987.660 5 149458376.08105      2362.859 5        35.638                                                                    28440993.028 6 111608539.12506      1764.564 6        38.213    28440992.120 6 114520062.59706      1810.614 6        38.724
E03        32.000    23473315.436 8 123353054.88408     -1454.652 8        48.344                                                                    23473320.286 8  92114293.26508     -1086.280 8        50.639    23473319.505 8  94517271.01308     -1114.581 8        51.056
G05        33.000    22776738.329 7 119692476.15407     -3590.686 7        44.557                                    22776741.076 6  93266834.07306     -2797.930 6        40.899    22776741.102 6  93266837.04606     -2797.870 6        40.586
E26        34.000    28277463.500 6 148599023.28906     -1392.585 6        37.157                                                                    28277466.588 6 110966791.58906     -1039.887 6        39.898    28277465.799 6 113861572.71806     -1067.102 6        40.722
C36        35.000                                                                                                                                    25270839.904 6 131591711.16206     -3387.318 6        40.906                                                                    25270854.512 7 106929026.70007     -2752.584 7        43.424
G23        36.000    23919774.539 6 125699202.72006      1964.717 6        40.222                                    23919776.200 4  97947399.44604      1530.943 4        24.887    23919776.604 6  97947400.43506      1530.988 6        40.684
I09        38.000    40153253.176 6 157569680.80206      -992.974 6        39.159
R08        39.000    23208305.702 6 124279203.32606     -4805.495 6        41.154                                                                    23208317.846 6  96661544.68106     -3737.491 6        40.937
E25        40.000    23572288.048 7 123873204.79507      -824.695 7        47.732                                                                    23572293.193 8  92502719.08908      -615.819 8        50.556    23572292.315 8  94915825.78008      -631.881 8        51.046
S44        42.000    40814071.971 6 214479343.21306      -435.527 6        37.032
C09        43.000                                                                                                                                    41013696.796 5 213568832.40205     -1053.270 5        34.629    41013711.479 6 165144888.80706      -814.583 6        40.000    41013705.125 6 173542094.55206      -855.979 6        36.321
C05        44.000                                                                                                                                    39298450.318 6 204637196.55206      -494.199 6        37.308    39298458.030 7 158238437.53607      -382.323 7        43.316    39298456.397 6 166284549.66106      -401.832 6        39.423
C40        45.000                                                                                                                                    38771901.598 7 201895450.48707      -167.365 7        43.562                                                                    38771905.902 7 164056603.22107      -136.070 7        43.219
C21        46.000                                                                                                                                    22561431.461 8 117483220.98708     -2348.868 8        50.801                                                                    22561429.764 8  95464697.37208     -1908.704 8        49.592
C10        49.000                                                                                                                                    38695191.214 6 201496030.01806       214.710 6        40.918    38695195.538 7 155809529.64507       165.987 7        44.164    38695191.842 6 163732034.34506       174.324 6        41.251
C42        50.000                                                                                                                                    22786329.633 8 118654337.91508       786.961 8        48.480                                                                    22786340.861 8  96416392.82408       639.408 8        49.368
S48        51.000    77079473.825 6 405055319.37406      -429.183 6        38.141
E02        53.000    24545055.369 7 128985211.14307      1906.010 7        46.620                                                                    24545061.098 8  96320199.25708      1423.284 8        48.905    24545059.844 8  98832881.97208      1460.385 8        48.988
C60        54.000                                                                                                                                    40814074.424 6 212529548.18906      -431.586 6        40.188                                                                    40814069.650 6 172697584.83106      -350.731 6        38.198
C45        55.000                                                                                                                                    21888197.273 8 113977539.90708     -1684.594 8        49.802                                                                    21888192.556 8  92616050.86308     -1368.944 8        49.905
R12        56.000    20115959.305 8 107455933.80008      1919.359 8        51.596                                                                    20115963.447 7  83576875.48907      1492.849 7        47.119
C02        57.000                                                                                                                                    40871973.002 5 212830865.14105      -480.410 5        32.114    40871984.263 6 164574248.73206      -371.299 6        37.327    40871983.145 5 172942458.12705      -390.625 5        31.336
I03        58.000   124118821.616 6 411283311.59606       910.309 6        39.730
C14        59.000                                                                                                                                    24484009.598 6 127494603.46506      2100.233 6        41.476    24484011.306 7  98586888.34807      1623.962 7        47.461    24484008.436 7 103599781.08707      1706.541 7        44.885
G07        60.000    25263679.444 6 132761288.31106     -3309.043 6        37.508                                    25263692.186 4 103450279.81604     -2578.469 4        25.429    25263692.050 5 103450280.80805     -2578.457 5        32.671
> 2025 01 01 09 00 30.0000000  0 54
G08         1.000    25361088.456 4 133273481.25304     -3110.164 4        27.772                                    25361094.396 1 103849523.54901     -2423.534 1         9.905    25361091.996 4 103849533.50304     -2423.548 4        26.814
R01         2.000    19363469.620 8 103508768.24408     -2195.712 8        50.055                                                                    19363473.792 7  80506871.69207     -1707.745 7        42.620
G24         3.000    23704167.155 6 124566219.89906      2928.748 6        39.850                                    23704172.791 5  97064610.99705      2282.139 5        33.737    23704172.960 6  97064607.99906      2282.182 6        36.904
R02         4.000    20107622.762 8 107298074.80308      2033.493 8        51.678                                                                    20107626.846 7  83454059.36107      1581.576 7        46.595
S21         5.000    38365383.715 7 201611197.21707      -440.205 7        42.631
E05         6.000    25468790.248 6 133839234.49806     -3154.501 6        39.291                                                                    25468805.458 7  99944851.58507     -2355.591 7        43.350    25468803.722 7 102552107.73807     -2417.114 7        44.057
G17         7.000    23436844.315 7 123161527.68407      2244.789 7        42.040                                    23436852.468 6  95970089.57006      1749.179 6        36.253    23436852.757 6  95970085.59606      1749.090 6        39.526
R10         8.000    23588836.629 6 125741602.79706     -4450.214 6        36.662
R19         9.000    23822181.108 5 127432546.29705     -1552.346 5        33.677                                                                    23822184.345 6  99114264.40306     -1207.468 6        39.297
C26        11.000                                                                                                                                    22544828.996 8 117396859.57708      1409.850 8        48.528                                                                    22544831.980 8  95394582.59608      1145.682 8        48.425
S27        12.000    39069725.189 6 205312646.01706      -473.198 6        36.011
G15        13.000    20628732.874 8 108404665.53008      1425.071 8        48.194                                    20628732.941 7  84471137.15907      1110.448 7        47.332    20628733.456 7  84471129.15707      1110.414 7        44.336
S36        14.000    38135311.588 7 200402836.16307      -441.232 7        44.232
G20        15.000    24803884.607 6 130345064.61806     -4039.377 6        37.372                                    24803895.105 2 101567504.11602     -3147.524 2        16.943
R11        16.000    19601252.581 8 104743125.21208     -2392.918 8        51.406                                                                    19601255.480 8  81466866.39808     -1861.185 8        49.499
S45        17.000    63317381.554 6 332736361.11306      -489.551 6        36.340
E13        18.000                                                                                                                                    28764020.714 3                     -2238.780 3        20.405    28764017.912 3                     -2290.974 3        21.000
E24        19.000    27052879.787 6 142163696.31006     -3069.375 6        40.155                                                                    27052889.648 7 106161173.21407     -2292.153 7        43.147    27052887.518 7 108930596.36307     -2351.938 7        42.969
E33        20.000    28768309.139 4 151178478.28004       662.547 4        28.891                                                                    28768314.098 5 112893037.79405       494.765 5        34.719    28768312.767 5 115838069.37305       507.805 5        34.248
G30        21.000    22323164.198 7 117308933.27707     -2921.445 7        45.395                                    22323169.090 7  91409538.75207     -2276.444 7        42.959    22323169.702 6  91409542.74206     -2276.418 6        41.435
I06        22.000    38019417.011 7 149196442.28607      -412.192 7        42.741
S28        23.000    40808309.118 5 214448891.98705      -450.151 5        35.400
G14        24.000    20532816.133 7 107900666.01007     -1224.874 7        47.774                                    20532816.941 6  84078439.73406      -954.444 6        39.571    20532817.153 8  84078441.72108      -954.367 8        48.177
S23        25.000    38067815.129 7 200047615.92107      -441.095 7        44.351
E08        26.000    24216876.355 7 127260487.22607      1177.035 7        46.680                                                                    24216879.724 8  95032163.36508       878.998 8        49.538    24216878.859 8  97511262.90008       901.938 8        50.274
C07        27.000                                                                                                                                    38776182.586 6 201917733.89706      -159.093 6        41.070    38776183.603 7 156135607.35607      -123.105 7        44.039    38776180.277 6 164074693.24706      -129.259 6        41.342
G13        28.000    19761517.591 8 103847431.81508      -594.041 8        48.678                                    19761516.721 6  80920044.27306      -462.889 6        40.691
I02        29.000    37310367.779 7 146413899.00007       108.678 7        42.631
C22        30.000                                                                                                                                    25682922.543 6 133737498.31306     -3977.953 6        41.547                                                                    25682928.441 7 108672607.82707     -3232.370 7        42.692
E07        31.000    28438739.636 6 149446562.44306      2362.741 6        36.261                                                                    28438744.858 6 111599717.20706      1764.309 6        38.601    28438744.182 6 114511010.56006      1810.353 6        39.291
E03        32.000    23474700.342 8 123360332.96408     -1456.596 8        48.346                                                                    23474705.303 8  92119728.19508     -1087.760 8        50.705    23474704.472 8  94522847.72408     -1116.083 8        51.065
G05        33.000    22780155.603 7 119710434.51007     -3592.622 7        44.748                                    22780158.491 6  93280827.56206     -2799.439 6        41.037    22780158.820 6  93280830.55006     -2799.452 6        40.484
E26        34.000    28278788.664 6 148605992.36806     -1395.194 6        37.164                                                                    28278792.550 6 110971995.71006     -1041.639 6        39.961    28278791.594 6 113866912.60206     -1068.809 6        40.534
C36        35.000                                                                                                                                    25274092.741 6 131608649.32006     -3387.963 6        41.023                                                                    25274107.330 7 106942790.29607     -2752.772 7        43.333
G23        36.000    23917906.994 6 125689386.82106      1961.743 6        41.018                                    23917908.274 4  97939750.67004      1528.638 4        24.977    23917908.301 6  97939751.65806      1528.653 6        41.333
I09        38.000    40154518.401 6 157574645.97306      -993.137 6        39.180
R08        39.000    23212793.941 6 124303233.85606     -4806.769 6        41.099                                                                    23212805.327 6  96680235.00606     -3738.515 6        40.856
E25        40.000    23573073.996 7 123877334.21107      -827.154 7        47.833                                                                    23573079.084 8  92505802.74008      -617.687 8        50.576    23573078.152 8  94918989.87608      -633.765 8        51.093
S44        42.000    40814489.625 6 214481522.02406      -436.086 6        36.945
C09        43.000                                                                                                                                    41014708.894 5 213574099.52905     -1053.339 5        34.733    41014722.642 6 165148961.70706      -814.669 6        40.148    41014716.422 6 173546374.56206      -855.829 6        36.144
C05        44.000                                                                                                                                    39298924.914 6 204639669.17606      -494.690 6        37.395    39298932.773 7 158240349.52007      -382.438 7        43.321    39298931.207 6 166286558.86706      -401.841 6        39.513
C40        45.000                                                                                                                                    38772062.678 7 201896290.68407      -168.660 7        43.536                                                                    38772067.355 7 164057285.96407      -136.964 7        43.071
C21        46.000                                                                                                                                    22563688.244 8 117494971.83608     -2351.515 8        50.745                                                                    22563686.413 8  95474245.89808     -1910.692 8        49.569
C10        49.000                                                                                                                                    38694985.219 6 201494959.31506       213.574 6        40.698    38694989.909 7 155808701.70507       165.264 7        44.138    38694986.333 6 163731164.30806       173.689 6        41.354
C42        50.000                                                                                                                                    22785575.512 8 118650410.10408       784.141 8        48.452                                                                    22785586.625 8  96413201.15808       637.276 8        49.361
S48        51.000    77079886.516 6 405057466.14906      -429.482 6        37.902
E02        53.000    24543243.221 7 128975685.90607      1904.106 7        46.696                                                                    24543248.509 8  96313086.26408      1421.906 8        48.971    24543247.215 8  98825583.41408      1459.040 8        49.022
C60        54.000                                                                                                                                    40814488.992 6 212531707.20606      -431.939 6        40.286                                                                    40814484.339 6 172699339.22806      -350.835 6        38.177
C45        55.000                                                                                                                                    21889815.674 8 113985967.85808     -1686.606 8        49.763                                                                    21889811.070 8  92622899.26408     -1370.444 8        49.872
R12        56.000    20114164.050 8 107446344.68008      1916.249 8        51.599                                                                    20114168.629 7  83569417.29407      1490.398 7        47.720
C02        57.000                                                                                                                                    40872434.527 5 212833267.93405      -480.704 5        32.413    40872446.017 6 164576106.72706      -371.769 6        37.293    40872444.393 5 172944410.61305      -390.623 5        31.502
I03        58.000   124117661.900 6 411278761.34606       909.978 6        39.808
C14        59.000                                                                                                                                    24481994.057 6 127484107.37806      2098.192 6        41.805    24481995.514 7  98578772.09207      1622.448 7        47.366    24481992.886 7 103591252.13907      1705.203 7        44.802
G07        60.000    25266828.092 6 132777833.89906     -3309.160 6        36.779                                    25266840.517 4 103463172.48304     -2578.572 4        25.263    25266840.778 5 103463173.49205     -2578.809 5        32.808
> 2025 01 01 09 00 35.0000000  0 54
G08         1.000    25364047.690 4 133289037.57804     -3112.356 4        28.294                                    25364054.601 1 103861645.30501     -2425.186 1        10.222    25364054.670 4 103861655.29004     -2425.098 4        27.078
R01         2.000    19365525.185 8 103519756.37108     -2199.774 8        49.544                                                                    19365528.848 7  80515417.99307     -1710.848 7        42.442
G24         3.000    23701380.782 6 124551577.61206      2928.033 6        39.883                                    23701386.393 5  97053201.43105      2281.580 5        33.802    23701386.794 6  97053198.44206      2281.556 6        37.361
R02         4.000    20105719.156 8 107287914.87008      2030.282 8        52.037                                                                    20105722.445 7  83446157.20007      1579.099 7        46.406
S21         5.000    38365799.813 7 201613397.84607      -440.176 7        42.419
E05         6.000    25471791.966 6 133855008.40306     -3155.227 6        39.315                                                                    25471807.282 7  99956630.75107     -2356.171 7        43.511    25471805.358 7 102564194.18507     -2417.585 7        43.934
G17         7.000    23434709.197 7 123150307.37807      2243.196 7        42.214                                    23434717.317 6  95961346.51206      1747.940 6        36.594    23434717.417 6  95961342.50606      1748.124 6        39.874
R10         8.000    23593011.239 6 125763853.56006     -4449.964 6        37.183
R19         9.000    23823633.383 5 127440318.16905     -1556.750 5        33.030                                                                    23823637.413 6  99120309.14606     -1210.575 6        38.369
C26        11.000                                                                                                                                    22543476.439 8 117389814.02308      1408.163 8        48.723                                                                    22543478.946 8  95388857.51008      1144.364 8        48.626
S27        12.000    39070180.633 6 205315011.46806      -473.199 6        36.102
G15        13.000    20627377.970 8 108397546.93108      1422.212 8        48.646                                    20627378.330 7  84465590.19407      1108.219 7        47.377    20627378.713 7  84465582.19007      1108.292 7        44.105
S36        14.000    38135729.752 7 200405041.95707      -441.082 7        44.138
G20        15.000    24807728.551 6 130365259.99806     -4039.202 6        37.425                                    24807738.174 2 101583240.73702     -3147.411 2        17.057
R11        16.000    19603492.668 8 104755096.04708     -2395.594 8        51.027                                                                    19603495.314 8  81476177.03708     -1863.282 8        49.139
S45        17.000    63317801.578 6 332738808.88806      -489.880 6        36.287
E13        18.000                                                                                                                                    28766864.550 3                     -2231.346 3        19.015
E24        19.000    27055800.583 6 142179045.15706     -3070.281 6        40.062                                                                    27055810.394 7 106172634.95207     -2292.678 7        43.124    27055808.591 7 108942357.10207     -2352.479 7        43.014
E33        20.000    28767680.027 4 151175170.71204       660.027 4        28.076                                                                    28767684.100 5 112890567.84605       493.065 5        34.890    28767683.131 5 115835534.99105       505.700 5        34.700
G30        21.000    22325944.321 7 117323542.27407     -2922.454 7        45.156                                    22325949.169 7  91420922.35507     -2277.228 7        43.052    22325949.778 6  91420926.35206     -2277.259 6        41.292
I06        22.000    38019942.035 7 149198502.86307      -412.278 7        42.641
S28        23.000    40808735.697 5 214451141.17005      -449.854 5        35.186
G14        24.000    20533982.775 7 107906797.11507     -1227.742 7        47.956                                    20533983.659 6  84083217.20406      -956.679 6        39.631    20533983.846 7  84083219.19607      -956.751 7        47.980
S23        25.000    38068234.272 7 200049821.59907      -441.217 7        44.406
E08        26.000    24215757.016 7 127254604.48107      1175.891 7        46.564                                                                    24215760.296 8  95027770.39908       878.081 8        49.489    24215759.393 8  97506755.33808       900.964 8        50.275
C07        27.000                                                                                                                                    38776335.916 6 201918531.64106      -160.069 6        41.378    38776336.816 7 156136224.21007      -123.831 7        44.275    38776333.692 6 164075341.46906      -130.061 6        41.452
G13        28.000    19762084.099 8 103850408.53308      -596.817 8        48.803                                    19762083.168 6  80922363.78606      -465.051 6        40.684
I02        29.000    37310228.985 7 146413355.70807       108.276 7        42.690
C22        30.000                                                                                                                                    25686742.397 6 133757388.52006     -3978.360 6        41.380                                                                    25686748.143 7 108688770.18807     -3232.729 7        42.815
E07        31.000    28436492.133 6 149434748.75806      2362.904 6        36.677                                                                    28436496.689 6 111590895.25506      1764.328 6        38.580    28436496.344 6 114501958.48006      1810.316 6        39.312
E03        32.000    23476086.997 8 123367619.80008     -1458.321 8        48.409                                                                    23476091.901 8  92125169.65308     -1089.024 8        50.588    23476091.079 8  94528431.13708     -1117.422 8        51.031
G05        33.000    22783574.642 7 119728401.61007     -3594.428 7        44.998                                    22783577.560 6  93294827.86306     -2800.848 6        41.027    22783577.965 6  93294830.85706     -2800.855 6        40.381
E26        34.000    28280116.918 6 148612973.00506     -1397.341 6        36.507                                                                    28280121.027 6 110977208.48006     -1043.432 6        39.991    28280119.658 6 113872261.37006     -1070.814 6        40.169
C36        35.000                                                                                                                                    25277345.886 6 131625589.16906     -3388.165 6        41.242                                                                    25277360.430 7 106956555.28307     -2753.147 7        43.522
G23        36.000    23916041.427 6 125679583.80806      1959.270 6        40.510                                    23916043.066 4  97932111.93404      1526.721 4        24.977    23916043.374 6  97932112.91406      1526.756 6        40.932
I09        38.000    40155783.707 6 157579611.35306      -993.097 6        38.892
R08        39.000    23217281.820 6 124327269.64606     -4807.844 6        41.073                                                                    23217294.049 6  96698929.40806     -3739.317 6        41.456
E25        40.000    23573861.842 7 123881474.86607      -829.366 7        47.607                                                                    23573867.042 8  92508894.77808      -619.323 8        50.493    23573866.094 8  94922162.57608      -635.467 8        51.086
S44        42.000    40814904.037 6 214483701.09206      -435.934 6        37.059
C09        43.000                                                                                                                                    41015720.652 5 213579366.99205     -1053.311 5        35.067    41015733.824 6 165153034.84906      -814.731 6        40.174    41015728.112 6 173550654.84006      -856.342 6        36.405
C05        44.000                                                                                                                                    39299400.167 6 204642142.13406      -494.666 6        37.584    39299407.793 7 158242261.77707      -382.514 7        43.437    39299406.067 6 166288568.36306      -401.899 6        39.685
C40        45.000                                                                                                                                    38772224.864 7 201897136.27007      -169.725 7        43.562                                                                    38772229.706 7 164057973.08207      -137.852 7        43.344
C21        46.000                                                                                                                                    22565947.165 8 117506734.95408     -2353.934 8        50.985                                                                    22565945.392 8  95483804.39308     -1912.717 8        49.815
C10        49.000                                                                                                                                    38694780.639 6 201493892.62506       212.924 6        40.820    38694785.011 7 155807876.88907       164.584 7        44.302    38694781.382 6 163730297.55906       173.076 6        41.466
C42        50.000                                                                                                                                    22784823.742 8 118646495.37108       781.612 8        48.672                                                                    22784834.860 8  96410020.11308       635.180 8        49.580
S48        51.000    77080301.648 6 405059613.14506      -429.552 6        37.943
E02        53.000    24541431.773 7 128966168.63607      1902.611 7        46.322                                                                    24541437.402 8  96305979.22308      1420.817 8        48.863    24541436.116 8  98818290.97708      1457.824 8        49.042
C60        54.000                                                                                                                                    40814903.454 6 212533866.46706      -431.874 6        40.217                                                                    40814898.939 6 172701093.83406      -351.019 6        38.441
C45        55.000                                                                                                                                    21891436.052 8 113994404.68208     -1688.306 8        49.725                                                                    21891431.306 8  92629754.86908     -1371.840 8        50.090
R12        56.000    20112371.179 8 107436769.97708      1913.405 8        51.568                                                                    20112375.938 7  83561970.30707      1488.237 7        47.200
C02        57.000                                                                                                                                    40872895.632 5 212835671.00405      -480.640 5        32.437    40872907.694 6 164577964.94006      -371.779 6        37.225    40872905.958 5 172946363.31305      -390.995 5        31.947
I03        58.000   124116502.553 6 411274211.25506       909.917 6        39.631
C14        59.000                                                                                                                                    24479981.044 6 127473620.03806      2096.413 6        41.740    24479981.568 7  98570662.61207      1621.147 7        47.525    24479978.895 7 103582730.32607      1703.634 7        45.040
G07        60.000    25269977.369 6 132794380.70006     -3309.544 6        36.635                                    25269988.955 4 103476066.11004     -2578.873 4        24.992    25269988.866 5 103476067.11805     -2578.919 5        32.832
> 2025 01 01 09 00 40.0000000  0 53
G08         1.000    25367010.539 4 133304604.54704     -3115.152 4        27.018                                    25367016.881 1 103873775.47701     -2427.396 1         9.048    25367016.998 4 103873785.41104     -2426.628 4        27.617
R01         2.000    19367583.500 8 103530764.39308     -2203.611 8        49.496                                                                    19367587.723 6  80523979.80706     -1713.989 6        41.597
G24         3.000    23698595.180 6 124536938.78206      2927.608 6        40.322                                    23698600.720 5  97041794.56505      2281.251 5        33.796    23698601.617 6  97041791.59606      2281.114 6        37.815
R02         4.000    20103818.046 8 107277770.80008      2027.195 8        51.463                                                                    20103821.678 7  83438267.36007      1576.684 7        46.399
S21         5.000    38366220.753 7 201615598.77107      -440.298 7        42.707
E05         6.000    25474794.449 6 133870785.87506     -3155.906 6        39.498                                                                    25474809.790 7  99968412.57007     -2356.615 7        43.678    25474807.516 7 102576283.36807     -2418.182 7        43.691
G17         7.000    23432574.710 7 123139094.18407      2241.867 7        42.212                                    23432583.486 6  95952608.99006      1746.904 6        36.529    23432583.859 6  95952605.01206      1746.866 6        39.640
R10         8.000    23597186.174 6 125786104.53306     -4450.259 6        38.393
R19         9.000    23825088.682 5 127448110.51305     -1560.586 5        32.599                                                                    23825094.341 6  99126369.86206     -1213.863 6        38.694
C26        11.000                                                                                                                                    22542124.858 8 117382776.79108      1406.569 8        48.648                                                                    22542127.486 8  95383139.18108      1142.916 8        48.507
S27        12.000    39070629.146 6 205317377.27706      -472.973 6        36.227
G15        13.000    20626026.163 8 108390442.45808      1419.475 8        48.763                                    20626026.393 7  84460054.23707      1106.086 7        47.236    20626026.602 7  84460046.23707      1106.030 7        44.036
S36        14.000    38136151.426 7 200407248.76307      -441.375 7        44.369
G20        15.000    24811570.818 6 130385454.04506     -4038.626 6        37.217                                    24811580.898 2 101598976.27302     -3146.986 2        16.151
R11        16.000    19605735.258 8 104767080.29408     -2398.316 8        51.186                                                                    19605738.234 8  81485498.10508     -1865.357 8        48.935
S45        17.000    63318223.802 6 332739656.86916      -489.757 6        36.416
E24        19.000    27058722.434 6 142194398.61006     -3071.116 6        39.961                                                                    27058732.101 7 106184100.14007     -2293.333 7        43.234    27058730.409 7 108954121.39807     -2353.226 7        43.225
E33        20.000    28767052.937 4 151171874.42304       657.742 4        28.019                                                                    28767057.368 5 112888106.29605       491.554 5        34.238    28767055.764 5 115833009.23005       504.583 5        34.581
G30        21.000    22328725.026 7 117338156.41907     -2923.400 7        45.099                                    22328730.268 7  91432309.97207     -2277.967 7        42.904    22328730.821 6  91432313.97006     -2278.110 6        41.409
I06        22.000    38020467.373 7 149200563.68707      -412.288 7        42.796
S28        23.000    40809167.379 5 214453390.32305      -449.929 5        35.462
G14        24.000    20535152.365 7 107912942.90807     -1230.650 7        47.731                                    20535153.189 6  84088006.12006      -958.947 6        39.483    20535153.258 7  84088008.11507      -958.961 7        47.753
S23        25.000    38068652.655 7 200052027.40307      -441.029 7        44.552
E08        26.000    24214638.825 7 127248728.01707      1174.638 7        46.552                                                                    24214642.038 8  95023382.12708       877.192 8        49.480    24214641.170 8  97502252.59008       900.021 8        50.143
C07        27.000                                                                                                                                    38776490.133 6 201919333.53506      -160.923 6        41.507    38776490.660 7 156136844.27007      -124.461 7        44.309    38776487.470 6 164075993.04406      -130.604 6        41.499
G13        28.000    19762653.315 8 103853399.09908      -599.564 8        48.783                                    19762652.262 6  80924694.09406      -467.193 6        40.715
I02        29.000    37310091.166 7 146412814.00007       108.119 7        42.684
C22        30.000                                                                                                                                    25690562.625 6 133777280.74406     -3978.694 6        41.173                                                                    25690568.278 7 108704934.18007     -3233.047 7        42.599
E07        31.000    28434244.265 6 149422934.84806      2362.756 6        37.127                                                                    28434248.953 6 111582073.12306      1764.329 6        38.589    28434248.134 6 114492906.20506      1810.450 6        39.192
E03        32.000    23477475.332 8 123374915.15808     -1459.955 8        48.452                                                                    23477480.165 8  92130617.48308     -1090.231 8        50.723    23477479.350 8  94534021.08308     -1118.663 8        50.912
G05        33.000    22786995.192 7 119746377.23607     -3596.011 7        44.689                                    22786998.280 6  93308834.80906     -2802.081 6        40.982    22786998.814 6  93308837.80006     -2802.015 6        40.837
E26        34.000    28281447.846 6 148619965.03906     -1399.833 6        36.639                                                                    28281451.623 6 110982429.77806     -1045.161 6        39.730    28281450.299 6 113877618.86706     -1072.427 6        39.772
C36        35.000                                                                                                                                    25280599.488 6 131642530.48106     -3388.487 6        41.104                                                                    25280613.752 7 106970321.43407     -2753.326 7        43.249
G23        36.000    23914177.955 6 125669793.55806      1956.706 6        40.462                                    23914180.148 4  97924483.13804      1524.709 4        25.143    23914179.664 6  97924484.14106      1524.667 6        40.079
I09        38.000    40157048.780 6 157584576.82206      -993.229 6        39.204
R08        39.000    23221771.498 6 124351310.52806     -4808.670 6        41.261                                                                    23221783.747 6  96717627.80506     -3740.143 6        41.211
E25        40.000    23574651.800 7 123885626.51707      -831.460 7        47.643                                                                    23574657.074 8  92511995.03108      -620.876 8        50.601    23574656.099 8  94925343.71008      -637.119 8        50.958
S44        42.000    40815314.465 6 214485880.20706      -436.078 6        37.161
C09        43.000                                                                                                                                    41016732.386 5 213584634.54005     -1053.485 5        35.281    41016745.929 6 165157108.04306      -814.642 6        40.176    41016739.968 6 173554935.10006      -855.758 6        36.370
C05        44.000                                                                                                                                    39299874.830 6 204644615.18706      -494.699 6        37.338    39299882.697 7 158244174.11807      -382.478 7        43.346    39299880.891 6 166290577.92406      -401.991 6        39.480
C40        45.000                                                                                                                                    38772388.286 7 201897987.01807      -170.771 7        43.306                                                                    38772393.017 7 164058664.37307      -138.596 7        43.115
C21        46.000                                                                                                                                    22568208.632 8 117518510.08508     -2356.249 8        50.912                                                                    22568206.756 8  95493372.62708     -1914.665 8        49.613
C10        49.000                                                                                                                                    38694576.553 6 201492829.82106       212.145 6        40.772    38694581.050 7 155807055.06407       164.080 7        44.327    38694577.361 6 163729433.93206       172.416 6        41.411
C42        50.000                                                                                                                                    22784074.470 8 118642593.49208       779.098 8        48.678                                                                    22784085.545 8  96406849.50308       633.001 8        49.424
S48        51.000    77080713.435 6 405061760.59206      -429.689 6        38.174
E02        53.000    24539622.141 7 128956659.14507      1901.136 7        46.224                                                                    24539627.732 8  96298877.99008      1419.643 8        48.943    24539626.511 8  98811004.48908      1456.708 8        48.864
C60        54.000                                                                                                                                    40815318.237 6 212536025.74306      -431.794 6        40.310                                                                    40815313.593 6 172702848.42406      -350.945 6        38.102
C45        55.000                                                                                                                                    21893057.656 8 114002850.14908     -1689.979 8        49.602                                                                    21893053.163 8  92636617.48008     -1373.220 8        49.986
R12        56.000    20110581.436 8 107427209.39008      1910.673 8        51.369                                                                    20110586.101 7  83554534.31207      1486.086 7        47.100
C02        57.000                                                                                                                                    40873356.710 5 212838074.13705      -480.898 5        32.497    40873368.924 6 164579823.15906      -371.852 6        37.180    40873367.121 5 172948315.99205      -390.504 5        31.706
I03        58.000   124115342.758 6 411269661.14906       909.886 6        39.709
C14        59.000                                                                                                                                    24477967.836 6 127463141.24706      2094.747 6        41.318    24477969.391 7  98562559.75507      1619.891 7        47.413    24477966.473 7 103574215.45307      1702.259 7        44.864
G07        60.000    25273125.952 6 132810928.43806     -3309.582 6        36.537                                    25273137.800 4 103488960.46204     -2578.905 4        24.677    25273137.516 5 103488961.47605     -2578.879 5        32.323
> 2025 01 01 09 00 45.0000000  0 53
G08         1.000    25369974.054 4 133320182.20304     -3116.435 4        26.180                                    25369981.196 1 103885913.91101     -2428.350 1         9.048    25369981.476 4 103885923.90304     -2428.321 4        26.814
R01         2.000    19369647.110 8 103541792.43808     -2207.505 8        49.569                                                                    19369650.996 6  80532557.13606     -1716.910 6        41.669
G24         3.000    23695809.567 6 124522303.63506      2926.694 6        40.489                                    23695815.847 5  97030390.56505      2280.539 5        34.024    23695815.390 6  97030387.57206      2280.449 6        38.009
R02         4.000    20101919.895 8 107267642.64308      2024.115 8        51.854                                                                    20101923.743 7  83430389.90307      1574.282 7        46.812
S21         5.000    38366637.728 7 201617800.05007      -440.153 7        42.432
E05         6.000    25477797.661 6 133886567.08506     -3156.457 6        39.760                                                                    25477812.988 7  99980197.18007     -2357.084 7        44.089    25477810.597 7 102588375.41107     -2418.579 7        43.446
G17         7.000    23430442.756 7 123127888.30507      2240.518 7        42.004                                    23430451.022 6  95943877.17106      1745.850 6        36.537    23430450.760 6  95943873.17806      1746.076 6        39.390
R10         8.000    23601360.852 6 125808355.94206     -4450.196 6        38.574
R19         9.000    23826547.614 5 127455923.62905     -1564.653 5        33.048                                                                    23826555.733 6  99132446.74106     -1217.007 6        39.123
C26        11.000                                                                                                                                    22540775.158 8 117375748.06608      1405.013 8        48.733                                                                    22540777.688 8  95377427.77108      1141.704 8        48.490
S27        12.000    39071082.193 6 205319743.41006      -472.955 6        36.215
G15        13.000    20624676.984 8 108383352.33708      1416.738 8        48.493                                    20624677.184 7  84454529.45707      1103.953 7        47.374    20624677.727 7  84454521.45207      1103.927 7        44.360
S36        14.000    38136571.553 7 200409456.12107      -441.538 7        44.336
G20        15.000    24815413.326 6 130405646.95306     -4038.217 6        37.138                                    24815423.614 2 101614710.97102     -3146.651 2        17.019
R11        16.000    19607980.767 8 104779078.16008     -2400.857 8        51.436                                                                    19607983.545 8  81494829.76908     -1867.276 8        49.013
S45        17.000    63318646.482 6 332742105.20906      -489.602 6        36.302
E24        19.000    27061645.126 6 142209756.87406     -3072.034 6        40.045                                                                    27061654.743 7 106195568.91207     -2294.041 7        43.329    27061652.977 7 108965889.35907     -2353.870 7        43.376
E33        20.000    28766427.265 4 151168589.60204       656.107 4        27.485                                                                    28766432.212 5 112885653.35905       489.988 5        35.019    28766430.318 5 115830492.31605       502.311 5        34.733
G30        21.000    22331507.044 7 117352775.91307     -2924.379 7        45.004                                    22331512.346 7  91443701.75107     -2278.728 7        42.971    22331512.665 6  91443705.73306     -2278.679 6        41.509
I06        22.000    38020992.562 7 149202624.90207      -412.179 7        42.806
S28        23.000    40809592.818 5 214455640.17105      -449.633 5        35.419
G14        24.000    20536324.543 7 107919103.57007     -1233.518 7        47.503                                    20536325.537 6  84092806.62106      -961.180 6        39.601    20536325.486 8  84092808.61908      -961.225 8        48.112
S23        25.000    38069072.325 7 200054233.41107      -441.126 7        44.421
E08        26.000    24213521.661 7 127242858.02907      1173.445 7        46.678                                                                    24213525.045 8  95018998.68208       876.278 8        49.732    24213524.116 8  97497754.79608       899.121 8        50.094
C07        27.000                                                                                                                                    38776644.986 6 201920139.71406      -161.525 6        41.375    38776645.513 7 156137467.63607      -124.832 7        44.384    38776642.393 6 164076648.14206      -131.387 6        41.411
G13        28.000    19763225.015 8 103856403.69608      -602.236 8        48.713                                    19763224.000 6  80927035.33206      -469.275 6        40.679
I02        29.000    37309953.429 7 146412273.77707       107.834 7        42.758
C22        30.000                                                                                                                                    25694383.308 6 133797175.14006     -3978.942 6        40.944                                                                    25694388.811 7 108721099.94807     -3233.289 7        42.463
E07        31.000    28431995.622 6 149411120.84706      2362.835 6        37.478                                                                    28432000.855 6 111573250.93406      1764.543 6        38.955    28431999.921 6 114483853.87406      1810.589 6        39.036
E03        32.000    23478865.371 8 123382219.21308     -1461.591 8        48.645                                                                    23478870.083 8  92136071.79608     -1091.425 8        50.800    23478869.280 8  94539617.68808     -1119.910 8        50.911
G05        33.000    22790417.367 7 119764361.51707     -3597.723 7        44.603                                    22790420.623 6  93322848.49706     -2803.413 6        40.977    22790421.271 6  93322851.48106     -2803.207 6        41.168
E26        34.000    28282781.439 6 148626968.59006     -1401.798 6        37.819                                                                    28282784.470 6 110987659.67106     -1046.886 6        39.745    28282783.362 6 113882985.19506     -1074.139 6        39.871
C36        35.000                                                                                                                                    25283853.174 6 131659473.41806     -3388.672 6        41.573                                                                    25283867.633 7 106984088.93607     -2753.559 7        42.995
G23        36.000    23912317.474 6 125660016.22206      1954.291 6        40.219                                    23912319.550 4  97916864.42104      1522.830 4        25.038    23912319.196 6  97916865.39906      1522.799 6        40.017
I09        38.000    40158314.590 6 157589542.43606      -993.035 6        39.126
R08        39.000    23226261.747 6 124375356.60106     -4809.626 6        41.437                                                                    23226274.162 6  96736330.19406     -3740.724 6        41.175
E25        40.000    23575443.924 7 123889789.35007      -833.638 7        47.943                                                                    23575449.238 8  92515103.62508      -622.467 8        50.738    23575448.265 8  94928533.39708      -638.723 8        50.916
S44        42.000    40815734.641 6 214488059.48106      -435.584 6        37.028
C09        43.000                                                                                                                                    41017743.746 5 213589902.36105     -1053.420 5        34.824    41017757.632 6 165161181.46906      -814.673 6        39.838    41017751.361 6 173559215.66806      -856.223 6        36.503
C05        44.000                                                                                                                                    39300349.940 6 204647088.54806      -494.678 6        37.403    39300357.718 7 158246086.69307      -382.491 7        43.395    39300355.902 6 166292587.74706      -401.925 6        39.498
C40        45.000                                                                                                                                    38772552.652 7 201898843.08407      -171.681 7        43.185                                                                    38772557.416 7 164059360.02107      -139.402 7        43.107
C21        46.000                                                                                                                                    22570472.083 8 117530297.41408     -2358.591 8        50.929                                                                    22570470.394 8  95502950.79008     -1916.520 8        49.646
C10        49.000                                                                                                                                    38694373.248 6 201491771.06706       211.513 6        40.944    38694377.734 7 155806236.36807       163.468 7        44.360    38694374.019 6 163728573.60006       171.964 6        41.271
C42        50.000                                                                                                                                    22783327.602 8 118638704.65408       776.597 8        48.735                                                                    22783338.725 8  96403689.49408       631.054 8        49.353
S48        51.000    77081128.553 6 405063908.33206      -429.551 6        38.072
E02        53.000    24537814.207 7 128947157.61007      1899.597 7        46.501                                                                    24537819.695 8  96291782.68808      1418.549 8        49.033    24537818.419 8  98803724.09708      1455.506 8        48.772
C60        54.000                                                                                                                                    40815732.958 6 212538185.23206      -431.884 6        40.372                                                                    40815728.085 6 172704603.20106      -350.966 6        38.150
C45        55.000                                                                                                                                    21894681.355 8 114011304.42308     -1691.618 8        49.725                                                                    21894676.749 8  92643487.27108     -1374.556 8        49.927
R12        56.000    20108794.733 8 107417663.19308      1907.929 8        51.450                                                                    20108799.031 7  83547109.50707      1483.927 7        47.652
C02        57.000                                                                                                                                    40873818.651 5 212840477.46705      -480.508 5        32.551    40873830.373 6 164581681.58806      -371.721 6        37.183    40873828.629 5 172950268.93805      -391.017 5        31.917
I03        58.000   124114183.618 6 411265111.12106       910.118 6        39.781
C14        59.000                                                                                                                                    24475956.889 6 127452671.17906      2093.300 6        41.635    24475958.567 7  98554463.61607      1618.635 7        47.314    24475955.732 7 103565707.64507      1700.961 7        44.844
G07        60.000    25276274.721 6 132827477.33806     -3309.938 6        36.499                                    25276287.003 4 103501855.71304     -2579.175 4        24.195    25276288.184 5 103501856.70705     -2579.122 5        32.078
> 2025 01 01 09 00 50.0000000  0 53
G08         1.000    25372940.252 4 133335770.78604     -3118.665 4        24.511                                    25372947.563 1 103898060.85301     -2430.070 1         7.875    25372948.560 4 103898070.85604     -2431.339 4        26.766
R01         2.000    19371714.151 8 103552840.75908     -2211.572 8        49.389                                                                    19371717.719 6  80541150.28506     -1720.151 6        41.175
G24         3.000    23693025.297 6 124507672.22606      2926.105 6        40.584                                    23693031.658 5  97018989.48705      2280.079 5        34.019    23693031.992 6  97018986.48806      2279.956 6        37.561
R02         4.000    20100024.946 8 107257530.77608      2020.995 8        51.580                                                                    20100029.090 7  83422525.11807      1571.902 7        46.775
S21         5.000    38367056.432 7 201620001.75107      -440.311 7        42.444
E05         6.000    25480801.269 6 133902352.11306     -3157.245 6        39.541                                                                    25480816.856 7  99991984.64607     -2357.723 7        44.271    25480814.427 7 102600470.38607     -2419.203 7        43.390
G17         7.000    23428311.854 7 123116689.83407      2239.127 7        42.051                                    23428319.977 6  95935151.12606      1744.762 6        36.662    23428319.976 6  95935147.13906      1744.825 6        39.420
R10         8.000    23605535.328 6 125830607.89406     -4450.346 6        38.682
R19         9.000    23828015.375 5 127463757.53605     -1568.635 5        33.359                                                                    23828019.636 6  99138539.73606     -1220.059 6        39.420
C26        11.000                                                                                                                                    22539426.990 8 117368727.91308      1403.329 8        48.742                                                                    22539429.536 8  95371723.33708      1140.136 8        48.513
S27        12.000    39071532.968 6 205322109.92606      -473.189 6        36.329
G15        13.000    20623330.227 8 108376276.63708      1413.889 8        48.235                                    20623330.738 7  84449015.91807      1101.731 7        47.403    20623331.122 7  84449007.91807      1101.669 7        44.098
S36        14.000    38136991.179 7 200411664.28407      -441.504 7        44.190
G20        15.000    24819255.738 6 130425838.80906     -4037.975 6        37.164                                    24819265.990 2 101630444.79002     -3146.435 2        17.698
R11        16.000    19610228.386 8 104791089.68608     -2403.527 8        51.042                                                                    19610231.778 8  81504172.05708     -1869.418 8        49.175
S45        17.000    63319068.058 6 332744554.06906      -489.479 6        36.144
E24        19.000    27064568.555 6 142225119.99806     -3072.906 6        40.110                                                                    27064578.369 7 106207041.32307     -2294.758 7        43.448    27064576.658 7 108977661.05807     -2354.669 7        43.302
E33        20.000    28765804.360 4 151165316.37604       653.951 4        28.635                                                                    28765809.352 5 112883209.04705       487.999 5        35.243    28765808.157 5 115827984.21605       500.704 5        34.871
G30        21.000    22334289.903 7 117367400.81307     -2925.351 7        44.880                                    22334295.408 7  91455097.74807     -2279.489 7        43.020    22334295.727 6  91455101.74106     -2279.421 6        41.173
I06        22.000    38021518.026 7 149204686.56207      -412.280 7        42.796
S28        23.000    40810020.234 5 214457890.24705      -449.836 5        35.186
G14        24.000    20537499.820 7 107925279.16707     -1236.490 7        47.635                                    20537500.711 6  84097618.76306      -963.496 6        39.634    20537501.037 7  84097620.76107      -963.470 7        47.918
S23        25.000    38069493.177 7 200056439.79207      -441.235 7        44.336
E08        26.000    24212405.867 7 127236994.58007      1172.144 7        46.741                                                                    24212409.219 8  95014620.12008       875.293 8        49.714    24212408.360 8  97493262.01208       898.099 8        50.153
C07        27.000                                                                                                                                    38776800.058 6 201920950.27006      -162.356 6        41.364    38776801.443 7 156138094.38707      -125.619 7        44.384    38776798.061 6 164077306.76206      -132.058 6        41.309
G13        28.000    19763799.581 8 103859422.40408      -605.023 8        48.763                                    19763798.442 6  80929387.56906      -471.444 6        40.677
I02        29.000    37309816.413 7 146411735.14007       107.740 7        42.734
C22        30.000                                                                                                                                    25698204.045 6 133817071.77806     -3979.308 6        40.951                                                                    25698209.904 7 108737267.53907     -3233.725 7        42.643
E07        31.000    28429747.354 6 149399306.82806      2362.954 6        36.915                                                                    28429752.616 6 111564428.73706      1764.662 6        38.715    28429751.975 6 114474801.53806      1810.610 6        39.000
E03        32.000    23480256.961 8 123389532.06708     -1463.322 8        48.575                                                                    23480261.710 8  92141532.67408     -1092.732 8        50.853    23480260.893 8  94545221.02508     -1121.267 8        50.933
G05        33.000    22793841.760 7 119782354.57007     -3599.389 7        44.918                                    22793844.625 6  93336869.02106     -2804.713 6        40.953    22793845.030 6  93336872.00006     -2804.674 6        40.820
E26        34.000    28284116.627 6 148633983.82606     -1404.026 6        38.390                                                                    28284119.386 6 110992898.30706     -1048.561 6        39.937    28284118.573 6 113888360.49706     -1075.887 6        40.160
C36        35.000                                                                                                                                    25287107.604 6 131676418.08906     -3389.010 6        41.435                                                                    25287121.614 7 106997857.81607     -2753.836 7        43.010
G23        36.000    23910459.371 6 125650251.85106      1951.804 6        39.853                                    23910461.435 4  97909255.79604      1520.890 4        25.188    23910461.860 6  97909256.78906      1520.853 6        40.806
I09        38.000    40159580.190 6 157594508.30706      -992.968 6        39.078
R08        39.000    23230753.865 6 124399407.91806     -4810.573 6        41.356                                                                    23230765.557 6  96755036.68206     -3741.593 6        40.746
E25        40.000    23576238.371 7 123893963.43507      -835.790 7        47.934                                                                    23576243.530 8  92518220.62208      -624.132 8        50.775    23576242.615 8  94931731.71008      -640.420 8        50.873
S44        42.000    40816148.963 6 214490239.05506      -435.748 6        36.998
C09        43.000                                                                                                                                    41018754.917 5 213595170.53705     -1053.801 5        34.648    41018769.162 6 165165255.14506      -814.679 6        39.739    41018762.840 6 173563496.48706      -856.088 6        36.529
C05        44.000                                                                                                                                    39300824.741 6 204649562.28506      -494.641 6        37.244    39300832.636 7 158247999.55307      -382.500 7        43.316    39300831.021 6 166294597.87406      -402.079 6        39.390
C40        45.000                                                                                                                                    38772718.285 7 201899704.57607      -172.671 7        42.690                                                                    38772722.894 7 164060060.06207      -140.478 7        43.196
C21        46.000                                                                                                                                    22572738.060 8 117542097.00708     -2360.975 8        51.015                                                                    22572736.330 8  95512538.92508     -1918.632 8        49.577
C10        49.000                                                                                                                                    38694171.463 6 201490716.38406       210.726 6        41.058    38694174.994 7 155805420.81507       162.863 7        44.567    38694171.495 6 163727716.58606       171.054 6        41.294
C42        50.000                                                                                                                                    22782583.274 8 118634828.93208       774.001 8        48.482                                                                    22782594.393 8  96400540.15308       628.819 8        49.340
S48        51.000    77081540.873 6 405066056.87606      -429.793 6        38.198
E02        53.000    24536007.812 7 128937664.10307      1898.081 7        46.741                                                                    24536013.142 8  96284693.38408      1417.362 8        49.069    24536011.832 8  98796449.85108      1454.353 8        48.839
C60        54.000                                                                                                                                    40816147.517 6 212540344.99406      -431.798 6        40.367                                                                    40816142.989 6 172706358.20006      -351.056 6        38.138
C45        55.000                                                                                                                                    21896306.621 8 114019767.59608     -1693.378 8        49.643                                                                    21896301.989 8  92650364.28908     -1376.136 8        49.934
R12        56.000    20107010.419 8 107408131.34008      1905.042 8        51.729                                                                    20107014.675 7  83539695.84007      1481.732 7        47.026
C02        57.000                                                                                                                                    40874280.766 5 212842881.09605      -480.548 5        32.222    40874292.175 6 164583540.18906      -371.751 6        37.248    40874290.462 5 172952222.05305      -390.662 5        31.540
I03        58.000   124113023.870 6 411260561.29806       910.027 6        39.820
C14        59.000                                                                                                                                    24473948.355 6 127442209.91706      2091.505 6        41.569    24473949.625 7  98546374.30707      1617.213 7        47.570    24473946.738 7 103557207.02707      1699.314 7        44.865
G07        60.000    25279424.902 6 132844027.39906     -3310.132 6        36.367                                    25279436.335 4 103514751.87104     -2579.329 4        24.406    25279436.932 5 103514752.90205     -2579.539 5        32.228
> 2025 01 01 09 00 55.0000000  0 53
G08         1.000    25375909.254 4 133351369.64404     -3120.866 4        25.504                                    25375915.955 1 103910215.85501     -2431.957 1         6.750    25375917.954 4 103910225.84804     -2431.953 4        25.895
R01         2.000    19373784.183 8 103563908.73308     -2215.604 8        49.338                                                                    19373788.464 6  80549758.69906     -1723.428 6        41.623
G24         3.000    23690242.393 6 124493044.02106      2925.444 6        40.250                                    23690248.010 5  97007590.89305      2279.563 5        34.019    23690247.834 6  97007587.90606      2279.546 6        36.858
R02         4.000    20098132.916 8 107247434.46508      2017.706 8        51.594                                                                    20098136.507 7  83414672.42707      1569.295 7        46.289
S21         5.000    38367477.471 7 201622203.42907      -440.382 7        42.373
E05         6.000    25483805.763 6 133918140.43306     -3158.015 6        39.000                                                                    25483821.313 7 100003774.57507     -2358.297 7        44.302    25483819.002 7 102612567.88207     -2419.704 7        43.407
G17         7.000    23426182.042 7 123105498.28307      2237.601 7        42.555                                    23426190.326 6  95926430.47806      1743.580 6        36.991    23426190.389 6  95926426.49206      1743.444 6        39.583
R10         8.000    23609708.645 6 125852859.81106     -4450.553 6        38.805
R19         9.000    23829483.338 5 127471611.55305     -1572.819 5        33.102                                                                    23829488.120 6  99144648.41506     -1223.448 6        38.907
C26        11.000                                                                                                                                    22538080.389 8 117361715.82408      1401.555 8        48.940                                                                    22538082.935 8  95366025.43908      1138.889 8        48.660
S27        12.000    39071979.835 6 205324476.18106      -473.301 6        36.117
G15        13.000    20621986.346 7 108369214.85607      1410.950 7        47.957                                    20621986.926 7  84443513.22507      1099.443 7        47.382    20621987.564 7  84443505.21907      1099.460 7        44.420
S36        14.000    38137410.877 7 200413872.59007      -441.618 7        44.131
G20        15.000    24823098.351 6 130446029.07006     -4037.993 6        36.911                                    24823107.959 2 101646177.41802     -3146.486 2        17.774
R11        16.000    19612478.668 8 104803114.33508     -2406.258 8        51.409                                                                    19612481.491 8  81513524.55608     -1871.517 8        48.887
S45        17.000    63319491.655 6 332747002.94006      -489.649 6        36.125
E24        19.000    27067492.817 6 142240487.46206     -3073.929 6        40.181                                                                    27067502.686 7 106218516.96507     -2295.403 7        43.393    27067500.868 7 108989436.07407     -2355.364 7        43.346
E33        20.000    28765183.608 4 151162054.24304       650.950 4        29.336                                                                    28765188.252 5 112880772.98905       486.302 5        35.505    28765187.458 5 115825484.62505       498.797 5        35.729
G30        21.000    22337074.218 7 117382030.59707     -2926.449 7        44.599                                    22337079.346 7  91466497.55107     -2280.344 7        42.957    22337079.880 6  91466501.53606     -2280.300 6        41.261
I06        22.000    38022043.392 7 149206748.28007      -412.373 7        42.700
S28        23.000    40810453.212 5 214460140.21705      -450.016 5        35.129
G14        24.000    20538677.886 7 107931469.16707     -1239.463 7        47.572                                    20538678.644 6  84102442.12606      -965.815 6        39.607    20538678.618 7  84102444.12407      -965.893 7        47.926
S23        25.000    38069912.753 7 200058646.05607      -441.317 7        44.444
E08        26.000    24211291.454 7 127231137.16207      1170.762 7        46.659                                                                    24211294.641 8  95010246.06608       874.370 8        49.831    24211293.733 8  97488773.85208       897.157 8        50.298
C07        27.000                                                                                                                                    38776955.736 6 201921764.65606      -163.135 6        41.299    38776957.913 7 156138724.10607      -126.218 7        44.415    38776954.532 6 164077968.50006      -132.724 6        41.642
G13        28.000    19764376.493 8 103862454.69808      -607.884 8        48.600                                    19764375.496 6  80931750.39206      -473.673 6        40.656
I02        29.000    37309679.292 7 146411197.56007       107.241 7        42.445
C22        30.000                                                                                                                                    25702025.389 6 133836970.14506     -3979.891 6        41.004                                                                    25702031.197 7 108753436.53007     -3233.999 7        42.736
E07        31.000    28427498.363 6 149387492.34406      2362.802 6        36.382                                                                    28427504.590 6 111555606.19606      1764.513 6        39.027    28427503.699 6 114465748.84806      1810.620 6        38.814
E03        32.000    23481649.934 8 123396853.16408     -1465.058 8        48.651                                                                    23481654.828 8  92146999.73008     -1094.059 8        50.902    23481654.021 8  94550830.69608     -1122.569 8        50.923
G05        33.000    22797267.239 7 119800355.70207     -3601.111 7        44.998                                    22797270.179 6  93350895.84006     -2806.055 6        40.946    22797270.639 6  93350898.83106     -2806.048 6        40.460
E26        34.000    28285452.880 6 148641010.08306     -1406.218 6        38.483                                                                    28285456.151 6 110998145.16606     -1050.163 6        39.874    28285455.502 6 113893744.23306     -1077.618 6        40.310
C36        35.000                                                                                                                                    25290361.608 6 131693363.92306     -3389.326 6        41.449                                                                    25290375.872 7 107011627.66707     -2754.067 7        43.009
G23        36.000    23908603.958 6 125640499.94206      1949.113 6        40.467                                    23908605.770 4  97901656.88104      1518.790 4        25.128    23908606.241 6  97901657.88006      1518.818 6        40.691
I09        38.000    40160845.666 6 157599474.01406      -993.067 6        38.724
R08        39.000    23235245.556 6 124423463.96606     -4811.673 6        41.044                                                                    23235257.679 6  96773746.82606     -3742.360 6        40.362
E25        40.000    23577034.731 7 123898148.23707      -838.105 7        47.903                                                                    23577039.884 8  92521345.63808      -625.859 8        50.777    23577038.951 8  94934938.24708      -642.163 8        50.984
S44        42.000    40816559.758 6 214492418.39406      -436.040 6        36.900
C09        43.000                                                                                                                                    41019766.793 5 213600438.47805     -1053.839 5        34.348    41019780.411 6 165169328.66706      -814.431 6        39.697    41019774.631 6 173567777.12506      -856.090 6        36.696
C05        44.000                                                                                                                                    39301299.748 6 204652035.86306      -494.646 6        37.304    39301307.374 7 158249912.30207      -382.493 7        43.211    39301306.041 6 166296607.87606      -402.087 6        39.580
C40        45.000                                                                                                                                    38772884.953 7 201900570.95007      -173.863 7        42.726                                                                    38772889.237 7 164060764.07107      -141.226 7        43.367
C21        46.000                                                                                                                                    22575006.512 8 117553908.32808     -2363.441 8        51.222                                                                    22575004.602 8  95522136.57908     -1920.461 8        49.808
C10        49.000                                                                                                                                    38693969.668 6 201489665.25406       209.757 6        41.297    38693973.494 7 155804608.01707       162.251 7        44.599    38693969.631 6 163726862.46206       170.452 6        41.447
C42        50.000                                                                                                                                    22781841.353 8 118630965.82908       771.321 8        48.621                                                                    22781852.586 8  96397401.04808       626.807 8        49.552
S48        51.000    77081954.274 6 405068205.06206      -429.728 6        38.042
E02        53.000    24534202.655 7 128928178.10207      1896.475 7        46.799                                                                    24534207.979 8  96277609.69508      1416.168 8        49.153    24534206.734 8  98789181.37208      1453.098 8        48.979
C60        54.000                                                                                                                                    40816561.902 6 212542504.50006      -432.013 6        40.338                                                                    40816557.781 6 172708113.01306      -351.000 6        38.252
C45        55.000                                                                                                                                    21897933.272 8 114028239.11308     -1695.177 8        49.842                                                                    21897928.856 8  92657248.07708     -1377.388 8        50.060
R12        56.000    20105228.567 8 107398613.40208      1902.198 8        51.316                                                                    20105233.489 7  83532293.01607      1479.517 7        47.488
C02        57.000                                                                                                                                    40874741.737 5 212845284.45715      -480.526 5        32.341    40874753.857 6 164585398.65406      -371.759 6        37.289    40874752.010 5 172954174.96705      -390.455 5        31.789
I03        58.000   124111864.526 6 411256011.23406       910.115 6        39.532
C14        59.000                                                                                                                                    24471941.283 6 127431756.92106      2089.693 6        41.828    24471942.580 7  98538291.38907      1615.882 7        47.774    24471939.405 7 103548713.09307      1698.124 7        45.001
G07        60.000    25282574.137 6 132860578.20306     -3310.286 6        36.953                                    25282585.780 4 103527648.60504     -2579.455 4        25.128    25282586.683 5 103527649.61405     -2579.402 5        32.916
> 2025 01 01 09 01  0.0000000  0 53
G08         1.000                                                                                                                                                                    25378886.791 4 103922388.74704     -2433.111 4        24.977
R01         2.000    19375858.697 8 103574996.25608     -2219.634 8        49.387                                                                    19375863.066 6  80558382.32106     -1726.298 6        41.850
G24         3.000    23687459.087 6 124478418.96606      2924.370 6        39.895                                    23687464.931 5  96996194.75805      2278.735 5        34.067    23687465.113 6  96996191.77306      2278.818 6        37.641
R02         4.000    20096243.731 8 107237353.56208      2014.431 8        51.302                                                                    20096247.684 7  83406831.72407      1566.749 7        46.642
S21         5.000    38367896.400 7 201624404.96107      -440.521 7        42.256
E05         6.000    25486810.872 6 133933931.96906     -3158.908 6        38.399                                                                    25486826.320 7 100015566.89007     -2358.871 7        44.262    25486824.200 7 102624667.84107     -2420.392 7        43.664
G17         7.000    23424054.073 7 123094313.55207      2236.156 7        42.474                                    23424061.977 6  95917715.14506      1742.453 6        37.282    23424061.693 6  95917711.16706      1742.392 6        39.144
R10         8.000    23613883.307 6 125875111.56506     -4450.378 6        39.051
R19         9.000    23830954.774 5 127479485.77605     -1577.217 5        33.725                                                                    23830960.050 6  99150772.84706     -1226.686 6        39.420
C26        11.000                                                                                                                                    22536735.396 8 117354711.71108      1399.791 8        49.062                                                                    22536737.833 8  95360334.03208      1137.475 8        48.664
S27        12.000    39072432.542 6 205326842.54106      -473.714 6        36.057
G15        13.000    20620645.527 8 108362166.89508      1408.012 8        48.101                                    20620645.743 7  84438021.30007      1097.155 7        47.419    20620646.229 7  84438013.29907      1097.188 7        44.354
S36        14.000    38137830.476 7 200416080.58907      -441.806 7        43.973
G20        15.000    24826940.644 6 130466217.62506     -4037.680 6        37.198                                    24826950.040 2 101661908.66802     -3146.215 2        17.623
R11        16.000    19614731.425 8 104815152.01108     -2409.048 8        51.340                                                                    19614734.227 8  81522887.19108     -1873.663 8        49.408
S45        17.000    63319909.720 6 332749451.71106      -489.934 6        36.121
E24        19.000    27070417.984 6 142255859.17106     -3074.916 6        40.031                                                                    27070427.886 7 106229995.79607     -2296.165 7        43.465    27070425.832 7 109001214.35507     -2356.057 7        43.365
E33        20.000    28764564.422 4 151158803.00004       649.002 4        29.450                                                                    28764569.591 5 112878345.12405       484.603 5        35.300    28764568.743 5 115822993.40605       497.173 5        35.871
G30        21.000    22339858.974 7 117396665.19707     -2927.528 7        44.459                                    22339864.183 7  91477901.10407     -2281.186 7        42.948    22339864.764 6  91477905.09006     -2281.108 6        41.204
I06        22.000    38022568.442 7 149208810.00107      -412.427 7        42.627
S28        23.000    40810873.039 5 214462390.17405      -449.794 5        34.986
G14        24.000    20539858.652 7 107937673.49407     -1242.493 7        47.444                                    20539859.291 6  84107276.65306      -968.175 6        39.628    20539859.496 7  84107278.65007      -968.208 7        47.846
S23        25.000    38070331.660 7 200060852.28007      -441.274 7        44.158
E08        26.000    24210177.935 7 127225285.70007      1169.460 7        46.734                                                                    24210181.140 8  95005876.46208       873.305 8        49.800    24210180.251 8  97484290.26208       896.062 8        50.432
C07        27.000                                                                                                                                    38777113.315 6 201922582.84406      -164.146 6        41.366    38777114.948 7 156139356.75707      -126.938 7        44.408    38777111.791 6 164078633.31206      -133.293 6        41.528
G13        28.000    19764956.027 8 103865500.52508      -610.747 8        48.546                                    19764955.085 6  80934123.76106      -475.907 6        40.713
I02        29.000    37309542.397 7 146410661.16507       107.138 7        42.381
C22        30.000                                                                                                                                    25705847.103 6 133856870.13006     -3980.240 6        41.182                                                                    25705852.899 7 108769606.84207     -3234.256 7        42.718
E07        31.000    28425250.502 6 149375677.25506      2362.760 6        36.314                                                                    28425256.152 6 111546783.19006      1764.585 6        38.955    28425255.050 6 114456695.67906      1810.503 6        38.736
E03        32.000    23483044.730 8 123404182.44508     -1466.888 8        48.497                                                                    23483049.551 8  92152472.88108     -1095.371 8        50.945    23483048.771 8  94556446.63208     -1123.961 8        51.190
G05        33.000    22800694.183 7 119818364.99407     -3602.849 7        44.054                                    22800697.261 6  93364929.02606     -2807.409 6        40.932    22800697.560 6  93364932.01906     -2807.481 6        40.405
E26        34.000    28286792.056 6 148648047.42706     -1408.829 6        38.210                                                                    28286795.432 6 111003400.32406     -1051.991 6        39.628    28286794.273 6 113899136.47606     -1079.362 6        40.396
C36        35.000                                                                                                                                    25293616.060 6 131710310.88606     -3389.661 6        41.309                                                                    25293630.571 7 107025398.41307     -2754.343 7        43.115
G23        36.000    23906751.009 6 125630760.47306      1946.367 6        40.181                                    23906752.300 4  97894067.65404      1516.658 4        25.113    23906752.297 6  97894068.64206      1516.733 6        40.019
I09        38.000    40162110.871 6 157604439.51106      -993.081 6        38.886
R08        39.000    23239738.660 6 124447524.64106     -4812.938 6        40.880                                                                    23239751.234 6  96792460.61306     -3743.300 6        40.534
E25        40.000    23577833.127 7 123902343.69207      -840.355 7        47.837                                                                    23577838.289 8  92524478.59308      -627.510 8        50.840    23577837.340 8  94938152.93008      -643.835 8        51.180
S44        42.000    40816971.129 6 214494597.37606      -436.110 6        36.745
C09        43.000                                                                                                                                    41020778.316 5 213605706.23205     -1054.080 5        34.143    41020791.937 6 165173402.02806      -814.867 6        39.553    41020786.224 6 173572057.62006      -856.401 6        36.779
C05        44.000                                                                                                                                    39301774.755 6 204654509.22806      -494.992 6        37.259    39301782.654 7 158251824.86407      -382.629 7        43.352    39301780.963 6 166298617.67906      -402.055 6        39.574
C40        45.000                                                                                                                                    38773052.429 7 201901442.14207      -174.899 7        42.605                                                                    38773056.545 7 164061471.99907      -142.204 7        43.446
C21        46.000                                                                                                                                    22577277.011 8 117565731.32908     -2365.978 8        50.948                                                                    22577275.091 8  95531743.71508     -1922.439 8        49.879
C10        49.000                                                                                                                                    38693768.407 6 201488617.67506       208.967 6        41.371    38693772.269 7 155803797.96607       161.580 7        44.560    38693768.305 6 163726011.21106       169.810 6        41.421
C42        50.000                                                                                                                                    22781102.241 8 118627115.25408       768.677 8        48.694                                                                    22781113.111 8  96394272.13208       624.615 8        49.541
S48        51.000    77082372.116 6 405070353.92406      -429.944 6        37.856
E02        53.000    24532398.821 7 128918699.54607      1894.716 7        46.607                                                                    24532404.288 8  96270531.55608      1414.912 8        49.122    24532403.022 8  98781918.58408      1451.839 8        49.093
C60        54.000                                                                                                                                    40816976.958 6 212544663.69006      -431.895 6        40.322                                                                    40816972.292 6 172709867.53706      -350.829 6        38.453
C45        55.000                                                                                                                                    21899561.692 8 114036718.90108     -1696.979 8        50.066                                                                    21899557.326 8  92664138.60308     -1378.891 8        50.144
R12        56.000    20103449.049 8 107389109.28508      1899.287 8        51.949                                                                    20103453.607 7  83524900.93507      1477.152 7        47.588
C02        57.000                                                                                                                                    40875204.049 5 212847687.61005      -481.184 5        32.629    40875215.127 6 164587256.87306      -371.730 6        37.070    40875213.472 5 172956127.72405      -390.588 5        31.909
I03        58.000   124110704.944 6 411251460.87406       910.056 6        39.532
C14        59.000                                                                                                                                    24469935.437 6 127421312.21706      2087.973 6        41.981    24469936.653 7  98530214.86207      1614.562 7        47.706    24469933.626 7 103540225.91007      1696.647 7        45.058
G07        60.000    25285723.570 6 132877129.60906     -3310.769 6        37.527                                    25285735.358 4 103540545.81104     -2579.824 4        25.519    25285735.962 5 103540546.78405     -2579.591 5        33.162
> 2025 01 01 09 01  5.0000000  0 53
G08         1.000    25381850.368 3                     -3125.488 3        21.929                                                                                                    25381860.002 4 103934560.01104     -2434.943 4        24.120
R01         2.000    19377936.680 8 103586103.77608     -2223.567 8        49.439                                                                    19377941.254 7  80567021.48807     -1729.375 7        42.279
G24         3.000    23684676.531 6 124463797.39106      2923.848 6        39.658                                    23684682.566 5  96984801.33505      2278.320 5        34.167    23684682.823 6  96984798.36606      2278.242 6        36.907
R02         4.000    20094357.672 8 107227288.69208      2011.303 8        51.744                                                                    20094361.666 7  83399003.47707      1564.320 7        46.709
S21         5.000    38368314.559 7 201626606.53007      -440.385 7        42.381
E05         6.000    25489816.374 6 133949727.06006     -3159.553 6        38.240                                                                    25489831.992 7 100027361.86107     -2359.313 7        44.137    25489830.104 7 102636770.51407     -2420.867 7        43.625
G17         7.000    23421926.653 7 123083136.03607      2234.764 7        42.445                                    23421934.911 6  95909005.43206      1741.370 6        37.323    23421934.771 6  95909001.44406      1741.324 6        38.754
R10         8.000    23618058.650 6 125897363.51206     -4450.453 6        38.952
R19         9.000    23832429.178 5 127487380.48905     -1581.156 5        32.802                                                                    23832435.993 6  99156913.17406     -1229.838 6        39.159
C26        11.000                                                                                                                                    22535391.812 8 117347715.92808      1398.237 8        49.167                                                                    22535394.403 8  95354649.37908      1136.215 8        48.634
S27        12.000    39072879.678 5 205329208.87505      -473.325 5        35.952
G15        13.000    20619307.214 8 108355133.10008      1405.233 8        48.244                                    20619307.279 7  84432540.41707      1094.991 7        47.531    20619307.578 7  84432532.41507      1095.046 7        43.788
S36        14.000    38138246.672 7 200418288.08307      -441.486 7        44.000
G20        15.000    24830781.680 6 130486404.77706     -4037.337 6        37.115                                    24830791.602 3 101677638.87403     -3145.965 3        18.119
R11        16.000    19616986.312 8 104827203.10508     -2411.671 8        50.929                                                                    19616989.792 8  81532260.23908     -1875.721 8        49.585
S45        17.000    63320328.554 6 332751900.54806      -489.688 6        36.019
E24        19.000    27073343.873 6 142271235.48406     -3075.867 6        39.438                                                                    27073353.757 7 106241478.05507     -2296.838 7        43.177    27073351.772 7 109012996.15807     -2356.790 7        42.919
E33        20.000    28763948.462 4 151155563.15604       647.001 4        29.213                                                                    28763952.961 5 112875925.75005       482.837 5        34.862    28763952.474 6 115820510.92306       495.483 6        36.333
G30        21.000    22342644.840 7 117411304.90707     -2928.540 7        44.775                                    22342650.062 7  91489308.63907     -2281.973 7        42.916    22342651.004 6  91489312.62106     -2281.983 6        41.425
I06        22.000    38023094.148 7 149210871.98807      -412.497 7        42.715
S28        23.000    40811301.653 5 214464639.88605      -450.112 5        34.776
G14        24.000    20541041.901 7 107943892.47507     -1245.337 7        47.559                                    20541042.728 6  84112122.60206      -970.389 6        39.721    20541042.843 7  84112124.59607      -970.408 7        47.605
S23        25.000    38070751.809 7 200063058.75407      -441.367 7        44.298
E08        26.000    24209065.557 7 127219440.52907      1168.363 7        46.757                                                                    24209068.859 8  95001511.55608       872.494 8        49.823    24209067.969 8  97479811.48608       895.213 8        50.327
C07        27.000                                                                                                                                    38777271.390 6 201923405.14706      -165.031 6        41.449    38777272.665 7 156139992.58607      -127.508 7        44.212    38777269.659 6 164079301.48106      -134.035 6        41.473
G13        28.000    19765538.426 8 103868560.17808      -613.348 8        48.742                                    19765537.331 6  80936507.90006      -477.931 6        40.853
I02        29.000    37309406.196 7 146410126.13307       106.681 7        42.546
C22        30.000                                                                                                                                    25709669.048 6 133876772.11606     -3980.690 6        41.464                                                                    25709674.961 7 108785778.76507     -3234.610 7        42.785
E07        31.000    28423002.986 6 149363861.91406      2362.940 6        36.775                                                                    28423007.863 6 111537960.01006      1764.527 6        38.859    28423006.816 6 114447642.33506      1810.483 6        39.003
E03        32.000    23484441.214 8 123411520.23808     -1468.419 8        48.286                                                                    23484445.953 8  92157952.39908     -1096.598 8        50.953    23484445.120 8  94562069.08908     -1125.158 8        51.106
G05        33.000    22804122.293 7 119836382.74307     -3604.386 7        44.879                                    22804125.976 6  93378968.79406     -2808.603 6        40.884    22804126.500 6  93378971.78706     -2808.711 6        40.448
E26        34.000    28288133.494 6 148655096.09006     -1410.872 6        37.807                                                                    28288136.566 6 111008663.96206     -1053.666 6        39.366    28288135.541 6 113904537.40806     -1080.986 6        40.119
C36        35.000                                                                                                                                    25296870.815 6 131727259.28206     -3389.894 6        40.884                                                                    25296885.386 7 107039170.31407     -2754.507 7        43.111
G23        36.000    23904899.684 6 125621033.74906      1943.999 6        40.105                                    23904901.330 4  97886488.36204      1514.796 4        25.338    23904901.325 6  97886489.35706      1514.799 6        40.436
I09        38.000    40163376.313 6 157609405.06606      -993.232 6        39.171
R08        39.000    23244232.986 6 124471590.30806     -4813.830 6        41.006                                                                    23244246.121 6  96811178.24706     -3743.987 6        41.001
E25        40.000    23578633.390 7 123906550.11707      -842.397 7        47.806                                                                    23578638.725 8  92527619.74808      -629.103 8        50.825    23578637.717 8  94941376.03108      -645.531 8        51.090
S44        42.000    40817390.764 6 214496776.38406      -435.690 6        36.824
C09        43.000                                                                                                                                    41021789.527 5 213610974.04705     -1053.675 5        34.343    41021803.765 6 165177475.47006      -814.717 6        39.189    41021797.855 6 173576338.14306      -856.099 6        36.537
C05        44.000                                                                                                                                    39302249.691 6 204656982.66906      -494.832 6        37.550    39302257.612 7 158253737.50307      -382.609 7        43.172    39302255.850 6 166300627.55906      -401.982 6        39.453
C40        45.000                                                                                                                                    38773220.490 7 201902318.48307      -175.915 7        42.665                                                                    38773224.899 7 164062184.08907      -142.888 7        43.318
C21        46.000                                                                                                                                    22579549.612 8 117577566.30608     -2368.256 8        50.818                                                                    22579547.866 8  95541360.59008     -1924.448 8        49.767
C10        49.000                                                                                                                                    38693567.816 6 201487573.89306       208.417 6        41.292    38693571.614 7 155802990.84507       161.050 7        44.494    38693568.068 6 163725163.05206       169.252 6        41.337
C42        50.000                                                                                                                                    22780365.045 8 118623277.57108       766.169 8        48.725                                                                    22780376.104 8  96391153.68108       622.568 8        49.516
S48        51.000    77082784.297 6 405072502.81106      -429.707 6        38.036
E02        53.000    24530596.754 7 128909228.77607      1893.332 7        46.567                                                                    24530602.111 8  96263459.23208      1413.865 8        49.120    24530600.841 8  98774661.76408      1450.763 8        49.071
C60        54.000                                                                                                                                    40817391.496 6 212546822.89406      -431.918 6        40.431                                                                    40817387.106 6 172711622.08106      -350.872 6        38.423
C45        55.000                                                                                                                                    21901191.956 8 114045207.32008     -1698.639 8        50.053                                                                    21901187.445 8  92671036.12008     -1380.282 8        50.082
R12        56.000    20101672.933 8 107379619.41908      1896.465 8        51.627                                                                    20101677.160 7  83517519.91607      1475.068 7        47.748
C02        57.000                                                                                                                                    40875665.735 5 212850090.72205      -480.895 5        32.509    40875676.585 6 164589115.10406      -371.832 6        36.779    40875674.854 5 172958080.41705      -390.743 5        32.138
I03        58.000   124109545.639 6 411246910.49506       909.982 6        39.790
C14        59.000                                                                                                                                    24467930.701 6 127410876.06906      2086.244 6        41.824    24467932.533 7  98522144.96407      1613.295 7        47.677    24467929.520 7 103531745.67107      1695.176 7        45.002
G07        60.000    25288873.856 6 132893681.90906     -3310.552 6        37.701                                    25288885.254 4 103553443.70904     -2579.654 4        25.940    25288885.910 5 103553444.72205     -2579.620 5        33.048
> 2025 01 01 09 01 10.0000000  0 53
G08         1.000    25384822.857 3                     -3126.162 3        22.933                                                                                                    25384833.318 3 103946739.15903     -2437.024 3        23.562
R01         2.000    19380018.027 8 103597230.99008     -2227.492 8        49.356                                                                    19380022.710 7  80575675.97707     -1732.434 7        42.214
G24         3.000    23681894.751 6 124449179.11806      2923.257 6        40.286                                    23681900.748 5  96973410.49305      2277.862 5        34.348    23681900.540 6  96973407.48006      2277.913 6        36.079
R02         4.000    20092474.556 8 107217239.56908      2008.084 8        51.670                                                                    20092478.169 7  83391187.50407      1561.872 7        46.800
S21         5.000    38368734.516 7 201628807.85907      -440.267 7        42.499
E05         6.000    25492822.643 6 133965525.47006     -3160.279 6        38.246                                                                    25492838.316 7 100039159.31907     -2359.827 7        43.970    25492836.502 7 102648875.74607     -2421.421 7        43.968
G17         7.000    23419801.011 7 123071965.51407      2233.284 7        42.070                                    23419809.111 6  95900301.17206      1740.209 6        37.176    23419809.731 6  95900297.19406      1740.032 6        39.117
R10         8.000    23622232.480 6 125919615.49406     -4450.719 6        38.309
R19         9.000    23833911.572 5 127495295.41105     -1584.951 5        33.557                                                                    23833914.585 6  99163069.23206     -1232.885 6        38.958
C26        11.000                                                                                                                                    22534049.552 8 117340728.26308      1396.608 8        49.091                                                                    22534052.450 8  95348971.34308      1134.931 8        48.611
S27        12.000    39073332.188 6 205331575.10206      -473.367 6        36.083
G15        13.000    20617971.228 8 108348113.28008      1402.586 8        48.107                                    20617971.454 7  84427070.42007      1092.924 7        47.620    20617971.351 7  84427062.42707      1092.756 7        44.098
S36        14.000    38138667.072 7 200420494.91607      -441.590 7        44.027
G20        15.000    24834623.010 6 130506590.35806     -4037.077 6        36.786                                    24834633.007 3 101693367.83503     -3145.753 3        18.149
R11        16.000    19619244.332 8 104839267.33208     -2414.276 8        51.347                                                                    19619247.086 8  81541643.52408     -1877.767 8        49.381
S45        17.000    63320754.897 6 332754349.32306      -489.829 6        36.204
E24        19.000    27076270.846 6 142286616.15406     -3076.531 6        39.571                                                                    27076280.650 7 106252963.57407     -2297.445 7        43.045    27076278.777 7 109024781.30507     -2357.469 7        42.897
E33        20.000    28763334.280 4 151152334.46104       644.436 4        29.261                                                                    28763338.707 5 112873514.68005       481.089 5        34.838    28763337.878 6 115818036.95806       493.931 6        36.057
G30        21.000    22345431.598 7 117425949.55607     -2929.593 7        44.662                                    22345436.934 7  91500720.02407     -2282.794 7        43.105    22345437.387 6  91500724.00706     -2282.718 6        41.864
I06        22.000    38023619.534 7 149212934.07107      -412.506 7        42.737
S28        23.000    40811733.911 5 214466889.75105      -450.201 5        35.114
G14        24.000    20542228.222 7 107950125.89507     -1248.263 7        47.632                                    20542228.911 6  84116979.80006      -972.671 6        39.778    20542229.078 7  84116981.79207      -972.688 7        47.927
S23        25.000    38071173.004 7 200065265.26807      -441.364 7        44.393
E08        26.000    24207954.416 7 127213601.46207      1167.093 7        46.718                                                                    24207957.729 8  94997151.20608       871.508 8        49.794    24207956.847 8  97475337.38908       894.270 8        50.391
C07        27.000                                                                                                                                    38777429.885 6 201924231.35006      -165.599 6        41.416    38777431.370 7 156140631.44807      -128.220 7        44.081    38777428.363 6 164079972.84306      -134.710 6        41.566
G13        28.000    19766123.263 8 103871633.47508      -616.188 8        48.696                                    19766122.170 6  80938902.67706      -480.147 6        40.851
I02        29.000    37309270.112 7 146409592.45007       106.534 7        42.444
C22        30.000                                                                                                                                    25713491.140 6 133896675.83606     -3981.117 6        41.333                                                                    25713497.380 7 108801952.10707     -3234.951 7        42.885
E07        31.000    28420754.950 6 149352046.10406      2363.096 6        36.881                                                                    28420759.445 6 111529136.48806      1764.523 6        38.940    28420758.564 6 114438588.63906      1810.754 6        39.396
E03        32.000    23485839.115 8 123418866.34408     -1470.154 8        48.119                                                                    23485843.827 8  92163438.12308     -1097.847 8        50.908    23485843.033 8  94567697.92008     -1126.495 8        51.126
G05        33.000    22807553.323 7 119854408.64307     -3606.174 7        44.898                                    22807556.239 6  93393014.91406     -2809.999 6        41.006    22807557.062 6  93393017.90406     -2810.087 6        41.378
E26        34.000    28289476.601 6 148662155.84606     -1413.217 6        37.943                                                                    28289480.001 6 111013935.84706     -1055.357 6        39.375    28289479.025 6 113909946.83906     -1082.838 6        40.238
C36        35.000                                                                                                                                    25300125.762 6 131744208.88906     -3390.121 6        40.706                                                                    25300140.453 7 107052943.22607     -2754.724 7        43.422
G23        36.000    23903051.445 6 125611319.61406      1941.482 6        40.551                                    23903052.882 4  97878918.87804      1512.843 4        25.444    23903053.280 6  97878919.88606      1512.874 6        41.108
I09        38.000    40164641.759 6 157614370.48406      -993.146 6        39.162
R08        39.000    23248727.009 6 124495660.62606     -4814.650 6        40.603                                                                    23248740.803 6  96829899.54406     -3744.853 6        41.294
E25        40.000    23579436.094 7 123910767.31307      -844.609 7        47.543                                                                    23579441.237 8  92530768.94708      -630.775 8        50.800    23579440.274 8  94944607.38308      -647.193 8        51.149
S44        42.000    40817806.299 6 214498955.20406      -435.623 6        36.972
C09        43.000                                                                                                                                    41022800.555 5 213616241.71905     -1053.687 5        34.257    41022815.240 6 165181548.77206      -814.867 6        39.114    41022809.116 6 173580618.57206      -856.027 6        36.533
C05        44.000                                                                                                                                    39302724.903 6 204659456.03906      -494.842 6        37.335    39302732.588 7 158255650.08507      -382.716 7        43.098    39302730.902 6 166302637.39406      -402.098 6        39.429
C40        45.000                                                                                                                                    38773390.001 7 201903199.75007      -176.808 7        42.760                                                                    38773394.104 7 164062900.21907      -143.652 7        43.429
C21        46.000                                                                                                                                    22581824.648 8 117589413.06608     -2370.634 8        50.727                                                                    22581822.940 8  95550987.04708     -1926.350 8        49.744
C10        49.000                                                                                                                                    38693367.378 6 201486533.73706       207.528 6        41.201    38693371.968 7 155802186.53807       160.510 7        44.543    38693368.267 6 163724317.85006       168.677 6        41.449
C42        50.000                                                                                                                                    22779630.509 8 118619452.55608       763.569 8        48.676                                                                    22779641.628 8  96388045.54708       620.578 8        49.581
S48        51.000    77083198.463 6 405074651.28706      -429.733 6        38.102
E02        53.000    24528796.143 7 128899765.58807      1891.713 7        46.363                                                                    24528801.370 8  96256392.57908      1412.653 8        49.044    24528800.041 8  98767410.76408      1449.550 8        49.103
C60        54.000                                                                                                                                    40817806.225 6 212548981.91406      -431.790 6        40.365                                                                    40817801.518 6 172713376.48606      -350.884 6        38.333
C45        55.000                                                                                                                                    21902823.424 8 114053704.11308     -1700.318 8        49.879                                                                    21902819.187 8  92677940.46308     -1381.576 8        50.123
R12        56.000    20099898.766 8 107370143.45108      1893.735 8        51.449                                                                    20099903.364 7  83510149.74607      1472.877 7        47.761
C02        57.000                                                                                                                                    40876125.959 5 212852493.69805      -480.932 5        32.311    40876138.454 6 164590973.24106      -371.961 6        36.873    40876136.433 5 172960032.99905      -390.156 5        31.683
I03        58.000   124108385.826 6 411242359.94806       910.151 6        39.685
C14        59.000                                                                                                                                    24465928.452 7 127400448.28107      2084.555 7        42.171    24465930.273 7  98514081.53507      1611.844 7        47.530    24465926.989 7 103523272.23507      1694.006 7        44.974
G07        60.000    25292023.547 6 132910234.97506     -3310.839 6        37.335                                    25292035.284 4 103566342.21104     -2579.877 4        26.060    25292036.136 5 103566343.24205     -2580.232 5        33.880
> 2025 01 01 09 01 15.0000000  0 53
G08         1.000    25387799.062 3                     -3128.075 3        21.310                                                                                                    25387812.211 4 103958926.73504     -2437.544 4        24.000
R01         2.000    19382103.702 8 103608378.25708     -2231.577 8        49.511                                                                    19382107.468 7  80584346.05907     -1735.538 7        42.205
G24         3.000    23679114.107 6 124434564.46106      2922.452 6        39.321                                    23679119.595 5  96962022.46005      2277.232 5        34.295    23679119.601 6  96962019.48606      2277.204 6        37.062
R02         4.000    20090594.170 8 107207206.44508      2004.900 8        51.965                                                                    20090598.223 7  83383383.95807      1559.410 7        46.882
S21         5.000    38369151.942 7 201631009.41907      -440.412 7        42.468
E05         6.000    25495829.886 6 133981327.53106     -3160.682 6        38.571                                                                    25495845.469 7 100050959.51307     -2360.363 7        43.427    25495843.568 7 102660983.78207     -2421.994 7        43.949
G17         7.000    23417676.502 7 123060802.33107      2231.775 7        42.419                                    23417684.719 6  95891602.63306      1739.037 6        36.972    23417685.112 6  95891598.64606      1739.006 6        39.252
R10         8.000    23626406.356 6 125941867.79006     -4450.583 6        37.807
R19         9.000    23835394.677 5 127503230.89305     -1589.430 5        32.467                                                                    23835398.220 6  99169241.24006     -1236.109 6        38.432
C26        11.000                                                                                                                                    22532709.353 8 117333749.05408      1394.980 8        49.052                                                                    22532712.150 8  95343300.14808      1133.620 8        48.673
S27        12.000    39073780.473 6 205333941.71706      -473.632 6        36.318
G15        13.000    20616638.249 7 108341107.83507      1399.526 7        47.651                                    20616638.373 7  84421611.62207      1090.540 7        47.542    20616638.825 7  84421603.61907      1090.533 7        44.396
S36        14.000    38139086.550 7 200422702.15307      -441.523 7        44.166
G20        15.000    24838463.952 6 130526774.64306     -4036.783 6        36.578                                    24838474.064 2 101709095.79802     -3145.544 2        17.623
R11        16.000    19621504.608 8 104851344.99908     -2416.983 8        51.056                                                                    19621507.335 8  81551037.23308     -1879.856 8        49.594
S45        17.000    63321172.707 6 332755098.55316      -489.811 6        36.155
E24        19.000    27079198.696 6 142302001.51806     -3077.503 6        40.005                                                                    27079208.252 7 106264452.60307     -2298.223 7        42.855    27079206.739 7 109036570.04107     -2358.165 7        42.790
E33        20.000    28762722.102 5 151149117.17905       642.416 5        30.566                                                                    28762726.841 5 112871112.16805       479.511 5        35.181    28762725.678 5 115815571.79105       492.050 5        35.962
G30        21.000    22348219.702 7 117440599.45807     -2930.663 7        44.751                                    22348224.798 7  91512135.50407     -2283.625 7        42.993    22348224.942 6  91512139.49306     -2283.660 6        41.545
I06        22.000    38024144.996 7 149214996.49307      -412.649 7        42.667
S28        23.000    40812157.450 5 214469140.01205      -449.944 5        35.090
G14        24.000    20543417.191 7 107956374.08907     -1251.234 7        47.516                                    20543417.906 6  84121848.51106      -974.984 6        39.715    20543418.174 8  84121850.50808      -975.038 8        48.051
S23        25.000    38071594.137 7 200067471.98607      -441.478 7        44.447
E08        26.000    24206844.307 7 127207768.83707      1165.784 7        46.460                                                                    24206847.825 8  94992795.65908       870.568 8        49.508    24206846.920 8  97470868.21908       893.297 8        50.334
C07        27.000                                                                                                                                    38777589.666 6 201925061.76806      -166.492 6        41.359    38777590.788 7 156141273.56207      -128.818 7        44.054    38777587.898 6 164080647.58506      -135.256 6        41.578
G13        28.000    19766710.804 8 103874720.74108      -618.940 8        48.341                                    19766709.688 6  80941308.33506      -482.291 6        40.844
I02        29.000    37309134.403 7 146409060.20507       106.103 7        42.368
C22        30.000                                                                                                                                    25717314.132 6 133916581.62806     -3981.656 6        41.464                                                                    25717320.129 7 108818127.10707     -3235.195 7        42.811
E07        31.000    28418506.202 6 149340230.20106      2363.025 6        36.760                                                                    28418510.951 6 111520312.87206      1764.640 6        38.556    28418510.337 6 114429534.85506      1810.672 6        39.453
E03        32.000    23487238.619 8 123426221.10508     -1471.936 8        48.141                                                                    23487243.397 8  92168930.30008     -1099.182 8        50.601    23487242.623 8  94573333.37008     -1127.837 8        51.034
G05        33.000    22810984.894 7 119872443.12407     -3607.852 7        44.488                                    22810988.115 6  93407067.71906     -2811.301 6        40.923    22810988.331 6  93407070.70506     -2811.406 6        40.992
E26        34.000    28290822.356 6 148669227.01106     -1415.560 6        37.656                                                                    28290825.692 6 111019216.24406     -1057.228 6        39.198    28290824.843 6 113915364.97406     -1084.679 6        40.117
C36        35.000                                                                                                                                    25303380.829 6 131761160.05206     -3390.460 6        40.746                                                                    25303395.955 7 107066717.37007     -2754.904 7        43.672
G23        36.000    23901205.135 6 125601618.43106      1938.932 6        40.014                                    23901206.871 4  97871359.49604      1510.854 4        25.519    23901206.740 6  97871360.50306      1510.696 6        40.543
I09        38.000    40165907.276 6 157619336.06306      -993.337 6        39.273
R08        39.000    23253223.636 6 124519736.04406     -4815.532 6        40.663                                                                    23253236.757 6  96848624.74906     -3745.635 6        41.402
E25        40.000    23580240.594 7 123914995.61607      -846.929 7        47.867                                                                    23580245.899 8  92533926.42708      -632.390 8        50.536    23580244.908 8  94947847.23408      -648.942 8        51.086
S44        42.000    40818221.305 6 214501134.17906      -435.864 6        36.885
C09        43.000                                                                                                                                    41023812.440 5 213621509.60105     -1053.563 5        34.581    41023826.660 6 165185622.25306      -814.787 6        39.159    41023820.916 6 173584899.17406      -856.166 6        36.469
C05        44.000                                                                                                                                    39303199.459 6 204661929.63006      -494.959 6        37.361    39303207.586 7 158257562.82407      -382.615 7        43.270    39303205.962 6 166304647.38906      -402.170 6        39.562
C40        45.000                                                                                                                                    38773560.206 7 201904086.31507      -177.949 7        42.882                                                                    38773564.251 7 164063620.60907      -144.450 7        43.336
C21        46.000                                                                                                                                    22584102.096 8 117601271.91808     -2373.120 8        50.954                                                                    22584100.303 8  95560623.31008     -1928.198 8        49.676
C10        49.000                                                                                                                                    38693168.447 6 201485497.54906       206.735 6        41.216    38693172.877 7 155801385.27807       159.819 7        44.618    38693169.301 6 163723475.83506       168.011 6        41.232
C42        50.000                                                                                                                                    22778898.516 8 118615640.57008       761.011 8        48.707                                                                    22778909.536 8  96384947.96608       618.501 8        49.566
S48        51.000    77083608.439 6 405076799.85006      -429.935 6        38.003
E02        53.000    24526996.525 7 128890310.31507      1890.107 7        46.369                                                                    24527002.040 8  96249331.82508      1411.508 8        48.835    24527000.807 8  98760165.81208      1448.355 8        49.039
C60        54.000                                                                                                                                    40818220.682 6 212551141.07306      -432.010 6        40.470                                                                    40818216.087 6 172715130.98006      -350.861 6        38.255
C45        55.000                                                                                                                                    21904457.053 8 114062209.64208     -1702.139 8        49.962                                                                    21904452.526 8  92684851.86908     -1382.934 8        50.084
R12        56.000    20098127.350 8 107360681.83708      1890.784 8        51.015                                                                    20098132.053 7  83502790.72207      1470.631 7        47.425
C02        57.000                                                                                                                                    40876587.368 5 212854896.77905      -480.799 5        32.072    40876599.515 6 164592831.44006      -371.854 6        36.828    40876598.128 5 172961985.73505      -390.754 5        31.826
I03        58.000   124107226.222 6 411237809.46206       909.874 6        39.754
C14        59.000                                                                                                                                    24463928.063 6 127390029.23106      2082.830 6        41.981    24463929.289 7  98506024.84707      1610.636 7        47.224    24463926.134 7 103514805.88107      1692.570 7        45.008
G07        60.000    25295173.048 6 132926789.12906     -3311.198 6        36.836                                    25295185.502 4 103579241.56204     -2580.145 4        26.359    25295185.526 5 103579242.53905     -2580.058 5        33.910
> 2025 01 01 09 01 20.0000000  0 53
G08         1.000    25390781.254 3                     -3134.384 3        22.190
R01         2.000    19384192.320 8 103619545.61908     -2235.470 8        49.314                                                                    19384196.579 7  80593031.78807     -1738.710 7        42.332
G24         3.000    23676333.305 6 124419953.61406      2921.822 6        39.420                                    23676339.180 5  96950637.39605      2276.741 5        34.224    23676339.923 6  96950634.39906      2276.859 6        36.556
R02         4.000    20088717.249 8 107197189.66708      2001.755 8        51.798                                                                    20088720.691 7  83375593.12407      1556.886 7        46.406
S21         5.000    38369571.684 7 201633211.49307      -440.408 7        42.423
E05         6.000    25498837.884 6 133997133.47406     -3161.671 6        39.186                                                                    25498853.285 7 100062762.58707     -2360.942 7        43.371    25498851.397 7 102673094.75607     -2422.497 7        44.107
G17         7.000    23415554.193 7 123049646.66607      2230.427 7        42.476                                    23415561.749 6  95882909.95406      1737.985 6        36.794    23415561.464 6  95882905.97106      1737.938 6        38.913
R10         8.000    23630580.321 6 125964120.50406     -4450.717 6        36.790
R19         9.000    23836878.440 5 127511187.22105     -1593.644 5        31.509                                                                    23836886.518 6  99175429.54706     -1239.289 6        39.679
C26        11.000                                                                                                                                    22531370.782 8 117326778.48208      1393.295 8        49.098                                                                    22531373.535 8  95337636.00408      1132.121 8        48.752
S27        12.000    39074233.010 6 205336308.82106      -473.486 6        36.223
G15        13.000    20615307.532 7 108334116.90507      1396.776 7        47.803                                    20615308.048 7  84416164.13807      1088.398 7        47.504    20615308.316 7  84416156.14107      1088.333 7        44.396
S36        14.000    38139505.912 7 200424909.51407      -441.629 7        44.120
G20        15.000    24842303.883 6 130546957.85406     -4036.687 6        36.272                                    24842314.816 2 101724822.89002     -3145.436 2        16.868
R11        16.000    19623766.967 8 104863436.27908     -2419.607 8        51.244                                                                    19623770.067 8  81560441.56608     -1881.899 8        49.502
S45        17.000    63321597.999 6 332757548.09306      -489.948 6        36.280
E24        19.000    27082127.187 6 142317391.75706     -3078.545 6        40.448                                                                    27082136.840 7 106275945.26707     -2298.948 7        42.533    27082135.758 7 109048362.52607     -2358.917 7        43.037
E33        20.000    28762112.141 5 151145911.55905       640.005 5        30.641                                                                    28762116.545 5 112868718.33405       478.112 5        34.681    28762115.818 5 115813115.49605       490.379 5        35.914
G30        21.000    22351008.314 7 117455254.78807     -2931.595 7        45.094                                    22351013.691 7  91523555.21107     -2284.354 7        42.999    22351014.056 6  91523559.20006     -2284.191 6        41.368
I06        22.000    38024670.674 7 149217059.38907      -412.643 7        42.663
S28        23.000    40812585.983 5 214471390.63605      -450.418 5        34.867
G14        24.000    20544608.977 7 107962637.23507     -1254.127 7        47.311                                    20544609.777 6  84126728.87106      -977.237 6        39.571    20544610.097 8  84126730.86408      -977.217 8        48.097
S23        25.000    38072013.549 7 200069679.09207      -441.430 7        44.421
E08        26.000    24205735.843 7 127201942.82307      1164.576 7        46.661                                                                    24205739.195 8  94988445.06208       869.627 8        49.380    24205738.267 8  97466404.12908       892.290 8        50.306
C07        27.000                                                                                                                                    38777750.100 6 201925896.65106      -167.513 6        41.495    38777751.291 7 156141919.11607      -129.358 7        44.190    38777748.255 6 164081325.98406      -136.045 6        41.554
G13        28.000    19767300.677 8 103877822.20108      -621.695 8        48.178                                    19767299.879 6  80943725.05606      -484.436 6        40.908
I02        29.000    37308999.587 7 146408529.63607       105.988 7        42.121
C22        30.000                                                                                                                                    25721137.476 6 133936489.65306     -3981.851 6        41.607                                                                    25721143.405 7 108834303.97107     -3235.579 7        42.876
E07        31.000    28416257.582 6 149328414.36006      2363.180 6        36.817                                                                    28416262.475 6 111511489.30406      1764.785 6        38.658    28416261.664 6 114420481.12206      1810.745 6        39.426
E03        32.000    23488639.828 8 123433584.69208     -1473.602 8        48.347                                                                    23488644.642 8  92174429.06808     -1100.363 8        50.469    23488643.854 8  94578975.59308     -1129.122 8        51.038
G05        33.000    22814418.514 7 119890486.30807     -3609.505 7        44.755                                    22814421.637 6  93421127.30506     -2812.591 6        41.023    22814421.581 6  93421130.29306     -2812.523 6        41.106
E26        34.000    28292170.301 6 148676309.78406     -1417.566 6        37.584                                                                    28292173.595 6 111024505.28406     -1058.534 6        39.300    28292172.848 6 113920792.01306     -1086.278 6        40.195
C36        35.000                                                                                                                                    25306636.627 6 131778112.92706     -3390.703 6        41.180                                                                    25306651.634 7 107080492.94007     -2755.208 7        43.744
G23        36.000    23899361.377 6 125591930.34406      1936.299 6        40.167                                    23899363.288 4  97863810.33604      1508.800 4        25.714    23899363.028 6  97863811.31906      1508.877 6        40.810
I09        38.000    40167172.527 6 157624301.88106      -993.233 6        39.105
R08        39.000    23257721.394 6 124543816.65506     -4816.653 6        40.827                                                                    23257733.693 6  96867354.01606     -3746.117 6        41.704
E25        40.000    23581047.434 7 123919235.17507      -849.016 7        47.762                                                                    23581052.643 8  92537092.32908      -634.051 8        50.391    23581051.692 8  94951095.72608      -650.581 8        51.052
S44        42.000    40818635.230 6 214503313.47206      -436.062 6        36.998
C09        43.000                                                                                                                                    41024824.742 5 213626777.90505     -1053.747 5        35.181    41024838.426 6 165189696.05206      -814.663 6        39.186    41024832.602 6 173589180.10806      -856.142 6        36.594
C05        44.000                                                                                                                                    39303675.020 6 204664403.62806      -494.919 6        37.304    39303682.673 7 158259475.90007      -382.641 7        43.372    39303680.858 6 166306657.74406      -402.034 6        39.751
C40        45.000                                                                                                                                    38773731.439 7 201904978.30807      -179.002 7        43.266                                                                    38773735.726 7 164064345.45707      -145.443 7        43.581
C21        46.000                                                                                                                                    22586381.917 8 117613143.03808     -2375.444 8        51.138                                                                    22586380.049 8  95570269.57408     -1930.264 8        49.802
C10        49.000                                                                                                                                    38692970.321 6 201484465.52306       206.064 6        41.247    38692974.637 7 155800587.24307       159.248 7        44.734    38692971.069 6 163722637.23506       167.390 6        41.456
C42        50.000                                                                                                                                    22778168.982 8 118611841.78208       758.405 8        48.818                                                                    22778180.032 8  96381861.14608       616.295 8        49.645
S48        51.000    77084025.172 6 405078949.03206      -429.784 6        38.156
E02        53.000    24525198.741 7 128880863.14807      1888.584 7        46.452                                                                    24525204.300 8  96242277.13308      1410.284 8        48.771    24525203.027 8  98752927.08008      1447.107 8        49.007
C60        54.000                                                                                                                                    40818635.465 6 212553300.54506      -431.968 6        40.434                                                                    40818630.870 6 172716885.77506      -350.975 6        38.504
C45        55.000                                                                                                                                    21906092.064 8 114070724.05508     -1703.777 8        49.992                                                                    21906087.666 8  92691770.54008     -1384.486 8        50.190
R12        56.000    20096358.971 8 107351234.65108      1887.991 8        51.416                                                                    20096363.467 7  83495442.91407      1468.482 7        46.903
C02        57.000                                                                                                                                    40877049.335 5 212857300.13805      -480.594 5        32.216    40877061.165 6 164594689.90306      -371.955 6        37.312    40877059.564 5 172963938.70005      -390.979 5        31.728
I03        58.000   124106066.957 6 411233259.14006       910.177 6        39.637
C14        59.000                                                                                                                                    24461928.347 6 127379619.08806      2081.171 6        41.986    24461929.769 7  98497975.06107      1609.328 7        47.063    24461926.962 7 103506346.81007      1691.086 7        45.193
G07        60.000    25298323.848 6 132943344.45606     -3311.052 6        37.508                                    25298335.930 4 103592141.83204     -2580.038 4        26.635    25298336.365 5 103592142.86205     -2580.211 5        33.964
> 2025 01 01 09 01 25.0000000  0 53
G08         1.000    25393764.130 3                     -3133.867 3        22.000
R01         2.000    19386285.268 8 103630732.64108     -2239.568 8        49.209                                                                    19386289.518 7  80601732.78707     -1741.865 7        42.006
G24         3.000    23673554.104 6 124405346.04006      2921.001 6        40.260                                    23673559.352 5  96939254.88405      2276.101 5        34.438    23673560.234 6  96939251.88406      2276.287 6        36.643
R02         4.000    20086842.591 8 107187188.59208      1998.476 8        51.362                                                                    20086846.819 7  83367814.50707      1554.411 7        46.397
S21         5.000    38369990.121 7 201635413.23407      -440.451 7        42.345
E05         6.000    25501846.660 6 134012942.68406     -3162.395 6        39.607                                                                    25501861.685 7 100074568.11907     -2361.562 7        43.416    25501859.792 7 102685208.27007     -2423.106 7        44.206
G17         7.000    23413432.304 7 123038497.99007      2228.852 7        42.095                                    23413440.112 6  95874222.72306      1736.756 6        36.919    23413440.206 6  95874218.75606      1736.659 6        39.120
R10         8.000    23634756.091 6 125986372.99606     -4450.524 6        36.813
R19         9.000    23838372.487 5 127519163.69105     -1597.160 5        33.024                                                                    23838377.087 6  99181633.44706     -1242.600 6        39.336
C26        11.000                                                                                                                                    22530033.681 8 117319816.00308      1391.467 8        48.923                                                                    22530036.454 8  95331978.41508      1130.762 8        48.656
S27        12.000    39074687.465 6 205338676.02706      -473.618 6        36.132
G15        13.000    20613980.224 8 108327139.95408      1393.897 8        48.104                                    20613980.387 7  84410727.55007      1086.156 7        47.723    20613980.989 7  84410719.54207      1086.157 7        44.457
S36        14.000    38139927.948 7 200427116.55607      -441.532 7        44.086
G20        15.000    24846144.578 6 130567139.38406     -4036.347 6        36.435                                    24846155.444 2 101740548.70502     -3145.185 2        16.679
R11        16.000    19626032.373 8 104875540.67808     -2422.245 8        50.611                                                                    19626035.094 8  81569856.10108     -1884.130 8        49.037
S45        17.000    63322017.683 6 332759997.59506      -490.167 6        36.163
E24        19.000    27085056.692 6 142332786.30706     -3079.489 6        40.274                                                                    27085066.594 7 106287441.14407     -2299.544 7        42.736    27085065.594 7 109060158.29907     -2359.581 7        43.547
E33        20.000    28761504.666 5 151142717.07505       637.732 5        30.891                                                                    28761508.786 5 112866332.83805       476.181 5        35.248    28761508.006 5 115810667.77905       488.591 5        35.843
G30        21.000    22353798.121 7 117469914.99907     -2932.731 7        45.004                                    22353803.465 7  91534978.72107     -2285.240 7        43.170    22353803.492 6  91534982.71806     -2285.168 6        41.456
I06        22.000    38025196.847 7 149219122.38307      -412.768 7        42.681
S28        23.000    40813014.481 5 214473641.28605      -450.247 5        34.729
G14        24.000    20545803.634 7 107968914.77207     -1257.092 7        47.078                                    20545804.411 6  84131620.44606      -979.547 6        39.766    20545804.504 8  84131622.44108      -979.585 8        48.140
S23        25.000    38072430.474 7 200071886.06507      -441.507 7        44.156
E08        26.000    24204628.292 7 127196122.90907      1163.135 7        46.693                                                                    24204631.747 8  94984099.01408       868.622 8        49.547    24204630.784 8  97461944.70508       891.298 8        50.361
C07        27.000                                                                                                                                    38777911.051 6 201926735.37106      -168.245 6        41.361    38777912.133 7 156142567.65607      -130.129 7        43.951    38777909.234 6 164082007.51106      -136.679 6        41.604
G13        28.000    19767893.628 8 103880937.29008      -624.548 8        48.273                                    19767892.687 6  80946152.39506      -486.659 6        41.073
I02        29.000    37308864.419 7 146408000.28207       105.656 7        42.150
C22        30.000                                                                                                                                    25724960.610 6 133956399.37606     -3982.212 6        41.645                                                                    25724966.897 7 108850482.18707     -3235.832 7        42.548
E07        31.000    28414008.864 6 149316598.04206      2363.236 6        36.665                                                                    28414014.008 6 111502665.39006      1764.923 6        38.826    28414013.030 6 114411427.02606      1810.724 6        39.267
E03        32.000    23490042.616 8 123440956.56008     -1475.384 8        48.272                                                                    23490047.489 8  92179934.03308     -1101.755 8        50.619    23490046.673 8  94584624.16008     -1130.473 8        51.162
G05        33.000    22817853.466 7 119908537.54307     -3611.152 7        44.814                                    22817856.661 6  93435193.17206     -2813.882 6        41.120    22817857.055 6  93435196.16506     -2813.981 6        40.682
E26        34.000    28293520.420 6 148683403.60606     -1420.159 6        37.251                                                                    28293523.795 6 111029802.56206     -1060.539 6        39.438    28293522.759 6 113926227.48006     -1088.027 6        40.033
C36        35.000                                                                                                                                    25309893.101 6 131795066.97606     -3391.117 6        41.566                                                                    25309907.412 7 107094269.45507     -2755.522 7        43.511
G23        36.000    23897520.477 6 125582254.81406      1933.553 6        40.439                                    23897522.053 4  97856270.94604      1506.664 4        25.835    23897522.658 6  97856271.92906      1506.807 6        41.545
I09        38.000    40168437.661 6 157629267.56306      -993.148 6        39.069
R08        39.000    23262219.537 6 124567901.89506     -4817.705 6        41.499                                                                    23262231.537 6  96886086.87606     -3747.028 6        41.869
E25        40.000    23581856.280 7 123923485.46907      -851.240 7        47.816                                                                    23581861.478 8  92540266.23808      -635.691 8        50.517    23581860.522 8  94954352.43608      -652.304 8        51.175
S44        42.000    40819047.013 6 214505492.55506      -436.178 6        36.677
C09        43.000                                                                                                                                    41025836.753 5 213632046.01505     -1053.604 5        34.967    41025850.658 6 165193769.70006      -814.875 6        39.300    41025844.466 6 173593460.89706      -856.121 6        36.628
C05        44.000                                                                                                                                    39304149.826 6 204666877.52106      -494.949 6        37.429    39304157.792 7 158261388.88807      -382.648 7        43.266    39304155.985 6 166308667.98606      -402.145 6        39.345
C40        45.000                                                                                                                                    38773903.532 7 201905875.21607      -180.044 7        43.240                                                                    38773907.925 7 164065074.28107      -146.274 7        43.405
C21        46.000                                                                                                                                    22588663.968 8 117625025.89808     -2377.905 8        51.037                                                                    22588662.056 8  95579925.36108     -1932.191 8        49.637
C10        49.000                                                                                                                                    38692773.080 6 201483437.04606       205.171 6        41.123    38692776.970 7 155799791.98807       158.596 7        44.701    38692773.442 6 163721801.53506       166.710 6        41.251
C42        50.000                                                                                                                                    22777441.858 8 118608055.66008       755.841 8        48.651                                                                    22777452.958 8  96378784.60308       614.168 8        49.520
S48        51.000    77084438.167 6 405081098.29106      -429.953 6        37.996
E02        53.000    24523402.548 7 128871423.54007      1887.018 7        46.478                                                                    24523407.965 8  96235228.08208      1409.081 8        48.900    24523406.718 8  98745694.14608      1445.830 8        49.193
C60        54.000                                                                                                                                    40819050.199 6 212555459.80906      -431.994 6        40.343                                                                    40819045.524 6 172718640.36606      -350.971 6        38.291
C45        55.000                                                                                                                                    21907728.891 8 114079246.81508     -1705.531 8        49.858                                                                    21907724.467 8  92698695.97008     -1385.861 8        50.037
R12        56.000    20094593.284 8 107341801.44908      1885.060 8        51.464                                                                    20094597.491 7  83488105.99307      1466.141 7        47.013
C02        57.000                                                                                                                                    40877510.807 5 212859703.37705      -480.874 5        32.222    40877522.949 6 164596548.18206      -371.660 6        37.077    40877520.744 5 172965891.48205      -390.876 5        31.668
I03        58.000   124104906.961 6 411228708.62106       910.042 6        39.637
C14        59.000                                                                                                                                    24459930.844 7 127369217.34607      2079.358 7        42.324    24459932.108 7  98489931.76707      1607.835 7        46.991    24459929.384 7 103497894.53507      1689.578 7        45.023
G07        60.000    25301474.977 6 132959900.51406     -3311.450 6        37.614                                    25301486.590 4 103605042.66704     -2580.349 4        26.826    25301487.645 5 103605043.68005     -2580.244 5        34.338
> 2025 01 01 09 01 30.0000000  0 53
G08         1.000    25396746.752 3                     -3136.315 3        21.000
R01         2.000    19388382.074 8 103641940.01508     -2243.566 8        49.794                                                                    19388385.593 6  80610449.61506     -1745.041 6        41.979
G24         3.000    23670775.104 6 124390742.46206      2920.371 6        39.742                                    23670780.341 5  96927875.49005      2275.607 5        34.343    23670781.213 6  96927872.51306      2275.478 6        37.051
R02         4.000    20084971.448 8 107177203.97308      1995.256 8        51.379                                                                    20084975.328 7  83360048.69607      1551.898 7        46.428
S21         5.000    38370410.149 7 201637615.65207      -440.704 7        42.317
E05         6.000    25504855.879 6 134028755.92206     -3163.099 6        39.658                                                                    25504870.904 7 100086376.65707     -2361.961 7        43.268    25504869.166 7 102697324.86007     -2423.636 7        44.125
G17         7.000    23411312.179 7 123027357.07707      2227.347 7        42.138                                    23411319.950 6  95865541.54206      1735.586 6        36.688    23411320.200 6  95865537.55506      1735.645 6        39.300
R10         8.000    23638931.813 6 126008626.07206     -4450.815 6        38.078
R19         9.000    23839867.349 5 127527160.95705     -1601.906 5        33.060                                                                    23839872.639 6  99187853.53606     -1245.689 6        39.441
C26        11.000                                                                                                                                    22528698.392 8 117312862.34708      1389.787 8        49.014                                                                    22528701.080 8  95326327.98408      1129.524 8        48.623
S27        12.000    39075132.056 6 205341043.65906      -473.499 6        36.117
G15        13.000    20612655.440 8 108320177.71308      1390.927 8        48.038                                    20612655.522 7  84405302.42007      1083.838 7        47.682    20612655.777 7  84405294.41407      1083.886 7        44.569
S36        14.000    38140347.087 7 200429324.30407      -441.565 7        44.024
G20        15.000    24849985.006 6 130587319.98806     -4036.212 6        36.159                                    24849995.709 2 101756273.78302     -3145.075 2        16.906
R11        16.000    19628299.835 8 104887658.85808     -2425.110 8        50.928                                                                    19628303.014 8  81579281.34308     -1886.186 8        49.018
S45        17.000    63322437.586 6 332762447.69206      -490.146 6        36.302
E24        19.000    27087987.130 6 142348185.90106     -3080.479 6        40.141                                                                    27087997.257 7 106298940.79207     -2300.315 7        42.688    27087996.163 7 109071957.94507     -2360.313 7        43.810
E33        20.000    28760898.574 5 151139534.41905       635.329 5        30.075                                                                    28760903.107 5 112863956.16005       474.466 5        35.667    28760901.941 5 115808229.10505       486.674 5        35.781
G30        21.000    22356588.735 7 117484580.81907     -2933.742 7        44.650                                    22356594.303 7  91546406.60507     -2286.027 7        43.064    22356594.982 7  91546410.59207     -2286.050 7        42.038
I06        22.000    38025722.484 7 149221185.98307      -412.691 7        42.684
S28        23.000    40813446.113 5 214475892.64105      -450.445 5        35.038
G14        24.000    20547001.044 7 107975207.43007     -1260.117 7        46.807                                    20547001.862 6  84136523.80206      -981.905 6        39.739    20547001.834 8  84136525.79508      -981.832 8        48.133
S23        25.000    38072851.195 7 200074093.64607      -441.651 7        44.284
E08        26.000    24203522.037 7 127190309.79807      1161.989 7        46.770                                                                    24203525.537 8  94979758.04808       867.669 8        49.446    24203524.610 8  97457490.50208       890.291 8        50.404
C07        27.000                                                                                                                                    38778072.643 6 201927578.70906      -169.178 6        41.130    38778074.267 7 156143219.75907      -130.881 7        43.841    38778071.149 6 164082692.74906      -137.371 6        41.435
G13        28.000    19768489.444 8 103884066.73608      -627.373 8        48.258                                    19768488.177 6  80948590.92006      -488.860 6        40.965
I02        29.000    37308729.884 7 146407472.75607       105.228 7        42.131
C22        30.000                                                                                                                                    25728784.880 6 133976311.49806     -3982.748 6        41.864                                                                    25728790.741 7 108866662.33407     -3236.025 7        42.474
E07        31.000    28411760.174 6 149304782.03306      2363.164 6        36.416                                                                    28411765.704 6 111493841.68006      1764.731 6        38.916    28411764.347 6 114402373.13806      1810.792 6        39.285
E03        32.000    23491447.244 8 123448337.43908     -1477.128 8        48.345                                                                    23491452.034 8  92185445.71308     -1102.965 8        50.521    23491451.244 8  94590279.63008     -1131.781 8        51.181
G05        33.000    22821289.966 7 119926597.62807     -3613.022 7        44.287                                    22821293.367 6  93449265.93006     -2815.335 6        41.066    22821293.680 6  93449268.92006     -2815.273 6        40.563
E26        34.000    28294872.784 6 148690509.25806     -1422.434 6        36.885                                                                    28294876.147 6 111035108.70906     -1062.112 6        39.820    28294875.049 6 113931672.05706     -1089.925 6        40.069
C36        35.000                                                                                                                                    25313149.174 6 131812022.92706     -3391.432 6        41.375                                                                    25313163.583 7 107108047.48207     -2755.505 7        43.189
G23        36.000    23895681.903 6 125572592.59406      1931.094 6        40.534                                    23895683.317 4  97848741.92004      1504.751 4        25.609    23895683.378 6  97848742.90706      1504.793 6        41.201
I09        38.000    40169703.005 6 157634233.67206      -993.145 6        38.991
R08        39.000    23266718.710 6 124591992.55406     -4818.563 6        41.406                                                                    23266730.930 6  96904823.95606     -3747.897 6        41.933
E25        40.000    23582666.998 7 123927747.22207      -853.538 7        47.824                                                                    23582672.441 8  92543448.70408      -637.367 8        50.454    23582671.505 8  94957617.92108      -653.969 8        51.218
S44        42.000    40819465.682 6 214507672.13206      -436.160 6        37.013
C09        43.000                                                                                                                                    41026848.455 5 213637314.70705     -1053.770 5        35.057    41026862.578 6 165197843.80706      -815.107 6        39.625    41026856.255 6 173597742.12906      -856.112 6        36.605
C05        44.000                                                                                                                                    39304625.236 6 204669351.99806      -494.934 6        37.066    39304632.884 7 158263302.32607      -382.719 7        43.228    39304631.207 6 166310678.69706      -401.963 6        39.640
C40        45.000                                                                                                                                    38774076.943 7 201906777.74407      -181.188 7        43.429                                                                    38774081.286 7 164065807.65607      -147.041 7        43.405
C21        46.000                                                                                                                                    22590948.254 8 117636921.20708     -2380.364 8        50.763                                                                    22590946.427 8  95589591.23508     -1934.016 8        49.682
C10        49.000                                                                                                                                    38692576.254 6 201482412.98306       204.321 6        41.068    38692580.550 7 155799000.11207       158.002 7        44.757    38692576.828 6 163720969.36706       166.318 6        41.318
C42        50.000                                                                                                                                    22776717.336 8 118604282.94508       753.199 8        48.603                                                                    22776728.486 8  96375718.93008       612.183 8        49.512
S48        51.000    77084850.799 6 405083247.91006      -429.883 6        37.868
E02        53.000    24521607.664 7 128861992.24107      1885.394 7        46.397                                                                    24521613.264 8  96228185.23408      1407.905 8        48.757    24521612.016 8  98738467.56608      1444.637 8        49.180
C60        54.000                                                                                                                                    40819464.714 6 212557619.57006      -432.030 6        40.384                                                                    40819460.222 6 172720395.34906      -350.862 6        38.303
C45        55.000                                                                                                                                    21909367.432 8 114087778.64208     -1707.293 8        49.802                                                                    21909362.899 8  92705628.74908     -1387.130 8        50.110
R12        56.000    20092830.224 8 107332382.97008      1882.200 8        51.676                                                                    20092834.258 7  83480780.49807      1463.916 7        46.231
C02        57.000                                                                                                                                    40877972.462 5 212862107.08605      -481.004 5        32.359    40877984.224 6 164598406.89406      -371.721 6        37.123    40877982.583 5 172967844.65405      -390.335 5        31.879
I03        58.000   124103747.396 6 411224158.46306       910.081 6        39.498
C14        59.000                                                                                                                                    24457936.339 7 127358824.71507      2077.531 7        42.121    24457936.742 7  98481895.53807      1606.551 7        47.337    24457933.571 7 103489449.64807      1688.415 7        45.065
G07        60.000    25304625.356 6 132976457.97506     -3311.594 6        37.240                                    25304637.448 4 103617944.58604     -2580.461 4        26.886    25304637.974 5 103617945.60905     -2580.195 5        34.476
> 2025 01 01 09 01 35.0000000  0 53
G08         1.000                                                                                                                                                                    25399734.965 3                     -2446.067 3        21.000
R01         2.000    19390482.216 8 103653166.67808     -2247.094 8        49.757                                                                    19390486.739 7  80619181.46207     -1747.668 7        42.099
G24         3.000    23667996.319 6 124376141.75306      2919.964 6        39.721                                    23668001.925 5  96916498.32305      2275.288 5        34.152    23668003.029 6  96916495.34106      2275.195 6        37.569
R02         4.000    20083103.433 8 107167234.67508      1992.462 8        51.547                                                                    20083107.508 7  83352294.80607      1549.670 7        46.891
S21         5.000    38370830.348 7 201639817.66207      -440.185 7        42.667
E05         6.000    25507865.448 6 134044572.03306     -3163.492 6        40.052                                                                    25507880.530 7 100098187.33907     -2362.267 7        43.115    25507878.993 7 102709443.65207     -2423.891 7        44.330
G17         7.000    23409193.432 7 123016222.73507      2226.407 7        42.104                                    23409201.049 6  95856865.48306      1734.854 6        36.484    23409200.839 6  95856861.51306      1734.806 6        39.024
R10         8.000    23643107.049 6 126030878.82206     -4450.400 6        39.057
R19         9.000    23841365.662 5 127535177.96205     -1605.406 5        32.671                                                                    23841371.001 6  99194088.94506     -1248.576 6        39.216
C26        11.000                                                                                                                                    22527364.459 8 117305916.37808      1388.546 8        49.048                                                                    22527367.215 8  95320683.85408      1128.354 8        48.495
S27        12.000    39075584.817 6 205343410.87606      -473.409 6        36.310
G15        13.000    20611333.121 7 108313229.08107      1388.574 7        47.802                                    20611333.236 7  84399887.89707      1082.007 7        47.473    20611333.860 7  84399879.89707      1081.983 7        44.916
S36        14.000    38140768.452 7 200431530.80307      -441.206 7        44.048
G20        15.000    24853825.191 6 130607498.45506     -4035.406 6        36.386                                    24853835.554 2 101771997.20502     -3144.445 2        16.604
R11        16.000    19630570.302 8 104899789.66808     -2427.236 8        50.782                                                                    19630573.366 8  81588716.40108     -1887.840 8        49.641
S45        17.000    63322860.481 6 332764897.36506      -489.667 6        36.295
E24        19.000    27090918.271 6 142363589.38606     -3080.916 6        39.778                                                                    27090928.628 7 106310443.34407     -2300.588 7        42.677    27090927.131 7 109083760.56907     -2360.735 7        43.903
E33        20.000    28760294.604 4 151136362.47504       633.344 4        29.924                                                                    28760299.555 5 112861587.47505       473.000 5        34.948    28760298.480 5 115805798.64705       485.239 5        35.152
G30        21.000    22359380.380 7 117499251.09507     -2934.309 7        44.888                                    22359385.990 7  91557837.95907     -2286.471 7        42.876    22359386.406 7  91557841.94607     -2286.548 7        42.362
I06        22.000    38026248.052 7 149223249.35207      -412.643 7        42.743
S28        23.000    40813876.807 5 214478143.79405      -449.936 5        35.067
G14        24.000    20548201.179 7 107981514.04807     -1262.552 7        47.115                                    20548201.983 6  84141438.03906      -983.804 6        39.532    20548202.034 8  84141440.03608      -983.825 8        48.438
S23        25.000    38073271.747 7 200076300.79907      -441.225 7        44.263
E08        26.000    24202417.063 7 127184502.39407      1161.027 7        46.776                                                                    24202420.395 8  94975421.33708       867.005 8        49.579    24202419.532 8  97453040.66008       889.659 8        50.379
C07        27.000                                                                                                                                    38778235.293 6 201928425.50906      -169.515 6        41.218    38778236.730 7 156143874.55007      -131.068 7        43.907    38778233.781 6 164083380.86906      -137.836 6        41.306
G13        28.000    19769087.296 8 103887209.39808      -629.709 8        48.349                                    19769086.199 6  80951039.74806      -490.682 6        40.677
I02        29.000    37308595.587 7 146406945.88707       105.329 7        42.019
C22        30.000                                                                                                                                    25732608.893 6 133996224.89106     -3982.611 6        41.852                                                                    25732614.871 7 108882843.59007     -3236.268 7        42.271
E07        31.000    28409511.105 5 149292965.12605      2363.588 5        35.867                                                                    28409516.947 6 111485017.32406      1765.067 6        38.757    28409515.835 6 114393318.56206      1811.193 6        39.553
E03        32.000    23492853.225 8 123455726.18408     -1478.398 8        48.417                                                                    23492858.092 8  92190963.28408     -1104.027 8        50.659    23492857.246 8  94595941.13208     -1132.792 8        51.186
G05        33.000    22824728.252 7 119944665.40907     -3614.342 7        44.474                                    22824731.549 6  93463344.68106     -2816.359 6        40.810    22824732.122 6  93463347.65706     -2816.125 6        40.984
E26        34.000    28296227.258 6 148697625.60906     -1424.088 6        36.560                                                                    28296230.137 6 111040422.87106     -1063.616 6        39.913    28296229.481 6 113937124.84806     -1091.282 6        40.195
C36        35.000                                                                                                                                    25316405.762 6 131828979.64906     -3391.406 6        41.051                                                                    25316419.901 7 107121826.20107     -2755.743 7        42.870
G23        36.000    23893845.617 6 125562942.56106      1928.891 6        40.260                                    23893846.992 4  97841222.39504      1503.034 4        25.459    23893847.100 6  97841223.38106      1503.102 6        41.473
I09        38.000    40170968.693 6 157639199.32506      -993.011 6        39.030
R08        39.000    23271217.553 6 124616087.44206     -4819.275 6        40.837                                                                    23271229.765 7  96923564.29807     -3748.217 7        42.030
E25        40.000    23583480.143 7 123932019.26807      -855.337 7        47.916                                                                    23583485.350 8  92546638.86108      -638.673 8        50.588    23583484.481 8  94960891.30308      -655.343 8        51.218
S44        42.000    40819879.508 6 214509851.04106      -435.603 6        37.153
C09        43.000                                                                                                                                    41027860.041 5 213642582.81105     -1053.259 5        35.267    41027874.544 6 165201917.47306      -814.599 6        40.024    41027868.087 6 173602022.95606      -856.038 6        36.601
C05        44.000                                                                                                                                    39305099.858 6 204671825.94906      -494.587 6        37.437    39305108.186 7 158265215.35707      -382.470 7        43.278    39305106.241 6 166312689.03406      -402.109 6        39.444
C40        45.000                                                                                                                                    38774250.585 7 201907684.78207      -181.716 7        43.405                                                                    38774255.462 7 164066544.74007      -147.677 7        43.196
C21        46.000                                                                                                                                    22593234.590 8 117648827.81308     -2382.348 8        50.637                                                                    22593232.974 8  95599266.35108     -1935.838 8        49.545
C10        49.000                                                                                                                                    38692380.177 6 201481392.06106       203.936 6        40.939    38692384.732 7 155798210.66707       157.723 7        44.647    38692380.853 6 163720139.81606       165.820 6        41.220
C42        50.000                                                                                                                                    22775995.383 8 118600522.49808       750.980 8        48.624                                                                    22776006.332 8  96372663.28508       610.258 8        49.414
S48        51.000    77085269.222 6 405085397.42906      -429.599 6        38.198
E02        53.000    24519814.542 7 128852568.08407      1884.322 7        46.692                                                                    24519819.884 8  96221147.72408      1407.108 8        48.882    24519818.674 8  98731246.47008      1443.830 8        49.256
C60        54.000                                                                                                                                    40819879.770 6 212559778.68506      -431.645 6        40.400                                                                    40819874.750 6 172722149.86706      -350.732 6        38.270
C45        55.000                                                                                                                                    21911007.266 8 114096318.38908     -1708.640 8        49.927                                                                    21911002.878 8  92712568.01808     -1388.359 8        49.920
R12        56.000    20091069.439 8 107322977.90208      1879.824 8        51.399                                                                    20091074.141 7  83473465.46207      1462.079 7        46.949
C02        57.000                                                                                                                                    40878434.094 5 212864510.23105      -480.640 5        32.150    40878445.561 6 164600265.13206      -371.417 6        37.255    40878444.237 5 172969797.43505      -390.650 5        31.117
I03        58.000   124102588.247 6 411219607.75706       910.337 6        39.613
C14        59.000                                                                                                                                    24455940.986 7 127348440.06907      2076.356 7        42.116    24455942.520 7  98473865.47607      1605.519 7        47.475    24455939.285 7 103481011.31507      1687.088 7        44.906
G07        60.000    25307775.937 6 132993015.72206     -3311.499 6        36.718                                    25307788.300 4 103630846.73104     -2580.378 4        26.539    25307788.425 5 103630847.71505     -2580.333 5        34.090
> 2025 01 01 09 01 40.0000000  0 53
G08         1.000    25402714.946 3                     -3139.073 3        23.543                                                                                                    25402717.873 3                     -2449.417 3        20.167
R01         2.000    19392585.756 8 103664413.23608     -2251.327 8        49.412                                                                    19392589.949 7  80627928.76807     -1750.952 7        42.097
G24         3.000    23665218.410 6 124361544.72806      2919.109 6        39.850                                    23665224.287 5  96905124.03305      2274.619 5        33.790    23665225.194 6  96905121.04206      2274.540 6        38.444
R02         4.000    20081238.229 8 107157281.53708      1989.024 8        51.746                                                                    20081242.168 7  83344553.46607      1547.027 7        46.618
S21         5.000    38371246.759 7 201642020.26007      -440.439 7        42.578
E05         6.000    25510875.649 6 134060391.82506     -3164.319 6        40.188                                                                    25510890.922 7 100110000.77107     -2362.913 7        43.215    25510889.587 7 102721565.26007     -2424.551 7        44.370
G17         7.000    23407076.202 7 123005095.88207      2224.626 7        42.271                                    23407083.548 6  95848195.26406      1733.462 6        36.136    23407083.596 6  95848191.28606      1733.462 6        38.919
R10         8.000    23647280.969 6 126053131.78006     -4450.644 6        39.084
R19         9.000    23842866.434 5 127543215.50005     -1609.600 5        32.455                                                                    23842872.706 6  99200340.40606     -1252.003 6        38.336
C26        11.000                                                                                                                                    22526032.378 8 117298978.88608      1386.655 8        49.227                                                                    22526034.881 8  95315046.56508      1126.839 8        48.457
S27        12.000    39076034.546 6 205345778.33306      -473.540 6        36.159
G15        13.000    20610013.083 8 108306294.86308      1385.369 8        48.015                                    20610013.709 7  84394484.60707      1079.510 7        47.107    20610013.976 7  84394476.60307      1079.532 7        44.667
S36        14.000    38141188.490 7 200433737.91607      -441.419 7        44.266
G20        15.000    24857665.371 6 130627675.64106     -4035.328 6        36.026                                    24857675.139 2 101787719.61202     -3144.393 2        15.619
R11        16.000    19632843.017 8 104911933.93208     -2430.149 8        50.918                                                                    19632845.888 8  81598161.94108     -1890.159 8        49.423
S45        17.000    63323281.712 6 332767347.39406      -490.195 6        36.609
E24        19.000    27093850.444 6 142378997.53806     -3081.915 6        39.462                                                                    27093860.825 7 106321949.39807     -2301.525 7        42.870    27093859.060 7 109095566.78307     -2361.586 7        43.678
E33        20.000    28759693.326 5 151133201.99105       631.060 5        30.355                                                                    28759698.017 5 112859227.37905       471.038 5        35.519    28759696.862 5 115803376.97305       483.593 5        35.486
G30        21.000    22362173.414 7 117513926.65207     -2935.638 7        45.062                                    22362178.662 7  91569273.42707     -2287.505 7        42.519    22362179.102 7  91569277.41207     -2287.531 7        42.000
I06        22.000    38026774.093 7 149225313.09007      -412.736 7        42.762
S28        23.000    40814301.910 5 214480394.99105      -450.329 5        35.214
G14        24.000    20549404.366 7 107987835.45707     -1265.767 7        47.267                                    20549404.930 6  84146363.79906      -986.313 6        39.129    20549405.133 8  84146365.80008      -986.308 8        48.673
S23        25.000    38073690.935 7 200078508.44607      -441.749 7        44.336
E08        26.000    24201313.337 7 127178701.46607      1159.530 7        46.669                                                                    24201316.548 8  94971089.47208       865.896 8        49.644    24201315.599 8  97448595.78808       888.462 8        50.355
C07        27.000                                                                                                                                    38778398.845 6 201929276.61506      -170.602 6        41.001    38778400.241 7 156144532.65207      -131.942 7        44.119    38778397.258 6 164084072.41906      -138.534 6        41.213
G13        28.000    19769687.897 8 103890366.10308      -632.704 8        48.376                                    19769686.898 6  80953499.51106      -493.014 6        40.453
I02        29.000    37308462.036 7 146406420.84007       104.766 7        42.184
C22        30.000                                                                                                                                    25736433.662 6 134016140.35406     -3983.223 6        41.738                                                                    25736439.473 7 108899026.44607     -3236.672 7        42.027
E07        31.000    28407262.638 5 149281148.13405      2363.350 5        35.376                                                                    28407268.198 6 111476192.91906      1764.888 6        38.835    28407266.979 6 114384263.97206      1810.899 6        39.351
E03        32.000    23494260.902 8 123463123.62108     -1480.340 8        48.395                                                                    23494265.774 8  92196487.33208     -1105.450 8        50.680    23494264.972 8  94601609.28908     -1134.298 8        51.120
G05        33.000    22828168.497 7 119962741.69007     -3616.013 7        44.166                                    22828171.411 6  93477430.06206     -2817.667 6        40.541    22828171.626 6  93477433.04806     -2817.693 6        40.672
E26        34.000    28297583.397 6 148704753.40806     -1426.679 6        37.089                                                                    28297586.603 6 111045745.55006     -1065.385 6        40.114    28297586.052 6 113942586.38306     -1093.142 6        40.281
C36        35.000                                                                                                                                    25319662.035 6 131845937.90906     -3391.756 6        40.994                                                                    25319676.616 7 107135606.12007     -2756.074 7        42.673
G23        36.000    23892011.117 6 125553305.49606      1926.171 6        40.024                                    23892013.233 4  97833712.97204      1500.913 4        25.278    23892013.430 6  97833713.98706      1500.714 6        41.821
I09        38.000    40172234.550 6 157644165.12206      -993.219 6        39.216
R08        39.000    23275717.232 6 124640187.32706     -4820.464 6        39.898                                                                    23275731.066 6  96942308.56806     -3749.243 6        41.828
E25        40.000    23584295.165 7 123936302.44407      -857.726 7        47.980                                                                    23584300.445 8  92549837.32708      -640.564 8        50.624    23584299.500 8  94964173.20508      -657.235 8        51.177
S44        42.000    40820292.507 6 214512030.13606      -435.778 6        37.463
C09        43.000                                                                                                                                    41028871.359 5 213647851.18805     -1053.606 5        35.338    41028886.121 6 165205991.31506      -814.757 6        40.465    41028879.581 6 173606303.93106      -856.313 6        36.836
C05        44.000                                                                                                                                    39305575.357 6 204674300.14506      -494.805 6        37.452    39305583.149 7 158267128.58507      -382.723 7        43.503    39305581.328 6 166314699.51106      -402.068 6        39.315
C40        45.000                                                                                                                                    38774425.701 7 201908597.11507      -182.894 7        43.427                                                                    38774430.655 7 164067286.08607      -148.780 7        43.300
C21        46.000                                                                                                                                    22595523.680 8 117660746.51408     -2384.917 8        51.048                                                                    22595521.845 8  95608951.24908     -1937.855 8        49.459
C10        49.000                                                                                                                                    38692184.910 6 201480375.13606       203.106 6        41.006    38692189.394 7 155797424.30807       156.915 7        44.921    38692185.501 6 163719313.46906       164.918 6        41.161
C42        50.000                                                                                                                                    22775275.697 8 118596775.13008       748.200 8        48.654                                                                    22775286.715 8  96369618.21308       608.033 8        49.295
S48        51.000    77085681.291 6 405087546.73506      -429.923 6        38.387
E02        53.000    24518022.511 7 128843151.91307      1882.471 7        46.868                                                                    24518028.015 8  96214116.17608      1405.727 8        48.978    24518026.818 8  98724031.49308      1442.338 8        49.120
C60        54.000                                                                                                                                    40820294.044 6 212561937.98506      -431.925 6        40.579                                                                    40820289.516 6 172723904.45406      -350.993 6        38.183
C45        55.000                                                                                                                                    21912649.116 8 114104866.86308     -1710.557 8        50.099                                                                    21912644.527 8  92719514.33308     -1389.890 8        49.852
R12        56.000    20089311.188 8 107313587.26108      1876.719 8        51.448                                                                    20089315.859 7  83466161.64307      1459.624 7        47.085
C02        57.000                                                                                                                                    40878895.735 5 212866913.52005      -480.582 5        32.431    40878907.364 6 164602123.54006      -371.480 6        37.323    40878905.642 5 172971750.31305      -390.356 5        31.600
I03        58.000   124101428.490 6 411215057.15206       910.021 6        39.799
C14        59.000                                                                                                                                    24453948.069 7 127338064.24307      2074.297 7        42.421    24453950.079 7  98465842.21607      1603.977 7        47.786    24453946.790 7 103472580.06807      1685.612 7        44.807
G07        60.000    25310927.620 6 133009574.51706     -3311.689 6        36.809                                    25310939.372 4 103643749.69904     -2580.538 4        26.192    25310940.007 5 103643750.68705     -2580.365 5        33.952
> 2025 01 01 09 01 45.0000000  0 53
G08         1.000    25405705.697 4                     -3142.292 4        24.135                                                                                                    25405712.434 3                     -2448.232 3        19.970
R01         2.000    19394693.467 8 103675680.24708     -2255.403 8        49.679                                                                    19394697.431 7  80636691.99407     -1754.179 7        42.296
G24         3.000    23662441.477 6 124346951.69506      2918.154 6        40.095                                    23662447.378 5  96893752.84705      2273.885 5        33.844    23662447.431 6  96893749.87506      2273.646 6        38.009
R02         4.000    20079376.284 8 107147344.99908      1985.717 8        51.585                                                                    20079379.996 7  83336825.04807      1544.514 7        46.454
S21         5.000    38371665.683 7 201644223.57807      -440.651 7        42.483
E05         6.000    25513887.090 6 134076215.59706     -3165.131 6        39.820                                                                    25513902.149 7 100121817.17707     -2363.581 7        43.407    25513900.749 7 102733689.92807     -2425.235 7        44.278
G17         7.000    23404960.229 7 122993976.76807      2223.031 7        42.614                                    23404967.585 6  95839531.08306      1732.220 6        36.253    23404968.135 6  95839527.10906      1732.299 6        39.249
R10         8.000    23651455.220 6 126075385.35506     -4450.799 6        38.880
R19         9.000    23844373.526 5 127551274.10205     -1613.906 5        32.018                                                                    23844378.659 6  99206608.19706     -1255.382 6        38.096
C26        11.000                                                                                                                                    22524701.849 8 117292050.19508      1384.828 8        49.389                                                                    22524704.351 8  95309416.46008      1125.380 8        48.737
S27        12.000    39076483.712 6 205348146.67806      -473.807 6        36.314
G15        13.000    20608696.827 8 108299375.38008      1382.449 8        48.178                                    20608696.986 7  84389092.79407      1077.232 7        47.057    20608696.964 7  84389084.80307      1077.170 7        44.594
S36        14.000    38141607.991 7 200435945.81907      -441.759 7        44.215
G20        15.000    24861503.774 5 130647851.81205     -4035.046 5        35.762                                    24861514.528 2 101803441.26202     -3144.174 2        15.571
R11        16.000    19635117.977 8 104924091.90408     -2432.916 8        50.969                                                                    19635120.760 8  81607618.12908     -1892.348 8        49.365
S45        17.000    63323702.993 6 332769798.08106      -490.255 6        36.336
E24        19.000    27096783.412 6 142394410.71706     -3083.090 6        39.372                                                                    27096793.821 7 106333459.18107     -2302.359 7        42.933    27096791.919 7 109107376.81907     -2362.324 7        43.486
E33        20.000    28759094.319 5 151130053.35705       628.394 5        30.211                                                                    28759099.267 5 112856876.09205       469.548 5        35.500    28759097.923 5 115800964.35105       481.678 5        34.962
G30        21.000    22364967.016 7 117528607.77107     -2936.819 7        44.773                                    22364972.384 7  91580713.22807     -2288.425 7        42.463    22364972.243 6  91580717.21606     -2288.348 6        41.700
I06        22.000    38027300.162 7 149227377.44407      -412.859 7        42.796
S28        23.000    40814732.953 5 214482646.62505      -450.522 5        35.205
G14        24.000    20550610.096 7 107994171.93807     -1268.820 7        47.254                                    20550610.730 6  84151301.30506      -988.687 6        39.069    20550610.718 8  84151303.30108      -988.699 8        48.518
S23        25.000    38074111.862 7 200080716.65407      -441.709 7        44.393
E08        26.000    24200210.483 7 127172907.35107      1158.158 7        46.852                                                                    24200214.004 8  94966762.68808       864.819 8        49.854    24200213.033 8  97444156.13808       887.385 8        50.370
C07        27.000                                                                                                                                    38778562.976 6 201930132.23706      -171.518 6        41.166    38778564.798 7 156145194.24507      -132.633 7        44.116    38778561.562 6 164084767.67106      -139.276 6        41.480
G13        28.000    19770291.482 8 103893537.14008      -635.638 8        48.390                                    19770290.344 6  80955970.44906      -495.303 6        40.484
I02        29.000    37308328.637 7 146405897.34707       104.549 7        42.309
C22        30.000                                                                                                                                    25740258.493 6 134036058.16306     -3983.897 6        41.480                                                                    25740264.560 7 108915211.25007     -3237.029 7        42.089
E07        31.000    28405014.634 6 149269331.41306      2363.376 6        36.042                                                                    28405019.817 6 111467368.68606      1764.814 6        39.000    28405018.730 6 114375209.55606      1810.853 6        39.850
E03        32.000    23495670.250 8 123470530.03708     -1482.211 8        48.591                                                                    23495675.165 8  92202018.09008     -1106.851 8        50.854    23495674.336 8  94607284.33308     -1135.747 8        51.175
G05        33.000    22831609.989 7 119980826.79807     -3617.901 7        44.239                                    22831612.978 6  93491522.31606     -2819.137 6        40.572    22831613.580 6  93491525.30706     -2819.188 6        41.223
E26        34.000    28298941.851 6 148711892.89406     -1429.088 6        36.953                                                                    28298945.248 6 111051076.95906     -1067.185 6        40.343    28298944.473 6 113948056.87106     -1095.120 6        40.212
C36        35.000                                                                                                                                    25322918.978 6 131862898.03206     -3392.096 6        41.185                                                                    25322933.617 7 107149387.58507     -2756.304 7        42.864
G23        36.000    23890180.663 6 125543681.78406      1923.489 6        40.436                                    23890182.072 4  97826213.95204      1498.828 4        25.293    23890181.711 6  97826214.96206      1498.719 6        41.559
I09        38.000    40173499.747 6 157649131.30106      -993.196 6        39.354
R08        39.000    23280218.535 6 124664292.53406     -4821.509 6        39.405                                                                    23280232.073 6  96961056.96906     -3750.053 6        41.445
E25        40.000    23585112.368 8 123940597.02508      -860.050 8        48.120                                                                    23585117.664 8  92553044.30908      -642.303 8        50.777    23585116.755 8  94967463.84708      -659.002 8        51.234
S44        42.000    40820708.824 6 214514209.70406      -435.876 6        36.983
C09        43.000                                                                                                                                    41029882.608 5 213653120.10605     -1053.761 5        35.429    41029898.074 6 165210065.60106      -815.118 6        40.527    41029891.604 6 173610585.37806      -856.234 6        36.998
C05        44.000                                                                                                                                    39306050.261 6 204676774.91806      -494.884 6        37.399    39306058.294 7 158269042.26107      -382.792 7        43.424    39306056.622 6 166316710.50606      -402.099 6        39.649
C40        45.000                                                                                                                                    38774601.906 7 201909515.07007      -184.203 7        43.528                                                                    38774606.916 7 164068031.99807      -149.507 7        43.537
C21        46.000                                                                                                                                    22597815.001 8 117672677.62008     -2387.461 8        51.082                                                                    22597813.154 8  95618646.25408     -1939.935 8        49.743
C10        49.000                                                                                                                                    38691990.110 6 201479362.53406       202.127 6        41.049    38691994.738 7 155796641.30007       156.308 7        44.826    38691991.076 6 163718490.65506       164.252 6        41.459
C42        50.000                                                                                                                                    22774558.685 8 118593041.16008       745.429 8        48.699                                                                    22774569.606 8  96366584.06108       605.862 8        49.618
S48        51.000    77086094.594 6 405089696.46306      -429.869 6        38.240
E02        53.000    24516232.102 7 128833744.02907      1880.693 7        47.133                                                                    24516237.689 8  96207090.81208      1404.451 8        49.172    24516236.477 8  98716822.85708      1441.032 8        49.149
C60        54.000                                                                                                                                    40820708.787 6 212564097.74606      -432.062 6        40.625                                                                    40820704.299 6 172725659.47406      -350.911 6        38.387
C45        55.000                                                                                                                                    21914292.429 8 114113424.36108     -1712.346 8        50.104                                                                    21914287.894 8  92726468.00908     -1391.392 8        50.094
R12        56.000    20087556.019 8 107304211.31708      1873.729 8        51.857                                                                    20087560.754 7  83458869.26307      1457.321 7        47.479
C02        57.000                                                                                                                                    40879356.599 5 212869317.35805      -480.818 5        32.335    40879368.956 6 164603982.33606      -371.896 6        37.214    40879366.979 5 172973703.63105      -390.670 5        31.517
I03        58.000   124100268.477 6 411210506.86106       910.099 6        39.943
C14        59.000                                                                                                                                    24451958.118 7 127327697.51807      2072.421 7        42.216    24451959.110 7  98457826.00707      1602.568 7        47.754    24451956.041 7 103464156.28007      1684.102 7        45.049
G07        60.000    25314078.571 6 133026134.72706     -3312.195 6        36.813                                    25314090.605 4 103656653.77104     -2580.928 4        26.168    25314091.085 5 103656654.77805     -2580.846 5        33.419
> 2025 01 01 09 01 50.0000000  0 53
G08         1.000    25408691.493 3                     -3144.065 3        22.629                                                                                                    25408703.752 3                     -2449.942 3        20.881
R01         2.000    19396805.304 8 103686967.11008     -2259.381 8        49.479                                                                    19396809.307 7  80645470.65107     -1757.333 7        42.455
G24         3.000    23659665.348 6 124332362.23506      2917.467 6        39.835                                    23659671.042 5  96882384.44905      2273.344 5        34.129    23659671.553 6  96882381.44806      2273.628 6        37.671
R02         4.000    20077517.053 8 107137424.58308      1982.480 8        51.307                                                                    20077521.091 7  83329109.17107      1541.857 7        46.606
S21         5.000    38372086.552 7 201646426.99607      -440.690 7        42.627
E05         6.000    25516898.785 6 134092042.93406     -3165.737 6        39.147                                                                    25516914.108 7 100133636.23707     -2364.035 7        43.445    25516912.419 7 102745817.32207     -2425.768 7        44.187
G17         7.000    23402845.554 7 122982865.00207      2221.694 7        42.650                                    23402853.071 6  95830872.62506      1731.177 6        36.650    23402853.434 6  95830868.65306      1731.154 6        39.544
R10         8.000    23655629.790 6 126097639.08406     -4450.798 6        38.156
R19         9.000    23845885.580 5 127559353.20205     -1618.102 5        32.317                                                                    23845889.933 6  99212891.91006     -1258.342 6        38.474
C26        11.000                                                                                                                                    22523372.765 8 117285129.88408      1383.207 8        49.255                                                                    22523375.359 8  95303793.16008      1124.088 8        48.781
S27        12.000    39076937.613 6 205350515.01906      -473.619 6        36.310
G15        13.000    20607382.688 7 108292470.20107      1379.675 7        47.836                                    20607382.991 7  84383712.12907      1075.071 7        47.283    20607383.111 7  84383704.12807      1074.970 7        44.476
S36        14.000    38142030.577 7 200438154.29807      -441.593 7        44.199
G20        15.000    24865343.676 6 130668026.52706     -4034.755 6        36.136                                    24865353.559 2 101819161.73802     -3143.970 2        16.264
R11        16.000    19637395.965 8 104936263.12808     -2435.549 8        51.009                                                                    19637398.493 8  81617084.62508     -1894.416 8        49.293
S45        17.000    63324124.998 6 332770549.06616      -490.349 6        36.295
E24        19.000    27099717.457 6 142409828.43506     -3084.024 6        39.604                                                                    27099727.698 7 106344972.36807     -2303.035 7        42.753    27099725.695 7 109119190.36507     -2363.102 7        43.098
E33        20.000    28758498.108 4 151126916.08404       626.089 4        29.573                                                                    28758502.247 5 112854533.36305       467.674 5        35.600    28758501.174 5 115798560.49205       479.877 5        35.100
G30        21.000    22367761.495 7 117543294.01707     -2937.755 7        44.692                                    22367767.090 7  91592157.02707     -2289.150 7        42.656    22367767.329 6  91592161.02206     -2289.207 6        41.218
I06        22.000    38027826.136 7 149229442.07107      -413.033 7        43.090
S28        23.000    40815161.580 5 214484898.52605      -450.595 5        35.343
G14        24.000    20551818.750 7 108000523.05707     -1271.701 7        47.425                                    20551819.307 6  84156250.21606      -990.933 6        39.258    20551819.227 8  84156252.20908      -990.912 8        48.270
S23        25.000    38074530.522 7 200082924.94907      -441.769 7        44.217
E08        26.000    24199109.150 7 127167119.62807      1156.899 7        46.912                                                                    24199112.624 8  94962440.68308       863.939 8        49.862    24199111.746 8  97439721.38108       886.456 8        50.234
C07        27.000                                                                                                                                    38778728.040 6 201930992.00406      -172.454 6        41.185    38778729.791 7 156145859.05007      -133.225 7        44.004    38778726.651 6 164085466.32106      -140.070 6        41.542
G13        28.000    19770897.638 8 103896722.08708      -638.330 8        48.360                                    19770896.432 6  80958452.22206      -497.399 6        40.598
I02        29.000    37308195.296 7 146405375.32707       104.269 7        42.286
C22        30.000                                                                                                                                    25744084.053 6 134055977.88406     -3984.159 6        41.311                                                                    25744090.019 7 108931397.62607     -3237.356 7        42.133
E07        31.000    28402765.989 6 149257514.52106      2363.243 6        36.544                                                                    28402771.404 6 111458544.34606      1764.869 6        39.249    28402770.396 6 114366155.01406      1810.919 6        39.907
E03        32.000    23497081.313 8 123477945.01808     -1483.868 8        48.377                                                                    23497086.185 8  92207555.24208     -1108.087 8        50.859    23497085.410 8  94612965.92708     -1136.976 8        50.991
G05        33.000    22835053.256 7 119998920.18807     -3619.535 7        44.637                                    22835056.109 6  93505621.02706     -2820.409 6        40.698    22835056.564 6  93505624.02106     -2820.425 6        41.077
E26        34.000    28300302.451 6 148719043.75606     -1431.206 6        37.100                                                                    28300305.814 6 111056416.84506     -1068.732 6        40.265    28300305.099 6 113953536.07206     -1096.758 6        40.310
C36        35.000                                                                                                                                    25326176.195 6 131879859.58806     -3392.449 6        41.657                                                                    25326191.065 7 107163170.21807     -2756.544 7        43.187
G23        36.000    23888351.561 6 125534070.97906      1920.950 6        40.803                                    23888353.375 4  97818725.00404      1496.849 4        25.639    23888352.847 6  97818726.00006      1496.839 6        40.810
I09        38.000    40174765.219 6 157654097.55806      -993.289 6        39.589
R08        39.000    23284721.837 6 124688402.53906     -4822.544 6        39.727                                                                    23284734.523 6  96979809.09606     -3750.791 6        41.073
E25        40.000    23585931.999 7 123944902.59107      -862.235 7        47.833                                                                    23585937.028 8  92556259.50108      -643.889 8        50.736    23585936.130 8  94970762.91908      -660.700 8        51.008
S44        42.000    40821121.247 6 214516389.35306      -435.970 6        37.244
C09        43.000                                                                                                                                    41030895.306 5 213658389.20605     -1054.033 5        34.933    41030909.749 6 165214139.99706      -814.915 6        40.493    41030903.417 6 173614866.95506      -856.322 6        36.703
C05        44.000                                                                                                                                    39306525.631 6 204679249.84506      -494.931 6        37.353    39306533.874 7 158270956.05407      -382.741 7        43.591    39306531.825 6 166318721.62706      -402.253 6        39.369
C40        45.000                                                                                                                                    38774779.507 7 201910438.18407      -185.082 7        43.268                                                                    38774784.191 7 164068782.13507      -150.292 7        43.492
C21        46.000                                                                                                                                    22600108.534 8 117684620.69908     -2389.792 8        50.984                                                                    22600106.717 8  95628350.99208     -1941.824 8        49.782
C10        49.000                                                                                                                                    38691796.992 6 201478353.78906       201.320 6        41.366    38691801.133 7 155795861.28007       155.650 7        44.706    38691797.486 6 163717670.98906       163.652 6        41.440
C42        50.000                                                                                                                                    22773844.073 8 118589320.15608       742.953 8        48.820                                                                    22773855.000 8  96363560.45408       603.800 8        49.726
S48        51.000    77086506.409 6 405091846.59506      -430.074 6        38.084
E02        53.000    24514443.448 7 128824344.00607      1879.205 7        46.876                                                                    24514448.865 8  96200071.32408      1403.292 8        49.172    24514447.691 8  98709620.24908      1439.910 8        49.003
C60        54.000                                                                                                                                    40821123.646 6 212566257.56006      -431.969 6        40.522                                                                    40821118.894 6 172727414.54406      -350.979 6        38.501
C45        55.000                                                                                                                                    21915937.358 8 114121990.45708     -1714.064 8        50.030                                                                    21915932.879 8  92733428.66908     -1392.741 8        50.172
R12        56.000    20085803.631 8 107294849.63908      1870.890 8        52.008                                                                    20085808.291 7  83451587.96207      1455.073 7        47.670
C02        57.000                                                                                                                                    40879818.880 5 212871721.17305      -480.322 5        32.210    40879830.043 6 164605841.12406      -371.722 6        37.115    40879828.965 5 172975656.97905      -390.643 5        31.675
I03        58.000   124099109.465 6 411205956.59006       910.043 6        39.988
C14        59.000                                                                                                                                    24449968.448 6 127317339.49606      2070.637 6        41.964    24449969.618 7  98449816.52307      1601.163 7        47.600    24449966.824 7 103455739.54507      1682.712 7        45.087
G07        60.000    25317229.955 6 133042695.88206     -3312.332 6        36.919                                    25317242.151 4 103669558.56804     -2581.035 4        26.323    25317242.699 5 103669559.57005     -2580.961 5        34.281
> 2025 01 01 09 01 55.0000000  0 53
G08         1.000    25411685.915 3                     -3145.181 3        21.500                                                                                                    25411693.676 3                     -2453.047 3        19.940
R01         2.000    19398920.580 8 103698273.99108     -2263.546 8        49.203                                                                    19398924.642 7  80654264.88907     -1760.624 7        42.440
G24         3.000    23656889.311 6 124317776.49506      2916.704 6        40.400                                    23656895.492 5  96871018.94905      2272.757 5        34.038    23656895.224 6  96871015.95306      2272.740 6        37.784
R02         4.000    20075660.802 8 107127520.23308      1978.981 8        51.323                                                                    20075665.116 7  83321405.78807      1539.242 7        46.464
S21         5.000    38372505.824 7 201648630.53707      -441.004 7        42.445
E05         6.000    25519911.291 6 134107873.96206     -3166.704 6        38.724                                                                    25519926.824 7 100145458.06207     -2364.695 7        43.712    25519924.941 7 102757947.54407     -2426.455 7        44.190
G17         7.000    23400731.984 7 122971760.78907      2219.940 7        42.902                                    23400740.011 6  95822220.04706      1729.809 6        36.843    23400740.034 6  95822216.06706      1729.824 6        39.324
R10         8.000    23659804.098 6 126119892.95006     -4450.890 6        37.766
R19         9.000    23847399.864 5 127567452.76005     -1622.330 5        32.168                                                                    23847404.714 6  99219191.55506     -1261.660 6        39.267
C26        11.000                                                                                                                                    22522045.348 8 117278218.09808      1381.334 8        49.100                                                                    22522048.021 8  95298176.74808      1122.486 8        48.639
S27        12.000    39077384.024 5 205352883.70005      -474.012 5        35.976
G15        13.000    20606071.315 8 108285579.48608      1376.566 8        48.199                                    20606071.751 7  84378342.74007      1072.650 7        47.259    20606071.986 7  84378334.73807      1072.599 7        44.558
S36        14.000    38142450.596 7 200440363.01307      -441.773 7        44.134
G20        15.000    24869182.668 6 130688199.97906     -4034.767 6        36.280                                    24869192.492 2 101834881.23902     -3143.961 2        16.000
R11        16.000    19639675.839 8 104948447.81008     -2438.428 8        50.920                                                                    19639678.836 8  81626561.57708     -1896.556 8        49.469
S45        17.000    63324545.259 6 332773000.39806      -490.468 6        36.336
E24        19.000    27102652.489 6 142425250.83906     -3085.121 6        39.694                                                                    27102662.440 7 106356489.04107     -2303.752 7        42.743    27102660.525 7 109131007.47407     -2363.871 7        43.113
E33        20.000    28757902.664 4 151123790.39404       623.895 4        28.768                                                                    28757907.423 5 112852199.20705       465.570 5        35.014    28757906.295 5 115796165.44905       478.163 5        35.695
G30        21.000    22370557.337 7 117557985.56307     -2938.965 7        44.572                                    22370562.811 7  91603604.95507     -2290.097 7        42.578    22370563.653 6  91603608.94206     -2289.954 6        41.299
I06        22.000    38028352.303 7 149231507.08307      -413.217 7        42.870
S28        23.000    40815585.669 5 214487150.74805      -450.446 5        34.776
G14        24.000    20553029.802 7 108006888.96807     -1274.832 7        47.513                                    20553030.723 6  84161210.65506      -993.369 6        39.219    20553030.558 7  84161212.64707      -993.335 7        47.812
S23        25.000    38074951.932 7 200085133.63607      -441.971 7        44.370
E08        26.000    24198009.069 7 127161338.44607      1155.420 7        46.653                                                                    24198012.478 8  94958123.55908       862.789 8        49.887    24198011.572 8  97435291.64108       885.286 8        50.394
C07        27.000                                                                                                                                    38778893.886 6 201931856.08306      -173.430 6        41.123    38778895.563 7 156146527.20207      -134.226 7        44.045    38778892.591 6 164086168.40106      -140.835 6        41.576
G13        28.000    19771506.012 8 103899921.11408      -641.434 8        48.588                                    19771505.199 6  80960944.96806      -499.816 6        40.539
I02        29.000    37308062.815 7 146404854.88107       103.762 7        42.239
C22        30.000                                                                                                                                    25747910.065 6 134075899.67906     -3984.755 6        41.156                                                                    25747915.780 6 108947585.63706     -3237.930 6        41.931
E07        31.000    28400517.566 6 149245697.60406      2363.270 6        36.284                                                                    28400522.694 6 111449719.97706      1764.766 6        39.321    28400521.582 6 114357100.45206      1810.945 6        39.871
E03        32.000    23498494.015 8 123485368.69708     -1485.763 8        48.222                                                                    23498498.924 8  92213098.89208     -1109.482 8        50.854    23498498.113 8  94618654.19908     -1138.435 8        51.152
G05        33.000    22838497.810 7 120017022.00407     -3621.383 7        44.670                                    22838500.837 6  93519726.30406     -2821.848 6        40.629    22838501.160 6  93519729.28506     -2821.908 6        41.259
E26        34.000    28301665.482 6 148726206.08806     -1433.894 6        37.664                                                                    28301668.768 6 111061765.34606     -1070.632 6        39.979    28301667.940 6 113959024.10906     -1098.693 6        40.405
C36        35.000                                                                                                                                    25329434.216 7 131896822.68707     -3392.944 7        42.045                                                                    25329448.853 7 107176954.07207     -2756.872 7        43.147
G23        36.000    23886524.642 6 125524473.23006      1918.013 6        41.604                                    23886527.017 4  97811246.22704      1494.555 4        25.353    23886526.831 6  97811247.20906      1494.592 6        41.518
I09        38.000    40176031.145 6 157659063.98506      -993.348 6        39.465
R08        39.000    23289224.776 6 124712517.61506     -4823.608 6        40.002                                                                    23289237.995 6  96998565.15606     -3751.826 6        41.061
E25        40.000    23586753.249 7 123949219.28307      -864.598 7        47.867                                                                    23586758.502 8  92559482.99208      -645.637 8        50.779    23586757.576 8  94974070.50108      -662.510 8        51.192
S44        42.000    40821537.157 6 214518569.17606      -436.201 6        37.221
C09        43.000                                                                                                                                    41031907.044 5 213663658.52405     -1053.943 5        35.619    41031921.255 6 165218214.60806      -814.923 6        40.236    41031915.421 6 173619148.73206      -856.436 6        36.809
C05        44.000                                                                                                                                    39307001.027 6 204681725.05506      -495.108 6        37.403    39307009.104 7 158272870.05607      -382.993 7        43.490    39307007.222 6 166320732.92506      -402.392 6        39.459
C40        45.000                                                                                                                                    38774957.942 7 201911366.64607      -186.524 7        43.336                                                                    38774962.398 7 164069536.56107      -151.326 7        43.551
C21        46.000                                                                                                                                    22602404.317 8 117696575.88708     -2392.412 8        50.990                                                                    22602402.556 8  95638065.52508     -1943.948 8        49.715
C10        49.000                                                                                                                                    38691604.105 6 201477349.09706       200.370 6        41.325    38691608.261 7 155795084.38307       154.851 7        44.671    38691604.393 6 163716854.56106       162.953 6        41.354
C42        50.000                                                                                                                                    22773132.222 8 118585612.28408       740.089 8        48.999                                                                    22773142.992 8  96360547.47708       601.470 8        49.620
S48        51.000    77086921.643 6 405093996.83706      -430.096 6        38.072
E02        53.000    24512656.164 7 128814951.98907      1877.421 7        46.628                                                                    24512661.695 8  96193057.82108      1401.937 8        49.132    24512660.472 8  98702423.78408      1438.493 8        49.162
C60        54.000                                                                                                                                    40821538.282 6 212568417.57306      -432.210 6        40.565                                                                    40821533.740 6 172729169.74206      -351.258 6        38.408
C45        55.000                                                                                                                                    21917584.145 8 114130565.29108     -1715.961 8        50.094                                                                    21917579.571 8  92740396.39108     -1394.294 8        50.097
R12        56.000    20084053.938 8 107285502.33308      1867.868 8        51.613                                                                    20084057.855 7  83444317.84207      1452.715 7        46.950
C02        57.000                                                                                                                                    40880280.351 5 212874125.30305      -481.055 5        32.102    40880292.100 6 164607700.13006      -371.935 6        37.028    40880290.552 5 172977610.45405      -390.560 5        31.615
I03        58.000   124097949.768 6 411201406.42506       909.828 6        40.069
C14        59.000                                                                                                                                    24447980.559 6 127306990.34506      2068.715 6        41.888    24447982.022 7  98441813.89607      1599.715 7        47.535    24447979.356 7 103447329.96807      1681.202 7        45.094
G07        60.000    25320381.630 6 133059258.12106     -3312.720 6        37.142                                    25320393.952 4 103682464.21604     -2581.347 4        26.144    25320394.386 5 103682465.22205     -2581.292 5        34.948
