     3.04           OBSERVATION DATA    M                   RINEX VERSION / TYPE
ssrcrin-15.6.1x                         20250101 231500 UTC PGM / RUN BY / DATE 
(00000000023479385599111004) Septentrio proprietary         COMMENT             
rref                                                        MARKER NAME         
01                                                          MARKER NUMBER       
geodetic                                                    MARKER TYPE         
NFB                 CLIMERS@TUW                             OBSERVER / AGENCY   
3297213             SEPT ASTERX SB3 PROB4.14.4              REC # / TYPE / VERS 
Unknown             Unknown                                 ANT # / TYPE        
  4127831.7262  1207193.3121  4695247.1434                  APPROX POSITION XYZ 
        0.0000        0.0000        0.0000                  ANTENNA: DELTA H/E/N
G   23 X1  C1C L1C D1C S1C C1W S1W C2W L2W D2W S2W C2L L2L  SYS / # / OBS TYPES 
       D2L S2L C5Q L5Q D5Q S5Q C1L L1L D1L S1L              SYS / # / OBS TYPES 
E   21 X1  C1C L1C D1C S1C C6C L6C D6C S6C C5Q L5Q D5Q S5Q  SYS / # / OBS TYPES 
       C7Q L7Q D7Q S7Q C8Q L8Q D8Q S8Q                      SYS / # / OBS TYPES 
S    9 X1  C1C L1C D1C S1C C5I L5I D5I S5I                  SYS / # / OBS TYPES 
R   17 X1  C1C L1C D1C S1C C2P L2P D2P S2P C2C L2C D2C S2C  SYS / # / OBS TYPES 
       C3Q L3Q D3Q S3Q                                      SYS / # / OBS TYPES 
C   25 X1  C1P L1P D1P S1P C5P L5P D5P S5P C2I L2I D2I S2I  SYS / # / OBS TYPES 
       C7I L7I D7I S7I C6I L6I D6I S6I C7D L7D D7D S7D      SYS / # / OBS TYPES 
J   17 X1  C1C L1C D1C S1C C2L L2L D2L S2L C5Q L5Q D5Q S5Q  SYS / # / OBS TYPES 
       C1L L1L D1L S1L                                      SYS / # / OBS TYPES 
I    5 X1  C5A L5A D5A S5A                                  SYS / # / OBS TYPES 
SEPTENTRIO RECEIVERS OUTPUT ALIGNED CARRIER PHASES.         COMMENT             
NO FURTHER PHASE SHIFT APPLIED IN THE RINEX ENCODER.        COMMENT             
G L1C                                                       SYS / PHASE SHIFT   
G L2W                                                       SYS / PHASE SHIFT   
G L2L  0.00000                                              SYS / PHASE SHIFT   
G L5Q  0.00000                                              SYS / PHASE SHIFT   
G L1L  0.00000                                              SYS / PHASE SHIFT   
E L1C  0.00000                                              SYS / PHASE SHIFT   
E L6C  0.00000                                              SYS / PHASE SHIFT   
E L5Q  0.00000                                              SYS / PHASE SHIFT   
E L7Q  0.00000                                              SYS / PHASE SHIFT   
E L8Q  0.00000                                              SYS / PHASE SHIFT   
S L1C                                                       SYS / PHASE SHIFT   
S L5I                                                       SYS / PHASE SHIFT   
R L1C                                                       SYS / PHASE SHIFT   
R L2P  0.00000                                              SYS / PHASE SHIFT   
R L2C                                                       SYS / PHASE SHIFT   
R L3Q  0.00000                                              SYS / PHASE SHIFT   
C L1P  0.00000                                              SYS / PHASE SHIFT   
C L5P  0.00000                                              SYS / PHASE SHIFT   
C L2I                                                       SYS / PHASE SHIFT   
C L7I                                                       SYS / PHASE SHIFT   
C L6I                                                       SYS / PHASE SHIFT   
C L7D                                                       SYS / PHASE SHIFT   
J L1C                                                       SYS / PHASE SHIFT   
J L2L  0.00000                                              SYS / PHASE SHIFT   
J L5Q  0.00000                                              SYS / PHASE SHIFT   
J L1L  0.00000                                              SYS / PHASE SHIFT   
I L5A                                                       SYS / PHASE SHIFT   
  2025     1     1    23    15    0.0000000     GPS         TIME OF FIRST OBS   
 C1C    0.000 C2C    0.000 C2P    0.000                     GLONASS COD/PHS/BIS 
DBHZ                                                        SIGNAL STRENGTH UNIT
    18                                                      LEAP SECONDS        
 24 R01  1 R02 -4 R03  5 R04  6 R05  1 R06 -4 R07  5 R08  6 GLONASS SLOT / FRQ #
    R09 -2 R10 -7 R11  0 R12 -1 R13 -2 R14 -7 R15  0 R16 -1 GLONASS SLOT / FRQ #
    R17  4 R18 -3 R19  3 R20  2 R21  4 R22 -3 R23  3 R24  2 GLONASS SLOT / FRQ #
                                                            END OF HEADER       
> 2025 01 01 23 15  0.0000000  0 53
G10         1.000    23546943.146 7 123740120.90507     -3471.189 7        42.076                                    23546941.099 6  96420935.14406     -2704.821 6        38.108    23546941.233 6  96420912.15806     -2704.919 6        39.312
G14         2.000    23881987.546 6 125500742.85206     -1308.378 6        39.568                                    23881984.200 4  97792789.05204     -1019.515 4        24.060    23881984.352 6  97792785.07206     -1019.691 6        38.682
C33         3.000                                                                                                                                    24508493.841 7 127622186.21707     -3276.474 7        44.786                                                                    24508504.743 7 103703539.75207     -2662.370 7        45.324
E31         4.000    26742602.525 6 140533372.38506     -2440.947 6        40.627                                                                    26742602.373 7 104943765.30207     -1822.769 7        42.400    26742602.171 7 107681425.17107     -1870.374 7        43.507
S21         5.000    38356264.444 7 201563270.23007      -485.393 7        42.654
E13         6.000    27423987.449 6 144114364.19706     -2917.700 6        38.541                                                                    27423988.028 7 107618074.20907     -2178.724 7        42.299    27423987.773 7 110425472.07607     -2235.634 7        42.686
G03         8.000    22193138.954 7 116625828.67507      2486.478 7        44.011                                    22193137.390 7  90877309.66007      1937.513 7        42.372    22193137.640 7  90877307.67707      1937.465 7        42.011
G02         9.000    20937869.446 8 110029300.51608       663.395 8        48.948                                    20937862.750 6  85737112.45706       516.930 6        41.569
R12        10.000    23549118.228 7 125795189.64907     -2168.670 7        42.718                                                                    23549119.071 6  97840734.63406     -1686.885 6        40.770
C30        11.000                                                                                                                                    22795159.129 8 118700390.91008      1569.449 8        48.426                                                                    22795159.491 8  96453793.79608      1275.314 8        48.236
S27        12.000    39024502.052 6 205075156.24206      -458.399 6        36.601
R20        13.000    19781683.088 6 105781598.23306     -2198.872 6        39.264                                                                    19781683.605 7  82274643.91407     -1710.268 7        46.788
S36        14.000    38124300.535 7 200345050.78407      -484.748 7        44.287
G27        15.000    24499718.571 6 128747162.81006     -4359.453 6        39.099                                    24499716.586 5 100322620.61605     -3396.977 5        35.086    24499717.138 6 100322534.61706     -3397.039 6        38.387
S45        17.000    63328374.452 6 332793989.07306      -527.044 6        38.174
E08        18.000    27058478.019 6 142193302.93106     -2737.898 6        39.520                                                                    27058476.444 7 106183312.58907     -2044.556 7        42.197    27058476.445 7 108953307.75107     -2097.934 7        43.092
E12        19.000    28480307.726 5 149665027.94405      2056.177 5        32.677                                                                    28480303.655 6 111762832.88506      1535.359 6        36.287    28480303.378 6 114678384.63806      1575.785 6        36.280
G17        20.000    24450954.672 6 128490645.26006      2631.587 6        40.953                                    24450951.020 5 100122567.54005      2050.583 5        34.267    24450951.407 6 100122566.55506      2050.514 6        37.365
E26        21.000    23678011.275 7 124429138.00707     -1450.634 7        47.890                                                                    23678008.725 8  92918060.31808     -1083.245 8        50.448    23678008.515 8  95341985.22708     -1111.513 8        51.439
I06        22.000    38275553.112 7 150201726.19107      -254.587 7        43.369
S28        23.000    40805564.839 5 214434719.05005      -477.217 5        34.576
G08        24.000    21912180.709 7 115149300.14707     -3486.355 7        46.544                                    21912178.967 7  89726727.41907     -2716.641 7        45.731    21912179.419 7  89726728.42707     -2716.755 7        43.287
S23        25.000    38077417.585 7 200098170.03707      -482.229 7        45.136
C13        26.000                                                                                                                                    40416896.990 6 210461582.31906     -1300.923 6        38.504    40416898.229 6 162742355.74606     -1005.968 6        38.745    40416896.664 6 171017361.54106     -1057.073 6        37.297
E24        27.000    27689394.339 6 145508781.49706      -186.034 6        39.027                                                                    27689393.532 7 108659166.31107      -138.991 7        42.269    27689392.751 7 111493749.95307      -142.515 7        42.743
R21        29.000    19802748.684 8 105968513.47208      1680.730 8        52.166                                                                    19802747.254 7  82419958.25607      1307.221 7        46.316
C14        30.000                                                                                                                                    26827204.708 6 139696306.25806     -3770.057 6        36.851    26827201.044 7 108022037.45407     -2915.346 7        42.777    26827199.329 6 113514675.80306     -3063.470 6        40.010
R05        31.000    19486119.117 8 104164516.63708     -1990.699 8        50.946                                                                    19486118.106 7  81016856.49707     -1548.379 7        47.829
R13        32.000    23784340.222 6 127007065.19206       448.415 6        36.234
E29        33.000    25482264.056 7 133910278.64707      2296.300 7        44.173                                                                    25482262.416 7  99997948.45307      1714.700 7        47.118    25482262.486 7 102606585.30107      1759.435 7        47.938
C16        35.000                                                                                                                                    40092522.135 6 208772304.79206      1106.834 6        38.928    40092522.527 6 161435998.79906       855.773 6        41.502    40092519.138 5 169644597.05205       899.338 5        35.805
C32        36.000                                                                                                                                    23632202.516 8 123059133.19108      2277.671 8        48.023                                                                    23632202.485 7  99995646.37707      1850.810 7        47.798
G32        37.000    21869519.281 8 114925139.34308     -1356.449 8        48.538                                    21869516.771 8  89552058.87908     -1056.974 8        48.132    21869517.177 7  89552067.88307     -1057.081 7        44.650
E07        38.000    24362725.967 7 128027007.11707      -214.615 7        46.550                                                                    24362725.938 8  95604621.36608      -160.198 8        49.492    24362725.641 8  98098647.32208      -164.417 8        50.179
C41        39.000                                                                                                                                    21874917.339 8 113908467.41408      -740.378 8        50.958                                                                    21874922.061 8  92559990.05808      -601.588 8        50.421
C39        40.000                                                                                                                                    39629850.283 7 206363052.62907       799.765 7        42.000                                                                    39629845.863 6 167686878.99706       649.848 6        41.659
E33        41.000    23847565.848 7 125319891.90007       846.166 7        47.414                                                                    23847563.722 8  93583069.19508       631.889 8        50.508    23847563.361 8  96024362.58208       648.321 8        51.073
S44        42.000    40435536.923 6 212490382.61206      -536.411 6        37.769
R06        43.000    20722855.778 7 110581189.94807      2895.044 7        42.679
C05        44.000                                                                                                                                    39052837.323 6 203358413.74506      -453.789 6        38.177    39052832.173 7 157249650.43607      -351.105 7        43.371    39052834.632 6 165245473.19106      -368.882 6        40.436
C08        45.000                                                                                                                                    41237511.794 5 214734731.90705     -1390.675 5        30.875    41237506.608 6 166046589.91006     -1075.594 6        36.208    41237505.414 5 174489609.53405     -1130.235 5        32.563
R22        48.000    23991234.869 7 128066853.67307      3433.342 7        42.946                                                                    23991234.476 6  99607545.45006      2670.435 6        39.444
I05        49.000  -497471290.095 6-876398991.12906       259.020 6        38.351
C06        50.000                                                                                                                                    39838540.622 6 207449752.70906      1207.784 6        37.607    39838536.315 6 160413287.91406       933.963 6        41.888    39838535.048 6 168569895.03406       981.319 6        38.691
S48        51.000    77112680.184 6 405230901.06806      -499.408 6        38.498
G21        52.000    20550164.141 7 107991913.67407      -827.215 7        44.673                                    20550158.298 6  84149565.30706      -644.582 6        37.796
C09        53.000                                                                                                                                    40913461.927 6 213047135.85206      1380.263 6        37.474    40913459.157 6 164741546.13806      1067.168 6        41.242    40913457.349 6 173118225.55606      1121.467 6        37.732
C60        54.000                                                                                                                                    40435538.544 6 210558671.37406      -531.300 6        41.068                                                                    40435522.180 6 171096139.70206      -431.764 6        40.608
C27        55.000                                                                                                                                    21437598.777 8 111631223.60408     -1302.114 8        51.974                                                                    21437596.997 8  90709517.79008     -1058.024 8        49.606
R04        56.000    22912520.710 7 122695519.72207     -4629.577 7        44.319                                                                    22912519.905 6  95429839.12706     -3600.828 6        40.029
C02        57.000                                                                                                                                    40441347.674 5 210588768.66705      -492.610 5        33.503    40441341.107 6 162840590.80406      -381.082 6        40.751    40441344.509 6 171120630.01306      -400.223 6        36.526
I03        58.000   106068474.816 6 340450254.17506       969.365 6        39.492
C28        60.000                                                                                                                                    23884625.457 7 124373822.47807     -3365.358 7        45.348                                                                    23884624.822 7 101064053.27907     -2734.583 7        44.837
> 2025 01 01 23 15  5.0000000  0 53
G10         1.000    23550245.951 7 123757478.95207     -3472.009 7        42.360                                    23550244.304 6  96434460.88606     -2705.463 6        37.996    23550243.776 6  96434437.89506     -2705.402 6        39.273
G14         2.000    23883234.444 6 125507292.57006     -1311.389 6        40.040                                    23883230.339 4  97797892.73604     -1021.864 4        24.075    23883230.728 6  97797888.74506     -1022.084 6        39.303
C33         3.000                                                                                                                                    24511640.624 7 127638572.31307     -3277.946 7        44.743                                                                    24511651.346 7 103716854.79107     -2663.552 7        45.502
E31         4.000    26744925.934 6 140545581.81706     -2442.874 6        40.739                                                                    26744925.650 7 104952882.72007     -1824.152 7        42.580    26744925.579 7 107690780.43007     -1871.783 7        43.649
S21         5.000    38356726.162 7 201565697.75207      -485.761 7        42.491
E13         6.000    27426763.752 6 144128954.07806     -2918.461 6        38.907                                                                    27426764.354 7 107628969.24407     -2179.306 7        42.472    27426763.947 7 110436651.33107     -2236.134 7        42.573
G03         8.000    22190774.481 7 116613400.49907      2484.773 7        43.970                                    22190772.425 7  90867625.37207      1936.183 7        42.391    22190772.886 6  90867623.37206      1936.220 6        41.723
G02         9.000    20937239.293 8 110025988.43408       661.488 8        48.897                                    20937232.479 6  85734531.61406       515.444 6        41.600
R12        10.000    23551149.263 7 125806042.36607     -2172.580 7        44.129                                                                    23551150.792 6  97849175.64106     -1689.694 6        40.424
C30        11.000                                                                                                                                    22793653.079 8 118692548.54608      1567.492 8        48.573                                                                    22793653.375 8  96447421.22508      1273.827 8        48.387
S27        12.000    39024939.967 6 205077448.23506      -458.725 6        36.718
R20        13.000    19783740.546 6 105792601.01606     -2202.176 6        39.228                                                                    19783741.531 7  82283201.63107     -1712.787 7        47.250
S36        14.000    38124758.591 7 200347474.43807      -484.953 7        44.215
G27        15.000    24503867.083 6 128768961.60706     -4359.850 6        39.312                                    24503864.807 5 100339606.68405     -3397.288 5        35.148    24503865.858 6 100339520.67706     -3397.252 6        38.535
S45        17.000    63328828.215 6 332796625.63806      -527.358 6        37.909
E08        18.000    27061083.919 6 142206997.22106     -2739.878 6        39.667                                                                    27061082.222 7 106193538.83407     -2045.945 7        42.220    27061082.231 7 108963800.75807     -2099.228 7        43.092
E12        19.000    28478351.870 5 149654747.56105      2056.217 5        33.713                                                                    28478347.335 6 111755155.96306      1535.324 6        36.408    28478347.020 6 114670507.46706      1575.211 6        36.125
G17        20.000    24448451.314 6 128477490.79006      2630.147 6        41.349                                    24448447.654 5 100112317.33305      2049.469 5        34.248    24448447.885 6 100112316.35106      2049.534 6        37.323
E26        21.000    23679392.230 8 124436394.81608     -1452.149 8        48.049                                                                    23679389.688 8  92923479.35608     -1084.355 8        50.509    23679389.461 8  95347545.63108     -1112.675 8        51.544
I06        22.000    38275877.369 7 150202999.23507      -254.638 7        43.602
S28        23.000    40806023.475 5 214437105.74305      -477.506 5        34.533
G08        24.000    21915498.989 7 115166737.11207     -3488.372 7        46.930                                    21915497.023 7  89740314.66307     -2718.212 7        45.743    21915497.497 7  89740315.67107     -2718.304 7        42.677
S23        25.000    38077877.554 7 200100582.36007      -482.579 7        45.046
C13        26.000                                                                                                                                    40418145.888 6 210468087.46006     -1301.037 6        38.150    40418146.953 6 162747385.93606     -1006.097 6        38.480    40418145.781 6 171022647.49606     -1057.148 6        37.611
E24        27.000    27689573.114 6 145509718.51706      -188.603 6        39.462                                                                    27689571.750 7 108659866.04107      -141.045 7        42.711    27689571.067 7 111494467.93607      -144.688 7        42.868
R21        29.000    19801179.789 8 105960116.41508      1678.014 8        52.023                                                                    19801178.190 7  82413427.21907      1305.154 7        46.391
C14        30.000                                                                                                                                    26830823.790 6 139715157.58406     -3770.622 6        36.960    26830821.270 7 108036614.47607     -2915.620 7        42.626    26830819.581 6 113529994.03606     -3063.800 6        39.973
R05        31.000    19487983.047 8 104174480.79008     -1994.983 8        50.770                                                                    19487982.388 8  81024606.39108     -1551.606 8        48.041
R13        32.000    23783921.449 6 127004834.28306       443.910 6        37.214
E29        33.000    25480080.291 7 133898800.98707      2294.853 7        44.123                                                                    25480078.224 7  99989377.47307      1713.607 7        47.222    25480078.466 8 102597790.73208      1758.364 8        48.097
C16        35.000                                                                                                                                    40091460.188 6 208766773.37706      1105.769 6        38.781    40091460.231 6 161431721.54406       855.072 6        41.392    40091457.107 5 169640102.31305       898.668 5        35.976
C32        36.000                                                                                                                                    23630016.834 8 123047749.47008      2275.761 8        48.361                                                                    23630016.370 7  99986396.16607      1849.349 7        47.938
G32        37.000    21870811.415 8 114931930.11908     -1359.870 8        48.350                                    21870809.016 8  89557350.39408     -1059.640 8        48.108    21870809.362 7  89557359.39707     -1059.608 7        44.546
E07        38.000    24362931.080 7 128028086.78907      -217.339 7        46.666                                                                    24362931.385 8  95605427.61808      -162.319 8        49.630    24362931.059 8  98099474.59808      -166.495 8        50.272
C41        39.000                                                                                                                                    21875629.662 8 113912176.29408      -743.175 8        51.071                                                                    21875634.361 8  92563003.82108      -603.802 8        50.558
C39        40.000                                                                                                                                    39629082.589 7 206359056.83107       798.549 7        42.387                                                                    39629078.453 7 167683632.09107       648.874 7        42.078
E33        41.000    23846761.250 7 125315664.05707       844.949 7        47.896                                                                    23846759.107 8  93579912.03308       630.960 8        50.635    23846758.844 8  96021123.05408       647.459 8        51.080
S44        42.000    40436048.320 6 212493064.78506      -536.655 6        37.724
R06        43.000    20720145.324 7 110566721.84707      2892.052 7        42.258
C05        44.000                                                                                                                                    39053273.252 6 203360683.88206      -454.183 6        38.264    39053268.076 7 157251405.82007      -351.174 7        43.306    39053270.562 6 165247317.82706      -369.018 6        40.789
C08        45.000                                                                                                                                    41238846.331 4 214741686.90404     -1391.052 4        29.763    41238842.106 5 166051967.93305     -1075.683 5        35.914    41238841.367 5 174495261.03105     -1130.472 5        32.641
R22        48.000    23988019.244 7 128049686.87007      3433.229 7        43.338                                                                    23988019.277 6  99594193.51606      2670.302 6        40.746
I05        49.000  -497471620.990 6-876400285.99906       258.749 6        38.402
C06        50.000                                                                                                                                    39837381.672 6 207443716.67506      1206.802 6        37.966    39837377.012 6 160408620.45706       933.119 6        41.809    39837375.730 6 168564990.25606       980.450 6        38.706
S48        51.000    77113138.767 6 405233399.41306      -499.882 6        38.372
G21        52.000    20550951.856 7 107996054.77507      -829.300 7        44.394                                    20550946.328 6  84152792.13906      -646.209 6        37.826
C09        53.000                                                                                                                                    40912137.525 6 213040236.77306      1379.653 6        37.350    40912133.876 6 164736211.32906      1066.652 6        41.120    40912132.301 6 173112619.48206      1121.121 6        37.924
C60        54.000                                                                                                                                    40436049.195 6 210561329.17306      -531.848 6        41.237                                                                    40436032.575 6 171098299.38106      -432.071 6        40.863
C27        55.000                                                                                                                                    21438850.504 8 111637740.96508     -1304.798 8        51.977                                                                    21438848.537 8  90714813.67508     -1060.168 8        49.742
R04        56.000    22916844.207 7 122718671.05707     -4630.958 7        43.972                                                                    22916843.150 6  95447845.68006     -3601.846 6        39.631
C02        57.000                                                                                                                                    40441820.432 5 210591232.85405      -493.044 5        33.479    40441814.531 6 162842496.24906      -381.221 6        40.815    40441817.764 6 171122632.37306      -400.700 6        36.726
I03        58.000   106067240.823 6 340445408.23106       969.070 6        39.685
C28        60.000                                                                                                                                    23887857.667 7 124390653.19507     -3366.918 7        46.008                                                                    23887856.862 7 101077729.61307     -2735.801 7        45.153
> 2025 01 01 23 15 10.0000000  0 53
G10         1.000    23553550.117 7 123774839.48407     -3472.445 7        42.565                                    23553547.796 6  96447988.57806     -2705.801 6        37.690    23553547.359 6  96447965.58706     -2705.788 6        38.754
G14         2.000    23884483.133 6 125513856.31006     -1314.158 6        39.919                                    23884479.254 3  97803007.34303     -1024.011 3        23.771    23884480.055 6  97803003.34206     -1024.023 6        38.508
C33         3.000                                                                                                                                    24514788.060 7 127654963.78007     -3278.944 7        45.053                                                                    24514799.235 7 103730174.20307     -2664.407 7        45.556
E31         4.000    26747251.105 6 140557799.16906     -2444.279 6        40.412                                                                    26747250.711 7 104962006.07507     -1825.321 7        42.512    26747250.503 7 107700141.78807     -1872.967 7        43.585
S21         5.000    38357188.966 7 201568125.07007      -485.532 7        42.406
E13         6.000    27429540.446 6 144143546.01006     -2918.734 6        38.613                                                                    27429540.990 7 107639865.81207     -2179.460 7        42.320    27429540.609 7 110447832.16007     -2236.468 7        42.451
G03         8.000    22188411.059 7 116600979.37007      2483.488 7        44.179                                    22188408.788 7  90857946.57407      1935.184 7        42.364    22188409.508 6  90857944.58606      1935.064 6        41.695
G02         9.000    20936610.302 8 110022684.31508       659.913 8        49.041                                    20936603.715 6  85731956.97706       514.220 6        41.490
R12        10.000    23553185.565 7 125816912.75207     -2175.948 7        43.858                                                                    23553185.053 6  97857630.37106     -1692.354 6        39.652
C30        11.000                                                                                                                                    22792148.521 8 118684714.36008      1565.940 8        48.695                                                                    22792148.851 8  96441055.31808      1272.472 8        48.361
S27        12.000    39025376.138 6 205079740.71106      -458.555 6        36.401
R20        13.000    19785800.655 6 105803618.24406     -2205.081 6        38.889                                                                    19785801.452 7  82291770.59207     -1714.994 7        46.495
S36        14.000    38125217.607 7 200349898.29107      -484.823 7        44.054
G27        15.000    24508015.352 6 128790761.34006     -4360.026 6        39.598                                    24508013.226 5 100356593.48205     -3397.421 5        35.114    24508013.673 6 100356507.48506     -3397.518 6        38.459
S45        17.000    63329286.212 6 332799261.94606      -527.245 6        37.921
E08        18.000    27063691.318 6 142220699.05606     -2741.121 6        39.435                                                                    27063689.564 7 106203770.72207     -2046.967 7        42.028    27063689.334 7 108974299.56907     -2100.400 7        42.891
E12        19.000    28476393.765 5 149644466.51905      2056.569 5        34.038                                                                    28476390.743 6 111747478.56906      1535.458 6        36.117    28476390.667 6 114662629.80406      1575.548 6        36.408
G17        20.000    24445949.365 6 128464341.38706      2629.266 6        41.569                                    24445945.307 5 100102071.06305      2048.778 5        34.109    24445945.146 6 100102070.06306      2048.722 6        37.486
E26        21.000    23680774.179 8 124443657.29608     -1453.155 8        48.116                                                                    23680771.642 8  92928902.63908     -1085.141 8        50.475    23680771.484 8  95353110.39208     -1113.482 8        51.458
I06        22.000    38276201.746 7 150204272.17407      -254.646 7        43.867
S28        23.000    40806473.079 5 214439492.28105      -477.572 5        34.633
G08        24.000    21918818.936 7 115184182.98807     -3490.159 7        46.751                                    21918816.796 7  89753908.85407     -2719.604 7        45.664    21918817.800 7  89753909.86807     -2719.626 7        42.627
S23        25.000    38078333.025 7 200102994.36407      -482.434 7        44.868
C13        26.000                                                                                                                                    40419393.835 6 210474591.41106     -1300.736 6        37.380    40419396.184 6 162752415.18106     -1005.839 6        38.378    40419394.803 6 171027932.45506     -1056.776 6        37.645
E24        27.000    27689753.682 6 145510667.42406      -190.975 6        39.258                                                                    27689752.298 7 108660574.64307      -142.660 7        42.303    27689751.564 7 111495195.02507      -146.396 7        42.629
R21        29.000    19799612.850 8 105951731.35308      1675.757 8        52.209                                                                    19799611.081 7  82406905.49407      1303.397 7        46.341
C14        30.000                                                                                                                                    26834444.487 6 139734009.53706     -3770.493 6        37.066    26834441.487 7 108051191.99607     -2915.693 7        42.717    26834439.946 6 113545312.80506     -3064.037 6        40.107
R05        31.000    19489850.758 8 104184464.27708     -1998.714 8        50.688                                                                    19489850.221 8  81032371.33408     -1554.583 8        48.294
R13        32.000    23783507.400 6 127002623.23506       440.253 6        36.711
E29        33.000    25477897.029 7 133887328.89907      2293.824 7        44.224                                                                    25477895.094 7  99980810.65407      1712.873 7        47.005    25477895.268 8 102589000.42308      1757.624 8        48.034
C16        35.000                                                                                                                                    40090398.302 6 208761245.15206      1105.214 6        39.183    40090398.396 6 161427446.77206       854.694 6        41.285    40090395.284 6 169635610.19006       898.084 6        36.174
C32        36.000                                                                                                                                    23627831.834 8 123036373.32008      2274.388 8        48.245                                                                    23627831.723 8  99977152.12308      1848.110 8        48.034
G32        37.000    21872106.392 8 114938736.06208     -1362.725 8        48.047                                    21872104.132 8  89562653.73108     -1061.865 8        48.072    21872104.505 7  89562662.74107     -1061.963 7        44.318
E07        38.000    24363139.047 7 128029178.56307      -219.627 7        46.390                                                                    24363139.153 8  95606242.89508      -164.010 8        49.567    24363138.803 8  98100311.15508      -168.342 8        50.267
C41        39.000                                                                                                                                    21876344.209 8 113915897.53108      -745.563 8        51.176                                                                    21876348.963 8  92566027.63608      -605.781 8        50.597
C39        40.000                                                                                                                                    39628315.774 7 206355065.25607       797.846 7        42.282                                                                    39628311.886 7 167680388.61107       648.302 7        42.057
E33        41.000    23845957.574 7 125311440.51607       844.192 7        47.784                                                                    23845955.434 8  93576758.09408       630.372 8        50.574    23845955.157 8  96017886.83908       646.850 8        51.145
S44        42.000    40436555.558 6 212495746.93906      -536.650 6        37.728
R06        43.000    20717435.847 7 110552267.15907      2889.425 7        42.770
C05        44.000                                                                                                                                    39053709.222 6 203362953.98206      -454.104 6        38.267    39053704.055 7 157253161.20207      -351.080 7        43.412    39053706.482 6 165249162.48106      -369.044 6        40.608
C08        45.000                                                                                                                                    41240182.132 5 214748640.48305     -1390.966 5        30.060    41240176.835 5 166057344.90705     -1075.493 5        35.662    41240176.817 5 174500911.38705     -1130.045 5        32.772
R22        48.000    23984804.012 7 128032518.90607      3433.674 7        43.848                                                                    23984803.203 6  99580840.68006      2670.666 6        40.689
I05        49.000  -497471950.417 6-876401580.64506       258.721 6        38.622
C06        50.000                                                                                                                                    39836222.866 6 207437683.62906      1206.246 6        38.147    39836218.266 7 160403955.32907       932.696 7        42.011    39836217.288 6 168560087.92406       980.101 6        38.646
S48        51.000    77113599.219 6 405235897.76906      -499.599 6        38.589
G21        52.000    20551741.465 7 108000204.67507      -830.947 7        44.668                                    20551735.989 6  84156025.83006      -647.491 6        37.698
C09        53.000                                                                                                                                    40910814.014 6 213033339.32206      1379.158 6        37.573    40910809.531 6 164730877.76906      1066.549 6        41.349    40910807.579 6 173107014.73506      1120.700 6        37.955
C60        54.000                                                                                                                                    40436559.496 6 210563986.93606      -531.630 6        41.197                                                                    40436543.047 6 171100459.02606      -432.102 6        40.791
C27        55.000                                                                                                                                    21440104.179 8 111644269.89508     -1306.990 8        52.148                                                                    21440102.457 8  90720118.97508     -1062.036 8        49.859
R04        56.000    22921168.617 7 122741827.21307     -4631.723 7        43.746                                                                    22921167.365 6  95465856.03106     -3602.504 6        38.805
C02        57.000                                                                                                                                    40442293.654 5 210593697.03305      -492.945 5        33.868    40442287.562 6 162844401.72706      -381.148 6        40.794    40442291.103 6 171124634.74906      -400.407 6        36.586
I03        58.000   106066005.627 6 340440562.41706       969.107 6        39.628
C28        60.000                                                                                                                                    23891091.180 7 124407489.81307     -3367.973 7        45.824                                                                    23891090.188 7 101091410.74207     -2736.715 7        45.153
> 2025 01 01 23 15 15.0000000  0 53
G10         1.000    23556854.089 7 123792202.50607     -3473.020 7        42.754                                    23556851.681 6  96461518.20706     -2706.250 6        37.724    23556851.288 6  96461495.21406     -2706.365 6        38.583
G14         2.000    23885734.962 6 125520434.12006     -1317.189 6        40.234                                    23885730.986 3  97808132.90903     -1026.379 3        23.771    23885731.714 6  97808128.89406     -1026.251 6        39.120
C33         3.000                                                                                                                                    24517936.870 7 127671360.64907     -3280.121 7        45.503                                                                    24517948.184 7 103743498.01307     -2665.250 7        45.881
E31         4.000    26749577.493 6 140570024.52506     -2446.026 6        40.732                                                                    26749577.041 7 104971135.39907     -1826.746 7        42.427    26749576.814 7 107709509.26207     -1874.243 7        43.680
S21         5.000    38357649.060 7 201570552.40207      -485.605 7        42.370
E13         6.000    27432317.507 6 144158139.98106     -2919.229 6        38.393                                                                    27432318.206 7 107650763.91007     -2179.920 7        42.421    27432317.830 7 110459014.55907     -2236.841 7        42.455
G03         8.000    22186048.726 7 116588565.31107      2481.937 7        44.790                                    22186046.497 7  90848273.28607      1933.976 7        42.432    22186047.241 7  90848271.29207      1933.936 7        42.129
G02         9.000    20935983.381 8 110019388.19208       658.183 8        49.325                                    20935976.472 6  85729388.57206       512.871 6        41.559
R12        10.000    23555223.422 7 125827800.81707     -2179.680 7        43.681                                                                    23555224.336 6  97866098.86606     -1695.097 6        39.489
C30        11.000                                                                                                                                    22790645.542 8 118676888.41408      1564.218 8        48.604                                                                    22790646.038 8  96434696.11708      1270.980 8        48.357
S27        12.000    39025813.570 6 205082032.82506      -458.579 6        36.397
R20        13.000    19787864.054 6 105814649.99606     -2208.077 6        39.246                                                                    19787864.656 7  82300350.83507     -1717.375 7        46.680
S36        14.000    38125677.661 7 200352321.94407      -484.915 7        44.193
G27        15.000    24512164.004 6 128812562.01606     -4360.477 6        39.778                                    24512161.818 5 100373581.01705     -3397.777 5        35.124    24512162.422 6 100373495.01306     -3397.826 6        38.447
S45        17.000    63329742.899 6 332800198.19716      -527.573 6        37.917
E08        18.000    27066300.087 6 142234408.44506     -2742.875 6        39.435                                                                    27066298.476 6 106214008.25906     -2048.228 6        41.909    27066298.041 7 108984804.18107     -2101.720 7        42.658
E12        19.000    28474437.654 5 149634184.89405      2056.090 5        33.587                                                                    28474433.967 6 111739800.72606      1535.418 6        36.329    28474434.237 6 114654751.64506      1575.582 6        36.212
G17        20.000    24443448.248 6 128451197.16206      2628.100 6        41.185                                    24443444.007 5 100091828.80505      2047.870 5        34.129    24443444.292 6 100091827.79206      2047.730 6        37.316
E26        21.000    23682157.334 7 124450925.49007     -1454.361 7        47.913                                                                    23682154.767 8  92934330.19008     -1086.077 8        50.361    23682154.527 8  95358679.52808     -1114.419 8        51.434
I06        22.000    38276526.076 7 150205545.04407      -254.689 7        43.827
S28        23.000    40806929.672 5 214441878.40605      -477.291 5        34.348
G08        24.000    21922140.365 7 115201637.76407     -3492.023 7        46.867                                    21922138.308 7  89767509.97807     -2721.054 7        45.704    21922139.491 7  89767510.97507     -2721.074 7        43.086
S23        25.000    38078794.916 7 200105406.14307      -482.607 7        44.873
C13        26.000                                                                                                                                    40420642.714 6 210481094.22706     -1300.691 6        37.380    40420645.054 6 162757443.59206     -1005.837 6        38.898    40420643.650 6 171033216.56706     -1056.943 6        37.682
E24        27.000    27689936.180 6 145511628.28006      -193.593 6        39.186                                                                    27689935.132 7 108661292.16507      -144.550 7        42.322    27689934.570 7 111495931.25907      -148.301 7        42.563
R21        29.000    19798047.555 8 105943358.06008      1673.253 8        51.596                                                                    19798046.270 7  82400392.94507      1301.373 7        46.685
C14        30.000                                                                                                                                    26838064.806 6 139752862.18306     -3770.792 6        37.013    26838061.852 7 108065770.05707     -2915.827 7        42.802    26838060.415 6 113560632.11306     -3064.060 6        40.088
R05        31.000    19491722.465 8 104194467.06608     -2002.741 8        51.402                                                                    19491721.006 7  81040151.27507     -1557.672 7        47.781
R13        32.000    23783097.669 6 127000432.21306       436.052 6        36.601
E29        33.000    25475715.180 7 133875862.42007      2292.557 7        44.566                                                                    25475713.112 7  99972248.02707      1711.988 7        46.912    25475713.177 7 102580214.42407      1756.661 7        47.852
C16        35.000                                                                                                                                    40089337.649 6 208755720.20106      1104.562 6        39.414    40089337.103 6 161423174.53006       854.064 6        41.306    40089334.685 6 169631120.69606       897.608 6        36.420
C32        36.000                                                                                                                                    23625648.744 8 123025004.77808      2272.767 8        48.414                                                                    23625648.486 8  99967914.26308      1846.787 8        48.030
G32        37.000    21873404.315 8 114945557.18708     -1365.914 8        48.566                                    21873402.146 8  89567968.89008     -1064.350 8        48.065    21873402.598 7  89567977.89607     -1064.267 7        44.441
E07        38.000    24363349.170 7 128030282.45407      -222.162 7        46.372                                                                    24363349.230 8  95607067.23708      -165.881 8        49.456    24363348.811 8  98101156.99908      -170.264 8        50.192
C41        39.000                                                                                                                                    21877061.372 8 113919631.16508      -748.131 8        51.197                                                                    21877065.970 8  92569061.53508      -607.924 8        50.631
C39        40.000                                                                                                                                    39627549.898 7 206351077.94607       796.892 7        42.059                                                                    39627546.095 7 167677148.60107       647.458 7        42.119
E33        41.000    23845154.570 7 125307221.31107       843.238 7        47.904                                                                    23845152.591 8  93573607.39708       629.654 8        50.535    23845152.229 8  96014653.95008       646.085 8        51.054
S44        42.000    40437067.157 6 212498429.07806      -536.584 6        38.018
R06        43.000    20714729.424 7 110537825.85407      2886.586 7        42.404
C05        44.000                                                                                                                                    39054145.156 6 203365224.07206      -454.245 6        38.372    39054140.217 7 157254916.59307      -351.334 7        43.448    39054142.492 6 165251007.13706      -369.252 6        40.665
C08        45.000                                                                                                                                    41241518.385 5 214755592.67905     -1390.474 5        31.011    41241512.222 5 166062720.80005     -1075.248 5        35.886    41241511.328 5 174506560.65905     -1129.846 5        32.329
R22        48.000    23981587.512 7 128015349.71207      3433.783 7        43.327                                                                    23981585.971 6  99567486.84106      2670.685 6        40.286
I05        49.000  -497472280.314 6-876402875.08106       258.600 6        38.426
C06        50.000                                                                                                                                    39835065.253 6 207431653.66006      1205.448 6        37.781    39835060.089 7 160399292.58107       932.094 7        42.051    39835059.200 6 168555188.08906       979.456 6        38.637
S48        51.000    77114067.930 6 405238396.46106      -500.091 6        38.592
G21        52.000    20552533.001 7 108004363.44907      -832.844 7        44.701                                    20552527.395 6  84159266.43506      -648.971 6        37.728
C09        53.000                                                                                                                                    40909488.965 6 213026443.51006      1378.733 6        37.595    40909485.452 6 164725545.50406      1066.109 6        41.516    40909483.323 6 173101411.33906      1120.394 6        38.051
C60        54.000                                                                                                                                    40437070.017 6 210566644.69606      -531.656 6        41.094                                                                    40437053.411 6 171102618.69706      -432.102 6        40.837
C27        55.000                                                                                                                                    21441360.319 8 111650810.41208     -1309.460 8        52.090                                                                    21441358.426 8  90725433.69408     -1064.070 8        49.789
R04        56.000    22925494.029 7 122764988.18307     -4632.903 7        43.977                                                                    22925492.208 6  95483870.11806     -3603.365 6        38.718
C02        57.000                                                                                                                                    40442767.606 5 210596161.33005      -493.107 5        33.665    40442760.726 6 162846307.27906      -381.237 6        40.918    40442764.093 6 171126637.19506      -400.613 6        36.707
I03        58.000   106064771.122 6 340435716.77206       968.982 6        39.676
C28        60.000                                                                                                                                    23894325.422 7 124424332.38107     -3369.306 7        45.622                                                                    23894324.853 7 101105096.71707     -2737.794 7        45.494
> 2025 01 01 23 15 20.0000000  0 53
G10         1.000    23560158.598 7 123809568.33807     -3473.366 7        42.823                                    23560156.255 6  96475050.02306     -2706.519 6        37.807    23560156.888 6  96475027.03206     -2706.499 6        39.069
G14         2.000    23886989.623 6 125527026.28806     -1319.744 6        40.131                                    23886985.397 3  97813269.66103     -1028.356 3        23.829    23886985.928 6  97813265.66106     -1028.302 6        39.297
C33         3.000                                                                                                                                    24521087.076 7 127687763.20907     -3281.010 7        45.607                                                                    24521098.314 7 103756826.42907     -2666.285 7        45.693
E31         4.000    26751905.207 6 140582258.13806     -2447.456 6        40.386                                                                    26751905.021 7 104980270.88207     -1827.616 7        42.499    26751904.776 7 107718883.05907     -1875.288 7        43.464
S21         5.000    38358112.101 7 201572979.83007      -485.385 7        42.201
E13         6.000    27435095.162 6 144172736.31406     -2919.477 6        38.471                                                                    27435095.942 7 107661663.78107     -2180.087 7        42.453    27435095.380 7 110470198.76607     -2236.879 7        42.269
G03         8.000    22183687.805 7 116576158.65107      2480.653 7        44.671                                    22183685.596 7  90838605.76407      1932.975 7        42.425    22183686.160 7  90838603.76007      1933.043 7        42.045
G02         9.000    20935357.778 8 110016100.34208       656.836 8        49.392                                    20935350.825 6  85726826.60806       511.820 6        41.528
R12        10.000    23557264.725 7 125838706.79907     -2182.959 7        43.752                                                                    23557265.523 6  97874581.32606     -1697.833 6        39.192
C30        11.000                                                                                                                                    22789144.445 8 118669071.02408      1562.646 8        48.588                                                                    22789144.720 8  96428343.81408      1269.736 8        48.210
S27        12.000    39026248.703 6 205084325.12806      -458.364 6        36.250
R20        13.000    19789929.038 6 105825696.59906     -2210.758 6        39.201                                                                    19789930.754 7  82308942.64207     -1719.483 7        47.050
S36        14.000    38126141.324 7 200354745.48007      -484.712 7        44.009
G27        15.000    24516312.219 6 128834363.90406     -4360.458 6        39.652                                    24516310.652 5 100390569.50005     -3397.760 5        35.014    24516310.974 6 100390483.49706     -3397.574 6        38.213
S45        17.000    63330198.181 6 332802834.72306      -527.035 6        37.629
E08        18.000    27068910.782 6 142248125.71906     -2744.116 6        39.697                                                                    27068908.911 6 106224251.67906     -2049.202 6        41.938    27068908.269 7 108995314.80307     -2102.601 7        42.512
E12        19.000    28472481.845 5 149623902.92705      2056.598 5        33.617                                                                    28472477.498 6 111732122.63706      1535.786 6        36.397    28472477.832 5 114646873.27605      1575.565 5        35.981
G17        20.000    24440947.450 6 128438058.43606      2627.220 6        41.282                                    24440943.726 5 100081590.85205      2047.182 5        34.210    24440943.949 6 100081589.85706      2047.258 6        37.701
E26        21.000    23683541.349 7 124458199.70007     -1455.378 7        47.939                                                                    23683539.000 8  92939762.22208     -1086.753 8        50.367    23683538.750 8  95364253.26908     -1115.155 8        51.411
I06        22.000    38276850.621 7 150206818.04807      -254.582 7        43.687
S28        23.000    40807383.461 5 214444264.89705      -477.129 5        34.448
G08        24.000    21925463.727 7 115219101.72707     -3493.578 7        47.487                                    21925461.618 7  89781118.26007     -2722.270 7        45.609    21925462.639 7  89781119.26407     -2722.240 7        42.944
S23        25.000    38079254.005 7 200107817.98507      -482.278 7        45.076
C13        26.000                                                                                                                                    40421891.969 6 210487596.22306     -1300.260 6        37.278    40421893.855 6 162762471.32706     -1005.487 6        38.916    40421892.229 6 171038499.93906     -1056.663 6        37.471
E24        27.000    27690121.506 6 145512601.34106      -195.637 6        39.183                                                                    27690120.422 7 108662018.81607      -146.153 7        42.354    27690119.805 7 111496676.87107      -149.978 7        42.478
R21        29.000    19796485.105 8 105934997.19608      1671.023 8        51.718                                                                    19796483.623 7  82393890.04507      1299.750 7        46.545
C14        30.000                                                                                                                                    26841685.220 6 139771715.77406     -3770.603 6        36.851    26841682.679 7 108080348.82807     -2915.742 7        42.739    26841681.037 6 113575952.16706     -3064.022 6        40.093
R05        31.000    19493597.223 8 104204489.70208     -2006.432 8        51.538                                                                    19493595.839 7  81047946.64707     -1560.519 7        47.861
R13        32.000    23782690.938 6 126998261.54106       432.148 6        36.877
E29        33.000    25473534.376 7 133864401.86407      2291.622 7        44.721                                                                    25473532.434 7  99963689.81407      1711.282 7        46.877    25473532.306 7 102571432.94607      1755.992 7        47.614
C16        35.000                                                                                                                                    40088277.016 6 208750198.78506      1104.096 6        39.688    40088276.770 6 161418905.02606       853.693 6        40.973    40088274.537 6 169626634.12106       896.774 6        36.215
C32        36.000                                                                                                                                    23623466.755 7 123013644.16807      2271.403 7        47.964                                                                    23623466.742 7  99958682.81907      1845.566 7        47.839
G32        37.000    21874705.639 8 114952393.78808     -1368.825 8        48.201                                    21874703.084 7  89573296.11507     -1066.615 7        47.990    21874703.840 7  89573305.11507     -1066.614 7        44.414
E07        38.000    24363561.543 7 128031398.80007      -224.372 7        46.074                                                                    24363561.682 8  95607900.86508      -167.590 8        49.409    24363561.265 8  98102012.37008      -171.950 8        50.163
C41        39.000                                                                                                                                    21877780.851 8 113923377.48208      -750.448 8        51.172                                                                    21877785.423 8  92572105.70608      -609.990 8        50.471
C39        40.000                                                                                                                                    39626784.853 7 206347095.18607       796.144 7        42.176                                                                    39626781.257 7 167673912.25707       646.674 7        42.135
E33        41.000    23844352.572 7 125303006.77207       842.517 7        47.797                                                                    23844350.564 8  93570460.17008       629.159 8        50.487    23844350.210 8  96011424.62108       645.554 8        50.958
S44        42.000    40437575.147 6 212501111.52006      -536.490 6        37.739
R06        43.000    20712025.265 7 110523398.36007      2884.241 7        42.212
C05        44.000                                                                                                                                    39054581.340 6 203367494.46806      -454.010 6        38.387    39054576.075 7 157256672.20307      -351.105 7        43.520    39054578.498 6 165252851.98206      -368.993 6        40.632
C08        45.000                                                                                                                                    41242854.068 5 214762543.85605     -1389.988 5        31.057    41242846.850 6 166068095.87806     -1074.843 6        36.699    41242846.203 5 174512209.04505     -1129.714 5        32.305
R22        48.000    23978370.556 7 127998179.66907      3433.888 7        43.445                                                                    23978369.785 6  99554132.40306      2671.016 6        39.946
I05        49.000  -497472610.444 6-876404169.06306       258.867 6        38.450
C06        50.000                                                                                                                                    39833907.602 6 207425627.03306      1204.903 6        37.497    39833902.962 6 160394632.40906       931.798 6        41.762    39833901.818 6 168550290.93606       979.106 6        38.306
S48        51.000    77114527.496 6 405240895.07206      -499.611 6        38.387
G21        52.000    20553326.069 7 108008531.45007      -834.453 7        44.823                                    20553320.527 6  84162514.22706      -650.223 6        37.675
C09        53.000                                                                                                                                    40908164.999 6 213019549.70006      1378.665 6        37.769    40908161.381 6 164720214.78606      1066.055 6        41.681    40908159.250 6 173095809.55906      1120.043 6        37.599
C60        54.000                                                                                                                                    40437580.345 6 210569302.76106      -531.603 6        41.125                                                                    40437563.802 6 171104778.55806      -432.054 6        40.639
C27        55.000                                                                                                                                    21442618.509 8 111657362.84708     -1311.590 8        51.782                                                                    21442616.730 8  90730758.05508     -1065.902 8        49.568
R04        56.000    22929819.914 7 122788154.49007     -4633.665 7        44.415                                                                    22929818.085 6  95501888.35606     -3603.905 6        38.787
C02        57.000                                                                                                                                    40443240.512 5 210598625.92105      -492.787 5        34.048    40443234.258 6 162848213.06206      -381.241 6        40.853    40443237.227 6 171128639.85206      -400.685 6        36.586
I03        58.000   106063536.124 6 340430871.48906       969.023 6        39.646
C28        60.000                                                                                                                                    23897561.455 7 124441181.18707     -3370.326 7        46.057                                                                    23897560.451 7 101118787.73307     -2738.784 7        45.177
> 2025 01 01 23 15 25.0000000  0 53
G10         1.000    23563463.651 7 123826936.18507     -3473.628 7        42.593                                    23563461.365 6  96488583.40306     -2706.724 6        37.974    23563461.362 6  96488560.40306     -2706.733 6        39.363
G14         2.000    23888246.433 6 125533632.01106     -1322.464 6        39.571                                    23888242.379 3  97818416.98203     -1030.494 3        23.733    23888242.701 6  97818412.98006     -1030.514 6        39.375
C33         3.000                                                                                                                                    24524238.003 7 127704170.67207     -3281.942 7        45.251                                                                    24524249.129 7 103770158.84507     -2666.841 7        45.568
E31         4.000    26754235.049 6 140594499.22906     -2449.035 6        40.839                                                                    26754234.354 7 104989411.95107     -1828.685 7        42.571    26754234.269 7 107728262.59707     -1876.430 7        43.613
S21         5.000    38358572.307 7 201575406.45107      -485.146 7        42.345
E13         6.000    27437873.207 6 144187334.20906     -2919.685 6        38.450                                                                    27437873.835 7 107672564.81007     -2180.354 7        42.506    27437873.323 7 110481384.17507     -2237.136 7        42.347
G03         8.000    22181327.721 7 116563758.57307      2479.456 7        44.668                                    22181325.957 7  90828943.36707      1932.042 7        42.375    22181326.429 6  90828941.35806      1932.136 6        41.950
G02         9.000    20934733.666 8 110012820.01108       655.372 8        49.520                                    20934726.604 6  85724270.50606       510.679 6        41.461
R12        10.000    23559309.774 7 125849629.95907     -2186.200 7        43.230                                                                    23559310.526 6  97883077.10506     -1700.381 6        39.784
C30        11.000                                                                                                                                    22787644.817 8 118661261.36808      1561.301 8        48.605                                                                    22787645.010 8  96421997.85508      1268.541 8        48.180
S27        12.000    39026684.078 6 205086616.97006      -458.113 6        36.480
R20        13.000    19791997.324 6 105836757.22406     -2213.310 6        39.087                                                                    19791999.235 7  82317545.35907     -1721.524 7        47.194
S36        14.000    38126600.269 7 200357169.23807      -484.648 7        44.150
G27        15.000    24520461.298 6 128856166.22106     -4360.230 6        39.523                                    24520459.549 5 100407558.31505     -3397.578 5        34.771    24520459.586 6 100407472.32106     -3397.667 6        38.123
S45        17.000    63330657.162 6 332805470.55406      -526.879 6        38.159
E08        18.000    27071522.301 6 142261850.06306     -2745.434 6        39.913                                                                    27071520.635 7 106234500.36107     -2050.172 7        42.250    27071519.982 7 109005830.84507     -2103.634 7        42.609
E12        19.000    28470524.722 5 149613619.87205      2056.784 5        33.497                                                                    28470520.878 6 111724443.72606      1535.937 6        36.302    28470521.043 6 114638994.04206      1575.860 6        36.310
G17        20.000    24438448.520 6 128424924.44406      2626.260 6        41.015                                    24438444.388 5 100071356.58105      2046.431 5        34.238    24438445.434 6 100071355.55706      2046.706 6        37.716
E26        21.000    23684926.484 7 124465479.10507     -1456.252 7        47.854                                                                    23684924.169 8  92945198.14908     -1087.512 8        50.422    23684924.029 8  95369830.99908     -1115.864 8        51.425
I06        22.000    38277174.751 7 150208090.59907      -254.380 7        43.699
S28        23.000    40807836.696 5 214446650.84505      -476.626 5        34.305
G08        24.000    21928788.512 7 115236574.07307     -3495.100 7        47.356                                    21928786.520 7  89794733.07407     -2723.456 7        45.561    21928787.574 7  89794734.08907     -2723.537 7        43.376
S23        25.000    38079712.735 7 200110229.19207      -482.163 7        45.094
C13        26.000                                                                                                                                    40423140.736 6 210494096.61306     -1299.765 6        37.161    40423142.734 6 162767497.84606     -1005.146 6        39.330    40423140.551 6 171043782.05706     -1056.307 6        37.482
E24        27.000    27690308.532 6 145513585.89806      -197.916 6        39.057                                                                    27690307.853 7 108662754.03007      -147.697 7        42.440    27690307.197 7 111497431.26707      -151.638 7        42.536
R21        29.000    19794925.508 8 105926647.76008      1668.846 8        51.885                                                                    19794923.485 7  82387396.04407      1298.019 7        46.604
C14        30.000                                                                                                                                    26845305.985 6 139790569.51606     -3770.681 6        37.085    26845303.459 7 108094927.74007     -2915.671 7        43.009    26845301.689 6 113591272.40306     -3063.970 6        40.138
R05        31.000    19495475.518 8 104214531.02508     -2010.025 8        51.026                                                                    19495474.486 7  81055756.58007     -1563.389 7        47.802
R13        32.000    23782288.849 6 126996110.31206       428.305 6        37.043
E29        33.000    25471354.314 7 133852946.41707      2290.667 7        44.626                                                                    25471352.626 7  99955135.42007      1710.608 7        47.079    25471352.385 7 102562655.40507      1755.203 7        47.573
C16        35.000                                                                                                                                    40087217.649 6 208744680.13606      1103.527 6        39.862    40087217.142 6 161414637.65406       853.332 6        41.194    40087214.839 6 169622149.75206       896.670 6        36.325
C32        36.000                                                                                                                                    23621286.598 7 123002290.66907      2270.030 7        47.925                                                                    23621286.428 7  99949457.19007      1844.575 7        47.770
G32        37.000    21876009.240 8 114959245.05108     -1371.623 8        48.989                                    21876006.817 7  89578634.76207     -1068.798 7        47.932    21876007.136 7  89578643.76107     -1068.755 7        44.599
E07        38.000    24363776.283 7 128032526.76107      -226.687 7        46.270                                                                    24363776.285 8  95608743.17008      -169.243 8        49.529    24363775.924 8  98102876.65208      -173.680 8        50.182
C41        39.000                                                                                                                                    21878502.466 8 113927135.68008      -752.712 8        50.994                                                                    21878507.126 8  92575159.56608      -611.705 8        50.375
C39        40.000                                                                                                                                    39626020.708 6 206343116.18406       795.550 6        41.843                                                                    39626017.256 7 167670679.01407       646.312 7        42.002
E33        41.000    23843551.552 7 125298796.07107       841.871 7        47.915                                                                    23843549.331 8  93567315.81708       628.652 8        50.564    23843548.949 8  96008198.24008       645.080 8        51.024
S44        42.000    40438089.629 6 212503793.47806      -536.427 6        37.894
R06        43.000    20709323.790 6 110508983.80906      2881.780 6        41.948
C05        44.000                                                                                                                                    39055016.863 6 203369764.35906      -453.775 6        38.162    39055011.821 7 157258427.43807      -350.933 7        43.329    39055014.356 6 165254696.47806      -368.837 6        40.443
C08        45.000                                                                                                                                    41244188.366 5 214769493.15505     -1389.538 5        31.555    41244181.562 6 166073469.53106     -1074.529 6        36.208    41244180.514 5 174517855.93105     -1129.324 5        32.671
R22        48.000    23975154.078 7 127981007.96207      3434.750 7        43.875                                                                    23975151.824 6  99540776.61706      2671.407 6        39.303
I05        49.000  -497472939.724 6-876405463.20006       259.001 6        38.309
C06        50.000                                                                                                                                    39832750.378 6 207419602.95806      1204.875 6        37.278    39832745.892 6 160389974.22406       931.448 6        41.864    39832745.030 6 168545395.91606       978.867 6        38.243
S48        51.000    77114988.377 6 405243392.92506      -499.382 6        38.351
G21        52.000    20554120.844 7 108012707.84807      -835.970 7        44.662                                    20554115.255 6  84165768.56306      -651.403 6        37.595
C09        53.000                                                                                                                                    40906841.576 6 213012657.06506      1378.682 6        37.766    40906837.912 6 164714884.96006      1066.054 6        41.836    40906835.821 6 173090208.74406      1120.103 6        37.501
C60        54.000                                                                                                                                    40438090.732 6 210571960.33506      -531.430 6        41.087                                                                    40438074.193 6 171106938.07506      -431.873 6        40.608
C27        55.000                                                                                                                                    21443878.838 8 111663926.36908     -1313.670 8        51.725                                                                    21443877.226 8  90736091.47208     -1067.544 8        49.677
R04        56.000    22934147.152 7 122811325.05607     -4634.427 7        44.418                                                                    22934146.483 6  95519909.89906     -3604.546 6        38.529
C02        57.000                                                                                                                                    40443713.551 5 210601090.07305      -492.670 5        34.129    40443707.534 6 162850118.49306      -380.866 6        40.849    40443710.539 6 171130642.17706      -400.336 6        36.499
I03        58.000   106062301.809 6 340426025.99306       969.296 6        39.471
C28        60.000                                                                                                                                    23900798.195 7 124458035.41807     -3371.206 7        45.983                                                                    23900796.965 7 101132483.18907     -2739.506 7        44.962
> 2025 01 01 23 15 30.0000000  0 53
G10         1.000    23566769.240 7 123844306.91507     -3474.173 7        42.561                                    23566766.999 6  96502119.03206     -2707.147 6        37.943    23566766.627 6  96502096.03106     -2707.061 6        38.841
G14         2.000    23889506.702 6 125540252.19006     -1325.427 6        39.586                                    23889502.406 3  97823575.56603     -1032.780 3        23.905    23889502.177 6  97823571.57306     -1032.812 6        39.150
C33         3.000                                                                                                                                    24527389.586 7 127720583.94807     -3283.159 7        45.105                                                                    24527400.972 7 103783495.96707     -2667.977 7        45.397
E31         4.000    26756566.098 6 140606748.68006     -2450.421 6        40.837                                                                    26756565.423 7 104998559.27107     -1829.935 7        42.373    26756565.291 7 107737648.55107     -1877.695 7        43.752
S21         5.000    38359035.867 7 201577833.24207      -485.439 7        42.573
E13         6.000    27440651.397 6 144201934.59306     -2919.991 6        38.634                                                                    27440652.277 7 107683467.69007     -2180.621 7        42.339    27440651.764 7 110492571.48807     -2237.515 7        42.732
G03         8.000    22178969.527 7 116551366.02007      2477.943 7        44.141                                    22178967.735 7  90819286.83707      1930.865 7        42.428    22178968.673 6  90819284.84406      1930.815 6        41.602
G02         9.000    20934110.875 8 110009548.13108       653.695 8        49.351                                    20934103.998 6  85721720.99106       509.372 6        41.499
R12        10.000    23561357.997 7 125860571.11807     -2189.879 7        44.221                                                                    23561358.250 6  97891586.90406     -1703.327 6        40.017
C30        11.000                                                                                                                                    22786146.720 8 118653460.41408      1559.451 8        48.695                                                                    22786146.968 8  96415658.93108      1267.027 8        48.142
S27        12.000    39027122.865 6 205088908.97706      -457.991 6        36.261
R20        13.000    19794069.747 6 105847832.76406     -2216.512 6        39.535                                                                    19794069.946 7  82326159.65707     -1723.928 7        47.083
S36        14.000    38127063.708 7 200359593.31107      -484.674 7        44.166
G27        15.000    24524610.124 6 128877969.91506     -4360.602 6        39.120                                    24524608.687 5 100424548.20405     -3397.870 5        34.681    24524609.078 6 100424462.19806     -3397.809 6        38.012
S45        17.000    63331116.715 6 332808106.58406      -527.036 6        38.126
E08        18.000    27074135.016 6 142275582.36606     -2747.045 6        39.853                                                                    27074133.780 7 106244755.01307     -2051.324 7        42.218    27074133.347 7 109016353.01507     -2104.855 7        42.832
E12        19.000    28468567.580 5 149603336.61305      2056.721 5        33.096                                                                    28468564.131 6 111716764.68206      1535.853 6        36.200    28468564.065 6 114631114.67806      1576.028 6        36.321
G17        20.000    24435950.146 6 128411796.05606      2625.324 6        41.220                                    24435946.178 5 100061126.67805      2045.704 5        34.214    24435946.194 6 100061125.70006      2045.674 6        37.754
E26        21.000    23686312.924 8 124472764.65508     -1457.603 8        48.250                                                                    23686310.552 8  92950638.65208     -1088.408 8        50.235    23686310.448 8  95375413.42908     -1116.859 8        51.596
I06        22.000    38277498.946 7 150209363.40207      -254.447 7        43.649
S28        23.000    40808290.731 5 214449037.26805      -477.208 5        34.471
G08        24.000    21932115.047 7 115254055.73907     -3497.045 7        46.833                                    21932113.210 7  89808355.14907     -2724.966 7        45.585    21932113.998 7  89808356.15207     -2725.042 7        43.666
S23        25.000    38080172.230 7 200112640.81007      -482.152 7        44.907
C13        26.000                                                                                                                                    40424388.677 6 210500596.28906     -1299.715 6        37.127    40424390.921 6 162772523.82106     -1005.142 6        39.871    40424388.807 6 171049063.58206     -1056.310 6        37.637
E24        27.000    27690498.443 6 145514582.80306      -200.366 6        39.429                                                                    27690497.548 7 108663498.47707      -149.653 7        42.491    27690496.745 7 111498195.12407      -153.555 7        42.785
R21        29.000    19793367.611 8 105918310.73808      1666.326 8        51.854                                                                    19793366.041 7  82380911.69007      1296.036 7        46.759
C14        30.000                                                                                                                                    26848927.520 6 139809424.36106     -3771.019 6        37.153    26848924.116 7 108109507.50107     -2915.936 7        42.990    26848922.494 6 113606593.50006     -3064.289 6        39.994
R05        31.000    19497357.285 8 104224592.24508     -2014.070 8        50.901                                                                    19497356.771 7  81063581.97607     -1566.519 7        47.655
R13        32.000    23781888.784 6 126993979.54206       424.058 6        36.737
E29        33.000    25469175.247 7 133841497.03607      2289.457 7        44.321                                                                    25469174.026 7  99946585.56907      1709.678 7        46.999    25469173.820 7 102553882.50407      1754.267 7        47.748
C16        35.000                                                                                                                                    40086158.405 6 208739165.15606      1102.715 6        40.021    40086158.042 6 161410373.14206       852.562 6        41.077    40086155.652 6 169617668.37706       896.042 6        36.541
C32        36.000                                                                                                                                    23619107.837 7 122990945.23807      2268.428 7        47.897                                                                    23619107.652 7  99940238.09407      1843.093 7        47.738
G32        37.000    21877316.083 8 114966111.90808     -1374.745 8        49.103                                    21877313.532 7  89583985.55807     -1071.234 7        47.940    21877314.134 7  89583994.55807     -1071.225 7        44.322
E07        38.000    24363993.376 7 128033667.28107      -229.190 7        46.478                                                                    24363993.312 8  95609594.85708      -171.090 8        49.320    24363992.910 8  98103750.55408      -175.534 8        50.313
C41        39.000                                                                                                                                    21879226.408 8 113930906.68708      -755.255 8        50.938                                                                    21879231.337 8  92578223.81008      -613.902 8        50.370
C39        40.000                                                                                                                                    39625257.425 6 206339141.87306       794.577 6        41.828                                                                    39625254.030 7 167667449.55807       645.494 7        42.184
E33        41.000    23842751.135 8 125294590.14008       840.896 8        48.089                                                                    23842748.940 8  93564175.02408       627.947 8        50.379    23842748.598 8  96004975.51808       644.293 8        51.174
S44        42.000    40438598.933 6 212506475.85406      -536.388 6        37.614
R06        43.000    20706625.305 7 110494583.16007      2878.969 7        42.320
C05        44.000                                                                                                                                    39055452.542 6 203372034.71306      -453.853 6        38.054    39055448.037 7 157260183.00907      -350.920 7        43.558    39055450.250 6 165256541.32906      -368.991 6        40.429
C08        45.000                                                                                                                                    41245524.885 5 214776441.49705     -1389.517 5        31.034    41245516.808 6 166078842.42006     -1074.399 6        37.440    41245515.385 5 174523502.03305     -1129.121 5        32.892
R22        48.000    23971937.061 7 127963835.58307      3434.785 7        43.232                                                                    23971935.746 6  99527420.34406      2671.507 6        39.432
I05        49.000  -497473269.361 6-876406756.75806       258.849 6        38.156
C06        50.000                                                                                                                                    39831594.005 6 207413582.37306      1203.898 6        36.983    39831589.621 6 160385318.72006       931.007 6        41.716    39831588.819 6 168540503.69406       978.052 6        37.970
S48        51.000    77115451.271 6 405245890.98906      -499.343 6        38.465
G21        52.000    20554917.290 7 108016893.61807      -837.932 7        44.500                                    20554911.772 6  84169030.20606      -652.937 6        37.618
C09        53.000                                                                                                                                    40905517.646 6 213005766.51506      1378.039 6        37.830    40905514.853 7 164709556.74707      1065.543 7        42.159    40905512.581 6 173084609.59206      1119.905 6        37.233
C60        54.000                                                                                                                                    40438601.261 6 210574618.33106      -531.506 6        41.058                                                                    40438584.557 6 171109097.92106      -431.986 6        40.663
C27        55.000                                                                                                                                    21445141.837 8 111670501.92108     -1316.123 8        51.759                                                                    21445139.967 8  90741434.64808     -1069.633 8        49.580
R04        56.000    22938475.060 7 122834500.95907     -4635.496 7        44.060                                                                    22938474.024 6  95537935.60506     -3605.351 6        38.877
C02        57.000                                                                                                                                    40444186.143 5 210603554.68905      -492.779 5        33.916    40444180.551 6 162852024.29006      -380.978 6        41.242    40444183.932 6 171132644.88306      -400.450 6        36.612
I03        58.000   106061066.835 6 340421180.96806       969.063 6        39.757
C28        60.000                                                                                                                                    23904035.791 7 124474896.00307     -3372.562 7        45.905                                                                    23904034.710 7 101146183.79207     -2740.612 7        44.662
> 2025 01 01 23 15 35.0000000  0 53
G10         1.000    23570075.019 7 123861679.70507     -3474.647 7        42.404                                    23570072.945 6  96515656.26606     -2707.517 6        37.834    23570072.687 6  96515633.25106     -2707.426 6        38.565
G14         2.000    23890769.012 6 125546885.94606     -1327.993 6        38.913                                    23890764.795 3  97828744.72503     -1034.802 3        23.771    23890764.528 6  97828740.73706     -1034.850 6        39.243
C33         3.000                                                                                                                                    24530542.562 7 127737002.09907     -3284.059 7        45.314                                                                    24530553.871 7 103796837.05207     -2668.443 7        45.401
E31         4.000    26758898.223 6 140619005.63206     -2452.020 6        41.311                                                                    26758897.857 7 105007712.19007     -1831.066 7        42.406    26758897.628 7 107747040.23807     -1878.815 7        43.788
S21         5.000    38359497.253 7 201580259.13507      -484.968 7        42.423
E13         6.000    27443429.802 6 144216536.58706     -2920.351 6        38.324                                                                    27443430.984 7 107694371.76507     -2180.800 7        42.254    27443430.653 7 110503760.02507     -2237.802 7        42.902
G03         8.000    22176612.648 7 116538980.09507      2476.626 7        44.274                                    22176610.796 7  90809635.46707      1929.835 7        42.464    22176611.377 6  90809633.47906      1929.836 6        41.764
G02         9.000    20933489.396 8 110006283.76008       652.213 8        49.364                                    20933482.809 6  85719177.32606       508.217 6        41.509
R12        10.000    23563410.767 7 125871529.45207     -2193.303 7        44.460                                                                    23563409.783 6  97900110.03406     -1705.800 6        40.603
C30        11.000                                                                                                                                    22784650.255 8 118645667.24108      1557.971 8        48.865                                                                    22784650.288 8  96409326.34108      1265.979 8        48.126
S27        12.000    39027559.917 6 205091200.46106      -458.275 6        36.121
R20        13.000    19796143.492 6 105858922.20106     -2219.027 6        38.925                                                                    19796143.852 7  82334784.78207     -1725.963 7        46.851
S36        14.000    38127521.593 7 200362016.63107      -484.502 7        43.954
G27        15.000    24528759.441 6 128899774.05506     -4360.713 6        39.189                                    24528757.883 5 100441538.43705     -3397.955 5        34.481    24528758.037 6 100441452.43806     -3398.107 6        37.686
S45        17.000    63331572.016 6 332810742.03706      -527.013 6        38.264
E08        18.000    27076749.256 6 142289321.76806     -2748.349 6        39.625                                                                    27076748.381 7 106255014.95007     -2052.437 7        42.159    27076748.094 7 109026880.60007     -2105.978 7        42.942
E12        19.000    28466610.984 5 149593052.27905      2057.223 5        32.527                                                                    28466607.073 6 111709084.82606      1536.366 6        36.234    28466606.956 6 114623234.47806      1576.144 6        36.231
G17        20.000    24433452.961 6 128398672.43906      2624.392 6        41.101                                    24433448.915 5 100050900.49305      2044.982 5        34.214    24433448.861 6 100050899.50906      2045.138 6        37.388
E26        21.000    23687700.275 8 124480055.43808     -1458.473 8        48.119                                                                    23687697.953 8  92956083.07408     -1089.128 8        50.271    23687697.813 8  95380999.88008     -1117.602 8        51.532
I06        22.000    38277823.262 7 150210635.78007      -254.310 7        43.759
S28        23.000    40808745.253 5 214451422.97305      -476.744 5        34.138
G08        24.000    21935442.994 7 115271545.79607     -3498.684 7        47.070                                    21935441.484 7  89821983.76607     -2726.245 7        45.565    21935442.226 7  89821984.76307     -2726.284 7        42.897
S23        25.000    38080629.713 7 200115051.88607      -482.061 7        44.775
C13        26.000                                                                                                                                    40425636.421 6 210507094.41006     -1299.227 6        36.953    40425638.636 6 162777548.58706     -1004.785 6        39.775    40425636.853 6 171054343.83006     -1055.806 6        37.905
E24        27.000    27690690.932 6 145515591.18506      -202.784 6        38.850                                                                    27690689.410 7 108664251.48607      -151.318 7        42.281    27690688.608 7 111498967.78207      -155.297 7        42.762
R21        29.000    19791811.927 8 105909985.34708      1664.014 8        52.195                                                                    19791810.160 7  82374436.38007      1294.308 7        46.784
C14        30.000                                                                                                                                    26852548.660 6 139828279.32306     -3770.940 6        37.240    26852545.262 7 108124087.33007     -2915.868 7        42.847    26852543.315 6 113621914.68006     -3064.221 6        39.958
R05        31.000    19499243.126 8 104234672.24508     -2017.744 8        50.913                                                                    19499242.346 7  81071421.97207     -1569.354 7        47.727
R13        32.000    23781493.162 6 126991868.21606       420.577 6        37.830
E29        33.000    25466997.593 7 133830052.82507      2288.512 7        44.393                                                                    25466996.202 7  99938039.57107      1708.948 7        47.054    25466996.045 7 102545113.57207      1753.519 7        47.721
C16        35.000                                                                                                                                    40085099.702 6 208733652.98006      1102.351 6        40.021    40085099.463 6 161406110.76406       852.419 6        41.001    40085097.172 6 169613189.29206       895.592 6        36.764
C32        36.000                                                                                                                                    23616930.543 8 122979606.96808      2267.088 8        48.170                                                                    23616930.283 7  99931024.82707      1842.124 7        47.827
G32        37.000    21878625.437 8 114972993.45708     -1377.623 8        48.776                                    21878623.042 7  89589347.80507     -1073.475 7        47.910    21878623.604 7  89589356.80707     -1073.540 7        44.355
E07        38.000    24364212.543 7 128034819.46007      -231.477 7        46.484                                                                    24364212.502 8  95610455.25208      -172.823 8        49.379    24364212.188 8  98104633.39408      -177.329 8        50.291
C41        39.000                                                                                                                                    21879953.075 8 113934689.59708      -757.632 8        51.010                                                                    21879957.853 8  92581297.73108      -615.664 8        50.473
C39        40.000                                                                                                                                    39624494.719 6 206335171.35606       793.835 6        41.428                                                                    39624491.591 7 167664223.18107       645.049 7        42.349
E33        41.000    23841951.291 7 125290388.11307       840.200 7        47.907                                                                    23841949.315 8  93561037.14808       627.395 8        50.380    23841948.959 8  96001755.78308       643.710 8        51.129
S44        42.000    40439109.360 6 212509157.78306      -536.316 6        37.762
R06        43.000    20703929.916 7 110480195.62507      2876.301 7        42.354
C05        44.000                                                                                                                                    39055889.205 6 203374304.59006      -453.820 6        38.108    39055883.881 7 157261938.22407      -350.873 7        43.524    39055886.260 6 165258385.78706      -368.816 6        40.663
C08        45.000                                                                                                                                    41246856.052 5 214783387.99305     -1388.841 5        30.038    41246850.789 6 166084213.91206     -1073.979 6        37.792    41246849.198 5 174529146.62005     -1128.670 5        33.024
R22        48.000    23968718.942 7 127946661.57407      3435.155 7        43.414                                                                    23968719.280 6  99514062.83706      2671.583 6        40.269
I05        49.000  -497473598.834 6-876408050.45306       258.944 6        38.225
C06        50.000                                                                                                                                    39830438.564 6 207407564.38606      1203.541 6        36.658    39830433.734 6 160380665.22606       930.611 6        41.778    39830432.903 6 168535613.57806       977.944 6        38.003
S48        51.000    77115915.255 6 405248388.44206      -499.392 6        38.144
G21        52.000    20555715.571 7 108021087.83807      -839.521 7        44.573                                    20555709.876 6  84172298.42706      -654.175 6        37.512
C09        53.000                                                                                                                                    40904194.809 6 212998877.14206      1378.004 6        38.144    40904191.687 7 164704229.47107      1065.434 7        42.174    40904189.493 6 173079011.45506      1119.464 6        37.202
C60        54.000                                                                                                                                    40439111.433 6 210577275.85906      -531.303 6        40.911                                                                    40439095.046 6 171111257.37906      -431.774 6        40.641
C27        55.000                                                                                                                                    21446406.592 8 111677088.61008     -1318.348 8        51.699                                                                    21446404.882 8  90746786.86308     -1071.258 8        49.606
R04        56.000    22942803.704 7 122857681.17907     -4636.270 7        43.810                                                                    22942803.620 6  95555964.63406     -3605.948 6        39.471
C02        57.000                                                                                                                                    40444660.211 5 210606018.92805      -492.842 5        33.305    40444653.962 6 162853929.79306      -380.991 6        41.161    40444657.137 6 171134647.27906      -400.290 6        36.628
I03        58.000   106059832.472 6 340416335.75706       969.319 6        39.610
C28        60.000                                                                                                                                    23907275.152 7 124491762.04107     -3373.685 7        46.062                                                                    23907273.338 7 101159888.82907     -2741.343 7        44.336
> 2025 01 01 23 15 40.0000000  0 53
G10         1.000    23573381.159 7 123879054.51407     -3475.268 7        42.317                                    23573379.182 6  96529195.07906     -2708.000 6        37.414    23573379.188 6  96529172.10206     -2708.145 6        38.342
G14         2.000    23892034.263 6 125553533.36906     -1330.836 6        39.117                                    23892029.669 3  97833924.53103     -1037.004 3        23.219    23892029.893 6  97833920.51606     -1037.001 6        39.580
C33         3.000                                                                                                                                    24533696.581 7 127753425.21107     -3285.121 7        45.452                                                                    24533707.658 7 103810182.17507     -2669.437 7        45.381
E31         4.000    26761232.162 6 140631270.09806     -2453.754 6        41.206                                                                    26761231.697 7 105016870.71007     -1832.305 7        42.466    26761231.435 7 107756437.67207     -1880.109 7        43.782
S21         5.000    38359958.268 7 201582684.54507      -485.083 7        42.521
E13         6.000    27446209.074 6 144231140.21306     -2920.891 6        38.102                                                                    27446209.838 7 107705277.07407     -2181.211 7        42.045    27446209.762 7 110514949.81407     -2238.039 7        43.200
G03         8.000    22174257.236 7 116526600.87607      2475.114 7        44.670                                    22174255.141 7  90799989.33007      1928.660 7        42.381    22174255.846 6  90799987.32806      1928.664 6        41.008
G02         9.000    20932869.689 8 110003026.99308       650.535 8        49.355                                    20932863.038 6  85716639.58606       506.910 6        41.361
R12        10.000    23565464.843 7 125882504.96407     -2196.841 7        44.451                                                                    23565464.363 6  97908646.53006     -1708.516 6        40.336
C30        11.000                                                                                                                                    22783154.905 8 118637881.94908      1556.268 8        48.780                                                                    22783155.249 8  96403000.13608      1264.664 8        48.216
S27        12.000    39027992.766 6 205093491.68206      -458.161 6        36.023
R20        13.000    19798219.718 6 105870025.65906     -2222.136 6        39.501                                                                    19798220.119 7  82343420.79507     -1728.340 7        47.108
S36        14.000    38127984.723 7 200364439.50507      -484.429 7        43.922
G27        15.000    24532909.120 6 128921578.65706     -4361.013 6        39.258                                    24532907.200 5 100458529.03605     -3398.190 5        34.357    24532907.387 6 100458443.04706     -3398.396 6        37.686
S45        17.000    63332028.475 6 332813377.04106      -526.831 6        38.390
E08        18.000    27079365.501 6 142303068.30606     -2750.065 6        39.381                                                                    27079364.168 7 106265280.20007     -2053.546 7        42.148    27079363.869 7 109037413.64407     -2107.202 7        42.815
E12        19.000    28464653.951 5 149582767.01905      2056.979 5        33.006                                                                    28464649.619 6 111701404.23306      1536.271 6        36.129    28464649.879 6 114615353.53206      1576.118 6        36.435
G17        20.000    24430956.547 6 128385553.62906      2623.338 6        40.827                                    24430952.498 5 100040678.05105      2044.156 5        34.162    24430953.025 6 100040677.08206      2043.801 6        37.259
E26        21.000    23689088.802 7 124487351.53207     -1459.764 7        47.806                                                                    23689086.325 8  92961531.46208     -1090.181 8        50.227    23689086.208 8  95386590.39808     -1118.579 8        51.513
I06        22.000    38278147.442 7 150211907.76007      -254.375 7        43.810
S28        23.000    40809201.524 5 214453808.22405      -477.031 5        34.233
G08        24.000    21938773.470 7 115289044.28207     -3500.620 7        47.176                                    21938771.345 7  89835618.94607     -2727.757 7        45.410    21938772.171 7  89835619.95407     -2727.707 7        42.861
S23        25.000    38081088.890 7 200117462.49207      -482.174 7        44.993
C13        26.000                                                                                                                                    40426884.085 6 210513591.07006     -1299.240 6        37.229    40426885.981 6 162782572.20206     -1004.757 6        39.820    40426884.390 6 171059622.87306     -1055.664 6        37.762
E24        27.000    27690884.934 6 145516611.08106      -205.282 6        38.649                                                                    27690883.526 7 108665013.11507      -153.214 7        42.279    27690882.631 7 111499749.27807      -157.310 7        42.720
R21        29.000    19790258.254 8 105901671.41408      1661.522 8        52.114                                                                    19790255.934 7  82367969.99407      1292.302 7        46.631
C14        30.000                                                                                                                                    26856169.036 6 139847134.51106     -3771.235 6        37.304    26856166.004 7 108138667.36207     -2916.104 7        43.043    26856164.229 6 113637236.04906     -3064.284 6        40.007
R05        31.000    19501132.445 8 104244771.15408     -2021.691 8        51.189                                                                    19501131.844 8  81079276.67408     -1572.437 8        48.189
R13        32.000    23781102.037 6 126989776.46306       416.239 6        37.800
E29        33.000    25464821.167 7 133818613.85707      2287.312 7        44.789                                                                    25464819.299 7  99929497.48807      1707.999 7        47.099    25464819.232 7 102536348.65407      1752.571 7        47.652
C16        35.000                                                                                                                                    40084041.143 6 208728143.65906      1101.468 6        39.838    40084041.367 6 161401850.62106       851.774 6        40.920    40084039.008 6 169608712.49406       895.435 6        37.221
C32        36.000                                                                                                                                    23614754.623 8 122968275.93708      2265.442 8        48.085                                                                    23614754.337 7  99921817.41507      1840.902 7        47.974
G32        37.000    21879937.430 8 114979889.76608     -1380.814 8        48.637                                    21879935.361 7  89594721.55507     -1075.957 7        47.788    21879936.015 7  89594730.55507     -1075.969 7        44.384
E07        38.000    24364433.946 7 128035983.36807      -233.885 7        46.423                                                                    24364433.978 8  95611324.40808      -174.711 8        49.345    24364433.669 8  98105525.22508      -179.276 8        50.296
C41        39.000                                                                                                                                    21880681.994 8 113938484.47308      -760.188 8        50.903                                                                    21880686.580 8  92584381.36108      -617.643 8        50.515
C39        40.000                                                                                                                                    39623733.176 6 206331204.68606       792.993 6        41.414                                                                    39623729.899 7 167660999.92907       644.395 7        42.366
E33        41.000    23841152.300 7 125286190.03307       839.262 7        47.868                                                                    23841150.421 8  93557902.21708       626.679 8        50.381    23841150.107 8  95998539.06808       643.015 8        51.096
S44        42.000    40439623.056 6 212511839.28506      -536.187 6        37.977
R06        43.000    20701235.571 7 110465821.08407      2873.594 7        42.370
C05        44.000                                                                                                                                    39056325.134 6 203376574.04206      -453.826 6        38.108    39056319.873 7 157263693.10907      -350.939 7        43.424    39056321.921 6 165260229.88806      -368.767 6        40.620
C08        45.000                                                                                                                                    41248189.482 4 214790332.66804     -1388.707 4        29.678    41248184.560 6 166089584.00906     -1073.921 6        37.879    41248183.182 5 174534789.75605     -1128.151 5        33.383
R22        48.000    23965501.903 7 127929486.02307      3435.271 7        43.846                                                                    23965501.211 6  99500704.06706      2671.868 6        39.865
I05        49.000  -497473928.757 6-876409344.20606       258.717 6        37.781
C06        50.000                                                                                                                                    39829282.727 6 207401549.03306      1202.664 6        36.359    39829278.560 6 160376013.78706       930.060 6        41.831    39829277.909 6 168530725.59506       977.490 6        38.054
S48        51.000    77116378.109 6 405249285.49116      -499.290 6        38.532
G21        52.000    20556515.580 7 108025290.55707      -841.376 7        44.318                                    20556509.643 6  84175573.27306      -655.619 6        37.388
C09        53.000                                                                                                                                    40902873.056 6 212991989.09006      1377.558 6        38.357    40902868.892 7 164698903.20207      1065.091 7        42.421    40902866.522 6 173073414.31206      1119.403 6        37.304
C60        54.000                                                                                                                                    40439621.775 6 210579932.99806      -531.485 6        40.853                                                                    40439605.116 6 171113416.50006      -431.704 6        40.729
C27        55.000                                                                                                                                    21447673.820 8 111683686.49808     -1320.741 8        51.606                                                                    21447671.929 8  90752148.17608     -1073.150 8        49.673
R04        56.000    22947133.967 7 122880865.91807     -4637.496 7        44.286                                                                    22947132.809 6  95573997.19006     -3606.807 6        39.297
C02        57.000                                                                                                                                    40445132.777 5 210608482.79405      -492.737 5        33.491    40445127.310 6 162855835.01806      -381.071 6        41.209    40445130.315 6 171136649.36806      -400.273 6        36.752
I03        58.000   106058597.388 6 340411490.40906       968.891 6        39.625
C28        60.000                                                                                                                                    23910515.192 7 124508633.59407     -3374.837 7        45.606                                                                    23910513.297 7 101173598.33207     -2742.301 7        44.423
> 2025 01 01 23 15 45.0000000  0 53
G10         1.000    23576687.998 7 123896431.95607     -3475.505 7        42.391                                    23576685.920 6  96542735.94206     -2708.183 6        37.081    23576685.900 6  96542712.93606     -2708.211 6        38.243
G14         2.000    23893301.993 6 125560194.92406     -1333.689 6        39.429                                    23893297.392 3  97839115.35803     -1039.243 3        23.314    23893297.702 6  97839111.33906     -1039.126 6        39.072
C33         3.000                                                                                                                                    24536851.676 7 127769853.82507     -3286.073 7        45.308                                                                    24536862.657 7 103823531.77407     -2670.031 7        45.320
E31         4.000    26763567.166 6 140643542.63906     -2455.250 6        40.975                                                                    26763566.938 7 105026035.26907     -1833.495 7        42.523    26763566.981 7 107765841.30407     -1881.284 7        43.901
S21         5.000    38360419.659 7 201585110.07107      -485.094 7        42.254
E13         6.000    27448988.521 6 144245746.04906     -2921.138 6        38.258                                                                    27448989.158 7 107716184.02307     -2181.369 7        42.044    27448989.125 7 110526141.29807     -2238.301 7        43.374
G03         8.000    22171902.935 7 116514228.89407      2473.839 7        44.701                                    22171900.850 7  90790348.83307      1927.668 7        42.231    22171901.265 6  90790346.84806      1927.622 6        41.416
G02         9.000    20932251.736 8 109999778.38608       649.076 8        49.273                                    20932244.854 6  85714108.20406       505.773 6        41.187
R12        10.000    23567522.199 7 125893498.21107     -2200.216 7        44.731                                                                    23567522.484 6  97917196.87106     -1711.368 6        40.727
C30        11.000                                                                                                                                    22781661.192 8 118630105.08008      1554.711 8        48.735                                                                    22781661.765 8  96396680.81508      1263.469 8        48.170
S27        12.000    39028427.528 6 205095783.19906      -458.363 6        36.038
R20        13.000    19800297.925 6 105881143.79906     -2224.911 6        39.054                                                                    19800299.538 7  82352068.23107     -1730.510 7        46.885
S36        14.000    38128444.379 7 200366861.92007      -484.153 7        43.733
G27        15.000    24537058.277 6 128943384.30406     -4361.060 6        39.066                                    24537056.696 5 100475520.45405     -3398.230 5        34.381    24537057.404 6 100475434.43406     -3398.051 6        37.826
S45        17.000    63332482.939 6 332816012.23706      -527.048 6        38.243
E08        18.000    27081982.605 6 142316822.52106     -2751.581 6        39.685                                                                    27081981.679 7 106275551.19507     -2054.555 7        42.127    27081981.066 7 109047952.57807     -2108.208 7        42.933
E12        19.000    28462696.607 5 149572481.23805      2057.348 5        33.281                                                                    28462692.333 6 111693723.32106      1536.236 6        36.155    28462692.495 6 114607472.24006      1576.314 6        36.510
G17        20.000    24428461.187 6 128372440.26306      2622.171 6        41.828                                    24428457.064 5 100030459.85405      2043.250 5        33.946    24428456.942 6 100030458.85306      2043.344 6        37.115
E26        21.000    23690478.361 7 124494653.48707     -1460.793 7        47.810                                                                    23690475.870 8  92966984.21208     -1090.870 8        50.325    23690475.733 8  95392185.39508     -1119.328 8        51.648
I06        22.000    38278471.825 7 150213179.78607      -254.302 7        43.642
S28        23.000    40809653.163 5 214456193.40005      -476.921 5        34.138
G08        24.000    21942104.828 7 115306551.76507     -3502.219 7        46.911                                    21942102.918 7  89849261.13907     -2729.000 7        45.169    21942103.635 7  89849262.14607     -2729.036 7        43.173
S23        25.000    38081548.255 7 200119873.24707      -481.896 7        44.787
C13        26.000                                                                                                                                    40428131.862 6 210520086.72206     -1298.918 6        37.524    40428133.394 6 162787595.04806     -1004.336 6        39.664    40428131.793 6 171064901.13006     -1055.259 6        37.565
E24        27.000    27691081.012 6 145517643.07606      -207.598 6        39.258                                                                    27691079.899 7 108665783.75607      -154.970 7        42.427    27691079.076 7 111500540.02307      -159.066 7        42.914
R21        29.000    19788706.580 8 105893369.62208      1659.267 8        51.764                                                                    19788704.610 7  82361513.04507      1290.570 7        46.259
C14        30.000                                                                                                                                    26859790.756 6 139865990.45706     -3771.303 6        38.117    26859787.267 7 108153247.96107     -2916.044 7        43.336    26859785.408 6 113652558.05006     -3064.050 6        40.257
R05        31.000    19503025.334 8 104254889.50908     -2025.469 8        51.022                                                                    19503024.469 8  81087146.49908     -1575.389 8        48.022
R13        32.000    23780713.507 6 126987705.04706       412.373 6        37.501
E29        33.000    25462645.211 7 133807180.69307      2286.234 7        44.473                                                                    25462643.542 7  99920959.73807      1707.227 7        47.123    25462643.485 7 102527588.17707      1751.788 7        47.805
C16        35.000                                                                                                                                    40082983.236 6 208722637.74506      1100.937 6        39.504    40082984.171 6 161397593.08506       851.455 6        40.918    40082981.851 6 169604238.52506       894.710 6        36.851
C32        36.000                                                                                                                                    23612579.972 7 122956952.70007      2264.011 7        47.897                                                                    23612579.652 7  99912616.36807      1839.925 7        47.836
G32        37.000    21881252.919 8 114986801.37508     -1383.679 8        48.510                                    21881250.599 7  89600107.22207     -1078.191 7        47.560    21881250.977 7  89600116.20807     -1078.114 7        44.125
E07        38.000    24364657.922 7 128037159.55707      -236.343 7        46.257                                                                    24364657.852 8  95612202.72508      -176.444 8        49.463    24364657.519 8  98106426.45208      -181.097 8        50.353
C41        39.000                                                                                                                                    21881412.957 8 113942291.86508      -762.580 8        50.932                                                                    21881417.740 8  92587475.19308      -619.490 8        50.394
C39        40.000                                                                                                                                    39622972.412 6 206327242.44406       792.100 6        41.342                                                                    39622969.034 7 167657780.30707       643.811 7        42.373
E33        41.000    23840354.326 7 125281996.47507       838.406 7        47.720                                                                    23840352.464 8  93554770.66808       626.039 8        50.522    23840352.073 8  95995325.82408       642.391 8        51.259
S44        42.000    40440126.945 6 212514520.94406      -536.175 6        37.754
R06        43.000    20698544.609 7 110451460.31207      2871.027 7        42.157
C05        44.000                                                                                                                                    39056760.984 6 203378843.67106      -453.670 6        38.204    39056755.517 7 157265448.13407      -350.978 7        43.750    39056757.971 6 165262074.17906      -368.614 6        40.365
C08        45.000                                                                                                                                    41249521.366 4 214797276.12104     -1388.576 4        29.877    41249516.775 6 166094953.12706     -1073.477 6        37.399    41249516.464 5 174540431.91905     -1128.172 5        33.078
R22        48.000    23962284.945 7 127912309.50107      3435.566 7        44.155                                                                    23962283.510 6  99487344.56906      2672.019 6        40.110
I05        49.000  -497474258.648 6-876410637.66106       258.692 6        37.584
C06        50.000                                                                                                                                    39828128.523 6 207395536.89206      1202.147 6        36.624    39828124.232 6 160371364.83806       929.581 6        41.533    39828123.298 6 168525840.26706       976.969 6        38.279
S48        51.000    77116837.608 6 405251782.68406      -499.260 6        38.661
G21        52.000    20557316.865 7 108029502.33607      -843.082 7        44.163                                    20557311.110 6  84178855.17606      -656.947 6        37.270
C09        53.000                                                                                                                                    40901550.132 6 212985102.84306      1377.250 6        38.402    40901546.455 7 164693578.32107      1064.944 7        42.480    40901544.052 6 173067818.67506      1119.242 6        37.100
C60        54.000                                                                                                                                    40440132.135 6 210582590.28006      -531.311 6        40.756                                                                    40440115.547 6 171115575.78806      -431.493 6        40.548
C27        55.000                                                                                                                                    21448943.039 8 111690296.12508     -1322.985 8        51.642                                                                    21448941.282 8  90757519.04908     -1074.846 8        49.677
R04        56.000    22951464.688 7 122904055.46107     -4638.292 7        44.659                                                                    22951462.145 6  95592033.49106     -3607.459 6        39.300
C02        57.000                                                                                                                                    40445606.317 5 210610946.83405      -492.338 5        33.916    40445600.260 6 162857740.37706      -380.938 6        41.256    40445603.488 6 171138651.62906      -400.363 6        36.526
I03        58.000   106057362.771 6 340406645.31006       969.071 6        39.444
C28        60.000                                                                                                                                    23913756.043 7 124525511.20507     -3375.913 7        45.365                                                                    23913754.670 7 101187312.77807     -2743.110 7        44.575
> 2025 01 01 23 15 50.0000000  0 53
G10         1.000    23579995.093 7 123913811.54507     -3476.206 7        42.015                                    23579993.164 6  96556278.47706     -2708.732 6        37.191    23579993.090 6  96556255.48006     -2708.678 6        38.526
G14         2.000    23894571.956 6 125566870.17606     -1336.461 6        39.637                                    23894567.726 3  97844316.85203     -1041.379 3        23.848    23894567.056 6  97844312.86006     -1041.346 6        39.453
C33         3.000                                                                                                                                    24540007.548 7 127786287.47607     -3287.331 7        45.038                                                                    24540018.739 7 103836885.45107     -2671.098 7        45.275
E31         4.000    26765903.582 6 140655822.77306     -2456.804 6        40.892                                                                    26765903.789 7 105035205.50407     -1834.724 7        42.599    26765903.823 7 107775250.76007     -1882.540 7        44.030
S21         5.000    38360879.709 7 201587535.28807      -485.104 7        42.152
E13         6.000    27451768.152 6 144260353.63006     -2921.715 6        38.177                                                                    27451769.005 7 107727092.27607     -2181.823 7        42.044    27451768.754 7 110537334.10907     -2238.749 7        43.575
G03         8.000    22169549.707 7 116501863.71707      2472.216 7        44.752                                    22169547.819 7  90780713.63307      1926.402 7        42.427    22169548.485 6  90780711.63106      1926.447 6        41.330
G02         9.000    20931634.905 8 109996537.45308       647.340 8        49.288                                    20931628.119 6  85711582.80406       504.424 6        41.383
R12        10.000    23569583.644 7 125904508.70207     -2203.884 7        45.153                                                                    23569584.296 6  97925760.58606     -1714.081 6        41.161
C30        11.000                                                                                                                                    22780169.372 8 118622336.17808      1552.888 8        48.650                                                                    22780169.839 8  96390367.94708      1261.914 8        48.134
S27        12.000    39028864.580 5 205098073.79505      -458.280 5        35.786
R20        13.000    19802379.311 6 105892276.17306     -2227.954 6        38.706                                                                    19802381.271 7  82360726.75607     -1732.851 7        47.003
S36        14.000    38128905.618 7 200369283.96407      -484.429 7        43.642
G27        15.000    24541207.656 6 128965190.49406     -4361.471 6        39.243                                    24541206.348 5 100492512.28505     -3398.549 5        34.538    24541206.941 6 100492426.28106     -3398.508 6        38.159
S45        17.000    63332938.955 6 332817047.04616      -526.901 6        37.868
E08        18.000    27084601.802 6 142330583.90006     -2753.066 6        39.402                                                                    27084600.463 7 106285827.56507     -2055.884 7        42.299    27084599.575 7 109058497.02807     -2109.565 7        42.823
E12        19.000    28460738.303 5 149562194.56205      2057.344 5        33.234                                                                    28460735.112 6 111686041.70006      1536.479 6        36.386    28460734.824 6 114599590.24106      1576.418 6        36.646
G17        20.000    24425966.919 6 128359331.82506      2621.134 6        41.669                                    24425962.542 5 100020245.49505      2042.441 5        34.452    24425962.591 6 100020244.48706      2042.514 6        38.066
E26        21.000    23691869.033 8 124501960.84308     -1462.110 8        48.042                                                                    23691866.457 8  92972441.01108     -1091.858 8        50.380    23691866.273 8  95397784.54108     -1120.314 8        51.742
I06        22.000    38278795.887 7 150214451.48707      -254.347 7        43.496
S28        23.000    40810105.244 5 214458578.32205      -477.299 5        34.095
G08        24.000    21945437.924 7 115324067.74107     -3504.140 7        47.105                                    21945436.083 7  89862909.95407     -2730.501 7        45.308    21945437.339 7  89862910.96107     -2730.484 7        43.503
S23        25.000    38082006.185 7 200122283.65507      -482.067 7        44.679
C13        26.000                                                                                                                                    40429379.793 6 210526580.88306     -1298.734 6        38.198    40429380.430 6 162792616.76206     -1004.292 6        39.736    40429378.932 6 171070178.21306     -1055.528 6        37.599
E24        27.000    27691279.717 6 145518686.68206      -210.064 6        39.480                                                                    27691278.438 7 108666563.08407      -156.884 7        42.394    27691277.672 7 111501339.67507      -160.936 7        42.984
R21        29.000    19787157.072 8 105885079.52308      1656.729 8        51.973                                                                    19787155.553 7  82355065.19407      1288.540 7        46.308
C14        30.000                                                                                                                                    26863411.750 6 139884846.68106     -3771.481 6        37.671    26863408.406 7 108167828.76207     -2916.206 7        43.536    26863406.673 6 113667880.26406     -3064.377 6        40.002
R05        31.000    19504921.644 8 104265026.81708     -2029.441 8        50.895                                                                    19504920.934 8  81095031.07408     -1578.452 8        48.261
R13        32.000    23780330.265 6 126985653.22006       408.217 6        37.762
E29        33.000    25460470.686 7 133795752.87507      2284.956 7        44.385                                                                    25460468.876 7  99912425.97607      1706.275 7        47.148    25460468.843 7 102518831.79907      1750.773 7        47.873
C16        35.000                                                                                                                                    40081926.449 6 208717134.76706      1100.272 6        39.520    40081927.159 6 161393337.85706       850.763 6        41.004    40081925.044 6 169599766.91706       894.265 6        36.896
C32        36.000                                                                                                                                    23610406.845 7 122945636.80507      2262.311 7        47.570                                                                    23610406.617 7  99903421.28207      1838.443 7        47.857
G32        37.000    21882570.976 8 114993727.78508     -1386.832 8        48.668                                    21882568.664 7  89605504.42807     -1080.646 7        47.750    21882569.055 7  89605513.42707     -1080.618 7        43.809
E07        38.000    24364883.876 7 128038347.53907      -238.872 7        46.348                                                                    24364883.970 8  95613089.85408      -178.376 8        49.544    24364883.604 8  98107336.72208      -182.972 8        50.428
C41        39.000                                                                                                                                    21882146.528 8 113946111.30308      -765.202 8        50.997                                                                    21882151.236 8  92590578.80408      -621.686 8        50.406
C39        40.000                                                                                                                                    39622211.935 6 206323284.15406       791.126 6        41.528                                                                    39622208.873 7 167654563.86307       643.028 7        42.451
E33        41.000    23839557.293 7 125277806.93807       837.364 7        47.613                                                                    23839555.234 8  93551642.11108       625.375 8        50.582    23839554.839 8  95992115.65608       641.669 8        51.356
S44        42.000    40440640.918 6 212517202.30206      -536.442 6        37.860
R06        43.000    20695855.983 6 110437112.69606      2868.121 6        41.902
C05        44.000                                                                                                                                    39057196.578 6 203381112.96206      -453.934 6        38.324    39057191.473 7 157267202.89307      -350.933 7        43.869    39057193.601 6 165263918.16306      -368.712 6        40.319
C08        45.000                                                                                                                                    41250857.884 5 214804217.88205     -1387.759 5        30.347    41250850.151 6 166100320.94706     -1073.553 6        37.251    41250849.686 5 174546072.65105     -1127.888 5        33.234
R22        48.000    23959066.128 7 127895131.59907      3435.674 7        44.304                                                                    23959065.598 6  99473983.96006      2672.351 6        40.005
I05        49.000  -497474588.280 6-876411931.09806       258.501 6        37.505
C06        50.000                                                                                                                                    39826974.781 6 207389527.52606      1201.586 6        36.968    39826969.894 7 160366718.01307       929.005 7        42.015    39826969.233 6 168520957.16706       976.261 6        38.099
S48        51.000    77117301.034 6 405254279.64406      -499.270 6        38.315
G21        52.000    20558119.652 7 108033722.70507      -845.050 7        44.260                                    20558114.214 6  84182143.77606      -658.480 6        37.452
C09        53.000                                                                                                                                    40900227.943 6 212978217.96906      1376.954 6        38.598    40900224.267 7 164688254.49807      1064.599 7        42.819    40900222.127 6 173062224.15606      1118.893 6        37.002
C60        54.000                                                                                                                                    40440642.284 6 210585247.23806      -531.404 6        40.920                                                                    40440625.790 6 171117734.79106      -431.732 6        40.415
C27        55.000                                                                                                                                    21450214.544 8 111696917.03008     -1325.448 8        51.786                                                                    21450212.722 8  90762899.08708     -1076.961 8        49.538
R04        56.000    22955795.016 7 122927249.47307     -4639.435 7        44.524                                                                    22955793.695 6  95610073.27406     -3608.423 6        39.237
C02        57.000                                                                                                                                    40446080.417 5 210613410.63305      -492.908 5        33.964    40446073.219 6 162859645.54206      -381.142 6        40.975    40446076.810 6 171140653.67306      -400.345 6        36.594
I03        58.000   106056128.187 6 340401800.13006       968.947 6        39.513
C28        60.000                                                                                                                                    23916998.463 7 124542394.39707     -3377.282 7        45.216                                                                    23916997.259 7 101201031.75707     -2744.243 7        44.909
> 2025 01 01 23 15 55.0000000  0 53
G10         1.000    23583302.780 6 123931193.36506     -3476.544 6        41.645                                    23583300.845 6  96569822.74706     -2708.990 6        37.040    23583301.189 6  96569799.74306     -2708.903 6        38.577
G14         2.000    23895844.948 6 125573559.22906     -1339.138 6        38.655                                    23895840.681 3  97849529.10003     -1043.482 3        23.238    23895840.809 6  97849525.10806     -1043.636 6        38.949
C33         3.000                                                                                                                                    24543164.367 7 127802726.22107     -3288.228 7        44.983                                                                    24543175.544 7 103850243.27107     -2671.909 7        45.290
E31         4.000    26768241.889 6 140668110.59406     -2458.364 6        41.001                                                                    26768242.136 7 105044381.46707     -1835.767 7        42.491    26768242.080 7 107784666.10807     -1883.742 7        43.676
S21         5.000    38361341.279 7 201589960.15907      -484.931 7        42.118
E13         6.000    27454548.239 6 144274963.01206     -2922.063 6        38.153                                                                    27454548.989 7 107738001.88407     -2182.043 7        42.000    27454548.787 7 110548528.32207     -2238.933 7        43.482
G03         8.000    22167197.794 7 116489505.42807      2470.922 7        44.948                                    22167196.081 7  90771083.79907      1925.392 7        42.237    22167196.988 6  90771081.79606      1925.498 6        41.333
G02         9.000    20931019.490 8 109993304.27708       645.831 8        49.244                                    20931012.855 6  85709063.44906       503.245 6        41.175
R12        10.000    23571648.209 7 125915536.46107     -2207.240 7        44.140                                                                    23571648.002 6  97934337.74506     -1716.719 6        40.381
C30        11.000                                                                                                                                    22778679.030 8 118614575.34908      1551.389 8        48.527                                                                    22778679.458 8  96384061.63008      1260.635 8        48.123
S27        12.000    39029295.770 5 205100364.21905      -457.936 5        35.776
R20        13.000    19804464.177 6 105903422.78906     -2230.715 6        38.970                                                                    19804465.669 7  82369396.34407     -1734.943 7        46.861
S36        14.000    38129364.822 7 200371705.84907      -484.347 7        43.869
G27        15.000    24545357.268 6 128986997.33706     -4361.569 6        38.736                                    24545356.202 5 100509504.62005     -3398.626 5        34.238    24545356.554 6 100509418.64006     -3398.734 6        38.628
S45        17.000    63333396.080 6 332819681.61306      -526.808 6        37.796
E08        18.000    27087222.090 6 142344352.60606     -2754.586 6        39.387                                                                    27087220.571 7 106296109.37107     -2056.880 7        42.263    27087219.637 7 109069047.05207     -2110.591 7        42.660
E12        19.000    28458780.580 5 149551907.09105      2057.438 5        32.940                                                                    28458777.608 6 111678359.49106      1536.658 6        36.336    28458777.187 6 114591707.61306      1576.511 6        36.454
G17        20.000    24423472.988 6 128346228.43006      2620.152 6        41.504                                    24423469.032 5 100010035.05305      2041.670 5        34.067    24423469.476 6 100010034.06606      2041.532 6        37.599
E26        21.000    23693260.625 7 124509273.66707     -1463.075 7        47.959                                                                    23693258.035 8  92977901.88408     -1092.574 8        50.342    23693257.822 8  95403387.87608     -1121.077 8        51.695
I06        22.000    38279119.879 7 150215722.93707      -254.340 7        43.581
S28        23.000    40810560.383 5 214460962.70905      -477.017 5        34.114
G08        24.000    21948772.841 7 115341592.31407     -3505.688 7        47.057                                    21948770.859 7  89876565.46307     -2731.709 7        45.073    21948771.099 7  89876566.48307     -2731.834 7        42.823
S23        25.000    38082465.443 7 200124693.89607      -481.989 7        44.549
C13        26.000                                                                                                                                    40430626.818 6 210533073.81906     -1298.435 6        38.417    40430627.271 6 162797637.49906     -1003.992 6        39.562    40430625.764 6 171075454.21106     -1054.856 6        37.149
E24        27.000    27691480.416 6 145519741.95206      -212.164 6        39.330                                                                    27691479.360 7 108667351.11607      -158.566 7        42.430    27691478.378 7 111502148.25907      -162.557 7        42.942
R21        29.000    19785610.217 8 105876801.29608      1654.492 8        52.048                                                                    19785608.499 7  82348626.56807      1286.799 7        46.281
C14        30.000                                                                                                                                    26867032.369 6 139903703.24906     -3771.376 6        37.856    26867029.654 7 108182409.86007     -2916.315 7        43.867    26867027.840 6 113683202.76406     -3064.495 6        40.088
R05        31.000    19506821.833 8 104275183.30608     -2033.196 8        50.987                                                                    19506820.652 7  81102930.56707     -1581.392 7        47.756
R13        32.000    23779949.289 6 126983621.23206       404.581 6        37.456
E29        33.000    25458297.203 7 133784330.48907      2283.944 7        44.429                                                                    25458295.223 7  99903896.27507      1705.550 7        47.035    25458295.346 7 102510079.59107      1749.998 7        47.916
C16        35.000                                                                                                                                    40080870.813 6 208711634.85606      1099.727 6        39.477    40080870.825 6 161389084.97806       850.367 6        41.168    40080868.718 6 169595297.76906       893.617 6        36.862
C32        36.000                                                                                                                                    23608235.766 7 122934328.33007      2260.967 7        47.996                                                                    23608234.972 7  99894232.22307      1837.204 7        47.764
G32        37.000    21883891.859 8 115000669.12808     -1389.717 8        48.593                                    21883889.550 7  89610913.26707     -1082.898 7        47.565    21883890.225 7  89610922.27307     -1082.841 7        44.147
E07        38.000    24365112.153 7 128039547.42107      -241.067 7        46.360                                                                    24365112.258 8  95613985.87208      -180.056 8        49.510    24365111.908 8  98108256.11708      -184.794 8        50.366
C41        39.000                                                                                                                                    21882882.404 8 113949942.86508      -767.541 8        51.079                                                                    21882887.039 8  92593692.25708      -623.601 8        50.365
C39        40.000                                                                                                                                    39621452.917 6 206319329.89406       790.521 6        41.263                                                                    39621449.449 7 167651350.71207       642.350 7        42.493
E33        41.000    23838761.042 7 125273621.53407       836.677 7        47.627                                                                    23838758.728 8  93548516.65508       624.802 8        50.545    23838758.395 8  95988908.66608       641.098 8        51.267
S44        42.000    40441153.053 6 212519883.40006      -536.092 6        37.656
R06        43.000    20693170.151 7 110422778.38207      2865.530 7        42.605
C05        44.000                                                                                                                                    39057631.716 6 203383382.04306      -453.675 6        38.333    39057627.157 7 157268957.50407      -350.966 7        43.801    39057629.361 6 165265761.97206      -368.680 6        40.479
C08        45.000                                                                                                                                    41252191.177 5 214811158.08905     -1387.784 5        31.223    41252183.007 6 166105687.51506     -1073.116 6        36.582    41252182.372 5 174551712.10905     -1127.688 5        33.443
R22        48.000    23955847.580 7 127877952.22207      3436.080 7        42.840                                                                    23955847.058 6  99460622.27406      2672.422 6        40.033
I05        49.000  -497474918.265 6-876413224.51706       258.496 6        37.002
C06        50.000                                                                                                                                    39825821.404 6 207383521.00906      1200.827 6        37.236    39825816.352 6 160362073.37806       928.736 6        41.933    39825815.786 6 168516076.35706       975.961 6        38.114
S48        51.000    77117765.157 6 405256776.29606      -499.342 6        38.468
G21        52.000    20558924.746 7 108037951.73507      -846.594 7        44.224                                    20558918.994 6  84185439.12706      -659.680 6        37.217
C09        53.000                                                                                                                                    40898906.405 6 212971334.56306      1376.461 6        38.874    40898902.331 7 164682931.79607      1064.496 7        42.864    40898900.139 6 173056630.81706      1118.613 6        37.202
C60        54.000                                                                                                                                    40441152.501 6 210587903.98906      -531.321 6        40.951                                                                    40441135.877 6 171119893.61706      -431.755 6        40.439
C27        55.000                                                                                                                                    21451488.326 8 111703549.30208     -1327.539 8        51.879                                                                    21451486.368 8  90768288.34708     -1078.717 8        49.558
R04        56.000    22960126.722 7 122950448.01707     -4640.149 7        44.394                                                                    22960126.967 6  95628116.60106     -3609.171 6        39.294
C02        57.000                                                                                                                                    40446553.371 5 210615874.20205      -492.850 5        33.695    40446546.205 6 162861550.52306      -381.018 6        41.335    40446549.791 6 171142655.47506      -400.147 6        36.571
I03        58.000   106054893.525 6 340396954.92206       969.070 6        39.571
C28        60.000                                                                                                                                    23920241.745 7 124559283.25907     -3378.286 7        45.261                                                                    23920240.606 7 101214755.32607     -2745.107 7        44.977
> 2025 01 01 23 16  0.0000000  0 53
G10         1.000    23586611.149 7 123948578.11107     -3477.380 7        42.449                                    23586608.996 6  96583369.29806     -2709.647 6        36.968    23586609.288 6  96583346.29206     -2709.617 6        38.486
G14         2.000    23897120.234 6 125580262.73406     -1342.204 6        39.955                                    23897116.261 3  97854752.60903     -1045.882 3        23.352    23897115.984 6  97854748.60206     -1045.774 6        38.835
C33         3.000                                                                                                                                    24546322.171 7 127819170.75107     -3289.478 7        45.251                                                                    24546333.481 7 103863605.81307     -2672.996 7        45.272
E31         4.000    26770581.803 6 140680406.78606     -2460.177 6        40.882                                                                    26770581.967 7 105053563.67807     -1837.037 7        42.531    26770581.886 7 107794087.85807     -1885.026 7        43.936
S21         5.000    38361798.623 6 201592384.98606      -485.126 6        41.874
E13         6.000    27457329.006 6 144289574.93506     -2922.764 6        38.348                                                                    27457329.720 7 107748913.37407     -2182.459 7        42.083    27457329.422 7 110559724.45807     -2239.498 7        43.598
G03         8.000    22164847.440 7 116477154.72607      2469.273 7        44.965                                    22164845.801 7  90761459.87707      1924.106 7        42.201    22164846.506 6  90761457.88206      1924.076 6        41.266
G02         9.000    20930405.968 8 109990079.63308       643.952 8        49.628                                    20930399.209 6  85706550.73906       501.782 6        41.116
R12        10.000    23573715.124 7 125926582.27707     -2210.971 7        44.191                                                                    23573716.150 6  97942928.93206     -1719.752 6        40.188
C30        11.000                                                                                                                                    22777190.713 8 118606823.28808      1549.451 8        48.500                                                                    22777190.785 8  96377762.45108      1259.128 8        48.158
S27        12.000    39029733.640 6 205102654.82606      -458.089 6        36.178
R20        13.000    19806551.663 6 105914584.29306     -2233.792 6        39.216                                                                    19806552.987 7  82378077.52107     -1737.424 7        46.900
S36        14.000    38129825.771 7 200374128.51907      -484.524 7        43.518
G27        15.000    24549507.946 6 129008805.49106     -4361.920 6        38.931                                    24549506.216 5 100526497.98305     -3398.898 5        34.095    24549505.886 6 100526411.96206     -3398.727 6        38.204
S45        17.000    63333851.828 6 332822316.43606      -526.826 6        37.898
E08        18.000    27089843.678 6 142358129.26406     -2756.115 6        38.991                                                                    27089842.198 7 106306397.12307     -2058.075 7        42.434    27089841.066 7 109079603.19507     -2111.862 7        42.491
E12        19.000    28456822.639 5 149541619.42305      2057.611 5        32.838                                                                    28456819.925 6 111670677.16906      1536.282 6        36.631    28456819.363 6 114583824.88606      1576.340 6        36.314
G17        20.000    24420980.570 7 128333130.83507      2618.811 7        42.438                                    24420976.661 5  99999829.14005      2040.632 5        33.832    24420976.610 6  99999828.15106      2040.749 6        37.055
E26        21.000    23694653.166 7 124516592.70007     -1464.515 7        47.723                                                                    23694650.808 8  92983367.39208     -1093.598 8        50.394    23694650.667 8  95408995.95908     -1122.155 8        51.795
I06        22.000    38279443.832 7 150216994.62607      -254.331 7        43.454
S28        23.000    40811016.283 5 214463347.40705      -476.893 5        34.238
G08        24.000    21952109.157 7 115359126.17807     -3507.777 7        46.283                                    21952107.355 7  89890228.21307     -2733.334 7        44.971    21952108.098 7  89890229.21607     -2733.294 7        42.667
S23        25.000    38082923.449 7 200127104.56307      -482.198 7        44.521
C13        26.000                                                                                                                                    40431872.935 6 210539566.03306     -1298.453 6        38.501    40431874.013 6 162802657.68306     -1003.978 6        39.372    40431872.521 6 171080729.68006     -1055.108 6        37.388
E24        27.000    27691683.074 6 145520809.71406      -215.000 6        38.802                                                                    27691682.556 7 108668148.46107      -160.527 7        42.554    27691681.680 7 111502966.41407      -164.728 7        43.113
R21        29.000    19784065.855 8 105868535.60208      1651.822 8        52.135                                                                    19784064.275 7  82342197.70107      1284.688 7        46.773
C14        30.000                                                                                                                                    26870654.279 6 139922560.89806     -3771.729 6        37.558    26870651.157 7 108196991.75307     -2916.582 7        43.486    26870649.288 6 113698526.12506     -3064.729 6        39.697
R05        31.000    19508725.634 8 104285359.48408     -2037.243 8        50.891                                                                    19508724.444 7  81110845.36407     -1584.525 7        47.671
R13        32.000    23779571.881 6 126981609.75006       400.159 6        38.444
E29        33.000    25456124.605 7 133772914.25707      2282.553 7        44.230                                                                    25456122.863 7  99895371.16807      1704.544 7        47.075    25456123.018 8 102501332.08908      1748.939 8        48.206
C16        35.000                                                                                                                                    40079815.559 6 208706138.65506      1098.742 6        39.348    40079815.308 6 161384834.97606       849.646 6        41.037    40079813.459 6 169590831.67706       892.988 6        37.100
C32        36.000                                                                                                                                    23606065.669 8 122923027.98408      2259.193 8        48.152                                                                    23606064.851 7  99885049.76907      1835.873 7        47.907
G32        37.000    21885215.448 8 115007626.06408     -1393.057 8        48.453                                    21885213.418 7  89616334.25707     -1085.499 7        47.474    21885214.146 7  89616343.25907     -1085.533 7        44.342
E07        38.000    24365342.905 7 128040759.92407      -243.862 7        46.137                                                                    24365343.060 8  95614891.30708      -182.097 8        49.604    24365342.663 8  98109185.17108      -186.744 8        50.442
C41        39.000                                                                                                                                    21883620.770 8 113953787.25408      -770.260 8        51.092                                                                    21883625.375 8  92596816.14308      -625.835 8        50.423
C39        40.000                                                                                                                                    39620694.263 6 206315380.35206       789.383 6        41.025                                                                    39620691.024 7 167648141.40407       641.467 7        42.406
E33        41.000    23837965.519 7 125269440.99107       835.553 7        47.554                                                                    23837963.204 8  93545394.81908       623.942 8        50.653    23837962.870 8  95985705.39208       640.217 8        51.266
S44        42.000    40441660.233 6 212522565.00106      -536.492 6        37.837
R06        43.000    20690486.383 7 110408458.14007      2862.579 7        42.332
C05        44.000                                                                                                                                    39058067.748 6 203385651.60906      -454.113 6        38.225    39058063.077 7 157270712.46107      -351.093 7        43.972    39058065.277 6 165267606.18906      -368.931 6        40.467
C08        45.000                                                                                                                                    41253521.436 5 214818097.38905     -1388.121 5        31.072    41253515.949 6 166111053.43806     -1073.037 6        36.389    41253515.185 5 174557350.87605     -1127.814 5        33.150
R22        48.000    23952629.202 7 127860772.36207      3435.923 7        42.927                                                                    23952629.179 6  99447260.14706      2672.362 6        39.117
I05        49.000  -497475247.235 6-876414517.36006       258.412 6        37.319
C06        50.000                                                                                                                                    39824668.908 6 207377517.99106      1200.077 6        37.312    39824663.557 6 160357431.45906       928.173 6        41.712    39824662.948 6 168511198.44406       975.241 6        38.066
S48        51.000    77118220.399 6 405259272.99806      -499.445 6        38.033
G21        52.000    20559731.195 7 108042190.14307      -848.720 7        44.363                                    20559725.531 6  84188741.78106      -661.339 6        37.130
C09        53.000                                                                                                                                    40897584.860 6 212964453.31906      1375.919 6        38.781    40897580.775 7 164677610.79007      1063.917 7        42.823    40897578.629 6 173051039.23306      1118.225 6        36.904
C60        54.000                                                                                                                                    40441662.990 6 210590561.19006      -531.489 6        40.946                                                                    40441646.268 6 171122052.82506      -431.918 6        40.524
C27        55.000                                                                                                                                    21452764.319 8 111710193.65008     -1330.175 8        51.829                                                                    21452762.349 8  90773687.43308     -1080.836 8        49.578
R04        56.000    22964459.803 7 122973651.91507     -4641.321 7        43.833                                                                    22964459.515 6  95646164.06606     -3610.017 6        39.688
C02        57.000                                                                                                                                    40447025.333 5 210618338.25205      -492.805 5        33.742    40447019.871 6 162863455.90006      -381.151 6        41.287    40447023.041 6 171144657.76206      -400.386 6        36.314
I03        58.000   106053659.127 6 340392110.21306       968.859 6        39.619
C28        60.000                                                                                                                                    23923486.494 7 124576178.46707     -3379.695 7        45.403                                                                    23923485.191 7 101228484.08207     -2746.327 7        45.118
> 2025 01 01 23 16  5.0000000  0 53
G10         1.000    23589920.202 7 123965965.58207     -3477.765 7        42.671                                    23589917.622 6  96596917.97406     -2709.947 6        37.180    23589917.822 6  96596894.98106     -2709.962 6        38.207
G14         2.000    23898398.924 6 125586980.56006     -1344.974 6        39.979                                    23898394.653 3  97859987.28303     -1048.035 3        23.505    23898395.172 6  97859983.27806     -1047.956 6        38.784
C33         3.000                                                                                                                                    24549481.509 7 127835620.90107     -3290.549 7        45.406                                                                    24549492.542 7 103876972.90607     -2673.822 7        45.409
E31         4.000    26772923.421 6 140692711.19206     -2461.716 6        40.427                                                                    26772923.465 7 105062752.03307     -1838.245 7        42.531    26772923.434 7 107803515.91207     -1886.288 7        43.951
S21         5.000    38362264.566 7 201594810.03907      -484.868 7        42.078
E13         6.000    27460109.991 6 144304189.20706     -2923.122 6        38.565                                                                    27460110.764 7 107759826.64207     -2182.783 7        42.099    27460110.357 7 110570922.41307     -2239.728 7        43.638
G03         8.000    22162498.665 7 116464811.46207      2467.935 7        44.275                                    22162496.920 7  90751841.75007      1923.066 7        42.284    22162497.710 6  90751839.74206      1923.127 6        41.659
G02         9.000    20929794.142 8 109986863.33808       642.429 8        49.413                                    20929787.192 6  85704044.53606       500.593 6        41.247
R12        10.000    23575785.842 7 125937645.92607     -2214.491 7        42.853                                                                    23575786.531 6  97951534.00406     -1722.324 6        40.534
C30        11.000                                                                                                                                    22775703.433 8 118599079.85808      1547.859 8        48.497                                                                    22775703.682 8  96371470.27208      1257.812 8        48.278
S27        12.000    39030172.691 5 205104946.06305      -458.254 5        35.848
R20        13.000    19808641.512 6 105925760.56806     -2236.580 6        38.892                                                                    19808643.133 7  82386770.17007     -1739.619 7        47.235
S36        14.000    38130286.075 7 200376551.02207      -484.364 7        43.820
G27        15.000    24553657.704 6 129030614.78506     -4361.819 6        38.456                                    24553656.351 5 100543492.22505     -3398.814 5        34.114    24553656.454 6 100543406.22806     -3398.861 6        38.150
S45        17.000    63334310.487 6 332824951.65706      -527.212 6        37.887
E08        18.000    27092466.668 6 142371913.74106     -2757.563 6        38.946                                                                    27092465.186 7 106316690.72707     -2059.212 7        42.318    27092464.208 7 109090165.31807     -2112.986 7        42.233
E12        19.000    28454865.915 5 149531331.51005      2057.424 5        33.731                                                                    28454861.966 6 111662994.62406      1536.472 6        36.688    28454861.849 6 114575941.93506      1576.469 6        36.699
G17        20.000    24418489.204 7 128320038.84107      2617.972 7        42.540                                    24418485.341 5  99989627.59105      2039.981 5        34.162    24418485.526 6  99989626.57206      2040.018 6        36.862
E26        21.000    23696047.028 7 124523917.73707     -1465.587 7        47.655                                                                    23696044.717 8  92988837.39608     -1094.438 8        50.402    23696044.570 8  95414608.65708     -1122.953 8        51.858
I06        22.000    38279767.904 7 150218266.48807      -254.390 7        43.558
S28        23.000    40811465.793 5 214465732.43905      -476.976 5        33.946
G08        24.000    21955447.424 7 115376669.14407     -3509.596 7        46.422                                    21955445.605 7  89903898.05307     -2734.750 7        45.058    21955446.701 7  89903899.06407     -2734.763 7        42.853
S23        25.000    38083381.817 7 200129515.44707      -482.087 7        44.698
C13        26.000                                                                                                                                    40433119.030 6 210546057.44506     -1298.290 6        38.523    40433120.545 6 162807677.25606     -1003.834 6        39.339    40433119.351 6 171086004.47506     -1054.753 6        37.531
E24        27.000    27691889.108 6 145521889.70206      -217.285 6        38.577                                                                    27691888.062 7 108668954.94507      -162.219 7        42.593    27691887.224 7 111503793.94107      -166.449 7        43.115
R21        29.000    19782523.289 8 105860282.33808      1649.451 8        51.680                                                                    19782521.791 7  82335778.48807      1282.909 7        46.672
C14        30.000                                                                                                                                    26874276.189 6 139941419.45306     -3771.727 6        37.429    26874272.952 7 108211574.36107     -2916.566 7        43.520    26874270.857 6 113713850.21006     -3064.823 6        39.811
R05        31.000    19510632.802 8 104295555.12208     -2041.059 8        50.892                                                                    19510631.794 7  81118775.31107     -1587.458 7        47.669
R13        32.000    23779199.634 6 126979618.68106       396.401 6        37.849
E29        33.000    25453953.292 7 133761504.01307      2281.513 7        44.251                                                                    25453951.570 7  99886850.53807      1703.730 7        47.039    25453951.718 8 102492589.17608      1748.120 8        48.291
C16        35.000                                                                                                                                    40078760.738 6 208700646.05606      1098.136 6        39.435    40078760.593 6 161380587.74106       849.156 6        41.285    40078758.622 6 169586368.48506       892.386 6        36.994
C32        36.000                                                                                                                                    23603897.051 8 122911735.62308      2257.667 8        48.446                                                                    23603896.310 7  99875873.79907      1834.619 7        47.939
G32        37.000    21886542.496 8 115014598.44508     -1395.956 8        48.351                                    21886540.207 7  89621767.28207     -1087.758 7        47.622    21886540.770 7  89621776.28707     -1087.732 7        44.187
E07        38.000    24365576.260 7 128041984.85607      -246.182 7        46.134                                                                    24365576.205 8  95615806.03308      -183.814 8        49.579    24365575.772 8  98110123.76208      -188.622 8        50.522
C41        39.000                                                                                                                                    21884361.342 8 113957644.29108      -772.617 8        51.138                                                                    21884366.022 8  92599950.29908      -627.836 8        50.472
C39        40.000                                                                                                                                    39619937.166 6 206311435.42406       788.454 6        41.259                                                                    39619933.353 7 167644935.80807       640.754 7        42.277
E33        41.000    23837170.647 7 125265265.12607       834.737 7        47.506                                                                    23837168.593 8  93542276.48108       623.328 8        50.606    23837168.241 8  95982505.70408       639.596 8        51.463
S44        42.000    40442173.584 6 212525246.90006      -536.335 6        37.754
R06        43.000    20687805.189 7 110394151.77307      2859.810 7        42.900
C05        44.000                                                                                                                                    39058504.009 6 203387921.46306      -453.978 6        38.087    39058498.841 7 157272467.66707      -351.099 7        43.890    39058501.180 6 165269450.60606      -368.692 6        40.462
C08        45.000                                                                                                                                    41254854.201 5 214825035.53805     -1387.326 5        30.558    41254848.740 6 166116418.47906     -1072.936 6        36.060    41254847.555 5 174562988.71805     -1127.695 5        33.527
R22        48.000    23949411.068 7 127843591.67407      3436.110 7        43.477                                                                    23949409.966 6  99433897.36506      2672.734 6        37.841
I05        49.000  -497475576.905 6-876415809.73606       258.543 6        37.112
C06        50.000                                                                                                                                    39823516.421 6 207371518.37606      1199.771 6        37.531    39823511.387 6 160352792.20706       927.612 6        41.759    39823510.905 6 168506323.25406       974.876 6        38.198
S48        51.000    77118683.395 6 405261769.74006      -499.390 6        38.153
G21        52.000    20560539.425 7 108046437.76307      -850.456 7        44.175                                    20560533.826 6  84192051.61606      -662.694 6        37.304
C09        53.000                                                                                                                                    40896263.239 6 212957574.03606      1375.582 6        38.736    40896259.553 7 164672291.28407      1063.854 7        42.864    40896257.717 6 173045449.25706      1117.787 6        37.248
C60        54.000                                                                                                                                    40442173.091 6 210593218.71706      -531.598 6        40.982                                                                    40442156.583 6 171124212.26506      -431.778 6        40.682
C27        55.000                                                                                                                                    21454042.538 8 111716849.90808     -1332.404 8        51.828                                                                    21454040.676 8  90779096.17708     -1082.617 8        49.622
R04        56.000    22968794.368 7 122996860.76507     -4642.158 7        43.498                                                                    22968793.752 6  95664215.37506     -3610.587 6        39.931
C02        57.000                                                                                                                                    40447498.851 5 210620802.76305      -493.267 5        33.701    40447492.839 6 162865361.60306      -381.201 6        41.385    40447496.054 6 171146660.36606      -400.531 6        36.473
I03        58.000   106052424.723 6 340387265.92506       968.877 6        39.538
C28        60.000                                                                                                                                    23926732.073 7 124593079.88607     -3380.849 7        45.344                                                                    23926730.909 7 101242217.85107     -2747.207 7        45.011
> 2025 01 01 23 16 10.0000000  0 54
G10         1.000    23593229.318 7 123983355.39307     -3478.094 7        43.154                                    23593226.707 6  96610468.47706     -2710.206 6        37.395    23593226.768 6  96610445.48506     -2710.301 6        38.387
G14         2.000    23899679.329 6 125593712.24906     -1347.589 6        40.246                                    23899675.495 3  97865232.74803     -1050.070 3        23.619    23899675.616 6  97865228.74206     -1050.004 6        38.655
C33         3.000                                                                                                                                    24552641.590 7 127852076.27907     -3291.575 7        45.387                                                                    24552652.656 7 103890344.22407     -2674.604 7        45.288
E31         4.000    26775266.567 6 140705023.38706     -2463.307 6        40.448                                                                    26775266.406 7 105071946.19607     -1839.345 7        42.554    26775266.282 7 107812949.90907     -1887.404 7        43.907
S21         5.000    38362726.252 7 201597234.85807      -484.907 7        42.324
E13         6.000    27462891.151 6 144318805.43806     -2923.354 6        38.228                                                                    27462892.213 7 107770741.36807     -2183.115 7        42.246    27462891.718 7 110582121.87207     -2240.073 7        43.492
G28         7.000    25369026.965 5 133315134.22315      2422.396 5        32.389
G03         8.000    22160150.793 7 116452475.23607      2466.631 7        44.570                                    22160149.399 7  90742229.11507      1922.052 7        42.324    22160150.081 6  90742227.11706      1922.032 6        41.762
G02         9.000    20929183.563 8 109983655.01308       640.974 8        49.496                                    20929176.650 6  85701544.54506       499.459 6        41.292
R12        10.000    23577860.819 7 125948727.00107     -2217.826 7        44.430                                                                    23577861.264 6  97960152.63906     -1724.973 6        40.298
C30        11.000                                                                                                                                    22774218.030 8 118591344.64908      1546.252 8        48.605                                                                    22774218.189 8  96365184.77108      1256.480 8        48.122
S27        12.000    39030605.620 6 205107237.17906      -458.321 6        36.076
R20        13.000    19810735.278 6 105936951.18606     -2239.391 6        39.024                                                                    19810735.963 7  82395473.99907     -1741.856 7        47.238
S36        14.000    38130750.028 7 200378972.83007      -484.366 7        43.877
G27        15.000    24557808.027 6 129052424.84206     -4362.018 6        38.886                                    24557806.576 5 100560487.07105     -3398.973 5        34.076    24557806.565 6 100560401.07706     -3399.000 6        37.898
S45        17.000    63334764.061 6 332827586.65006      -526.825 6        37.788
E08        18.000    27095091.052 6 142385705.60806     -2759.090 6        39.282                                                                    27095089.621 7 106326989.85107     -2060.323 7        42.248    27095088.721 7 109100733.11907     -2114.121 7        42.324
E12        19.000    28452908.275 5 149521042.90005      2057.852 5        33.066                                                                    28452904.386 6 111655311.56606      1536.593 6        36.620    28452904.127 6 114568058.43206      1576.852 6        36.711
G17        20.000    24415998.874 6 128306952.03906      2617.013 6        41.650                                    24415994.983 5  99979430.08605      2039.231 5        34.162    24415995.652 6  99979429.08306      2039.142 6        37.278
E26        21.000    23697442.339 7 124531248.40107     -1466.672 7        47.611                                                                    23697439.664 8  92994311.59108     -1095.225 8        50.449    23697439.488 8  95420225.66108     -1123.799 8        51.842
I06        22.000    38280092.032 7 150219538.19807      -254.284 7        43.664
S28        23.000    40811919.622 5 214468117.45805      -476.938 5        34.343
G08        24.000    21958787.647 7 115394220.77307     -3511.165 7        46.421                                    21958785.531 7  89917574.65007     -2735.969 7        45.085    21958786.766 7  89917575.64207     -2735.905 7        42.893
S23        25.000    38083843.588 7 200131926.03007      -482.103 7        44.844
C13        26.000                                                                                                                                    40434365.990 6 210552547.62106     -1297.921 6        38.535    40434366.951 6 162812695.87306     -1003.647 6        39.210    40434365.648 6 171091278.28706     -1054.705 6        37.524
E24        27.000    27692097.082 6 145522981.51806      -219.501 6        38.649                                                                    27692095.730 7 108669770.27407      -163.890 7        42.681    27692094.909 7 111504630.53507      -168.138 7        43.291
R21        29.000    19780982.950 8 105852041.11408      1647.103 8        52.094                                                                    19780981.349 7  82329368.64807      1281.089 7        46.552
C14        30.000                                                                                                                                    26877897.785 6 139960278.50306     -3771.924 6        37.267    26877894.430 7 108226157.36807     -2916.589 7        43.401    26877892.629 6 113729174.72406     -3064.971 6        39.081
R05        31.000    19512543.747 8 104305770.02608     -2044.832 8        51.239                                                                    19512542.662 7  81126720.23307     -1590.397 7        47.710
R13        32.000    23778830.456 6 126977647.40606       392.307 6        38.411
E29        33.000    25451783.150 7 133750099.36607      2280.417 7        44.221                                                                    25451781.419 7  99878334.08607      1702.862 7        47.144    25451781.386 8 102483850.55408      1747.356 8        48.249
C16        35.000                                                                                                                                    40077706.430 6 208695156.60206      1097.629 6        39.691    40077706.359 6 161376342.95506       848.700 6        41.297    40077704.525 6 169581907.85706       891.750 6        36.900
C32        36.000                                                                                                                                    23601729.294 8 122900450.83108      2256.265 8        48.444                                                                    23601729.159 7  99866703.97807      1833.366 7        47.829
G32        37.000    21887872.152 8 115021585.85908     -1398.890 8        48.315                                    21887869.866 7  89627212.02107     -1090.042 7        47.663    21887870.409 7  89627221.01907     -1090.033 7        43.915
E07        38.000    24365811.679 7 128043221.81807      -248.555 7        45.958                                                                    24365811.531 8  95616729.73508      -185.589 8        49.567    24365811.172 8  98111071.56108      -190.435 8        50.458
C41        39.000                                                                                                                                    21885104.231 8 113961513.57408      -775.029 8        51.163                                                                    21885109.069 8  92603094.39408      -629.707 8        50.393
C39        40.000                                                                                                                                    39619180.846 6 206307494.63306       787.860 6        41.442                                                                    39619176.474 7 167641733.58907       640.189 7        42.112
E33        41.000    23836376.884 7 125261093.54407       833.925 7        47.470                                                                    23836374.774 8  93539161.33208       622.766 8        50.647    23836374.412 8  95979309.29508       639.008 8        51.402
S44        42.000    40442681.753 6 212527928.70806      -536.323 6        37.834
R06        43.000    20685127.281 7 110379858.96807      2857.290 7        42.692
C05        44.000                                                                                                                                    39058939.674 6 203390191.21906      -453.891 6        38.297    39058934.865 7 157274222.78207      -350.970 7        43.850    39058937.163 6 165271294.97106      -368.804 6        40.451
C08        45.000                                                                                                                                    41256185.247 5 214831972.27605     -1386.879 5        30.392    41256180.797 6 166121782.41406     -1072.670 6        36.473    41256179.587 5 174568625.35205     -1126.980 5        33.737
R22        48.000    23946192.011 7 127826409.80807      3436.777 7        42.876                                                                    23946191.732 6  99420533.69206      2672.907 6        38.943
I05        49.000  -497475905.140 6-876417101.95806       258.468 6        37.255
C06        50.000                                                                                                                                    39822364.973 6 207365521.74306      1199.237 6        37.800    39822359.757 6 160348155.22006       927.171 6        41.797    39822359.479 6 168501450.49106       974.396 6        38.402
S48        51.000    77119143.409 6 405264266.10906      -499.326 6        38.264
G21        52.000    20561349.615 7 108050694.18707      -852.124 7        44.411                                    20561343.780 6  84195368.31106      -663.993 6        37.274
C09        53.000                                                                                                                                    40894942.133 6 212950696.34706      1375.418 6        38.739    40894938.924 7 164666973.02307      1063.621 7        42.679    40894936.609 6 173039860.53706      1117.750 6        37.210
C60        54.000                                                                                                                                    40442683.531 6 210595876.13706      -531.442 6        40.865                                                                    40442666.898 6 171126371.63806      -431.848 6        40.591
C27        55.000                                                                                                                                    21455322.985 8 111723517.66608     -1334.714 8        51.812                                                                    21455321.157 8  90784514.26508     -1084.538 8        49.531
R04        56.000    22973129.721 7 123020074.25807     -4643.182 7        43.297                                                                    22973128.352 6  95682270.29606     -3611.371 6        40.207
C02        57.000                                                                                                                                    40447972.749 5 210623267.14705      -492.596 5        33.922    40447966.254 6 162867267.23506      -381.053 6        41.099    40447969.612 6 171148662.89206      -400.546 6        36.533
I03        58.000   106051189.950 6 340382421.72906       968.728 6        39.685
C28        60.000                                                                                                                                    23929978.539 7 124609987.08407     -3381.947 7        45.607                                                                    23929977.735 7 101255956.32807     -2748.155 7        44.901
> 2025 01 01 23 16 15.0000000  0 54
G10         1.000    23596538.822 7 124000748.06107     -3478.650 7        43.367                                    23596536.428 6  96624021.20506     -2710.636 6        37.614    23596537.033 6  96623998.21806     -2710.670 6        38.820
G14         2.000    23900962.746 6 125600458.35406     -1350.598 6        40.322                                    23900959.236 3  97870489.45803     -1052.405 3        23.410    23900959.282 6  97870485.45106     -1052.381 6        38.598
C33         3.000                                                                                                                                    24555802.381 7 127868537.35507     -3292.633 7        44.829                                                                    24555813.810 7 103903720.19207     -2675.515 7        45.240
E31         4.000    26777611.244 6 140717343.86406     -2464.786 6        40.365                                                                    26777610.910 7 105081146.55907     -1840.550 7        42.324    26777610.804 7 107822390.28407     -1888.639 7        44.000
S21         5.000    38363189.615 7 201599659.78507      -484.907 7        42.116
E13         6.000    27465673.166 6 144333424.14306     -2923.827 6        38.282                                                                    27465673.914 7 107781657.92607     -2183.343 7        42.053    27465673.528 7 110593323.21507     -2240.419 7        43.365
G28         7.000    25366722.567 5 133303025.44505      2421.623 5        32.479                                                                                                    25366718.732 5 103872474.79515      1887.166 5        33.371
G03         8.000    22157805.016 7 116440146.56507      2465.118 7        44.600                                    22157803.331 7  90732622.35907      1920.869 7        42.328    22157803.942 6  90732620.36606      1920.772 6        41.576
G02         9.000    20928574.376 8 109980455.18408       639.266 8        49.234                                    20928567.731 6  85699051.17106       498.128 6        41.290
R12        10.000    23579939.138 7 125959826.00107     -2221.493 7        44.232                                                                    23579939.887 6  97968785.20806     -1727.906 6        40.903
C30        11.000                                                                                                                                    22772734.112 8 118583618.18408      1544.575 8        48.443                                                                    22772734.400 8  96358906.38508      1255.088 8        48.126
S27        12.000    39031042.520 5 205109528.33405      -457.789 5        35.814
R20        13.000    19812829.936 6 105948156.72706     -2242.486 6        38.706                                                                    19812831.521 7  82404189.39607     -1744.116 7        47.265
S36        14.000    38131213.002 7 200381394.56107      -484.222 7        43.981
G27        15.000    24561958.791 6 129074236.13606     -4362.208 6        39.426                                    24561956.989 5 100577482.87705     -3399.120 5        33.952    24561956.943 6 100577396.86706     -3399.092 6        37.856
S45        17.000    63335222.948 6 332830221.93506      -526.858 6        37.735
E08        18.000    27097717.095 6 142399505.38106     -2760.605 6        39.598                                                                    27097715.587 6 106337294.87606     -2061.476 6        41.990    27097714.966 7 109111306.96507     -2115.220 7        42.495
E12        19.000    28450950.092 5 149510754.10105      2058.003 5        33.533                                                                    28450946.278 6 111647628.36506      1536.776 6        36.333    28450946.234 6 114560174.82206      1576.819 6        36.703
G17        20.000    24413509.554 6 128293870.96806      2615.828 6        41.576                                    24413505.738 5  99969237.04405      2038.299 5        34.257    24413505.951 6  99969236.05906      2038.239 6        37.248
E26        21.000    23698838.366 7 124538585.20107     -1467.878 7        47.743                                                                    23698835.824 8  92999790.36508     -1096.142 8        50.281    23698835.642 8  95425847.35908     -1124.702 8        51.838
I06        22.000    38280416.187 7 150220810.14307      -254.371 7        43.513
S28        23.000    40812377.722 5 214470502.84705      -476.972 5        34.033
G08        24.000    21962129.375 7 115411781.59807     -3512.897 7        47.014                                    21962127.264 7  89931258.40807     -2737.321 7        45.062    21962128.437 7  89931259.40507     -2737.228 7        43.367
S23        25.000    38084302.936 7 200134336.93507      -482.092 7        44.831
C13        26.000                                                                                                                                    40435612.405 6 210559037.15506     -1297.778 6        38.613    40435613.097 6 162817713.99706     -1003.528 6        39.372    40435611.804 6 171096551.54306     -1054.508 6        37.221
E24        27.000    27692307.033 6 145524085.71406      -222.094 6        38.342                                                                    27692305.941 7 108670594.82707      -165.802 7        42.114    27692305.088 7 111505476.60307      -170.050 7        42.969
R21        29.000    19779445.606 8 105843812.41108      1644.626 8        51.743                                                                    19779443.521 7  82322968.54407      1279.170 7        46.378
C14        30.000                                                                                                                                    26881519.596 6 139979138.53806     -3772.017 6        36.919    26881516.289 7 108240741.12407     -2916.701 7        43.304    26881514.550 6 113744500.04206     -3065.048 6        39.258
R05        31.000    19514458.673 8 104316004.41208     -2048.727 8        51.237                                                                    19514457.037 7  81134680.30807     -1593.485 7        47.467
R13        32.000    23778465.574 6 126975696.62106       388.334 6        37.429
E29        33.000    25449614.121 7 133738700.85207      2279.201 7        44.196                                                                    25449612.435 7  99869822.20507      1702.017 7        47.025    25449612.172 8 102475116.62208      1746.408 8        48.147
C16        35.000                                                                                                                                    40076652.853 6 208689670.86006      1096.980 6        39.450    40076652.698 6 161372101.02506       848.153 6        41.866    40076650.758 6 169577450.23606       891.216 6        37.259
C32        36.000                                                                                                                                    23599563.429 8 122889174.15008      2254.657 8        48.217                                                                    23599563.579 7  99857540.74707      1832.020 7        47.816
G32        37.000    21889204.697 8 115028588.80808     -1401.988 8        48.690                                    21889202.472 7  89632668.86307     -1092.458 7        47.588    21889203.039 7  89632677.87207     -1092.514 7        44.008
E07        38.000    24366049.251 7 128044471.32007      -250.994 7        46.082                                                                    24366049.396 8  95617662.80608      -187.395 8        49.337    24366048.952 8  98112028.97308      -192.325 8        50.481
C41        39.000                                                                                                                                    21885849.695 8 113965395.61508      -777.524 8        50.989                                                                    21885854.577 8  92606248.87508      -631.844 8        50.376
C39        40.000                                                                                                                                    39618424.792 6 206303558.54706       786.923 6        41.364                                                                    39618420.393 7 167638535.21407       639.283 7        42.066
E33        41.000    23835583.791 7 125256926.76307       833.014 7        47.602                                                                    23835581.850 8  93536049.77908       622.045 8        50.422    23835581.498 8  95976116.56508       638.260 8        51.468
S44        42.000    40443195.131 6 212530610.91806      -536.311 6        37.871
R06        43.000    20682451.207 6 110365580.12406      2854.489 6        41.855
C05        44.000                                                                                                                                    39059375.586 6 203392461.39106      -453.842 6        38.117    39059370.696 7 157275978.22307      -350.968 7        43.816    39059373.070 6 165273139.68506      -368.968 6        40.338
C08        45.000                                                                                                                                    41257518.607 5 214838908.09405     -1386.900 5        30.475    41257512.289 6 166127145.60306     -1072.755 6        36.699    41257511.522 5 174574261.28805     -1127.196 5        33.635
R22        48.000    23942973.233 7 127809227.32907      3436.701 7        43.318                                                                    23942972.746 6  99407169.54506      2672.973 6        40.205
I05        49.000  -497476235.442 6-876418393.66006       258.434 6        37.089
C06        50.000                                                                                                                                    39821214.757 6 207359528.60206      1198.383 6        37.550    39821208.956 7 160343520.94207       926.769 7        42.008    39821208.566 6 168496580.58006       973.760 6        38.580
S48        51.000    77119603.825 6 405266762.76706      -499.324 6        38.126
G21        52.000    20562161.514 7 108054959.90807      -853.995 7        44.412                                    20562155.514 6  84198692.24706      -665.450 6        37.285
C09        53.000                                                                                                                                    40893622.167 6 212943820.76206      1375.168 6        38.297    40893618.619 7 164661656.39507      1063.299 7        42.610    40893616.375 6 173034273.59006      1117.207 6        37.100
C60        54.000                                                                                                                                    40443193.917 6 210598533.98006      -531.491 6        40.775                                                                    40443177.244 6 171128531.34406      -431.817 6        40.443
C27        55.000                                                                                                                                    21456605.612 8 111730197.43708     -1337.000 8        51.599                                                                    21456603.889 8  90789942.13108     -1086.463 8        49.607
R04        56.000    22977466.242 7 123043292.95407     -4644.124 7        43.903                                                                    22977464.491 6  95700329.26606     -3612.141 6        39.880
C02        57.000                                                                                                                                    40448446.218 5 210625731.97605      -492.872 5        33.479    40448439.772 6 162869173.20806      -381.174 6        41.144    40448442.951 6 171150665.76206      -400.735 6        36.405
I03        58.000   106049955.522 6 340377577.97106       968.670 6        39.601
C28        60.000                                                                                                                                    23933226.937 7 124626900.55707     -3383.152 7        45.687                                                                    23933225.883 7 101269699.91307     -2749.124 7        45.097
> 2025 01 01 23 16 20.0000000  0 54
G10         1.000    23599848.930 7 124018143.32907     -3479.484 7        43.181                                    23599846.770 6  96637575.96506     -2711.285 6        37.807    23599847.513 6  96637552.97006     -2711.181 6        38.997
G14         2.000    23902249.398 6 125607218.60806     -1353.771 6        40.207                                    23902245.663 3  97875757.19203     -1054.878 3        23.352    23902245.637 6  97875753.18006     -1054.621 6        38.787
C33         3.000                                                                                                                                    24558964.625 7 127885003.86707     -3293.984 7        44.992                                                                    24558976.003 7 103917100.56407     -2676.392 7        45.254
E31         4.000    26779957.336 6 140729672.38106     -2466.534 6        40.489                                                                    26779956.936 7 105090352.92107     -1842.106 7        42.229    26779956.782 7 107831836.80307     -1890.056 7        43.913
S21         5.000    38363647.599 7 201602084.51607      -485.094 7        42.140
E13         6.000    27468455.383 6 144348045.06306     -2924.591 6        38.141                                                                    27468456.191 6 107792576.13106     -2183.826 6        41.888    27468455.660 7 110604526.23907     -2240.901 7        43.088
G28         7.000    25364418.247 5 133290918.82505      2420.732 5        31.600                                                                                                    25364414.838 5 103863041.05105      1886.385 5        33.521
G03         8.000    22155460.497 7 116427825.21007      2463.434 7        44.435                                    22155458.662 7  90723021.30607      1919.558 7        42.375    22155459.152 6  90723019.30906      1919.652 6        41.750
G02         9.000    20927967.085 8 109977263.52208       637.399 8        49.254                                    20927960.364 6  85696564.16206       496.672 6        41.344
R12        10.000    23582019.994 7 125970942.71607     -2225.330 7        43.515                                                                    23582020.545 6  97977431.52306     -1730.764 6        40.682
C30        11.000                                                                                                                                    22771251.995 8 118575900.19708      1542.690 8        48.383                                                                    22771252.213 8  96352634.88108      1253.698 8        48.153
S27        12.000    39031475.011 5 205111819.87205      -458.466 5        35.905
R20        13.000    19814928.220 6 105959376.83906     -2245.543 6        39.207                                                                    19814928.963 7  82412916.16107     -1746.614 7        46.624
S36        14.000    38131672.685 7 200383816.79307      -484.486 7        43.894
G27        15.000    24566109.770 6 129096048.38706     -4362.358 6        40.012                                    24566107.584 5 100594479.43805     -3399.239 5        34.181    24566107.794 6 100594393.44006     -3399.376 6        37.467
S45        17.000    63335680.587 6 332832857.14206      -527.129 6        38.030
E08        18.000    27100344.658 6 142413312.78606     -2762.376 6        39.240                                                                    27100342.949 6 106347605.59206     -2062.743 6        41.993    27100342.616 7 109121886.66107     -2116.614 7        42.464
E12        19.000    28448992.237 5 149500464.90905      2057.868 5        33.737                                                                    28448988.246 6 111639944.88206      1536.510 6        36.359    28448988.491 6 114552290.88506      1576.789 6        36.813
G17        20.000    24411021.075 6 128280795.40706      2614.450 6        41.249                                    24411017.486 5  99959048.30105      2037.234 5        34.148    24411018.158 6  99959047.31506      2037.024 6        37.622
E26        21.000    23700235.470 7 124545927.87207     -1469.222 7        47.537                                                                    23700233.073 8  93005273.52508     -1097.155 8        50.207    23700232.917 8  95431473.55808     -1125.780 8        51.823
I06        22.000    38280740.244 7 150222082.11907      -254.451 7        43.416
S28        23.000    40812829.624 5 214472888.14005      -477.114 5        34.310
G08        24.000    21965472.982 7 115429351.34707     -3514.896 7        46.931                                    21965470.714 7  89944949.12307     -2738.882 7        45.142    21965471.913 7  89944950.12407     -2738.804 7        43.399
S23        25.000    38084758.849 7 200136747.88807      -482.390 7        44.775
C13        26.000                                                                                                                                    40436858.526 6 210565525.72506     -1297.722 6        38.868    40436859.396 6 162822731.36406     -1003.418 6        39.072    40436857.773 6 171101824.04106     -1054.345 6        37.335
E24        27.000    27692519.192 6 145525201.97806      -224.585 6        38.024                                                                    27692518.332 7 108671428.40807      -167.720 7        42.027    27692517.502 7 111506331.92307      -172.113 7        42.965
R21        29.000    19777909.698 8 105835595.96808      1641.974 8        51.516                                                                    19777908.404 7  82316577.98607      1277.171 7        46.317
C14        30.000                                                                                                                                    26885141.590 6 139997999.31906     -3772.403 6        36.798    26885138.201 7 108255325.45607     -2916.999 7        43.342    26885136.263 6 113759825.93906     -3065.050 6        39.231
R05        31.000    19516376.488 8 104326258.23708     -2052.817 8        51.066                                                                    19516375.305 7  81142655.50907     -1596.629 7        47.236
R13        32.000    23778103.876 6 126973766.08406       384.133 6        36.639
E29        33.000    25447446.110 7 133727308.17907      2277.790 7        43.810                                                                    25447444.558 7  99861314.69307      1700.997 7        47.011    25447444.179 8 102466387.17808      1745.380 8        48.187
C16        35.000                                                                                                                                    40075600.289 6 208684188.53806      1096.022 6        39.387    40075600.203 6 161367861.74906       847.498 6        41.793    40075598.053 6 169572995.38406       890.842 6        36.926
C32        36.000                                                                                                                                    23597399.600 8 122877905.30808      2252.881 8        48.103                                                                    23597399.527 7  99848383.88007      1830.812 7        47.822
G32        37.000    21890540.400 8 115035607.01808     -1405.285 8        48.370                                    21890537.989 7  89638137.60107     -1095.026 7        47.625    21890538.622 7  89638146.58407     -1094.886 7        44.241
E07        38.000    24366289.556 7 128045733.11807      -253.719 7        46.123                                                                    24366289.443 8  95618605.05808      -189.435 8        49.335    24366289.071 8  98112995.80208      -194.333 8        50.496
C41        39.000                                                                                                                                    21886597.746 8 113969290.15808      -780.264 8        50.848                                                                    21886602.543 8  92609413.49608      -633.882 8        50.425
C39        40.000                                                                                                                                    39617669.835 6 206299626.89706       785.803 6        41.094                                                                    39617665.379 6 167635340.40206       638.602 6        41.826
E33        41.000    23834791.748 7 125252764.50507       831.924 7        47.617                                                                    23834789.818 8  93532941.59908       621.211 8        50.430    23834789.417 8  95972927.30208       637.439 8        51.389
S44        42.000    40443705.084 6 212533293.32606      -536.732 6        37.546
R06        43.000    20679776.865 6 110351315.10706      2851.509 6        41.805
C05        44.000                                                                                                                                    39059811.770 6 203394731.74206      -454.239 6        37.970    39059806.724 7 157277733.79107      -351.185 7        43.498    39059809.013 6 165274984.50406      -368.983 6        40.293
C08        45.000                                                                                                                                    41258850.154 5 214845842.65105     -1386.775 5        30.740    41258843.389 6 166132507.89406     -1072.590 6        36.556    41258843.339 5 174579896.17505     -1126.774 5        33.635
R22        48.000    23939754.424 7 127792043.92307      3436.653 7        43.920                                                                    23939754.113 6  99393804.69506      2672.875 6        39.793
I05        49.000  -497476564.566 6-876419684.96706       257.978 6        36.745
C06        50.000                                                                                                                                    39820064.472 6 207353538.69306      1197.527 6        37.928    39820058.675 6 160338889.16006       926.001 6        41.764    39820058.303 6 168491713.26506       973.322 6        38.625
S48        51.000    77120068.391 6 405269259.17206      -499.436 6        38.333
G21        52.000    20562974.862 7 108059234.66307      -855.954 7        44.409                                    20562968.960 6  84202023.23106      -666.977 6        37.403
C09        53.000                                                                                                                                    40892301.249 6 212936947.05906      1374.322 6        37.958    40892298.614 7 164656341.19307      1062.895 7        42.561    40892296.165 6 173028688.10806      1116.899 6        37.225
C60        54.000                                                                                                                                    40443703.776 6 210601191.97506      -531.672 6        40.698                                                                    40443687.662 6 171130691.18906      -431.991 6        40.558
C27        55.000                                                                                                                                    21457890.830 8 111736888.95508     -1339.569 8        51.528                                                                    21457888.903 8  90795379.52608     -1088.408 8        49.662
R04        56.000    22981803.371 7 123066516.45407     -4645.301 7        44.542                                                                    22981800.870 6  95718391.98206     -3612.951 6        39.754
C02        57.000                                                                                                                                    40448919.204 5 210628197.09305      -493.364 5        33.814    40448912.726 6 162871079.37706      -381.363 6        41.299    40448916.142 6 171152668.86206      -400.793 6        36.457
I03        58.000   106048721.313 6 340372734.48906       968.617 6        39.601
C28        60.000                                                                                                                                    23936475.942 7 124643820.06207     -3384.638 7        45.333                                                                    23936475.180 7 101283448.37507     -2750.048 7        45.005
> 2025 01 01 23 16 25.0000000  0 54
G10         1.000    23603159.976 7 124035541.01007     -3480.242 7        42.627                                    23603157.622 6  96651132.59106     -2711.876 6        37.879    23603158.010 6  96651109.58606     -2711.814 6        39.330
G14         2.000    23903538.367 6 125613992.82006     -1356.567 6        40.207                                    23903534.640 3  97881035.79203     -1057.076 3        23.829    23903535.364 6  97881031.78906     -1057.044 6        38.829
C33         3.000                                                                                                                                    24562128.041 7 127901475.65907     -3295.201 7        45.124                                                                    24562139.225 7 103930485.26907     -2677.606 7        45.357
E31         4.000    26782304.706 6 140742008.77606     -2468.463 6        40.086                                                                    26782304.530 7 105099565.14407     -1843.257 7        42.292    26782304.366 7 107841289.35307     -1891.323 7        44.048
S21         5.000    38364111.681 7 201604509.15807      -485.185 7        42.358
E13         6.000    27471237.901 6 144362668.02506     -2925.108 6        38.165                                                                    27471238.789 6 107803495.89206     -2184.384 6        41.955    27471238.200 7 110615730.85907     -2241.360 7        42.870
G28         7.000    25362113.714 5 133278814.20205      2420.236 5        31.977                                                                                                    25362112.142 5 103853608.88005      1886.369 5        33.287
G03         8.000    22153117.238 7 116415510.99807      2461.803 7        44.361                                    22153115.376 7  90713425.82307      1918.288 7        42.544    22153116.308 7  90713423.83507      1918.270 7        42.296
G02         9.000    20927361.230 8 109974079.91908       635.606 8        49.321                                    20927354.575 6  85694083.43306       495.278 6        41.523
R12        10.000    23584103.636 7 125982076.86707     -2228.918 7        44.942                                                                    23584104.922 6  97986091.44506     -1733.696 6        40.987
C30        11.000                                                                                                                                    22769771.516 8 118568190.57408      1540.788 8        48.350                                                                    22769771.749 8  96346370.19608      1252.042 8        48.242
S27        12.000    39031916.807 6 205114111.35306      -458.499 6        36.060
R20        13.000    19817028.549 6 105970611.40206     -2248.763 6        39.450                                                                    19817030.257 7  82421654.14007     -1748.950 7        46.971
S36        14.000    38132135.346 7 200386239.33007      -484.703 7        43.972
G27        15.000    24570260.360 6 129117861.44606     -4363.022 6        40.384                                    24570258.301 5 100611476.63105     -3399.756 5        34.471    24570258.062 6 100611390.64806     -3399.880 6        37.539
S45        17.000    63336137.596 6 332833892.10316      -527.367 6        38.024
E08        18.000    27102973.393 6 142427127.67406     -2763.995 6        38.658                                                                    27102971.830 7 106357921.91107     -2064.088 7        42.008    27102971.708 7 109132472.10407     -2118.027 7        42.586
E12        19.000    28447033.853 5 149490175.08805      2057.747 5        32.988                                                                    28447030.208 6 111632260.92906      1536.499 6        36.374    28447030.133 6 114544406.48106      1576.739 6        36.605
G17        20.000    24408534.241 6 128267725.21606      2613.275 6        41.299                                    24408530.315 5  99948863.74805      2036.315 5        34.319    24408530.763 6  99948862.75306      2036.292 6        37.660
E26        21.000    23701633.795 7 124553276.26307     -1470.535 7        47.419                                                                    23701631.415 8  93010760.96308     -1098.165 8        50.306    23701631.278 8  95437104.14808     -1126.783 8        51.814
I06        22.000    38281064.241 7 150223354.02807      -254.609 7        43.547
S28        23.000    40813280.158 5 214475273.19505      -477.496 5        33.832
G08        24.000    21968817.696 7 115446929.86607     -3516.858 7        46.748                                    21968815.837 7  89958646.67107     -2740.407 7        45.291    21968816.416 7  89958647.67307     -2740.443 7        42.775
S23        25.000    38085216.368 7 200139158.65007      -482.367 7        44.739
C13        26.000                                                                                                                                    40438104.943 6 210572013.19006     -1297.564 6        38.619    40438105.421 6 162827747.90306     -1003.351 6        38.664    40438103.698 6 171107095.65006     -1054.433 6        37.096
E24        27.000    27692733.671 6 145526330.24006      -227.195 6        38.459                                                                    27692732.906 7 108672270.93907      -169.535 7        42.267    27692732.178 7 111507196.43007      -173.973 7        43.086
R21        29.000    19776376.883 8 105827391.60908      1639.361 8        51.869                                                                    19776375.381 7  82310196.80607      1275.080 7        46.564
C14        30.000                                                                                                                                    26888764.257 6 140016860.67706     -3772.575 6        36.711    26888760.249 7 108269910.24407     -2917.235 7        43.208    26888758.594 6 113775152.33106     -3065.324 6        39.210
R05        31.000    19518297.798 8 104336531.34108     -2056.826 8        50.725                                                                    19518297.338 7  81150645.70407     -1599.761 7        47.644
R13        32.000    23777745.899 6 126971855.68506       379.733 6        36.597
E29        33.000    25445278.996 7 133715921.24907      2276.560 7        43.435                                                                    25445277.620 7  99852811.47707      1699.943 7        47.198    25445277.405 8 102457662.13208      1744.346 8        48.210
C16        35.000                                                                                                                                    40074548.536 6 208678709.49806      1095.098 6        39.486    40074548.392 6 161363625.02106       846.755 6        41.900    40074545.955 6 169568543.23806       890.103 6        37.112
C32        36.000                                                                                                                                    23595236.846 7 122866644.16207      2251.177 7        47.491                                                                    23595236.897 7  99839233.28707      1829.312 7        47.955
G32        37.000    21891878.634 8 115042640.35008     -1408.484 8        48.226                                    21891876.386 7  89643618.11907     -1097.521 7        47.781    21891877.218 7  89643627.12807     -1097.624 7        44.238
E07        38.000    24366531.829 7 128047007.05507      -256.303 7        45.792                                                                    24366531.879 8  95619556.37708      -191.448 8        49.454    24366531.465 8  98113971.93708      -196.486 8        50.527
C41        39.000                                                                                                                                    21887347.985 8 113973197.03508      -782.888 8        50.800                                                                    21887352.806 8  92612588.16508      -636.112 8        50.514
C39        40.000                                                                                                                                    39616915.656 6 206295699.50506       784.918 6        40.925                                                                    39616911.037 6 167632149.10206       637.744 6        41.845
E33        41.000    23834000.696 7 125248606.64207       830.831 7        47.350                                                                    23833998.599 8  93529836.70508       620.383 8        50.558    23833998.222 8  95969741.41508       636.573 8        51.399
S44        42.000    40444214.549 6 212535975.69806      -536.633 6        37.690
R06        43.000    20677106.079 6 110337063.63806      2848.540 6        41.735
C05        44.000                                                                                                                                    39060247.897 6 203397002.07806      -454.263 6        37.694    39060242.609 7 157279489.37507      -351.380 7        43.661    39060245.224 6 165276829.35506      -369.102 6        40.603
C08        45.000                                                                                                                                    41260181.003 4 214852775.86104     -1386.382 4        29.365    41260175.395 6 166137869.08306     -1072.542 6        36.597    41260174.822 5 174585530.00905     -1126.987 5        33.653
R22        48.000    23936536.042 7 127774859.47907      3436.648 7        43.541                                                                    23936534.240 6  99380439.01006      2672.788 6        38.874
I05        49.000  -497476892.783 6-876420976.10706       257.959 6        37.112
C06        50.000                                                                                                                                    39818914.874 6 207347551.87106      1196.704 6        37.917    39818908.789 6 160334259.78706       925.388 6        41.764    39818908.672 6 168486848.50506       972.590 6        38.940
S48        51.000    77120532.022 6 405271755.35506      -499.491 6        38.568
G21        52.000    20563789.631 7 108063518.33807      -857.912 7        44.573                                    20563784.106 6  84205361.16006      -668.507 6        37.524
C09        53.000                                                                                                                                    40890981.482 6 212930075.07006      1373.778 6        37.773    40890978.851 7 164651027.34307      1062.400 7        42.408    40890976.722 6 173023104.06806      1116.482 6        37.501
C60        54.000                                                                                                                                    40444214.802 6 210603849.98206      -531.899 6        40.825                                                                    40444198.089 6 171132851.05006      -432.205 6        40.560
C27        55.000                                                                                                                                    21459177.919 8 111743592.08808     -1342.143 8        51.415                                                                    21459176.202 8  90800826.38208     -1090.551 8        49.720
R04        56.000    22986141.380 7 123089744.50807     -4646.400 7        45.099                                                                    22986138.652 6  95736458.22606     -3613.768 6        39.426
C02        57.000                                                                                                                                    40449392.776 5 210630662.23805      -493.447 5        33.659    40449386.267 6 162872985.57506      -381.462 6        41.087    40449389.781 6 171154671.99206      -400.877 6        36.639
I03        58.000   106047487.052 6 340367891.16806       968.452 6        39.616
C28        60.000                                                                                                                                    23939726.178 7 124660745.44907     -3385.969 7        45.102                                                                    23939725.335 7 101297201.64507     -2751.276 7        45.198
> 2025 01 01 23 16 30.0000000  0 54
G10         1.000    23606470.501 7 124052941.17107     -3480.569 7        42.004                                    23606468.908 6  96664691.15106     -2712.128 6        37.312    23606468.849 6  96664668.15706     -2712.252 6        39.075
G14         2.000    23904830.095 6 125620781.05006     -1359.103 6        39.411                                    23904826.384 3  97886325.32803     -1059.051 3        23.771    23904826.806 6  97886321.32606     -1059.148 6        39.249
C33         3.000                                                                                                                                    24565292.366 7 127917952.78407     -3296.143 7        45.395                                                                    24565303.494 7 103943874.28107     -2678.429 7        45.312
E31         4.000    26784653.910 6 140754353.06006     -2469.895 6        40.284                                                                    26784653.520 7 105108783.28607     -1844.512 7        42.296    26784653.428 7 107850747.97407     -1892.573 7        43.788
S21         5.000    38364571.579 7 201606933.67807      -485.035 7        42.313
E13         6.000    27474020.989 6 144377293.10806     -2925.467 6        38.315                                                                    27474021.846 6 107814417.21606     -2184.611 6        41.945    27474021.094 7 110626937.09507     -2241.638 7        42.627
G28         7.000    25359811.424 5 133266711.63805      2420.076 5        32.671                                    25359806.965 1 103844170.35211      1885.711 1         8.571    25359808.609 5 103844178.33605      1885.758 5        33.293
G03         8.000    22150775.075 7 116403203.98607      2460.507 7        44.370                                    22150773.435 7  90703835.95207      1917.276 7        42.417    22150773.844 6  90703833.95506      1917.321 6        41.831
G02         9.000    20926757.137 8 109970904.47308       634.019 8        49.449                                    20926750.321 6  85691609.05806       494.040 6        41.325
R12        10.000    23586192.502 7 125993228.55907     -2232.344 7        44.260                                                                    23586191.515 6  97994764.95006     -1736.249 6        39.372
C30        11.000                                                                                                                                    22768292.422 8 118560489.37008      1539.125 8        48.504                                                                    22768292.823 8  96340112.33708      1250.682 8        48.157
S27        12.000    39032349.257 5 205116402.39805      -458.292 5        35.910
R20        13.000    19819132.403 6 105981860.41706     -2251.389 6        39.096                                                                    19819134.046 7  82430403.38307     -1751.197 7        46.233
S36        14.000    38132593.459 7 200388661.90307      -484.922 7        44.001
G27        15.000    24574411.320 6 129139675.34906     -4363.147 6        40.584                                    24574409.201 5 100628474.48205     -3399.856 5        34.652    24574409.814 6 100628388.48406     -3399.805 6        37.584
S45        17.000    63336595.401 6 332836527.05106      -527.319 6        37.970
E08        18.000    27105603.644 6 142440950.08906     -2765.458 6        38.982                                                                    27105602.243 7 106368243.84007     -2065.134 7        42.303    27105602.019 7 109143063.29707     -2118.950 7        42.773
E12        19.000    28445075.240 5 149479884.78705      2057.918 5        32.808                                                                    28445071.980 6 111624576.58706      1536.675 6        36.469    28445071.911 6 114536521.68106      1576.863 6        36.771
G17        20.000    24406048.473 6 128254660.40606      2612.238 6        40.322                                    24406044.165 5  99938683.39005      2035.508 5        34.200    24406043.618 6  99938682.39106      2035.594 6        37.531
E26        21.000    23703033.361 7 124560630.44607     -1471.630 7        47.562                                                                    23703030.864 8  93016252.72308     -1098.963 8        50.393    23703030.752 8  95442739.17008     -1127.627 8        51.795
I06        22.000    38281388.427 7 150224625.88407      -254.524 7        43.537
S28        23.000    40813737.042 5 214477658.17305      -477.160 5        34.343
G08        24.000    21972164.570 7 115464517.17207     -3518.563 7        47.150                                    21972162.614 7  89972351.06207     -2741.740 7        45.153    21972163.421 7  89972352.06507     -2741.721 7        43.045
S23        25.000    38085674.575 7 200141569.21007      -482.373 7        44.733
C13        26.000                                                                                                                                    40439350.494 6 210578499.59006     -1297.498 6        38.889    40439350.784 6 162832763.58306     -1003.423 6        38.628    40439349.101 6 171112366.34906     -1054.016 6        37.225
E24        27.000    27692951.320 6 145527470.48806      -229.376 6        38.667                                                                    27692949.863 7 108673122.42907      -171.376 7        42.351    27692949.146 7 111508070.13907      -175.807 7        42.959
R21        29.000    19774846.238 8 105819199.43408      1636.998 8        51.636                                                                    19774844.427 7  82303825.12307      1273.171 7        46.367
C14        30.000                                                                                                                                    26892385.574 6 140035722.59706     -3772.719 6        36.991    26892382.546 7 108284495.47207     -2917.205 7        42.916    26892380.892 6 113790479.18506     -3065.549 6        39.030
R05        31.000    19520223.576 8 104346823.59008     -2060.636 8        51.160                                                                    19520222.936 7  81158650.77907     -1602.700 7        47.644
R13        32.000    23777392.099 6 126969965.38206       375.743 6        37.433
E29        33.000    25443113.615 7 133704540.10607      2275.435 7        44.117                                                                    25443111.840 7  99844312.56607      1699.129 7        47.283    25443111.607 8 102448941.51408      1743.497 8        48.148
C16        35.000                                                                                                                                    40073496.955 6 208673233.80406      1094.448 6        39.468    40073496.620 6 161359390.86706       846.401 6        41.886    40073494.328 6 169564093.79406       889.330 6        37.195
C32        36.000                                                                                                                                    23593076.312 8 122855390.78608      2249.641 8        48.095                                                                    23593075.766 7  99830088.99907      1828.020 7        47.913
G32        37.000    21893219.940 8 115049688.84608     -1411.464 8        48.585                                    21893217.649 7  89649110.45207     -1099.843 7        47.620    21893218.211 7  89649119.45507     -1099.835 7        44.554
E07        38.000    24366776.680 7 128048293.17207      -258.618 7        46.091                                                                    24366776.603 8  95620516.79408      -193.241 8        49.491    24366776.175 8  98114957.40708      -198.184 8        50.450
C41        39.000                                                                                                                                    21888100.797 8 113977116.30508      -785.302 8        50.971                                                                    21888105.408 8  92615772.89108      -638.078 8        50.471
C39        40.000                                                                                                                                    39616162.454 6 206291776.47706       783.874 6        41.006                                                                    39616157.793 6 167628961.31006       637.045 6        41.654
E33        41.000    23833210.364 7 125244453.24607       829.982 7        47.436                                                                    23833208.233 8  93526735.14408       619.794 8        50.625    23833207.851 8  95966558.94308       635.938 8        51.382
S44        42.000    40444724.082 6 212538658.14706      -536.646 6        37.781
R06        43.000    20674438.678 6 110322825.95706      2845.837 6        41.583
C05        44.000                                                                                                                                    39060683.477 6 203399272.48706      -454.242 6        37.902    39060678.941 7 157281244.99007      -351.275 7        43.634    39060681.131 6 165278674.23206      -369.006 6        40.400
C08        45.000                                                                                                                                    41261512.285 5 214859707.75605     -1386.105 5        30.128    41261506.622 6 166143229.26706     -1072.035 6        36.836    41261505.886 5 174591162.75505     -1126.839 5        33.461
R22        48.000    23933315.800 7 127757674.08107      3436.882 7        42.916                                                                    23933314.491 6  99367072.59006      2673.288 6        37.803
I05        49.000  -497477222.320 6-876422266.95906       258.053 6        37.062
C06        50.000                                                                                                                                    39817765.255 6 207341568.21406      1196.149 6        38.222    39817759.735 6 160329632.85306       924.953 6        41.650    39817759.528 6 168481986.29406       972.069 6        38.883
S48        51.000    77120994.750 6 405274251.35906      -499.283 6        38.072
G21        52.000    20564606.549 7 108067810.99707      -859.605 7        44.500                                    20564601.013 6  84208706.09006      -669.824 6        37.365
C09        53.000                                                                                                                                    40889662.278 6 212923204.80906      1373.666 6        37.951    40889659.660 7 164645714.82107      1062.185 7        42.227    40889657.337 6 173017521.42706      1116.120 6        37.331
C60        54.000                                                                                                                                    40444725.162 6 210606508.06306      -531.844 6        40.782                                                                    40444708.695 6 171135010.95306      -432.257 6        40.505
C27        55.000                                                                                                                                    21460467.472 8 111750306.87708     -1344.314 8        51.622                                                                    21460465.717 8  90806282.69608     -1092.358 8        49.650
R04        56.000    22990479.470 7 123112977.34707     -4647.301 7        44.549                                                                    22990477.125 6  95754528.20106     -3614.577 6        39.216
C02        57.000                                                                                                                                    40449866.571 5 210633127.45305      -492.848 5        33.186    40449859.682 6 162874891.87906      -381.415 6        41.066    40449862.991 6 171156675.22106      -400.822 6        36.609
I03        58.000   106046253.232 6 340363048.05206       968.499 6        39.387
C28        60.000                                                                                                                                    23942977.662 7 124677676.75207     -3387.082 7        45.523                                                                    23942976.709 7 101310959.71807     -2752.241 7        44.897
> 2025 01 01 23 16 35.0000000  0 54
G10         1.000    23609782.278 6 124070344.03006     -3480.634 6        41.714                                    23609780.502 6  96678251.81006     -2712.177 6        36.832    23609779.716 6  96678228.80706     -2712.086 6        38.793
G14         2.000    23906124.765 6 125627583.55106     -1362.001 6        40.033                                    23906120.781 3  97891625.98403     -1061.300 3        23.733    23906121.432 6  97891621.98606     -1061.387 6        38.952
C33         3.000                                                                                                                                    24568457.449 7 127934435.47607     -3297.032 7        45.446                                                                    24568468.788 7 103957267.81607     -2679.077 7        45.211
E31         4.000    26787004.640 6 140766705.51406     -2471.301 6        40.467                                                                    26787004.086 7 105118007.50807     -1845.407 7        42.408    26787004.179 7 107860212.82707     -1893.495 7        43.936
S21         5.000    38365034.436 7 201609358.36307      -484.788 7        42.580
E13         6.000    27476804.832 6 144391920.52406     -2925.648 6        38.712                                                                    27476805.362 6 107825340.28806     -2184.779 6        41.809    27476804.742 7 110638145.11107     -2241.686 7        42.840
G28         7.000    25357509.590 5 133254611.44905      2420.344 5        32.683                                    25357505.117 1 103834741.59801      1885.997 1        10.296    25357506.325 5 103834749.60905      1885.896 5        33.222
G03         8.000    22148434.710 7 116390904.46007      2459.267 7        44.567                                    22148432.903 7  90694251.91007      1916.307 7        42.565    22148433.194 6  90694249.92606      1916.127 6        41.774
G02         9.000    20926154.477 8 109967737.38208       632.628 8        49.267                                    20926147.640 6  85689141.19806       492.958 6        41.430
R12        10.000    23588282.862 7 126004398.01207     -2235.642 7        44.981                                                                    23588282.716 6  98003452.31206     -1738.792 6        40.005
C30        11.000                                                                                                                                    22766815.194 8 118552796.82308      1537.721 8        48.549                                                                    22766815.512 8  96333861.51608      1249.501 8        48.083
S27        12.000    39032787.351 6 205118693.98006      -458.246 6        36.231
R20        13.000    19821238.978 6 105993124.22206     -2254.067 6        38.931                                                                    19821240.620 7  82439164.11307     -1753.244 7        47.053
S36        14.000    38133053.558 7 200391084.66807      -484.542 7        44.199
G27        15.000    24578562.856 6 129161490.37306     -4363.095 6        40.460                                    24578560.378 5 100645473.20105     -3399.816 5        34.800    24578561.060 6 100645387.20406     -3399.740 6        38.087
S45        17.000    63337048.148 6 332839162.14906      -527.103 6        38.180
E08        18.000    27108235.751 6 142454780.24306     -2766.686 6        39.048                                                                    27108234.054 7 106378571.54807     -2065.941 7        42.182    27108233.900 7 109153660.42907     -2119.970 7        42.910
E12        19.000    28443117.066 5 149469594.19605      2058.365 5        32.401                                                                    28443113.843 6 111616892.06806      1537.015 6        36.718    28443113.576 6 114528636.70506      1576.852 6        36.900
G17        20.000    24403563.194 6 128241601.30206      2611.389 6        40.775                                    24403559.083 5  99928507.45505      2034.842 5        34.186    24403559.203 6  99928506.45006      2034.964 6        37.263
E26        21.000    23704434.065 7 124567990.65207     -1472.579 7        47.472                                                                    23704431.425 8  93021748.98108     -1099.656 8        50.431    23704431.334 8  95448378.80908     -1128.324 8        51.842
I06        22.000    38281712.524 7 150225897.90107      -254.381 7        43.645
S28        23.000    40814192.253 5 214480043.59405      -476.944 5        34.605
G08        24.000    21975512.971 7 115482113.51507     -3520.056 7        46.393                                    21975511.072 7  89986062.49507     -2742.900 7        45.234    21975511.969 7  89986063.51007     -2742.964 7        43.120
S23        25.000    38086135.004 7 200143979.84407      -482.139 7        45.046
C13        26.000                                                                                                                                    40440595.504 6 210584985.20706     -1297.089 6        38.474    40440596.029 6 162837778.66606     -1002.971 6        38.769    40440594.867 6 171117636.46406     -1054.072 6        36.537
E24        27.000    27693170.665 6 145528622.96606      -231.616 6        39.060                                                                    27693169.175 7 108673983.05007      -172.994 7        42.396    27693168.564 7 111508953.20707      -177.498 7        43.077
R21        29.000    19773316.940 8 105811019.73808      1634.734 8        51.580                                                                    19773315.832 7  82297463.13407      1271.471 7        46.592
C14        30.000                                                                                                                                    26896008.302 6 140054585.40206     -3772.380 6        37.070    26896005.013 7 108299081.35807     -2917.228 7        42.832    26896003.173 6 113805806.74306     -3065.427 6        39.138
R05        31.000    19522152.748 8 104357135.42308     -2064.224 8        51.015                                                                    19522151.527 7  81166671.10007     -1605.557 7        47.388
R13        32.000    23777042.244 6 126968095.48106       371.997 6        37.512
E29        33.000    25440948.875 7 133693164.98107      2274.487 7        43.772                                                                    25440947.217 7  99835818.15707      1698.499 7        47.357    25440947.062 8 102440225.51508      1742.802 8        48.223
C16        35.000                                                                                                                                    40072445.252 6 208667761.70806      1094.115 6        39.517    40072445.829 6 161355159.50206       846.014 6        41.909    40072443.327 6 169559647.27706       888.958 6        36.733
C32        36.000                                                                                                                                    23590916.697 7 122844145.39907      2248.387 7        47.952                                                                    23590916.214 7  99820951.20107      1827.026 7        47.713
G32        37.000    21894564.406 8 115056752.75308     -1414.273 8        48.409                                    21894561.859 7  89654614.79607     -1102.031 7        47.730    21894562.262 7  89654623.78907     -1102.022 7        44.239
E07        38.000    24367023.738 7 128049591.73607      -260.851 7        46.288                                                                    24367023.651 8  95621486.48908      -194.793 8        49.562    24367023.247 8  98115952.40608      -199.886 8        50.503
C41        39.000                                                                                                                                    21888855.752 8 113981048.19808      -787.507 8        51.101                                                                    21888860.522 8  92618967.88508      -639.959 8        50.402
C39        40.000                                                                                                                                    39615410.188 6 206287858.02006       783.270 6        41.468                                                                    39615405.276 6 167625777.25106       636.424 6        41.528
E33        41.000    23832420.831 7 125240304.53407       829.373 7        47.470                                                                    23832418.716 8  93523637.08308       619.258 8        50.702    23832418.405 8  95963380.05808       635.470 8        51.393
S44        42.000    40445234.231 6 212541340.91006      -536.525 6        38.063
R06        43.000    20671773.356 6 110308602.19906      2843.480 6        41.962
C05        44.000                                                                                                                                    39061119.626 6 203401543.19006      -454.169 6        37.909    39061114.781 7 157283000.84007      -351.074 7        43.570    39061117.101 6 165280519.38006      -369.007 6        40.365
C08        45.000                                                                                                                                    41262843.796 5 214866638.56205     -1385.624 5        30.770    41262837.569 6 166148588.57906     -1071.500 6        36.533    41262836.759 5 174596794.57605     -1126.063 5        32.874
R22        48.000    23930095.998 7 127740487.92707      3437.367 7        42.902                                                                    23930095.262 6  99353705.58306      2673.462 6        38.871
I05        49.000  -497477550.974 6-876423557.37206       257.877 6        36.824
C06        50.000                                                                                                                                    39816617.207 6 207335587.92406      1195.746 6        38.186    39816611.068 6 160325008.52306       924.598 6        41.871    39816611.064 6 168477126.84706       971.520 6        38.853
S48        51.000    77121452.416 6 405276747.54806      -499.044 6        38.532
G21        52.000    20565425.420 7 108072112.89307      -861.146 7        44.340                                    20565419.633 6  84212058.21706      -671.022 6        37.463
C09        53.000                                                                                                                                    40888343.384 6 212916336.58006      1373.379 6        37.588    40888340.665 7 164640403.86207      1062.086 7        42.097    40888338.467 6 173011940.40506      1116.275 6        37.482
C60        54.000                                                                                                                                    40445235.674 6 210609166.44106      -531.797 6        40.963                                                                    40445219.184 6 171137171.09206      -431.933 6        40.534
C27        55.000                                                                                                                                    21461759.268 8 111757033.56108     -1346.467 8        51.895                                                                    21461757.519 8  90811748.68608     -1094.094 8        49.557
R04        56.000    22994818.287 7 123136215.15007     -4647.950 7        43.970                                                                    22994816.662 6  95772602.05406     -3615.167 6        39.477
C02        57.000                                                                                                                                    40450339.534 5 210635593.12005      -493.149 5        33.754    40450333.115 6 162876798.46606      -381.434 6        41.125    40450336.558 6 171158678.73906      -400.514 6        36.306
I03        58.000   106045018.815 6 340358205.29806       968.653 6        39.613
C28        60.000                                                                                                                                    23946230.540 7 124694614.19907     -3387.983 7        45.448                                                                    23946229.114 7 101324722.78807     -2753.002 7        44.536
> 2025 01 01 23 16 40.0000000  0 54
G10         1.000    23613094.848 6 124087749.59006     -3481.478 6        41.800                                    23613092.458 6  96691814.58706     -2712.839 6        36.752    23613092.733 6  96691791.60506     -2712.899 6        38.526
G14         2.000    23907421.629 6 125634400.25206     -1364.799 6        39.907                                    23907417.797 3  97896937.69803     -1063.477 3        23.733    23907418.585 6  97896933.71306     -1063.510 6        39.291
C33         3.000                                                                                                                                    24571623.804 7 127950923.69607     -3298.271 7        45.333                                                                    24571635.297 7 103970665.85107     -2680.111 7        45.461
E31         4.000    26789356.810 6 140779066.07006     -2472.997 6        40.408                                                                    26789356.232 7 105127237.80707     -1846.754 7        42.409    26789356.311 7 107869683.91307     -1894.865 7        43.837
S21         5.000    38365496.082 7 201611783.46607      -485.142 7        42.529
E13         6.000    27479588.672 6 144406550.28606     -2926.264 6        38.769                                                                    27479589.279 6 107836265.11606     -2185.125 6        41.685    27479588.889 7 110649354.93707     -2242.204 7        42.641
G28         7.000    25355207.538 5 133242513.56505      2419.236 5        33.317                                    25355203.573 1 103825314.70801      1885.113 1        10.370    25355204.481 5 103825322.70705      1885.118 5        33.317
G03         8.000    22146095.759 7 116378612.37507      2457.600 7        45.014                                    22146093.770 7  90684673.67007      1915.014 7        42.635    22146094.347 6  90684671.67106      1915.120 6        41.883
G02         9.000    20925553.148 8 109964578.66108       630.791 8        49.344                                    20925546.569 6  85686679.85806       491.524 6        41.511
R12        10.000    23590377.378 7 126015585.16407     -2239.265 7        44.933                                                                    23590376.878 6  98012153.44006     -1741.630 6        40.272
C30        11.000                                                                                                                                    22765339.807 8 118545112.92608      1535.911 8        48.687                                                                    22765339.918 8  96327617.73008      1248.053 8        48.219
S27        12.000    39033222.986 6 205120986.12906      -458.403 6        36.367
R20        13.000    19823348.498 6 106004402.83806     -2257.403 6        39.228                                                                    19823349.830 7  82447936.37807     -1755.661 7        47.039
S36        14.000    38133515.119 7 200393507.73207      -484.808 7        44.260
G27        15.000    24582713.942 6 129183306.40906     -4363.390 6        39.637                                    24582711.752 5 100662472.71005     -3400.046 5        34.757    24582712.209 6 100662386.72206     -3400.026 6        38.072
S45        17.000    63337507.505 6 332841797.48506      -527.217 6        38.291
E08        18.000    27110868.614 6 142468618.13006     -2768.523 6        38.859                                                                    27110867.423 7 106388905.04207     -2067.332 7        42.099    27110867.022 7 109164263.47607     -2121.213 7        42.870
E12        19.000    28441159.260 5 149459303.29305      2058.470 5        32.742                                                                    28441155.727 6 111609207.29306      1537.187 6        36.767    28441155.121 6 114520751.47606      1576.729 6        36.960
G17        20.000    24401079.690 6 128228547.85806      2610.012 6        41.380                                    24401075.021 5  99918335.95105      2033.779 5        34.014    24401075.616 6  99918334.95306      2033.736 6        37.709
E26        21.000    23705835.666 7 124575356.86107     -1473.936 7        47.432                                                                    23705833.185 8  93027249.72908     -1100.674 8        50.411    23705833.083 8  95454023.05308     -1129.330 8        51.799
I06        22.000    38282036.630 7 150227170.04007      -254.406 7        43.668
S28        23.000    40814647.978 5 214482428.97905      -477.067 5        34.457
G08        24.000    21978863.193 7 115499718.86807     -3521.948 7        46.628                                    21978861.270 7  89999780.95407     -2744.377 7        45.251    21978862.022 7  89999781.96507     -2744.427 7        43.185
S23        25.000    38086595.438 7 200146390.69607      -482.299 7        45.157
C13        26.000                                                                                                                                    40441840.187 6 210591469.93206     -1297.005 6        38.135    40441841.648 6 162842793.08506     -1002.994 6        38.670    40441839.815 6 171122905.86006     -1053.899 6        36.484
E24        27.000    27693392.549 6 145529787.69506      -234.132 6        39.051                                                                    27693390.863 7 108674852.82107      -174.871 7        42.508    27693390.071 7 111509845.67107      -179.444 7        42.921
R21        29.000    19771790.783 8 105802852.48408      1632.086 8        51.713                                                                    19771789.513 7  82291110.83707      1269.377 7        46.854
C14        30.000                                                                                                                                    26899631.465 6 140073449.01106     -3772.959 6        36.851    26899627.591 7 108313667.88107     -2917.486 7        42.673    26899625.954 6 113821134.95406     -3065.638 6        38.799
R05        31.000    19524085.277 8 104367466.59308     -2068.276 8        50.752                                                                    19524084.515 7  81174706.44607     -1608.648 7        47.510
R13        32.000    23776696.623 6 126966246.07106       367.869 6        38.841
E29        33.000    25438785.371 7 133681795.89507      2273.051 7        43.706                                                                    25438783.622 7  99827328.26207      1697.569 7        47.201    25438783.563 8 102431514.13908      1741.774 8        48.123
C16        35.000                                                                                                                                    40071395.618 6 208662293.14806      1093.241 6        39.517    40071395.648 6 161350930.88706       845.381 6        41.850    40071393.280 6 169555203.63206       888.362 6        36.858
C32        36.000                                                                                                                                    23588758.519 8 122832908.01808      2246.578 8        48.116                                                                    23588758.346 7  99811819.91907      1825.548 7        47.951
G32        37.000    21895911.322 8 115063832.03708     -1417.462 8        48.391                                    21895908.998 7  89660131.12507     -1104.516 7        47.735    21895909.600 7  89660140.12107     -1104.482 7        44.396
E07        38.000    24367273.203 7 128050902.71907      -263.527 7        46.261                                                                    24367273.131 8  95622465.47308      -196.773 8        49.488    24367272.699 8  98116956.92808      -201.882 8        50.471
C41        39.000                                                                                                                                    21889613.261 8 113984992.70508      -790.248 8        51.253                                                                    21889618.032 8  92622173.12008      -642.098 8        50.492
C39        40.000                                                                                                                                    39614658.484 6 206283944.13106       782.110 6        41.421                                                                    39614653.596 6 167622596.90406       635.592 6        41.547
E33        41.000    23831632.232 7 125236160.50907       828.236 7        47.540                                                                    23831630.180 8  93520542.51708       618.540 8        50.637    23831629.767 8  95960204.76908       634.614 8        51.392
S44        42.000    40445746.178 6 212544023.98106      -536.724 6        38.246
R06        43.000    20669110.732 7 110294392.38207      2840.541 7        42.299
C05        44.000                                                                                                                                    39061555.864 6 203403814.16706      -454.233 6        37.909    39061550.818 7 157284756.92807      -351.343 7        43.450    39061553.281 6 165282364.76406      -369.182 6        40.424
C08        45.000                                                                                                                                    41264174.663 5 214873568.25805     -1385.808 5        30.913    41264168.297 6 166153947.10406     -1071.813 6        36.405    41264167.660 5 174602425.54805     -1126.209 5        32.790
R22        48.000    23926876.642 7 127723301.02507      3437.366 7        43.848                                                                    23926876.630 6  99340338.00306      2673.519 6        40.133
I05        49.000  -497477880.028 6-876424847.35606       257.903 6        36.749
C06        50.000                                                                                                                                    39815469.212 6 207329611.00006      1195.113 6        38.252    39815463.271 6 160320386.78206       924.053 6        41.785    39815463.223 6 168472270.10706       971.029 6        39.075
S48        51.000    77121917.783 6 405279244.04206      -499.479 6        38.781
G21        52.000    20566245.591 7 108076423.97007      -863.239 7        44.521                                    20566239.997 6  84215417.49906      -672.655 6        37.595
C09        53.000                                                                                                                                    40887024.616 6 212909470.31906      1373.071 6        37.561    40887022.219 7 164635094.43807      1061.658 7        42.114    40887019.911 6 173006361.03406      1115.735 6        37.679
C60        54.000                                                                                                                                    40445746.333 6 210611825.08506      -531.807 6        40.868                                                                    40445729.754 6 171139331.48106      -432.035 6        40.462
C27        55.000                                                                                                                                    21463053.430 8 111763772.13208     -1348.994 8        51.910                                                                    21463051.577 8  90817224.32808     -1096.092 8        49.665
R04        56.000    22999157.326 7 123159457.88607     -4649.101 7        43.608                                                                    22999156.705 6  95790679.74006     -3615.834 6        39.381
C02        57.000                                                                                                                                    40450812.744 5 210638059.05405      -493.196 5        33.311    40450806.906 6 162878705.28806      -381.481 6        41.018    40450810.062 6 171160682.54206      -400.911 6        36.420
I03        58.000   106043785.016 6 340353362.93006       968.344 6        39.583
C28        60.000                                                                                                                                    23949484.557 7 124711557.79707     -3389.451 7        45.232                                                                    23949482.974 7 101338490.84707     -2754.224 7        44.593
> 2025 01 01 23 16 45.0000000  0 54
G10         1.000    23616407.717 7 124105157.45007     -3481.786 7        42.370                                    23616404.898 6  96705379.15806     -2713.079 6        36.711    23616404.833 6  96705356.16106     -2713.042 6        38.613
G14         2.000    23908721.471 6 125641230.82206     -1367.471 6        39.988                                    23908717.738 3  97902260.23203     -1065.559 3        23.771    23908718.420 6  97902256.20306     -1065.537 6        39.625
C33         3.000                                                                                                                                    24574791.385 7 127967417.07307     -3299.207 7        45.663                                                                    24574802.780 7 103984068.06407     -2680.872 7        45.333
E31         4.000    26791710.102 6 140791434.36406     -2474.430 6        40.477                                                                    26791709.917 7 105136473.86507     -1847.711 7        42.201    26791709.837 7 107879160.92007     -1895.963 7        43.937
S21         5.000    38365955.291 7 201614208.43907      -484.955 7        42.436
E13         6.000    27482372.683 6 144421181.99906     -2926.453 6        38.390                                                                    27482373.487 6 107847191.39406     -2185.437 6        41.535    27482373.422 7 110660566.24607     -2242.379 7        43.014
G28         7.000    25352905.160 5 133230417.69105      2419.045 5        34.100                                    25352902.216 1 103815889.35001      1884.974 1        11.185    25352902.227 5 103815897.33605      1885.081 5        32.922
G03         8.000    22143757.644 7 116366327.35007      2456.297 7        45.126                                    22143756.015 7  90675100.93007      1913.998 7        42.635    22143756.648 7  90675098.94707      1913.852 7        42.013
G02         9.000    20924953.771 8 109961427.96408       629.321 8        49.462                                    20924947.000 6  85684224.76906       490.378 6        41.528
R12        10.000    23592474.438 7 126026789.63907     -2242.549 7        43.697                                                                    23592475.498 6  98020868.04706     -1744.319 6        41.004
C30        11.000                                                                                                                                    22763865.683 8 118537437.32008      1534.276 8        48.930                                                                    22763865.898 8  96321380.65808      1246.710 8        48.021
S27        12.000    39033659.501 6 205123277.60906      -458.214 6        36.646
R20        13.000    19825460.441 6 106015695.90906     -2260.043 6        39.285                                                                    19825461.422 7  82456719.87607     -1757.848 7        46.515
S36        14.000    38133976.680 7 200395930.35107      -484.443 7        44.331
G27        15.000    24586865.564 6 129205123.14306     -4363.284 6        39.838                                    24586863.363 5 100679472.76505     -3399.961 5        34.676    24586863.918 6 100679386.77606     -3400.031 6        38.042
S45        17.000    63337963.172 6 332844432.81606      -527.139 6        38.450
E08        18.000    27113503.267 6 142482463.35906     -2769.734 6        39.063                                                                    27113502.132 7 106399243.99807     -2068.209 7        42.176    27113501.625 7 109174872.15207     -2122.192 7        42.948
E12        19.000    28439200.729 5 149449011.74005      2058.335 5        32.862                                                                    28439197.233 6 111601522.02506      1537.204 6        36.805    28439196.857 6 114512865.70706      1577.152 6        36.957
G17        20.000    24398596.603 6 128215499.69706      2609.099 6        41.928                                    24398592.045 5  99908168.55705      2033.065 5        34.290    24398592.382 6  99908167.54306      2033.210 6        38.018
E26        21.000    23707238.469 7 124582728.70507     -1474.878 7        47.690                                                                    23707236.015 8  93032754.67508     -1101.427 8        50.390    23707235.921 8  95459671.60508     -1130.130 8        51.815
I06        22.000    38282360.883 7 150228442.03107      -254.462 7        43.558
S28        23.000    40815103.690 5 214484814.56205      -477.064 5        35.038
G08        24.000    21982215.123 7 115517332.82407     -3523.649 7        47.051                                    21982213.109 7  90013506.11707     -2745.699 7        45.242    21982214.200 7  90013507.11207     -2745.718 7        43.350
S23        25.000    38087052.751 7 200148801.36507      -482.105 7        45.190
C13        26.000                                                                                                                                    40443084.946 6 210597953.54206     -1296.619 6        38.252    40443087.001 6 162847806.62006     -1002.777 6        39.084    40443085.071 6 171128174.29006     -1053.474 6        36.548
E24        27.000    27693615.817 6 145530964.31306      -236.605 6        39.255                                                                    27693615.016 7 108675731.46307      -176.644 7        42.500    27693614.040 7 111510747.22707      -181.218 7        43.046
R21        29.000    19770267.294 8 105794697.39408      1629.825 8        51.985                                                                    19770265.712 7  82284767.98707      1267.625 7        46.631
C14        30.000                                                                                                                                    26903254.290 6 140092313.05606     -3773.061 6        36.926    26903250.112 7 108328254.72807     -2917.295 7        42.334    26903248.566 6 113836463.51306     -3065.781 6        38.426
R05        31.000    19526021.537 8 104377816.88508     -2071.925 8        51.083                                                                    19526020.613 7  81182756.67907     -1611.485 7        47.570
R13        32.000    23776354.187 6 126964416.57206       363.880 6        37.962
E29        33.000    25436623.245 7 133670432.46107      2272.139 7        44.009                                                                    25436621.133 7  99818842.57707      1696.759 7        47.191    25436621.179 8 102422807.09108      1740.970 8        48.209
C16        35.000                                                                                                                                    40070346.256 6 208656827.80606      1092.608 6        39.754    40070346.048 6 161346704.71806       845.111 6        41.673    40070343.626 6 169550762.59606       887.872 6        36.934
C32        36.000                                                                                                                                    23586601.972 8 122821678.26808      2245.157 8        48.244                                                                    23586601.751 7  99802694.82807      1824.342 7        47.852
G32        37.000    21897261.292 8 115070926.31308     -1420.320 8        48.324                                    21897258.981 7  89665659.12907     -1106.742 7        47.705    21897259.582 7  89665668.13107     -1106.749 7        43.979
E07        38.000    24367524.706 7 128052225.71907      -265.802 7        46.503                                                                    24367524.821 8  95623453.43608      -198.531 8        49.481    24367524.453 8  98117970.66308      -203.710 8        50.471
C41        39.000                                                                                                                                    21890373.176 8 113988949.42808      -792.568 8        51.426                                                                    21890377.883 8  92625388.28008      -644.052 8        50.323
C39        40.000                                                                                                                                    39613907.838 7 206280034.43107       781.532 7        42.121                                                                    39613902.911 6 167619419.94306       635.065 6        41.473
E33        41.000    23830844.426 7 125232020.77907       827.503 7        47.908                                                                    23830842.395 8  93517451.16008       617.962 8        50.613    23830841.999 8  95957032.76608       634.061 8        51.369
S44        42.000    40446257.942 6 212546706.92506      -536.364 6        38.616
R06        43.000    20666449.850 7 110280196.22507      2837.892 7        42.248
C05        44.000                                                                                                                                    39061992.259 6 203406085.07206      -454.227 6        37.947    39061987.025 7 157286512.93307      -351.186 7        43.520    39061989.425 6 165284210.05706      -369.119 6        40.284
C08        45.000                                                                                                                                    41265505.871 5 214880496.63005     -1385.477 5        31.208    41265498.485 5 166159304.50905     -1071.387 5        35.957    41265497.779 5 174608055.35305     -1125.952 5        32.629
R22        48.000    23923656.913 7 127706113.03607      3437.708 7        43.693                                                                    23923655.708 6  99326969.52006      2673.748 6        39.051
I05        49.000  -497478208.251 6-876426137.19106       257.992 6        36.737
C06        50.000                                                                                                                                    39814321.947 6 207323637.09506      1194.359 6        38.471    39814316.373 6 160315767.38406       923.511 6        41.864    39814316.027 6 168467415.79606       970.667 6        38.835
S48        51.000    77122380.278 6 405281740.17906      -499.191 6        38.802
G21        52.000    20567067.495 7 108080743.81607      -864.827 7        44.632                                    20567062.038 6  84218783.61206      -673.894 6        37.554
C09        53.000                                                                                                                                    40885706.180 6 212902605.66906      1372.709 6        37.611    40885703.774 7 164629786.26107      1061.578 7        42.127    40885701.549 6 173000782.94006      1115.517 6        37.777
C60        54.000                                                                                                                                    40446256.746 6 210614483.64506      -531.613 6        41.075                                                                    40446240.185 6 171141491.78406      -432.130 6        40.384
C27        55.000                                                                                                                                    21464349.578 8 111770522.21008     -1351.198 8        52.143                                                                    21464347.867 8  90822709.32108     -1097.964 8        49.543
R04        56.000    23003499.030 7 123182705.08907     -4649.885 7        43.464                                                                    23003498.493 6  95808760.90406     -3616.730 6        39.294
C02        57.000                                                                                                                                    40451285.989 5 210640524.95005      -493.371 5        33.772    40451280.410 6 162880612.05206      -381.319 6        41.092    40451283.724 6 171162686.26706      -401.018 6        36.386
I03        58.000   106042551.409 6 340348520.63706       968.553 6        39.631
C28        60.000                                                                                                                                    23952739.180 7 124728507.13207     -3390.458 7        45.375                                                                    23952738.048 7 101352263.56707     -2755.055 7        44.456
> 2025 01 01 23 16 50.0000000  0 54
G10         1.000    23619720.773 7 124122567.61007     -3482.360 7        42.885                                    23619717.923 6  96718945.51606     -2713.533 6        37.074    23619717.947 6  96718922.51106     -2713.407 6        39.093
G14         2.000    23910024.422 6 125648075.26706     -1370.832 6        39.339                                    23910020.196 3  97907593.55203     -1068.176 3        23.752    23910020.498 6  97907589.51906     -1067.692 6        39.003
C33         3.000                                                                                                                                    24577959.950 7 127983915.60407     -3300.238 7        45.535                                                                    24577971.201 7 103997474.47707     -2681.823 7        45.669
E31         4.000    26794064.851 6 140803810.40606     -2476.086 6        40.570                                                                    26794065.049 7 105145715.70607     -1849.009 7        42.400    26794064.805 7 107888643.85107     -1897.216 7        43.862
S21         5.000    38366418.855 7 201616633.24007      -485.028 7        42.381
E13         6.000    27485157.301 6 144435815.67506     -2926.822 6        37.947                                                                    27485158.127 6 107858119.13806     -2185.791 6        41.485    27485158.319 7 110671779.07207     -2242.812 7        43.082
G28         7.000    25350603.661 5 133218323.81005      2418.576 5        34.567                                    25350600.896 2 103806465.53802      1884.662 2        12.121    25350600.683 5 103806473.53505      1884.646 5        32.868
G03         8.000    22141421.109 7 116354049.42307      2454.742 7        45.144                                    22141419.583 7  90665533.71507      1912.785 7        42.711    22141420.036 6  90665531.71406      1912.784 6        41.762
G02         9.000    20924355.861 8 109958285.26108       627.661 8        49.552                                    20924348.948 6  85681775.91006       489.088 6        41.602
R12        10.000    23594575.990 7 126038011.43407     -2246.213 7        45.804                                                                    23594575.965 6  98029596.10506     -1747.095 6        40.567
C30        11.000                                                                                                                                    22762393.183 8 118529770.01608      1532.500 8        49.052                                                                    22762393.435 8  96315150.35208      1245.238 8        48.290
S27        12.000    39034095.829 6 205125568.81406      -458.160 6        36.389
R20        13.000    19827574.509 6 106027003.32806     -2262.999 6        39.252                                                                    19827575.936 7  82465514.53607     -1760.096 7        46.729
S36        14.000    38134440.275 7 200398352.34207      -484.440 7        44.182
G27        15.000    24591017.478 6 129226940.52906     -4363.322 6        39.495                                    24591015.130 5 100696473.32105     -3399.990 5        34.843    24591016.017 6 100696387.33906     -3400.178 6        38.459
S45        17.000    63338420.105 6 332847067.85006      -527.194 6        38.228
E08        18.000    27116139.637 6 142496315.94706     -2771.177 6        38.997                                                                    27116138.197 7 106409588.45907     -2069.468 7        42.152    27116137.548 7 109185486.47107     -2123.472 7        42.889
E12        19.000    28437242.425 5 149438719.48505      2058.422 5        33.108                                                                    28437238.448 6 111593836.26306      1537.162 6        36.488    28437238.353 6 114504979.43706      1577.122 6        36.953
G17        20.000    24396114.170 6 128202456.84506      2608.149 6        41.509                                    24396110.129 5  99898005.30605      2032.327 5        34.395    24396110.648 6  99898004.30006      2032.150 6        37.985
E26        21.000    23708642.390 7 124590106.18807     -1476.194 7        47.949                                                                    23708639.926 8  93038263.82908     -1102.336 8        50.379    23708639.822 8  95465324.47808     -1131.099 8        51.854
I06        22.000    38282684.845 7 150229713.89307      -254.413 7        43.575
S28        23.000    40815553.393 5 214487199.63305      -477.152 5        34.552
G08        24.000    21985568.528 7 115534955.39507     -3525.449 7        47.338                                    21985566.571 7  90027237.98507     -2747.101 7        45.312    21985567.470 7  90027238.98807     -2747.040 7        42.967
S23        25.000    38087512.394 7 200151211.79707      -482.165 7        44.880
C13        26.000                                                                                                                                    40444329.750 6 210604435.91206     -1296.461 6        38.177    40444332.095 6 162852819.19506     -1002.594 6        39.117    40444329.811 6 171133441.77706     -1053.612 6        36.529
E24        27.000    27693841.462 6 145532152.76706      -238.946 6        39.105                                                                    27693841.247 7 108676618.93607      -178.463 7        42.413    27693840.216 7 111511657.86107      -183.124 7        43.033
R21        29.000    19768745.189 8 105786554.52408      1627.263 8        51.688                                                                    19768743.444 7  82278434.64107      1265.593 7        46.366
C14        30.000                                                                                                                                    26906876.286 6 140111177.53506     -3772.892 6        37.217    26906872.781 7 108342841.94407     -2917.556 7        42.326    26906871.237 6 113851792.44806     -3065.802 6        38.544
R05        31.000    19527961.512 8 104388186.22708     -2075.861 8        51.527                                                                    19527960.274 7  81190821.70807     -1614.491 7        47.672
R13        32.000    23776013.007 6 126962606.98006       359.843 6        37.690
E29        33.000    25434461.853 7 133659074.69507      2270.924 7        44.387                                                                    25434459.855 7  99810361.13807      1695.761 7        47.205    25434459.964 8 102414104.39608      1740.038 8        48.211
C16        35.000                                                                                                                                    40069296.695 6 208651365.65506      1092.094 6        39.544    40069296.794 6 161342481.05906       844.358 6        41.764    40069294.544 6 169546324.17806       887.387 6        37.119
C32        36.000                                                                                                                                    23584446.743 8 122810456.14308      2243.567 8        48.351                                                                    23584446.653 8  99793575.93808      1822.940 8        48.091
G32        37.000    21898614.278 8 115078035.59608     -1423.441 8        48.351                                    21898611.826 7  89671198.82907     -1109.176 7        47.773    21898612.341 7  89671207.82907     -1109.176 7        44.056
E07        38.000    24367778.751 7 128053560.78307      -268.292 7        46.386                                                                    24367778.951 8  95624450.39208      -200.397 8        49.535    24367778.491 8  98118993.63008      -205.629 8        50.492
C41        39.000                                                                                                                                    21891135.195 8 113992918.39208      -795.122 8        51.430                                                                    21891140.081 8  92628613.39908      -646.227 8        50.584
C39        40.000                                                                                                                                    39613157.671 7 206276128.92707       780.541 7        42.013                                                                    39613153.045 7 167616246.41507       634.193 7        42.000
E33        41.000    23830057.444 7 125227885.37707       826.536 7        47.840                                                                    23830055.461 8  93514363.03708       617.209 8        50.673    23830055.071 8  95953864.08708       633.278 8        51.421
S44        42.000    40446771.284 6 212549389.80206      -536.849 6        38.390
R06        43.000    20663792.250 6 110266013.62506      2835.076 6        41.950
C05        44.000                                                                                                                                    39062427.518 6 203408355.92006      -454.305 6        37.902    39062423.075 7 157288268.88607      -351.215 7        43.494    39062425.614 6 165286055.28206      -369.188 6        40.510
C08        45.000                                                                                                                                    41266835.776 5 214887423.44305     -1385.101 5        30.770    41266828.927 6 166164660.78506     -1071.041 6        36.367    41266827.806 5 174613683.99405     -1125.979 5        32.748
R22        48.000    23920436.272 7 127688923.95407      3437.809 7        42.798                                                                    23920435.724 6  99313600.22106      2673.915 6        40.257
I05        49.000  -497478537.145 6-876427426.88606       257.911 6        36.771
C06        50.000                                                                                                                                    39813175.191 6 207317666.16406      1194.030 6        38.222    39813169.674 7 160311150.29507       923.046 7        42.021    39813169.420 6 168462563.95706       970.055 6        39.201
S48        51.000    77122841.459 6 405284236.04006      -499.179 6        38.456
G21        52.000    20567891.190 7 108085072.50407      -866.757 7        44.671                                    20567885.746 6  84222156.61206      -675.395 6        37.626
C09        53.000                                                                                                                                    40884388.150 6 212895742.64006      1372.466 6        37.493    40884385.495 7 164624479.34207      1061.135 7        42.017    40884383.497 6 172995206.18706      1115.108 6        37.898
C60        54.000                                                                                                                                    40446767.526 6 210617142.13506      -531.779 6        41.204                                                                    40446750.916 6 171143652.02306      -432.155 6        40.691
C27        55.000                                                                                                                                    21465648.097 8 111777283.81308     -1353.537 8        51.936                                                                    21465646.335 8  90828203.67908     -1099.994 8        49.747
R04        56.000    23007841.750 7 123205956.87907     -4651.003 7        43.926                                                                    23007840.721 6  95826845.59406     -3617.344 6        39.682
C02        57.000                                                                                                                                    40451759.342 5 210642990.79005      -493.196 5        34.229    40451753.902 6 162882518.82406      -381.591 6        40.851    40451757.224 6 171164689.98406      -401.032 6        36.733
I03        58.000   106041316.673 6 340343678.45106       968.283 6        39.733
C28        60.000                                                                                                                                    23955994.992 7 124745462.22707     -3391.768 7        45.911                                                                    23955994.404 7 101366040.97007     -2756.068 7        44.969
