     3.04           OBSERVATION DATA    M                   RINEX VERSION / TYPE
ssrcrin-15.6.1x                         20250101 103000 UTC PGM / RUN BY / DATE 
(00000000023479385599111004) Septentrio proprietary         COMMENT             
rref                                                        MARKER NAME         
01                                                          MARKER NUMBER       
geodetic                                                    MARKER TYPE         
NFB                 CLIMERS@TUW                             OBSERVER / AGENCY   
3297213             SEPT ASTERX SB3 PROB4.14.4              REC # / TYPE / VERS 
Unknown             Unknown                                 ANT # / TYPE        
  4127832.2883  1207192.8814  4695247.4000                  APPROX POSITION XYZ 
        0.0000        0.0000        0.0000                  ANTENNA: DELTA H/E/N
G   23 X1  C1C L1C D1C S1C C1W S1W C2W L2W D2W S2W C2L L2L  SYS / # / OBS TYPES 
       D2L S2L C5Q L5Q D5Q S5Q C1L L1L D1L S1L              SYS / # / OBS TYPES 
E   21 X1  C1C L1C D1C S1C C6C L6C D6C S6C C5Q L5Q D5Q S5Q  SYS / # / OBS TYPES 
       C7Q L7Q D7Q S7Q C8Q L8Q D8Q S8Q                      SYS / # / OBS TYPES 
S    9 X1  C1C L1C D1C S1C C5I L5I D5I S5I                  SYS / # / OBS TYPES 
R   17 X1  C1C L1C D1C S1C C2P L2P D2P S2P C2C L2C D2C S2C  SYS / # / OBS TYPES 
       C3Q L3Q D3Q S3Q                                      SYS / # / OBS TYPES 
C   25 X1  C1P L1P D1P S1P C5P L5P D5P S5P C2I L2I D2I S2I  SYS / # / OBS TYPES 
       C7I L7I D7I S7I C6I L6I D6I S6I C7D L7D D7D S7D      SYS / # / OBS TYPES 
J   17 X1  C1C L1C D1C S1C C2L L2L D2L S2L C5Q L5Q D5Q S5Q  SYS / # / OBS TYPES 
       C1L L1L D1L S1L                                      SYS / # / OBS TYPES 
I    5 X1  C5A L5A D5A S5A                                  SYS / # / OBS TYPES 
SEPTENTRIO RECEIVERS OUTPUT ALIGNED CARRIER PHASES.         COMMENT             
NO FURTHER PHASE SHIFT APPLIED IN THE RINEX ENCODER.        COMMENT             
G L1C                                                       SYS / PHASE SHIFT   
G L2W                                                       SYS / PHASE SHIFT   
G L2L  0.00000                                              SYS / PHASE SHIFT   
G L5Q  0.00000                                              SYS / PHASE SHIFT   
G L1L  0.00000                                              SYS / PHASE SHIFT   
E L1C  0.00000                                              SYS / PHASE SHIFT   
E L6C  0.00000                                              SYS / PHASE SHIFT   
E L5Q  0.00000                                              SYS / PHASE SHIFT   
E L7Q  0.00000                                              SYS / PHASE SHIFT   
E L8Q  0.00000                                              SYS / PHASE SHIFT   
S L1C                                                       SYS / PHASE SHIFT   
S L5I                                                       SYS / PHASE SHIFT   
R L1C                                                       SYS / PHASE SHIFT   
R L2P  0.00000                                              SYS / PHASE SHIFT   
R L2C                                                       SYS / PHASE SHIFT   
R L3Q  0.00000                                              SYS / PHASE SHIFT   
C L1P  0.00000                                              SYS / PHASE SHIFT   
C L5P  0.00000                                              SYS / PHASE SHIFT   
C L2I                                                       SYS / PHASE SHIFT   
C L7I                                                       SYS / PHASE SHIFT   
C L6I                                                       SYS / PHASE SHIFT   
C L7D                                                       SYS / PHASE SHIFT   
J L1C                                                       SYS / PHASE SHIFT   
J L2L  0.00000                                              SYS / PHASE SHIFT   
J L5Q  0.00000                                              SYS / PHASE SHIFT   
J L1L  0.00000                                              SYS / PHASE SHIFT   
I L5A                                                       SYS / PHASE SHIFT   
  2025     1     1    10    30    0.0000000     GPS         TIME OF FIRST OBS   
 C1C    0.000 C2C    0.000 C2P    0.000                     GLONASS COD/PHS/BIS 
DBHZ                                                        SIGNAL STRENGTH UNIT
    18                                                      LEAP SECONDS        
 24 R01  1 R02 -4 R03  5 R04  6 R05  1 R06 -4 R07  5 R08  6 GLONASS SLOT / FRQ #
    R09 -2 R10 -7 R11  0 R12 -1 R13 -2 R14 -7 R15  0 R16 -1 GLONASS SLOT / FRQ #
    R17  4 R18 -3 R19  3 R20  2 R21  4 R22 -3 R23  3 R24  2 GLONASS SLOT / FRQ #
                                                            END OF HEADER       
> 2025 01 01 10 30  0.0000000  0 54
G19         1.000    22256988.542 7 116961422.42807      1858.655 7        46.043                                    22256989.651 5  91138859.03705      1448.302 5        35.710
R01         2.000    22999527.824 6 122945469.79706     -5075.719 6        40.439                                                                    22999539.344 6  95624276.95206     -3947.758 6        38.030
G24         3.000    21016462.780 7 110442275.36207      1509.221 7        47.678                                    21016466.487 8  86058949.08308      1176.015 8        48.678    21016466.936 7  86058946.09307      1175.961 7        44.519
R02         4.000    19946214.335 8 106436755.79108     -2523.013 8        52.229                                                                    19946219.093 7  82784141.64307     -1962.243 7        47.317
S21         5.000    38549182.302 7 202577067.03307      -517.757 7        42.438
G17         7.000    22102515.259 7 116149666.32607      -567.752 7        46.293                                    22102518.074 7  90506322.73107      -442.405 7        44.232    22102518.454 7  90506318.72807      -442.358 7        42.425
R21         8.000    22608179.233 7 120981003.19207       946.958 7        45.016                                                                    22608188.751 7  94096414.68307       736.612 7        42.650
E12         9.000    28985194.436 5 152318228.83505       289.763 5        30.551                                                                    28985207.278 6 113744183.65406       216.318 6        36.405    28985205.788 6 116711411.74406       222.050 6        36.726
E30        10.000    26435820.893 7 138921285.08507      2070.978 7        42.857                                                                    26435830.096 7 103740019.21407      1546.518 7        45.645    26435828.598 7 106446270.48107      1586.878 7        45.722
C26        11.000                                                                                                                                    21753979.639 8 113278700.72008      -459.913 8        50.509                                                                    21753982.131 8  92048241.75208      -373.629 8        48.982
S27        12.000    39287251.388 6 206455765.41506      -549.911 6        36.325
G15        13.000    20692814.631 8 108741405.47008     -2228.073 8        49.334                                    20692815.465 8  84733528.99008     -1736.159 8        48.893    20692815.376 7  84733520.98807     -1736.133 7        44.898
S36        14.000    38320163.377 7 201374230.17407      -518.755 7        44.289
G12        15.000    23609222.647 7 124067395.66607      3014.421 7        43.998                                    23609227.088 6  96675954.97906      2348.898 6        38.291    23609227.501 6  96675954.99906      2348.871 6        40.105
R11        16.000    22694627.408 7 121273077.15307     -3949.781 7        44.063                                                                    22694637.607 7  94323467.93107     -3072.136 7        43.213
S45        17.000    63504768.998 6 333720284.41406      -572.811 6        36.151
R03        18.000    20880420.368 8 111774478.19608      1797.143 8        50.481                                                                    20880424.696 7  86935707.47207      1397.781 7        45.786
C35        19.000                                                                                                                                    25500770.044 7 132789272.29007      2416.696 7        42.766                                                                    25500777.448 7 107902223.97607      1963.747 7        43.024
G30        21.000    25458648.781 5 133785886.23005     -3695.356 5        33.467                                    25458662.189 3 104248689.83703     -2879.488 3        21.619    25458661.578 5 104248693.82705     -2879.584 5        31.313
I06        22.000    38334021.603 7 150431010.84407      -492.098 7        42.099
S28        23.000    41002753.163 5 215470698.84605      -528.238 5        35.067
G14        24.000    22810109.161 7 119867848.10607     -3486.569 7        44.766                                    22810114.180 5  93403498.33305     -2716.803 5        31.117    22810114.315 7  93403500.32007     -2716.730 7        42.411
S23        25.000    38253698.699 7 201024433.58107      -520.846 7        44.567
E08        26.000    23625543.598 8 124153008.12408      -791.793 8        48.593                                                                    23625547.404 8  92711641.85108      -591.255 8        50.795    23625546.407 8  95130206.20908      -606.764 8        51.044
C07        27.000                                                                                                                                    39079853.545 6 203499008.57606      -979.171 6        40.818    39079856.880 7 157358343.05007      -757.183 7        43.329    39079853.203 6 165359603.48206      -795.576 6        40.832
G13        28.000    21586488.655 8 113437685.40308     -3444.177 8        48.242                                    21586489.885 5  88392960.44005     -2683.769 5        35.619
I02        29.000    37083711.369 7 145524457.92507      -221.166 7        43.147
G10        30.000    24791081.869 6 130277930.52306       950.643 6        41.037                                    24791089.403 5 101515253.63005       740.763 5        34.805    24791089.172 6 101515245.61906       740.710 6        37.709
E07        31.000    25903957.607 7 136126133.89007      1775.400 7        43.247                                                                    25903967.371 7 101652626.51807      1325.732 7        46.365    25903966.066 7 104304432.58607      1360.219 7        46.813
E03        32.000    25578845.141 7 134417644.65707     -3170.758 7        43.577                                                                    25578853.226 7 100376798.94807     -2367.824 7        47.666    25578851.975 7 102995321.80407     -2429.539 7        47.790
E10        33.000    28893133.442 5 151834424.15805      1202.110 5        34.371                                                                    28893151.726 6 113382914.92406       897.719 6        39.174    28893149.640 6 116340719.19606       921.125 6        39.877
G02        34.000    25794831.456 6 135552777.37706      -505.921 6        36.983                                    25794838.636 3 105625581.13003      -394.217 3        18.567
C24        35.000                                                                                                                                    23694608.964 7 123384069.46407      1846.793 7        46.496                                                                    23694611.361 7 100259682.03207      1500.662 7        46.477
G23        36.000    23316908.739 7 122531066.64807     -1495.483 7        43.134                                    23316913.522 4  95478708.62704     -1165.312 4        28.948    23316913.525 7  95478709.60507     -1165.249 7        42.102
R04        38.000    24660684.361 7 132056839.39407      3799.636 7        43.010                                                                    24660686.615 6 102710882.97206      2955.212 6        38.577
C33        39.000                                                                                                                                    24428850.852 7 127207426.57107       901.095 7        45.634                                                                    24428868.769 7 103366525.98607       732.230 7        45.836
E25        40.000    25151852.449 7 132173830.74207     -2640.625 7        44.650                                                                    25151860.716 7  98701226.43407     -1971.854 7        47.903    25151859.377 8 101276034.71708     -2023.332 8        48.167
S44        42.000    40977983.562 6 215340727.43506      -482.985 6        37.115
R22        43.000    24034102.331 6 128295705.32806      3298.967 6        41.359                                                                    24034115.148 6  99785611.54606      2565.877 6        38.940
C05        44.000                                                                                                                                    39535751.123 6 205872905.87306      -555.875 6        37.970    39535757.112 7 159193972.05907      -429.880 7        42.904    39535755.819 6 167288669.30606      -451.785 6        39.156
C40        45.000                                                                                                                                    39191875.506 7 204082336.40607     -1182.124 7        42.722                                                                    39191881.190 7 165833621.41707      -960.525 7        42.271
C21        46.000                                                                                                                                    25723109.089 6 133946798.64806     -4007.387 6        41.569                                                                    25723112.248 7 108842681.00407     -3256.305 7        43.488
R20        47.000    23670032.809 5 126574334.81805     -2330.313 5        30.264                                                                    23670046.518 6  98446764.19406     -1812.467 6        39.393
C10        49.000                                                                                                                                    38603650.458 7 201019345.66507      -604.074 7        42.394    38603654.641 7 155440925.70007      -467.226 7        44.730    38603650.918 6 163344688.15406      -490.824 6        41.240
C42        50.000                                                                                                                                    23248283.569 8 121059826.98008     -2265.448 8        48.264                                                                    23248296.093 8  98371044.30608     -1840.868 8        48.599
S48        51.000    77259142.721 6 405999218.51106      -512.928 6        37.815
E02        53.000    23289852.240 8 122389091.67908      -105.615 8        48.734                                                                    23289856.476 8  91394531.02308       -78.877 8        51.169    23289855.405 8  93778717.41408       -80.932 8        51.100
C60        54.000                                                                                                                                    40977984.991 6 213383101.90306      -478.316 6        40.646                                                                    40977979.255 6 173391173.47006      -388.668 6        39.447
C45        55.000                                                                                                                                    24084114.791 7 125412192.44407     -2967.883 7        46.334                                                                    24084113.040 7 101907629.22007     -2411.665 7        46.238
R12        56.000    19474972.422 8 104031898.33808     -1173.998 8        51.544                                                                    19474976.694 7  80913736.84707      -913.111 7        47.719
C02        57.000                                                                                                                                    41086486.073 5 213947933.63505      -526.334 5        30.287    41086494.044 5 165438047.73305      -406.945 5        35.833    41086493.891 5                      -427.537 5        30.521
I03        58.000   122581410.548 5 405250236.70905       890.743 5        34.562
C14        59.000                                                                                                                                    23311537.495 7 121389224.08507      -660.304 7        46.134    23311539.231 8  93865819.42508      -510.575 8        50.913    23311536.625 8  98638658.39408      -536.490 8        48.304
R13        60.000    20836709.515 7 111266939.78207      1827.658 7        44.701
> 2025 01 01 10 30  5.0000000  0 54
G19         1.000    22255220.821 7 116952134.50407      1856.448 7        45.731                                    22255222.264 5  91131621.69805      1446.578 5        35.510
R01         2.000    23004275.145 6 122970849.09306     -5076.204 6        40.615                                                                    23004286.705 6  95644016.34306     -3948.116 6        38.255
G24         3.000    21015027.459 7 110434733.31307      1507.415 7        47.273                                    21015031.275 8  86053072.16708      1174.608 8        48.720    21015031.806 7  86053069.16407      1174.687 7        44.415
R02         4.000    19948580.256 8 106449380.47708     -2526.933 8        52.297                                                                    19948584.586 7  82793960.82407     -1965.382 7        47.389
S21         5.000    38549673.836 7 202579655.05007      -517.607 7        42.336
G17         7.000    22103057.207 7 116152512.36407      -570.698 7        46.653                                    22103059.695 7  90508540.43207      -444.701 7        44.269    22103059.764 7  90508536.43507      -444.711 7        42.569
R21         8.000    22607295.303 7 120976277.75407       943.047 7        45.126                                                                    22607306.500 7  94092739.38707       733.541 7        44.001
E12         9.000    28984919.575 5 152316785.45205       287.597 5        30.355                                                                    28984932.714 6 113743105.80206       214.881 6        36.363    28984931.145 6 116710305.78906       220.302 6        36.817
E30        10.000    26433850.947 7 138910931.88107      2070.074 7        43.003                                                                    26433859.962 7 103732287.92607      1545.960 7        45.530    26433858.407 7 106438337.50007      1586.331 7        45.830
C26        11.000                                                                                                                                    21754422.115 8 113281003.28108      -461.241 8        50.382                                                                    21754424.340 8  92050112.77108      -374.867 8        49.253
S27        12.000    39287776.110 6 206458513.77706      -549.966 6        36.552
G15        13.000    20694935.796 8 108752553.02108     -2231.010 8        49.247                                    20694936.794 8  84742215.38208     -1738.445 8        48.916    20694937.198 7  84742207.38107     -1738.464 7        44.789
S36        14.000    38320657.938 7 201376822.94507      -518.357 7        44.412
G12        15.000    23606355.519 7 124052325.39907      3013.490 7        43.145                                    23606359.432 6  96664211.94306      2348.171 6        38.399    23606359.988 6  96664211.94506      2348.256 6        39.556
R11        16.000    22698323.781 7 121292826.47107     -3950.015 7        43.937                                                                    22698332.970 7  94338828.45707     -3072.131 7        42.838
S45        17.000    63505264.230 6 333723148.31206      -572.695 6        36.159
R03        18.000    20878743.621 8 111765501.36608      1793.522 8        50.388                                                                    20878747.852 7  86928725.49607      1394.977 7        46.120
C35        19.000                                                                                                                                    25498450.130 7 132777189.93707      2416.197 7        42.838                                                                    25498457.187 7 107892406.08207      1963.270 7        43.098
G30        21.000    25462164.832 5 133804362.68105     -3695.515 5        33.940                                    25462177.815 3 104263087.05003     -2879.635 3        21.810    25462178.511 5 104263091.06205     -2879.906 5        31.268
I06        22.000    38334647.966 7 150433470.46207      -491.931 7        42.256
S28        23.000    41003255.858 5 215473340.96705      -528.306 5        35.295
G14        24.000    22813426.630 7 119885283.29807     -3487.422 7        44.119                                    22813432.075 5  93417084.15005     -2717.467 5        31.049    22813432.668 7  93417086.14007     -2717.554 7        42.808
S23        25.000    38254193.914 7 201027037.03207      -520.647 7        44.652
E08        26.000    23626297.880 8 124156971.88008      -793.840 8        48.683                                                                    23626301.674 8  92714601.78908      -592.720 8        50.727    23626300.742 8  95133243.36208      -608.229 8        51.051
C07        27.000                                                                                                                                    39080793.538 6 203503904.76706      -979.459 6        40.591    39080797.144 7 157362129.08107      -757.377 7        43.446    39080793.440 6 165363582.02806      -795.924 6        40.920
G13        28.000    21589766.850 8 113454910.79608     -3445.991 8        48.375                                    21589767.821 5  88406382.79505     -2685.182 5        35.538
I02        29.000    37083993.214 7 145525564.01107      -221.320 7        43.213
G10        30.000    24790178.794 6 130273183.98306       947.890 6        41.199                                    24790186.100 5 101511555.01505       738.617 5        34.900    24790185.856 6 101511547.01206       738.638 6        37.868
E07        31.000    25902268.783 7 136117259.68407      1774.351 7        43.441                                                                    25902278.713 7 101645999.67307      1325.001 7        46.373    25902277.428 7 104297632.86307      1359.479 7        46.910
E03        32.000    25581862.407 7 134433500.90107     -3171.737 7        43.791                                                                    25581870.472 7 100388639.62507     -2368.453 7        47.402    25581869.443 7 103007471.37207     -2430.364 7        47.999
E10        33.000    28891990.796 5 151828417.22905      1200.583 5        35.252                                                                    28892008.545 6 113378429.22206       896.542 6        39.006    28892006.631 6 116336116.48206       919.788 6        40.012
G02        34.000    25795313.862 6 135555312.37906      -508.299 6        37.569                                    25795321.173 3 105627556.47303      -396.046 3        18.418
C24        35.000                                                                                                                                    23692836.000 7 123374837.08207      1846.039 7        46.424                                                                    23692838.350 7 100252179.97507      1499.988 7        46.625
G23        36.000    23318332.724 7 122538550.60907     -1498.173 7        42.726                                    23318337.774 4  95484540.26404     -1167.407 4        28.872    23318337.875 6  95484541.25806     -1167.482 6        41.812
R04        38.000    24657136.517 6 132037842.03906      3799.106 6        41.831                                                                    24657139.909 6 102696107.16606      2954.934 6        38.111
C33        39.000                                                                                                                                    24427987.054 7 127202927.16807       898.527 7        45.371                                                                    24428004.705 7 103362869.85907       730.117 7        45.998
E25        40.000    25154365.261 7 132187035.30507     -2641.326 7        44.798                                                                    25154373.446 7  98711086.97107     -1972.398 7        47.815    25154372.180 8 101286152.48508     -2023.879 8        48.203
S44        42.000    40978441.438 6 215343140.07906      -482.497 6        37.191
R22        43.000    24031012.664 6 128279211.53506      3298.470 6        41.897                                                                    24031025.603 6  99772783.09406      2565.380 6        39.802
C05        44.000                                                                                                                                    39536284.909 6 205875684.83506      -555.820 6        37.671    39536290.917 7 159196120.90207      -429.734 7        43.009    39536289.490 6 167290927.43106      -451.695 6        39.246
C40        45.000                                                                                                                                    39193010.626 7 204088247.70307     -1182.469 7        42.586                                                                    39193016.473 7 165838424.82007      -961.000 7        42.565
C21        46.000                                                                                                                                    25726957.057 6 133966836.08806     -4007.707 6        41.278                                                                    25726960.236 7 108858963.01607     -3256.622 7        43.788
R20        47.000    23672214.804 5 126585995.59405     -2334.317 5        30.174                                                                    23672227.634 6  98455833.67206     -1815.472 6        40.122
C10        49.000                                                                                                                                    38604230.723 7 201022367.44207      -604.649 7        42.245    38604235.053 7 155443262.32307      -467.523 7        44.808    38604231.181 6 163347143.60206      -491.337 6        41.547
C42        50.000                                                                                                                                    23250460.209 8 121071159.56608     -2267.735 8        48.066                                                                    23250472.425 8  98380252.94308     -1842.740 8        48.733
S48        51.000    77259636.755 6 406001781.84206      -512.569 6        38.147
E02        53.000    23289953.561 8 122389623.86408      -107.302 8        48.796                                                                    23289957.763 8  91394928.43008       -80.097 8        51.031    23289956.662 8  93779125.19008       -82.202 8        51.200
C60        54.000                                                                                                                                    40978444.007 6 213385492.62706      -478.051 6        40.615                                                                    40978438.451 6 173393116.13206      -388.390 6        39.748
C45        55.000                                                                                                                                    24086964.386 7 125427032.75207     -2968.259 7        45.810                                                                    24086963.050 7 101919688.16207     -2412.053 7        46.347
R12        56.000    19476072.373 8 104037773.65808     -1176.214 8        51.518                                                                    19476076.602 7  80918306.52107      -914.815 7        47.938
C02        57.000                                                                                                                                    41086991.317 5 213950563.80005      -525.389 5        30.241    41086999.645 5 165440081.58205      -406.706 5        35.952    41086998.558 5                      -427.331 5        30.860
I03        58.000   122580276.432 5 405245783.39605       890.594 5        34.448
C14        59.000                                                                                                                                    23312172.610 7 121392532.26007      -663.163 7        45.869    23312174.475 8  93868377.50208      -512.731 8        51.017    23312171.929 8  98641346.54708      -538.907 8        48.475
R13        60.000    20834998.101 7 111257805.93007      1825.762 7        44.153
> 2025 01 01 10 30 10.0000000  0 54
G19         1.000    22253456.231 7 116942858.52907      1854.084 7        45.901                                    22253457.024 5  91124393.67105      1444.738 5        35.486
R01         2.000    23009024.349 6 122996233.06606     -5077.172 6        40.882                                                                    23009036.842 6  95663759.34706     -3948.970 6        38.261
G24         3.000    21013593.798 7 110427200.99307      1505.519 7        47.169                                    21013597.928 8  86047202.83108      1173.130 8        48.827    21013598.447 7  86047199.84207      1173.176 7        44.618
R02         4.000    19950949.800 8 106462026.20908     -2531.177 8        52.068                                                                    19950954.147 7  82803796.38307     -1968.703 7        47.328
S21         5.000    38550166.376 7 202582243.12707      -517.645 7        42.392
G17         7.000    22103602.009 7 116155374.63807      -574.038 7        46.696                                    22103604.419 7  90510770.78407      -447.303 7        44.420    22103604.386 7  90510766.79207      -447.320 7        42.910
R21         8.000    22606417.007 7 120971572.61507       939.052 7        44.653                                                                    22606426.157 7  94089079.86907       730.387 7        43.005
E12         9.000    28984647.120 5 152315353.82405       285.063 5        30.785                                                                    28984660.347 6 113742036.71206       212.934 6        36.140    28984658.619 6 116709208.80806       218.541 6        36.612
E30        10.000    26431881.626 7 138900583.61307      2069.108 7        42.851                                                                    26431890.731 7 103724560.32707      1545.165 7        45.586    26431889.116 7 106430408.31807      1585.462 7        45.711
C26        11.000                                                                                                                                    21754865.724 8 113283314.02808      -462.973 8        50.470                                                                    21754868.064 8  92051990.43308      -376.182 8        49.078
S27        12.000    39288293.741 6 206461262.76106      -550.016 6        36.703
G15        13.000    20697060.410 8 108763716.76508     -2234.340 8        49.531                                    20697061.203 8  84750914.39108     -1741.044 8        49.050    20697061.567 7  84750906.38107     -1741.003 7        44.922
S36        14.000    38321150.545 7 201379416.07507      -518.695 7        44.567
G12        15.000    23603488.521 7 124037260.76307      3012.365 7        42.773                                    23603492.746 6  96652473.28906      2347.291 6        38.535    23603492.422 6  96652473.30406      2347.348 6        39.775
R11        16.000    22702020.711 7 121312577.73107     -3950.329 7        44.543                                                                    22702028.859 7  94354190.50807     -3072.502 7        42.070
S45        17.000    63505760.263 6 333726012.52406      -572.923 6        36.291
R03        18.000    20877070.082 8 111756543.67308      1789.649 8        50.484                                                                    20877074.450 7  86921758.41707      1391.927 7        46.087
C35        19.000                                                                                                                                    25496130.428 7 132765111.16107      2415.440 7        43.215                                                                    25496137.466 7 107882591.08207      1962.769 7        42.754
G30        21.000    25465680.538 5 133822840.98805     -3695.918 5        34.148                                    25465694.138 3 104277485.70003     -2879.929 3        21.786    25465694.546 5 104277489.68905     -2879.937 5        30.687
I06        22.000    38335274.770 7 150435930.31907      -491.908 7        42.231
S28        23.000    41003760.418 5 215475983.06705      -528.200 5        35.205
G14        24.000    22816745.247 7 119902723.94007     -3488.565 7        43.067                                    22816751.097 5  93430674.21405     -2718.355 5        30.943    22816751.467 7  93430676.19407     -2718.354 7        43.376
S23        25.000    38254690.510 7 201029640.74807      -520.646 7        44.777
E08        26.000    23627054.362 8 124160946.62908      -795.990 8        48.693                                                                    23627058.093 8  92717569.93908      -594.419 8        50.807    23627057.059 8  95136288.94308      -609.936 8        50.984
C07        27.000                                                                                                                                    39081734.831 6 203508803.93806      -980.089 6        40.818    39081737.986 7 157365917.42507      -757.905 7        43.560    39081734.346 6 165367562.99406      -796.348 6        40.965
G13        28.000    21593046.632 8 113472146.47408     -3448.146 8        48.340                                    21593047.698 5  88419813.16405     -2686.860 5        35.786
I02        29.000    37084275.429 7 145526671.63007      -221.464 7        43.255
G10        30.000    24789279.043 6 130268452.04306       945.058 6        41.754                                    24789285.555 5 101507867.76905       736.413 5        35.195    24789285.503 6 101507859.76906       736.383 6        38.093
E07        31.000    25900581.638 7 136108391.45307      1773.088 7        43.388                                                                    25900591.091 7 101639377.30407      1324.064 7        46.398    25900589.853 7 104290837.73407      1358.565 7        46.954
E03        32.000    25584880.876 7 134449363.23107     -3172.987 7        43.970                                                                    25584889.025 7 100400484.85907     -2369.553 7        47.445    25584887.964 7 103019625.60407     -2431.289 7        47.906
E10        33.000    28890849.750 5 151822419.51805      1198.597 5        35.724                                                                    28890867.374 6 113373950.39006       895.126 6        39.141    28890865.279 6 116331520.82306       918.390 6        39.706
G02        34.000    25795798.839 6 135557861.13706      -511.290 6        37.629                                    25795806.049 3 105629542.54903      -398.406 3        18.657
C24        35.000                                                                                                                                    23691063.748 7 123365609.51307      1845.133 7        46.379                                                                    23691066.302 7 100244681.81807      1499.246 7        46.510
G23        36.000    23319759.407 7 122546050.26507     -1501.533 7        42.836                                    23319765.040 4  95490384.13404     -1170.021 4        29.137    23319765.081 7  95490385.12607     -1169.957 7        42.123
R04        38.000    24653590.026 7 132018848.58707      3798.265 7        42.356                                                                    24653592.412 6 102681334.39706      2954.292 6        38.357
C33        39.000                                                                                                                                    24427125.712 7 127198441.17607       895.877 7        45.776                                                                    24427143.215 7 103359224.59907       728.089 7        45.816
E25        40.000    25156878.952 7 132200244.94607     -2642.351 7        44.755                                                                    25156887.175 7  98720951.29007     -1973.259 7        47.868    25156885.834 8 101296274.13408     -2024.660 8        48.193
S44        42.000    40978900.177 6 215345552.80606      -482.565 6        37.210
R22        43.000    24027923.727 6 128262721.70306      3297.614 6        41.595                                                                    24027936.647 6  99759957.70906      2564.892 6        39.910
C05        44.000                                                                                                                                    39536818.374 6 205878463.92006      -555.780 6        37.981    39536824.511 7 159198269.84307      -429.777 7        43.058    39536823.303 6 167293185.63406      -451.662 6        39.108
C40        45.000                                                                                                                                    39194146.288 7 204094162.65907     -1183.275 7        42.703                                                                    39194152.382 7 165843231.18907      -961.571 7        42.372
C21        46.000                                                                                                                                    25730805.429 6 133986875.70406     -4008.044 6        41.313                                                                    25730808.672 7 108875246.79807     -3256.838 7        43.663
R20        47.000    23674399.172 5 126597675.97905     -2338.495 5        30.068                                                                    23674411.770 6  98464918.42106     -1818.293 6        40.005
C10        49.000                                                                                                                                    38604811.749 7 201025392.41107      -605.238 7        42.417    38604816.121 7 155445601.42507      -467.955 7        44.707    38604812.188 6 163349601.63306      -491.801 6        41.373
C42        50.000                                                                                                                                    23252638.824 7 121082504.74507     -2270.228 7        47.970                                                                    23252651.180 8  98389471.80308     -1844.756 8        48.651
S48        51.000    77260124.864 6 406004345.25506      -512.431 6        38.108
E02        53.000    23290056.669 8 122390165.42808      -109.216 8        48.686                                                                    23290060.823 8  91395332.83908       -81.570 8        51.110    23290059.743 8  93779540.14908       -83.683 8        51.147
C60        54.000                                                                                                                                    40978903.051 6 213387883.42706      -478.178 6        40.584                                                                    40978897.526 6 173395058.85706      -388.504 6        39.574
C45        55.000                                                                                                                                    24089815.207 7 125441876.41307     -2969.017 7        45.592                                                                    24089813.664 7 101931749.82107     -2412.574 7        46.257
R12        56.000    19477174.304 8 104043661.22208     -1178.668 8        51.458                                                                    19477178.963 8  80922885.73008      -916.708 8        48.029
C02        57.000                                                                                                                                    41087495.564 5 213953194.08305      -526.100 5        30.113    41087504.590 6 165442115.45506      -406.702 6        36.023    41087504.567 5                      -427.788 5        30.521
I03        58.000   122579141.685 5 405241330.03405       890.695 5        34.314
C14        59.000                                                                                                                                    23312810.411 7 121395855.41007      -666.116 7        46.075    23312812.913 8  93870947.16408      -515.049 8        50.975    23312810.079 8  98644046.86208      -541.206 8        48.344
R13        60.000    20833289.780 7 111248682.06607      1823.873 7        44.494
> 2025 01 01 10 30 15.0000000  0 54
G19         1.000    22251693.128 7 116933594.33507      1851.573 7        45.649                                    22251694.011 5  91117174.82305      1442.783 5        35.600
R01         2.000    23013773.929 6 123021621.28906     -5078.178 6        41.066                                                                    23013785.169 6  95683505.66406     -3949.711 6        38.072
G24         3.000    21012162.663 7 110419678.27907      1503.516 7        47.270                                    21012166.401 8  86041340.97908      1171.569 8        48.960    21012166.757 7  86041337.98907      1171.581 7        44.442
R02         4.000    19953323.464 8 106474692.74508     -2535.497 8        52.291                                                                    19953328.205 7  82813648.11607     -1971.981 7        47.322
S21         5.000    38550661.023 7 202584831.02907      -517.730 7        42.354
G17         7.000    22104149.421 7 116158253.00107      -577.379 7        46.697                                    22104152.197 7  90513013.67607      -449.907 7        44.540    22104152.144 7  90513009.68407      -450.015 7        43.052
R21         8.000    22605540.876 7 120966887.61307       934.914 7        43.922                                                                    22605550.931 7  94085436.01807       727.110 7        42.785
E12         9.000    28984377.457 5 152313933.77905       282.770 5        31.321                                                                    28984390.047 6 113740976.28706       211.166 6        36.276    28984388.369 6 116708120.72706       216.656 6        36.707
E30        10.000    26429913.186 7 138890240.19607      2068.140 7        43.170                                                                    26429922.488 7 103716836.34307      1544.375 7        45.741    26429920.826 7 106422482.84207      1584.654 7        45.744
C26        11.000                                                                                                                                    21755310.834 8 113285632.81908      -464.683 8        50.414                                                                    21755313.372 8  92053874.65308      -377.715 8        49.034
S27        12.000    39288823.015 6 206464011.93806      -549.790 6        36.597
G15        13.000    20699187.684 8 108774896.60008     -2237.669 8        49.140                                    20699188.676 8  84759625.94108     -1743.635 8        49.169    20699188.616 7  84759617.93607     -1743.587 7        44.941
S36        14.000    38321644.673 7 201382010.56607      -518.945 7        44.551
G12        15.000    23600622.999 7 124022201.66307      3011.200 7        42.899                                    23600627.026 6  96640738.94906      2346.383 6        38.646    23600627.632 6  96640738.97406      2346.287 6        40.286
R11        16.000    22705718.267 7 121332330.73907     -3950.890 7        45.845                                                                    22705725.621 6  94369553.93106     -3072.956 6        41.356
S45        17.000    63506259.327 6 333728876.75806      -573.052 6        36.306
R03        18.000    20875400.568 8 111747604.96308      1785.821 8        50.097                                                                    20875404.659 7  86914806.09707      1389.021 7        46.329
C35        19.000                                                                                                                                    25493811.322 7 132753035.83807      2414.549 7        42.908                                                                    25493818.352 7 107872778.90407      1962.007 7        42.413
G30        21.000    25469197.043 5 133841320.97105     -3696.161 5        34.295                                    25469210.644 3 104291885.66603     -2880.117 3        21.810    25469210.596 4 104291889.64504     -2880.293 4        29.905
I06        22.000    38335901.489 7 150438390.31307      -492.073 7        42.199
S28        23.000    41004261.705 5 215478625.57705      -528.423 5        35.243
G14        24.000    22820065.506 7 119920169.89707     -3489.792 7        43.103                                    22820071.236 5  93444268.42005     -2719.306 5        31.155    22820070.989 7  93444270.40007     -2719.345 7        43.517
S23        25.000    38255185.889 7 201032244.57807      -520.907 7        44.731
E08        26.000    23627812.833 8 124164932.26208      -798.324 8        48.735                                                                    23627816.539 8  92720546.21308      -596.126 8        50.830    23627815.527 8  95139342.85408      -611.646 8        50.932
C07        27.000                                                                                                                                    39082676.325 6 203513705.92706      -980.809 6        40.827    39082679.458 7 157369707.94307      -758.354 7        43.704    39082675.785 6 165371546.27406      -797.100 6        40.658
G13        28.000    21596328.420 8 113489392.29008     -3450.316 8        48.364                                    21596329.521 5  88433251.43205     -2688.548 5        35.829
I02        29.000    37084558.004 7 145527780.40007      -221.923 7        43.156
G10        30.000    24788380.809 6 130263734.54006       941.947 6        40.932                                    24788387.792 5 101504191.77905       733.993 5        35.367    24788387.807 6 101504183.77406       733.958 6        38.195
E07        31.000    25898894.956 7 136099529.11207      1771.767 7        43.280                                                                    25898904.606 7 101632759.32107      1323.079 7        46.423    25898903.414 7 104284047.10107      1357.655 7        46.722
E03        32.000    25587900.608 7 134465231.50007     -3174.292 7        44.432                                                                    25587908.759 7 100412334.51207     -2370.405 7        47.354    25587907.526 7 103031784.39107     -2432.253 7        47.871
E10        33.000    28889709.504 5 151816430.82605      1196.911 5        35.776                                                                    28889727.768 6 113369478.34106       893.593 6        38.751    28889725.723 6 116326932.10506       916.963 6        39.568
G02        34.000    25796286.382 6 135560423.46806      -513.967 6        36.817                                    25796293.519 3 105631539.17803      -400.474 3        19.134
C24        35.000                                                                                                                                    23689292.732 7 123356386.62407      1844.001 7        46.326                                                                    23689295.123 7 100237187.48407      1498.327 7        46.445
G23        36.000    23321189.949 7 122553565.42107     -1504.763 7        42.709                                    23321195.109 4  95496240.08504     -1172.536 4        29.251    23321194.954 6  95496241.07506     -1172.496 6        41.635
R04        38.000    24650043.990 7 131999858.86707      3797.427 7        42.227                                                                    24650045.545 6 102666564.51906      2953.684 6        38.102
C33        39.000                                                                                                                                    24426266.864 7 127193968.47107       893.063 7        45.989                                                                    24426284.295 7 103355590.18407       725.612 7        45.788
E25        40.000    25159393.686 7 132213459.51007     -2643.466 7        44.933                                                                    25159401.889 7  98730819.28407     -1974.019 7        47.906    25159400.452 8 101306399.56108     -2025.501 8        48.115
S44        42.000    40979357.884 6 215347965.45206      -482.424 6        37.319
R22        43.000    24024835.376 6 128246235.70606      3296.837 6        41.271                                                                    24024848.301 6  99747135.30706      2564.197 6        39.517
C05        44.000                                                                                                                                    39537352.415 6 205881242.98306      -555.894 6        37.694    39537358.168 7 159200418.76507      -429.871 7        43.071    39537356.996 6 167295443.83806      -451.712 6        39.087
C40        45.000                                                                                                                                    39195283.380 7 204100081.11907     -1184.170 7        42.595                                                                    39195288.897 7 165848040.42507      -962.277 7        42.279
C21        46.000                                                                                                                                    25734653.616 6 134006917.37906     -4008.642 6        41.402                                                                    25734657.649 7 108891532.26707     -3257.418 7        43.623
R20        47.000    23676587.521 5 126609375.89605     -2341.303 5        30.287                                                                    23676599.602 6  98474018.43406     -1821.639 6        40.513
C10        49.000                                                                                                                                    38605393.317 7 201028420.45607      -605.948 7        42.311    38605397.374 7 155447942.90907      -468.646 7        44.673    38605393.694 6 163352062.19106      -492.542 6        41.399
C42        50.000                                                                                                                                    23254819.847 8 121093862.37108     -2272.836 8        48.110                                                                    23254832.297 8  98398700.81108     -1847.052 8        48.536
S48        51.000    77260615.575 6 406006908.67406      -512.670 6        38.093
E02        53.000    23290161.460 8 122390716.22708      -111.224 8        48.954                                                                    23290165.623 8  91395744.14808       -83.042 8        51.139    23290164.569 8  93779962.18808       -85.224 8        51.025
C60        54.000                                                                                                                                    40979362.085 6 213390274.15706      -478.191 6        40.613                                                                    40979356.694 6 173397001.53106      -388.628 6        39.513
C45        55.000                                                                                                                                    24092666.244 7 125456723.29807     -2969.758 7        45.076                                                                    24092664.823 7 101943814.12207     -2413.334 7        46.189
R12        56.000    19478278.660 8 104049560.90708     -1181.204 8        50.917                                                                    19478283.573 7  80927474.36407      -918.736 7        47.753
C02        57.000                                                                                                                                    41088001.841 5 213955824.19605      -526.074 5        30.196    41088009.548 5 165444149.22405      -406.732 5        35.848    41088009.203 5                      -427.403 5        30.596
I03        58.000   122578007.233 5 405236876.47805       890.882 5        34.405
C14        59.000                                                                                                                                    23313451.686 7 121399193.37207      -669.163 7        46.062    23313454.001 8  93873528.27308      -517.415 8        51.080    23313451.199 8  98646759.24108      -543.889 8        48.291
R13        60.000    20831583.042 7 111239568.06907      1821.739 7        44.166
> 2025 01 01 10 30 20.0000000  0 54
G19         1.000    22249932.793 7 116924342.49707      1849.210 7        46.410                                    22249933.457 5  91109965.60805      1440.940 5        35.705
R01         2.000    23018524.371 6 123047014.31306     -5079.132 6        41.676                                                                    23018536.536 6  95703255.70406     -3950.410 6        37.989
G24         3.000    21010733.399 7 110412165.72407      1501.589 7        47.368                                    21010736.796 8  86035487.04408      1170.066 8        48.916    21010737.273 7  86035484.05907      1169.985 7        44.569
R02         4.000    19955701.472 8 106487380.79308     -2539.713 8        52.235                                                                    19955705.824 7  82823516.58107     -1975.415 7        47.181
S21         5.000    38551152.302 7 202587419.69107      -517.793 7        42.354
G17         7.000    22104700.333 7 116161147.96007      -580.638 7        46.598                                    22104703.110 7  90515269.49807      -452.445 7        44.460    22104702.875 7  90515265.49307      -452.363 7        42.358
R21         8.000    22604669.057 7 120962223.40407       930.765 7        44.254                                                                    22604679.136 7  94081808.34107       723.942 7        43.213
E12         9.000    28984109.983 5 152312525.85805       280.341 5        31.751                                                                    28984122.139 6 113739924.92306       209.425 6        36.087    28984120.651 6 116707041.93306       215.001 6        36.465
E30        10.000    26427945.595 7 138879902.15207      2067.046 7        42.610                                                                    26427955.298 7 103709116.36807      1543.628 7        45.649    26427953.531 7 106414561.48307      1583.852 7        45.678
C26        11.000                                                                                                                                    21755757.887 8 113287960.17808      -466.260 8        50.548                                                                    21755760.334 8  92055765.81908      -378.942 8        49.096
S27        12.000    39289343.821 6 206466761.60306      -549.825 6        36.544
G15        13.000    20701318.259 8 108786093.07608     -2240.920 8        48.861                                    20701319.302 8  84768350.45508     -1746.168 8        49.080    20701319.618 7  84768342.45107     -1746.187 7        45.162
S36        14.000    38322138.770 7 201384605.68407      -519.032 7        44.473
G12        15.000    23597758.671 7 124007148.62007      3010.065 7        43.132                                    23597762.500 6  96629009.33006      2345.500 6        38.541    23597762.782 6  96629009.34206      2345.551 6        39.916
R11        16.000    22709414.225 7 121352086.03307     -3951.269 7        45.685                                                                    22709422.693 7  94384919.10807     -3073.186 7        42.049
S45        17.000    63506754.922 6 333731741.60406      -573.173 6        36.310
R03        18.000    20873733.889 8 111738685.37308      1781.949 8        50.531                                                                    20873738.644 7  86907868.64507      1385.993 7        46.418
C35        19.000                                                                                                                                    25491492.759 7 132740964.48607      2413.945 7        42.531                                                                    25491499.889 7 107862969.96407      1961.418 7        42.136
G30        21.000    25472715.028 5 133859803.22505     -3696.730 5        34.648                                    25472727.839 3 104306287.39003     -2880.562 3        22.400    25472729.015 5 104306291.40905     -2880.317 5        30.491
I06        22.000    38336528.881 7 150440850.78907      -492.019 7        42.072
S28        23.000    41004763.331 5 215481268.39505      -528.535 5        35.281
G14        24.000    22823386.734 7 119937621.68007     -3490.873 7        43.458                                    22823392.261 5  93457867.16205     -2720.156 5        31.102    22823391.851 7  93457869.14907     -2720.174 7        42.938
S23        25.000    38255681.944 7 201034848.94107      -520.906 7        44.743
E08        26.000    23628573.374 8 124168929.26708      -800.498 8        48.665                                                                    23628577.183 8  92723530.97608      -597.773 8        50.835    23628576.170 8  95142405.48808      -613.377 8        50.941
C07        27.000                                                                                                                                    39083618.584 6 203518611.25606      -981.295 6        40.937    39083621.595 7 157373501.05107      -758.877 7        43.892    39083617.796 6 165375532.24906      -797.440 6        40.722
G13        28.000    21599612.583 8 113506648.73008     -3452.296 8        48.446                                    21599613.292 5  88446697.98405     -2690.095 5        35.757
I02        29.000    37084840.729 7 145528890.62107      -222.172 7        43.029
G10        30.000    24787485.678 6 130259032.00506       939.050 6        40.872                                    24787492.868 5 101500527.44505       731.727 5        35.300    24787493.266 6 101500519.44706       731.820 6        38.180
E07        31.000    25897209.793 7 136090673.17307      1770.625 7        43.073                                                                    25897219.398 7 101626146.12607      1322.228 7        46.374    25897218.167 7 104277261.39007      1356.710 7        46.818
E03        32.000    25590921.427 7 134481106.24507     -3175.532 7        44.194                                                                    25590929.727 7 100424189.00607     -2371.356 7        47.322    25590928.392 7 103043948.13907     -2433.187 7        47.848
E10        33.000    28888571.555 5 151810451.79705      1194.781 5        35.143                                                                    28888589.912 6 113365013.47006       892.266 6        38.474    28888587.926 6 116322350.75306       915.447 6        39.640
G02        34.000    25796776.767 6 135562999.90006      -516.743 6        36.824                                    25796783.859 3 105633546.81903      -402.659 3        18.896
C24        35.000                                                                                                                                    23687522.447 7 123347168.94207      1843.056 7        46.136                                                                    23687524.993 7 100229697.36907      1497.592 7        46.555
G23        36.000    23322623.146 7 122561096.62507     -1507.914 7        42.309                                    23322628.202 4  95502108.52704     -1174.993 4        29.090    23322627.825 6  95502109.52006     -1174.896 6        41.957
R04        38.000    24646498.383 6 131980873.40206      3796.696 6        41.976                                                                    24646500.942 6 102651797.87206      2953.112 6        37.977
C33        39.000                                                                                                                                    24425410.198 7 127189509.55007       890.458 7        45.821                                                                    24425427.999 7 103351966.95407       723.592 7        45.980
E25        40.000    25161909.369 7 132226679.51707     -2644.511 7        44.673                                                                    25161917.577 7  98740691.34707     -1974.800 7        47.879    25161916.173 8 101316529.16208     -2026.316 8        48.120
S44        42.000    40979816.359 6 215350378.58606      -482.764 6        37.316
R22        43.000    24021747.555 6 128229754.12306      3295.894 6        41.299                                                                    24021760.090 6  99734316.35406      2563.422 6        39.117
C05        44.000                                                                                                                                    39537885.902 6 205884022.50506      -555.922 6        38.042    39537892.030 7 159202568.05607      -429.992 7        42.955    39537890.791 6 167297702.42106      -451.794 6        39.042
C40        45.000                                                                                                                                    39196420.921 7 204106003.61107     -1184.835 7        42.573                                                                    39196426.306 7 165852852.93007      -962.830 7        42.409
C21        46.000                                                                                                                                    25738502.686 6 134026961.61906     -4009.069 6        41.778                                                                    25738506.897 7 108907819.80907     -3257.712 7        43.619
R20        47.000    23678775.840 5 126621096.09105     -2345.767 5        30.083                                                                    23678791.889 6  98483134.12706     -1824.605 6        40.188
C10        49.000                                                                                                                                    38605975.331 7 201031452.08007      -606.665 7        42.440    38605979.565 7 155450287.15307      -469.113 7        44.637    38605975.819 6 163354525.63706      -493.138 6        41.509
C42        50.000                                                                                                                                    23257003.843 8 121105232.95808     -2275.376 8        48.395                                                                    23257015.876 8  98407940.33108     -1848.922 8        48.610
S48        51.000    77261104.811 6 406009473.02206      -512.973 6        38.324
E02        53.000    23290268.265 8 122391276.79208      -113.006 8        48.756                                                                    23290272.312 8  91396162.74908       -84.422 8        51.116    23290271.201 8  93780391.70908       -86.628 8        51.072
C60        54.000                                                                                                                                    40979821.281 6 213392665.33506      -478.304 6        40.563                                                                    40979815.903 6 173398944.57706      -388.672 6        39.607
C45        55.000                                                                                                                                    24095517.989 7 125471573.88007     -2970.441 7        45.443                                                                    24095516.579 7 101955881.42207     -2413.775 7        46.218
R12        56.000    19479385.600 8 104055473.14808     -1183.705 8        51.299                                                                    19479390.179 8  80932072.75708      -920.656 8        48.011
C02        57.000                                                                                                                                    41088507.171 5 213958454.78105      -526.417 5        30.189    41088515.016 5 165446183.36605      -406.789 5        35.824    41088514.260 5 173858725.80215      -427.797 5        30.475
I03        58.000   122576872.119 5 405232423.24805       890.680 5        34.214
C14        59.000                                                                                                                                    23314095.937 7 121402546.69207      -672.233 7        46.112    23314097.944 8  93876121.26208      -519.801 8        51.048    23314095.161 8  98649484.07808      -546.258 8        48.316
R13        60.000    20829877.989 7 111230464.41907      1819.755 7        44.268
> 2025 01 01 10 30 25.0000000  0 54
G19         1.000    22248174.323 7 116915102.51907      1846.783 7        46.256                                    22248175.152 5  91102765.62905      1439.050 5        35.914
R01         2.000    23023275.700 6 123072411.69106     -5080.025 6        41.566                                                                    23023286.373 6  95723009.16306     -3951.088 6        37.422
G24         3.000    21009305.400 7 110404662.81107      1499.612 7        47.094                                    21009309.034 8  86029640.62108      1168.529 8        48.936    21009309.516 7  86029637.63507      1168.495 7        44.581
R02         4.000    19958083.228 8 106500089.74208     -2544.002 8        52.063                                                                    19958087.231 7  82833401.30207     -1978.684 7        46.827
S21         5.000    38551645.446 7 202590008.35507      -517.802 7        42.387
G17         7.000    22105254.072 7 116164059.05907      -583.931 7        46.543                                    22105257.068 7  90517537.89507      -455.013 7        44.468    22105256.970 7  90517533.90407      -455.066 7        42.245
R21         8.000    22603801.352 7 120957579.49707       926.610 7        44.384                                                                    22603810.872 7  94078196.43007       720.728 7        42.646
E12         9.000    28983843.677 5 152311129.63105       278.117 5        31.623                                                                    28983856.206 5 113738882.26705       207.746 5        35.895    28983854.657 6 116705972.10206       212.860 6        36.427
E30        10.000    26425979.205 7 138869568.97807      2066.059 7        42.478                                                                    26425988.878 7 103701400.04207      1542.896 7        45.762    26425987.211 7 106406643.86207      1583.044 7        45.762
C26        11.000                                                                                                                                    21756206.489 8 113290295.63408      -467.994 8        50.570                                                                    21756208.794 8  92057663.54708      -380.416 8        49.191
S27        12.000    39289864.425 6 206469511.11806      -549.997 6        36.643
G15        13.000    20703451.841 8 108797305.63708     -2244.199 8        48.880                                    20703452.999 8  84777087.50308     -1748.725 8        49.074    20703453.489 7  84777079.50407     -1748.716 7        44.910
S36        14.000    38322631.592 7 201387200.47307      -519.015 7        44.524
G12        15.000    23594895.486 7 123992101.12507      3008.840 7        43.431                                    23594899.043 6  96617284.03906      2344.544 6        38.556    23594898.697 6  96617284.03806      2344.632 6        39.090
R11        16.000    22713110.451 7 121371843.09507     -3951.722 7        44.509                                                                    22713120.965 7  94400285.67107     -3073.437 7        42.662
S45        17.000    63507254.907 6 333732906.60716      -573.113 6        36.370
R03        18.000    20872071.658 8 111729785.11208      1778.134 8        51.074                                                                    20872075.593 7  86900946.22607      1382.897 7        45.958
C35        19.000                                                                                                                                    25489175.166 7 132728896.68307      2413.091 7        42.597                                                                    25489182.335 7 107853163.87207      1960.809 7        42.112
G30        21.000    25476232.454 5 133878287.23205     -3696.965 5        34.448                                    25476245.324 3 104320690.48303     -2880.754 3        22.629    25476245.596 5 104320694.46605     -2880.769 5        31.306
I06        22.000    38337155.415 7 150443311.45507      -492.297 7        42.174
S28        23.000    41005264.140 5 215483911.32905      -528.734 5        34.943
G14        24.000    22826709.112 7 119955078.82007     -3492.160 7        43.391                                    22826714.194 5  93471470.09205     -2721.157 5        30.913    22826714.149 7  93471472.06207     -2721.037 7        42.466
S23        25.000    38256175.348 7 201037453.49607      -521.060 7        44.777
E08        26.000    23629336.165 8 124172937.20308      -802.811 8        48.752                                                                    23629339.860 8  92726523.90308      -599.456 8        50.947    23629338.853 8  95145476.49108      -615.103 8        50.980
C07        27.000                                                                                                                                    39084561.506 6 203523519.46006      -981.950 6        41.108    39084564.188 7 157377296.37007      -759.351 7        43.945    39084560.272 6 165379520.53906      -798.045 6        40.777
G13        28.000    21602898.043 8 113523915.32808     -3454.380 8        48.069                                    21602899.063 5  88460152.44305     -2691.716 5        35.714
I02        29.000    37085124.109 7 145530002.16207      -222.574 7        43.240
G10        30.000    24786593.862 6 130254344.00206       936.147 6        41.461                                    24786600.807 5 101496874.45005       729.470 5        35.300    24786601.590 6 101496866.44106       729.424 6        37.871
E07        31.000    25895525.737 7 136081823.17707      1769.219 7        43.009                                                                    25895535.289 7 101619537.36307      1321.251 7        46.616    25895533.988 7 104270480.22207      1355.717 7        46.811
E03        32.000    25593943.211 7 134496986.97907     -3176.803 7        44.096                                                                    25593951.682 7 100436047.97907     -2372.304 7        47.480    25593950.496 7 103056116.47407     -2434.194 7        47.785
E10        33.000    28887436.085 5 151804481.85405      1193.005 5        35.367                                                                    28887453.549 6 113360555.41506       890.763 6        38.492    28887451.878 6 116317776.37706       914.182 6        39.501
G02        34.000    25797269.334 6 135565589.95306      -519.446 6        37.123                                    25797276.865 3 105635565.06203      -404.765 3        19.134
C24        35.000                                                                                                                                    23685753.718 7 123337955.99207      1841.989 7        46.447                                                                    23685755.717 7 100222211.08807      1496.740 7        46.660
G23        36.000    23324059.214 7 122568643.35807     -1510.898 7        42.753                                    23324064.281 4  95507989.08304     -1177.325 4        29.052    23324064.237 6  95507990.07206     -1177.317 6        41.869
R04        38.000    24642953.725 7 131961891.90207      3795.704 7        42.110                                                                    24642956.512 6 102637034.32306      2952.216 6        38.471
C33        39.000                                                                                                                                    24424556.278 7 127185063.99407       887.724 7        45.514                                                                    24424574.352 7 103348354.55807       721.213 7        45.913
E25        40.000    25164425.923 7 132239904.48807     -2645.459 7        44.460                                                                    25164434.168 8  98750567.11608     -1975.621 8        48.002    25164432.819 8 101326662.55808     -2027.086 8        48.106
S44        42.000    40980279.092 6 215352791.67906      -482.606 6        37.077
R22        43.000    24018661.005 6 128213276.47506      3295.125 6        41.201                                                                    24018673.344 6  99721500.43706      2562.896 6        39.162
C05        44.000                                                                                                                                    39538419.912 6 205886802.06806      -556.033 6        37.909    39538425.996 7 159204717.35407      -429.888 7        42.954    39538424.493 6 167299961.01206      -451.902 6        39.084
C40        45.000                                                                                                                                    39197558.891 7 204111929.67307     -1185.689 7        42.665                                                                    39197564.288 7 165857668.32407      -963.494 7        42.483
C21        46.000                                                                                                                                    25742352.194 7 134047007.92907     -4009.502 7        42.444                                                                    25742356.567 7 108924109.03707     -3258.205 7        43.522
R20        47.000    23680973.649 5 126632835.91305     -2349.513 5        30.649                                                                    23680987.431 6  98492265.10906     -1827.884 6        39.787
C10        49.000                                                                                                                                    38606558.120 7 201034486.82907      -607.404 7        42.629    38606562.209 7 155452633.81707      -469.722 7        44.591    38606558.595 6 163356991.59406      -493.500 6        41.471
C42        50.000                                                                                                                                    23259189.559 8 121116616.04308     -2277.955 8        48.286                                                                    23259201.899 8  98417189.98808     -1851.093 8        48.663
S48        51.000    77261593.667 6 406012037.40206      -512.981 6        38.231
E02        53.000    23290376.677 8 122391846.64208      -114.954 8        48.879                                                                    23290380.742 8  91396588.27608       -85.830 8        51.247    23290379.677 8  93780828.33508       -88.036 8        51.090
C60        54.000                                                                                                                                    40980280.570 6 213395056.50106      -478.356 6        40.746                                                                    40980274.955 6 173400887.59006      -388.875 6        39.781
C45        55.000                                                                                                                                    24098370.514 7 125486427.70707     -2971.152 7        45.919                                                                    24098369.108 7 101967951.34807     -2414.396 7        46.212
R12        56.000    19480495.079 8 104061397.51208     -1186.159 8        51.110                                                                    19480499.092 7  80936680.59307      -922.605 7        47.715
C02        57.000                                                                                                                                    41089010.881 5 213961085.31405      -526.545 5        30.226    41089020.331 5 165448217.44105      -406.714 5        35.776    41089019.821 5 173860863.29305      -427.760 5        30.528
I03        58.000   122575736.889 5 405227969.87705       890.364 5        34.333
C14        59.000                                                                                                                                    23314743.186 7 121405914.88707      -675.214 7        46.169    23314744.655 8  93878725.74308      -522.122 8        51.028    23314741.974 8  98652220.98408      -548.766 8        48.390
R13        60.000    20828175.794 7 111221370.66807      1817.736 7        44.599
> 2025 01 01 10 30 30.0000000  0 54
G19         1.000    22246417.948 7 116905875.01307      1844.293 7        46.117                                    22246419.182 5  91095575.36905      1437.111 5        35.762
R01         2.000    23028027.327 6 123097814.03306     -5080.911 6        40.265                                                                    23028038.646 6  95742766.44906     -3951.689 6        37.172
G24         3.000    21007879.476 7 110397170.20207      1497.422 7        47.496                                    21007883.235 8  86023802.22408      1166.825 8        48.851    21007883.698 7  86023799.22407      1166.906 7        44.861
R02         4.000    19960468.771 8 106512820.23108     -2548.164 8        52.467                                                                    19960473.108 7  82843302.77407     -1981.892 7        47.112
S21         5.000    38552138.657 7 202592597.47407      -517.804 7        42.461
G17         7.000    22105811.442 7 116166986.90907      -587.200 7        46.735                                    22105814.188 7  90519819.34407      -457.559 7        44.328    22105814.191 7  90519815.35207      -457.561 7        42.622
R21         8.000    22602938.663 7 120952956.51407       922.588 7        44.682                                                                    22602947.129 7  94074600.78207       717.501 7        42.480
E12         9.000    28983580.444 5 152309745.66005       275.877 5        31.381                                                                    28983592.911 5 113737848.78705       205.677 5        35.948    28983591.316 6 116704911.64406       211.072 6        36.238
E30        10.000    26424014.621 7 138859241.32807      2065.024 7        42.889                                                                    26424023.618 7 103693687.84307      1542.130 7        45.813    26424021.925 7 106398730.46707      1582.322 7        45.726
C26        11.000                                                                                                                                    21756656.550 8 113292639.76708      -469.595 8        50.526                                                                    21756658.982 8  92059568.32608      -381.574 8        49.292
S27        12.000    39290390.896 6 206472261.32706      -550.269 6        36.476
G15        13.000    20705588.985 8 108808534.88708     -2247.479 8        48.994                                    20705589.858 8  84785837.55308     -1751.280 8        48.953    20705590.007 7  84785829.55207     -1751.276 7        44.605
S36        14.000    38323124.803 7 201389795.28507      -518.940 7        44.531
G12        15.000    23592032.660 7 123977059.80207      3007.732 7        43.126                                    23592036.704 6  96605563.54406      2343.683 6        38.462    23592036.808 6  96605563.55106      2343.584 6        38.784
R11        16.000    22716807.928 7 121391602.58707     -3952.067 7        44.689                                                                    22716818.503 7  94415654.13607     -3073.896 7        43.081
S45        17.000    63507751.088 6 333735772.58006      -573.431 6        36.287
R03        18.000    20870413.187 8 111720904.14608      1774.229 8        50.656                                                                    20870416.387 7  86894038.81607      1379.953 7        45.907
C35        19.000                                                                                                                                    25486858.314 7 132716832.99907      2412.436 7        42.521                                                                    25486865.643 7 107843361.13207      1960.201 7        42.163
G30        21.000    25479749.585 5 133896773.57905     -3697.544 5        34.543                                    25479763.168 3 104335095.40603     -2881.201 3        23.067    25479764.698 5 104335099.37905     -2880.779 5        32.072
I06        22.000    38337782.727 7 150445772.72107      -492.355 7        42.330
S28        23.000    41005770.108 5 215486554.91605      -528.875 5        34.990
G14        24.000    22830031.961 7 119972541.87907     -3493.159 7        43.325                                    22830037.209 5  93485077.62405     -2721.938 5        30.732    22830037.210 7  93485079.60507     -2721.881 7        42.781
S23        25.000    38256673.840 7 201040058.65007      -521.022 7        44.721
E08        26.000    23630100.836 8 124176956.65908      -805.055 8        48.793                                                                    23630104.706 8  92729525.43608      -601.147 8        50.844    23630103.697 8  95148556.32808      -616.854 8        50.959
C07        27.000                                                                                                                                    39085504.777 6 203528431.13106      -982.695 6        41.066    39085507.439 7 157381094.37107      -759.780 7        44.030    39085503.390 6 165383511.65306      -798.464 6        40.913
G13        28.000    21606185.646 8 113541192.68108     -3456.522 8        48.256                                    21606186.886 5  88473615.28405     -2693.389 5        35.581
I02        29.000    37085407.892 7 145531115.44307      -222.748 7        43.107
G10        30.000    24785704.866 6 130249671.10206       933.136 6        41.330                                    24785711.687 5 101493233.21005       727.119 5        35.290    24785712.013 6 101493225.21306       727.030 6        37.645
E07        31.000    25893843.114 7 136072979.72707      1768.059 7        42.995                                                                    25893852.443 7 101612933.49107      1320.342 7        46.491    25893851.128 7 104263704.07807      1354.834 7        46.724
E03        32.000    25596966.590 7 134512874.30707     -3178.120 7        44.036                                                                    25596974.919 7 100447911.86707     -2373.217 7        47.389    25596973.785 7 103068289.85707     -2435.097 7        47.831
E10        33.000    28886302.039 6 151798521.68206      1191.144 6        36.102                                                                    28886319.443 6 113356104.62406       889.462 6        38.354    28886317.912 6 116313209.49106       912.672 6        39.357
G02        34.000    25797764.688 6 135568194.28106      -522.047 6        37.675                                    25797772.289 3 105637594.41903      -406.775 3        19.463
C24        35.000                                                                                                                                    23683985.428 7 123328748.36307      1841.041 7        46.606                                                                    23683987.451 7 100214729.12307      1496.018 7        46.646
G23        36.000    23325498.166 7 122576206.23107     -1514.094 7        42.447                                    23325503.393 4  95513882.21804     -1179.807 4        29.109    23325502.907 6  95513883.21006     -1179.827 6        41.828
R04        38.000    24639410.354 7 131942915.27207      3794.931 7        42.275                                                                    24639412.522 6 102622274.74206      2951.723 6        38.084
C33        39.000                                                                                                                                    24423705.531 7 127180632.38807       884.907 7        45.615                                                                    24423723.244 7 103344753.49407       719.126 7        46.017
E25        40.000    25166943.578 7 132253135.02407     -2646.552 7        44.492                                                                    25166951.843 8  98760447.03808     -1976.339 8        48.003    25166950.591 8 101336800.22208     -2027.932 8        48.052
S44        42.000    40980736.409 6 215355205.38906      -482.684 6        37.607
R22        43.000    24015574.581 6 128196803.41106      3294.121 6        41.049                                                                    24015587.842 6  99708688.11006      2562.175 6        39.622
C05        44.000                                                                                                                                    39538954.101 6 205889582.25306      -556.054 6        38.081    39538959.791 7 159206867.15507      -429.946 7        43.043    39538958.642 6 167302220.10906      -451.952 6        39.321
C40        45.000                                                                                                                                    39198697.641 7 204117859.89407     -1186.440 7        42.569                                                                    39198703.170 7 165862487.08807      -964.050 7        42.466
C21        46.000                                                                                                                                    25746202.655 7 134067056.91607     -4010.138 7        42.946                                                                    25746206.677 7 108940400.42007     -3258.431 7        43.511
R20        47.000    23683173.771 4 126644595.94204     -2353.542 4        29.602                                                                    23683186.103 6  98501411.73606     -1830.877 6        39.117
C10        49.000                                                                                                                                    38607141.522 7 201037525.26707      -608.043 7        42.563    38607145.874 7 155454983.33307      -470.200 7        44.554    38607142.169 6 163359460.57306      -494.118 6        41.590
C42        50.000                                                                                                                                    23261377.898 8 121128012.19208     -2280.459 8        48.292                                                                    23261390.445 8  98426450.27008     -1853.036 8        48.704
S48        51.000    77262081.297 6 406014602.87906      -512.891 6        38.261
E02        53.000    23290486.822 8 122392426.37308      -116.841 8        48.931                                                                    23290491.109 8  91397021.19108       -87.291 8        51.253    23290489.981 8  93781272.54608       -89.551 8        51.070
C60        54.000                                                                                                                                    40980739.868 6 213397448.25706      -478.326 6        40.787                                                                    40980734.334 6 173402831.07606      -388.751 6        39.658
C45        55.000                                                                                                                                    24101224.201 7 125501285.38207     -2971.796 7        45.922                                                                    24101222.376 7 101980024.40407     -2414.883 7        46.259
R12        56.000    19481606.275 8 104067334.57608     -1188.626 8        51.430                                                                    19481610.722 7  80941298.28307      -924.483 7        47.824
C02        57.000                                                                                                                                    41089516.228 5 213963716.42805      -526.277 5        30.294    41089525.142 5 165450251.97605      -406.805 5        35.952    41089524.963 5 173863001.27905      -427.338 5        31.064
I03        58.000   122574602.273 5 405223516.78705       890.777 5        34.529
C14        59.000                                                                                                                                    23315392.512 7 121409298.51307      -678.180 7        46.086    23315394.630 8  93881342.17408      -524.434 8        51.039    23315391.765 8  98654970.43408      -551.070 8        48.514
R13        60.000    20826474.872 7 111212287.53607      1815.599 7        44.098
> 2025 01 01 10 30 35.0000000  0 54
G19         1.000    22244664.584 7 116896659.46807      1841.843 7        45.464                                    22244665.528 5  91088394.43005      1435.201 5        35.738
R01         2.000    23032778.412 6 123123220.64406     -5081.785 6        39.688                                                                    23032790.402 6  95762527.07206     -3952.578 6        36.042
G24         3.000    21006455.835 7 110389687.31407      1495.558 7        47.574                                    21006459.287 8  86017971.40808      1165.369 8        48.975    21006459.620 7  86017968.41207      1165.422 7        44.751
R02         4.000    19962858.724 8 106525571.69608     -2552.381 8        52.247                                                                    19962863.127 7  82853220.55407     -1985.161 7        47.387
S21         5.000    38552631.287 7 202595186.70407      -517.757 7        42.478
G17         7.000    22106371.619 7 116169930.93507      -590.498 7        46.553                                    22106374.370 7  90522113.40107      -460.128 7        44.390    22106374.683 7  90522109.40607      -460.052 7        42.383
R21         8.000    22602078.022 7 120948353.80607       918.518 7        45.163                                                                    22602086.767 7  94071020.94707       714.418 7        42.646
E12         9.000    28983319.569 5 152308373.39205       273.403 5        31.698                                                                    28983332.046 6 113736824.02406       203.903 6        36.049    28983330.240 6 116703860.13406       209.452 6        36.030
E30        10.000    26422049.960 7 138848918.62707      2064.077 7        42.944                                                                    26422059.284 7 103685979.32607      1541.393 7        45.707    26422057.632 7 106390820.85707      1581.594 7        45.725
C26        11.000                                                                                                                                    21757108.213 8 113294992.03108      -471.249 8        50.573                                                                    21757110.731 8  92061479.72808      -382.791 8        49.046
S27        12.000    39290913.781 6 206475012.23306      -550.331 6        36.643
G15        13.000    20707728.939 8 108819780.23908     -2250.674 8        48.949                                    20707729.784 8  84794600.15508     -1753.767 8        49.051    20707730.059 7  84794592.14807     -1753.775 7        44.713
S36        14.000    38323621.077 7 201392390.20507      -519.015 7        44.486
G12        15.000    23589171.635 7 123962024.09307      3006.604 7        43.490                                    23589175.348 6  96593847.42206      2342.803 6        38.535    23589175.948 6  96593847.43006      2342.766 6        38.225
R11        16.000    22720506.962 7 121411363.91407     -3952.440 7        44.775                                                                    22720516.522 7  94431024.00407     -3074.268 7        43.081
S45        17.000    63508250.139 6 333738638.72906      -573.391 6        36.336
R03        18.000    20868756.630 8 111712042.44408      1770.444 8        50.702                                                                    20868760.753 7  86887146.38207      1376.951 7        45.819
C35        19.000                                                                                                                                    25484541.804 7 132704772.92907      2411.607 7        42.146                                                                    25484549.804 7 107833561.32907      1959.721 7        42.307
G30        21.000    25483268.449 5 133915261.70305     -3697.869 5        35.233                                    25483281.512 3 104349501.71203     -2881.450 3        23.257    25483281.978 5 104349505.67705     -2881.217 5        31.864
I06        22.000    38338410.034 7 150448234.15407      -492.250 7        42.330
S28        23.000    41006273.640 5 215489198.95105      -529.056 5        34.986
G14        24.000    22833356.259 7 119990010.32307     -3494.260 7        43.581                                    22833361.408 5  93498689.35305     -2722.789 5        31.185    22833361.616 7  93498691.33407     -2722.820 7        43.012
S23        25.000    38257167.815 7 201042663.93607      -521.036 7        44.590
E08        26.000    23630867.864 8 124180987.07408      -807.218 8        48.830                                                                    23630871.714 8  92732535.15408      -602.763 8        50.896    23630870.665 8  95151644.55108      -618.473 8        50.983
C07        27.000                                                                                                                                    39086448.391 6 203533345.73606      -983.206 6        41.168    39086451.106 7 157384894.65007      -760.255 7        44.057    39086447.372 6 165387505.16406      -798.832 6        40.675
G13        28.000    21609475.444 8 113558480.20708     -3458.544 8        48.198                                    21609476.650 5  88487086.05405     -2694.967 5        35.595
I02        29.000    37085691.983 7 145532230.11407      -222.998 7        43.289
G10        30.000    24784818.145 6 130245012.76906       930.091 6        40.815                                    24784825.264 5 101489603.31705       724.749 5        35.262    24784825.674 6 101489595.32006       724.778 6        37.607
E07        31.000    25892161.308 7 136064142.27607      1766.779 7        43.064                                                                    25892170.760 7 101606334.09707      1319.442 7        46.525    25892169.481 7 104256932.52907      1353.837 7        46.788
E03        32.000    25599990.952 7 134528767.65207     -3179.207 7        43.846                                                                    25599999.310 7 100459780.24807     -2374.130 7        47.344    25599998.187 7 103080467.85107     -2436.100 7        47.842
E10        33.000    28885169.202 6 151792570.68706      1189.349 6        36.510                                                                    28885187.215 6 113351660.70906       887.961 6        38.228    28885185.520 6 116308649.64806       911.288 6        39.468
G02        34.000    25798262.801 6 135570812.35106      -524.952 6        37.221                                    25798270.472 3 105639634.48903      -409.071 3        18.866
C24        35.000                                                                                                                                    23682217.992 7 123319545.51507      1840.078 7        46.712                                                                    23682220.125 7 100207251.06907      1495.390 7        46.544
G23        36.000    23326940.605 7 122583784.70407     -1517.242 7        42.574                                    23326945.513 4  95519787.49804     -1182.266 4        29.081    23326945.678 6  95519788.48606     -1182.436 6        41.692
R04        38.000    24635867.547 7 131923942.21107      3794.237 7        42.607                                                                    24635869.184 6 102607517.83906      2950.932 6        37.754
C33        39.000                                                                                                                                    24422857.127 7 127176214.15707       882.284 7        45.696                                                                    24422874.755 7 103341163.33107       716.999 7        45.916
E25        40.000    25169462.265 7 132266370.55407     -2647.573 7        44.694                                                                    25169470.517 7  98770330.68407     -1977.110 7        47.894    25169469.262 8 101346941.70308     -2028.638 8        48.123
S44        42.000    40981195.202 6 215357619.11406      -482.911 6        37.138
R22        43.000    24012489.780 6 128180334.37106      3293.390 6        41.387                                                                    24012502.507 6  99695878.90006      2561.721 6        39.994
C05        44.000                                                                                                                                    39539487.798 6 205892362.51706      -556.180 6        38.030    39539493.712 7 159209016.99807      -429.952 7        42.923    39539492.468 6 167304479.28706      -451.820 6        38.997
C40        45.000                                                                                                                                    39199837.408 7 204123793.70507     -1187.161 7        42.533                                                                    39199842.586 7 165867308.78007      -964.608 7        42.176
C21        46.000                                                                                                                                    25750053.310 7 134087107.99007     -4010.357 7        43.302                                                                    25750057.052 7 108956693.52707     -3258.623 7        42.923
R20        47.000    23685373.742 5 126656375.63105     -2357.973 5        30.023                                                                    23685388.513 6  98510573.72906     -1833.869 6        39.847
C10        49.000                                                                                                                                    38607726.019 7 201040566.88807      -608.656 7        42.546    38607730.177 7 155457335.30907      -470.706 7        44.659    38607726.308 6 163361932.13706      -494.459 6        41.411
C42        50.000                                                                                                                                    23263568.940 8 121139420.86808     -2283.014 8        48.453                                                                    23263581.380 8  98435720.73808     -1854.967 8        48.556
S48        51.000    77262569.683 6 406017168.73906      -513.284 6        38.009
E02        53.000    23290598.820 8 122393015.43608      -118.748 8        48.924                                                                    23290603.175 8  91397461.07008       -88.699 8        51.164    23290602.089 8  93781723.89808       -90.962 8        51.136
C60        54.000                                                                                                                                    40981199.327 6 213399840.02906      -478.341 6        40.715                                                                    40981193.498 6 173404774.60606      -388.737 6        39.547
C45        55.000                                                                                                                                    24104078.000 7 125516146.36507     -2972.515 7        45.877                                                                    24104076.232 7 101992100.14707     -2415.334 7        46.154
R12        56.000    19482719.891 8 104073283.77508     -1191.044 8        51.349                                                                    19482724.226 7  80945925.43107      -926.423 7        47.721
C02        57.000                                                                                                                                    41090022.062 5 213966347.49305      -526.205 5        30.302    41090030.882 5 165452286.51805      -407.089 5        35.695    41090030.202 5 173865139.21905      -427.425 5        30.981
I03        58.000   122573467.509 5 405219063.65705       890.597 5        34.419
C14        59.000                                                                                                                                    23316044.769 7 121412697.07407      -681.268 7        46.161    23316047.286 8  93883970.14608      -526.788 8        51.090    23316044.418 8  98657732.03308      -553.497 8        48.312
R13        60.000    20824775.017 7 111203214.34207      1813.673 7        43.894
> 2025 01 01 10 30 40.0000000  0 54
G19         1.000    22242913.321 7 116887455.68107      1839.452 7        45.967                                    22242914.204 5  91081222.65705      1433.337 5        35.719
R01         2.000    23037533.190 6 123148631.44906     -5082.592 6        40.932                                                                    23037544.788 6  95782290.94806     -3952.844 6        36.178
G24         3.000    21005033.628 7 110382213.96107      1493.625 7        47.571                                    21005037.145 8  86012148.02008      1163.865 8        48.888    21005037.800 7  86012145.02607      1163.883 7        44.960
R02         4.000    19965251.915 8 106538343.93308     -2556.609 8        52.279                                                                    19965256.435 7  82863154.51207     -1988.571 7        47.081
S21         5.000    38553124.225 7 202597775.91507      -517.857 7        42.347
G17         7.000    22106934.796 7 116172890.92607      -593.684 7        46.672                                    22106937.576 7  90524419.89907      -462.613 7        44.289    22106937.597 7  90524415.90907      -462.629 7        42.210
R21         8.000    22601221.403 7 120943771.29407       914.517 7        44.856                                                                    22601231.208 7  94067456.79607       711.323 7        42.838
E12         9.000    28983059.926 5 152307012.64705       270.981 5        31.245                                                                    28983073.042 6 113735807.87306       202.190 6        36.185    28983071.061 6 116702817.48906       207.538 6        36.155
E30        10.000    26420086.723 7 138838600.66007      2063.117 7        43.257                                                                    26420095.811 7 103678274.35207      1540.628 7        45.734    26420094.218 7 106382914.88507      1580.792 7        45.816
C26        11.000                                                                                                                                    21757561.481 8 113297352.23008      -472.917 8        50.594                                                                    21757563.936 8  92063397.58908      -384.203 8        49.085
S27        12.000    39291433.374 6 206477762.63306      -550.109 6        36.276
G15        13.000    20709871.737 8 108831041.48608     -2253.910 8        49.352                                    20709872.737 8  84803375.14008     -1756.290 8        48.927    20709873.188 7  84803367.14107     -1756.353 7        44.632
S36        14.000    38324114.243 7 201394985.00407      -518.952 7        44.552
G12        15.000    23586311.461 7 123946993.79607      3005.421 7        43.822                                    23586314.954 6  96582135.52306      2341.887 6        38.408    23586316.199 6  96582135.52306      2342.013 6        38.781
R11        16.000    22724205.201 7 121431126.84407     -3952.884 7        44.828                                                                    22724214.287 7  94446395.11907     -3074.417 7        42.438
S45        17.000    63508747.607 6 333741504.96006      -573.438 6        36.276
R03        18.000    20867104.572 8 111703199.69508      1766.591 8        50.997                                                                    20867109.892 7  86880268.70207      1374.083 7        46.222
C35        19.000                                                                                                                                    25482226.555 6 132692716.24306      2410.885 6        41.557                                                                    25482234.652 7 107823764.30707      1959.087 7        42.415
G30        21.000    25486787.078 5 133933751.41005     -3698.053 5        35.395                                    25486800.142 3 104363909.24503     -2881.592 3        23.448    25486800.081 5 104363913.23605     -2881.493 5        31.404
I06        22.000    38339037.565 7 150450695.62707      -492.244 7        42.227
S28        23.000    41006774.327 5 215491842.65505      -528.544 5        35.019
G14        24.000    22836681.330 7 120007483.90707     -3495.343 7        43.755                                    22836686.587 5  93512305.09005     -2723.631 5        31.117    22836686.468 7  93512307.06907     -2723.568 7        42.967
S23        25.000    38257664.550 7 201045269.16507      -521.030 7        44.701
E08        26.000    23631636.933 8 124185028.24808      -809.373 8        48.878                                                                    23631640.758 8  92735552.90908      -604.389 8        50.941    23631639.702 8  95154741.03608      -620.164 8        50.980
C07        27.000                                                                                                                                    39087392.413 6 203538263.06606      -983.814 6        40.889    39087395.388 7 157388697.02907      -760.742 7        44.095    39087391.719 6 165391500.89506      -799.333 6        40.713
G13        28.000    21612767.081 8 113575777.68508     -3460.606 8        48.731                                    21612768.319 5  88500564.58405     -2696.570 5        35.600
I02        29.000    37085976.211 7 145533345.91407      -223.381 7        43.266
G10        30.000    24783934.324 6 130240368.80606       927.211 6        40.596                                    24783941.613 5 101485984.62305       722.503 5        35.167    24783941.800 6 101485976.62806       722.584 6        37.675
E07        31.000    25890480.731 7 136055310.62207      1765.744 7        43.338                                                                    25890490.154 7 101599739.04507      1318.481 7        46.544    25890488.873 7 104250165.42607      1352.974 7        46.851
E03        32.000    25603016.645 7 134544666.80307     -3180.508 7        44.172                                                                    25603024.899 7 100471652.97307     -2375.032 7        47.397    25603023.622 7 103092650.30407     -2437.039 7        47.919
E10        33.000    28884038.398 6 151786628.69806      1187.334 6        36.110                                                                    28884056.394 6 113347223.50806       886.612 6        38.228    28884054.689 6 116304096.70106       909.810 6        39.225
G02        34.000    25798764.071 6 135573443.85406      -527.740 6        36.397                                    25798771.182 3 105641685.01803      -411.228 3        18.716
C24        35.000                                                                                                                                    23680451.493 7 123310347.26207      1839.132 7        46.701                                                                    23680453.539 7 100199776.74707      1494.519 7        46.573
G23        36.000    23328385.511 7 122591378.51007     -1520.342 7        42.777                                    23328390.563 4  95525704.73404     -1184.680 4        28.910    23328390.770 6  95525705.73906     -1184.847 6        41.728
R04        38.000    24632325.054 7 131904973.03607      3793.375 7        43.365                                                                    24632327.135 6 102592763.90006      2950.465 6        37.728
C33        39.000                                                                                                                                    24422011.107 7 127171809.13407       879.580 7        45.691                                                                    24422028.805 7 103337583.89907       714.847 7        45.943
E25        40.000    25171981.806 7 132279610.85707     -2648.658 7        44.907                                                                    25171990.086 7  98780217.90507     -1977.863 7        47.958    25171988.881 8 101357086.85808     -2029.466 8        48.163
S44        42.000    40981657.174 6 215360032.65306      -482.835 6        37.138
R22        43.000    24009405.246 6 128163869.16506      3292.560 6        41.926                                                                    24009417.674 6  99683072.67206      2560.934 6        39.366
C05        44.000                                                                                                                                    39540021.679 6 205895142.65506      -556.234 6        37.913    39540027.583 7 159211166.75807      -429.923 7        42.908    39540026.411 6 167306738.35306      -451.867 6        39.204
C40        45.000                                                                                                                                    39200977.696 7 204129730.90007     -1188.014 7        42.379                                                                    39200982.682 7 165872133.23407      -965.106 7        42.345
C21        46.000                                                                                                                                    25753904.640 7 134107160.96807     -4010.850 7        43.219                                                                    25753907.921 7 108972988.18507     -3259.074 7        42.464
R20        47.000    23687583.483 5 126668174.74905     -2361.907 5        30.091                                                                    23687595.242 6  98519750.83206     -1836.983 6        40.007
C10        49.000                                                                                                                                    38608310.839 7 201043611.44607      -609.349 7        42.375    38608314.925 7 155459689.54607      -471.188 7        44.606    38608310.918 6 163364406.08806      -494.959 6        41.492
C42        50.000                                                                                                                                    23265762.470 8 121150841.83608     -2285.533 8        48.726                                                                    23265774.658 8  98445001.21308     -1857.088 8        48.620
S48        51.000    77263063.346 6 406019734.50606      -513.151 6        38.192
E02        53.000    23290712.632 8 122393613.60908      -120.643 8        48.936                                                                    23290716.991 8  91397907.75908       -90.100 8        51.238    23290715.940 8  93782182.24208       -92.424 8        51.142
C60        54.000                                                                                                                                    40981658.357 6 213402231.64206      -478.416 6        40.574                                                                    40981652.823 6 173406717.98006      -388.550 6        39.562
C45        55.000                                                                                                                                    24106932.377 7 125531010.42007     -2973.203 7        45.523                                                                    24106930.775 7 102004178.40007     -2415.816 7        46.277
R12        56.000    19483835.920 8 104079244.89108     -1193.531 8        51.422                                                                    19483840.014 7  80950561.84007      -928.300 7        47.664
C02        57.000                                                                                                                                    41090527.722 5 213968978.43705      -526.827 5        30.445    41090535.939 5 165454320.89305      -406.886 5        35.667    41090535.540 5 173867277.08905      -427.818 5        30.762
I03        58.000   122572332.893 5 405214610.28505       890.599 5        34.543
C14        59.000                                                                                                                                    23316700.658 7 121416110.32607      -684.220 7        46.236    23316702.719 8  93886609.47908      -529.055 8        51.074    23316699.920 8  98660505.58008      -555.886 8        48.344
R13        60.000    20823077.649 7 111194150.88207      1811.616 7        44.242
> 2025 01 01 10 30 45.0000000  0 54
G19         1.000    22241164.750 7 116878264.85407      1836.680 7        46.463                                    22241165.383 5  91074060.98205      1431.177 5        35.924
R01         2.000    23042289.813 6 123174047.45706     -5083.939 6        41.664                                                                    23042300.613 6  95802058.88706     -3954.100 6        36.132
G24         3.000    21003613.333 7 110374751.30907      1491.326 7        47.290                                    21003617.039 8  86006332.96708      1162.070 8        48.849    21003617.470 7  86006329.97307      1162.010 7        44.953
R02         4.000    19967649.752 8 106551138.09408     -2561.211 8        52.697                                                                    19967654.034 7  82873105.50807     -1992.102 7        47.241
S21         5.000    38553618.455 7 202600366.33907      -518.377 7        42.449
G17         7.000    22107501.519 7 116175868.05007      -597.267 7        47.021                                    22107504.050 7  90526739.74407      -465.405 7        44.218    22107504.345 7  90526735.75507      -465.422 7        42.654
R21         8.000    22600369.164 7 120939210.25007       910.082 7        45.272                                                                    22600378.006 7  94063909.35407       707.770 7        42.383
E12         9.000    28982804.013 5 152305664.60505       268.475 5        30.491                                                                    28982816.550 6 113734801.22706       200.289 6        36.200    28982814.824 6 116701784.55606       205.686 6        36.185
E30        10.000    26418124.474 7 138828288.59507      2061.647 7        43.316                                                                    26418133.496 7 103670573.79007      1539.509 7        45.857    26418131.894 7 106375013.43407      1579.712 7        45.806
C26        11.000                                                                                                                                    21758016.643 8 113299721.51908      -474.890 8        50.637                                                                    21758018.972 8  92065322.83308      -385.907 8        49.247
S27        12.000    39291964.375 6 206480514.15306      -550.578 6        36.741
G15        13.000    20712018.074 8 108842319.81108     -2257.559 8        49.325                                    20712018.924 8  84812163.43108     -1759.137 8        48.869    20712019.305 7  84812155.41707     -1759.108 7        45.160
S36        14.000    38324606.385 7 201397580.23307      -519.298 7        44.588
G12        15.000    23583452.451 7 123931970.13007      3003.949 7        43.441                                    23583455.929 6  96570428.78606      2340.732 6        38.375    23583457.209 6  96570428.81406      2340.663 6        39.066
R11        16.000    22727903.521 7 121450892.58507     -3953.693 7        44.695                                                                    22727913.013 6  94461768.43206     -3074.947 6        41.549
S45        17.000    63509243.044 6 333744372.23506      -573.470 6        36.257
R03        18.000    20865457.084 8 111694376.79608      1762.418 8        50.868                                                                    20865461.096 7  86873406.45507      1370.812 7        46.116
C35        19.000                                                                                                                                    25479912.239 6 132680664.13206      2409.846 6        41.833                                                                    25479920.047 7 107813970.98307      1958.180 7        42.711
G30        21.000    25490305.358 5 133952243.89605     -3699.104 5        34.981                                    25490319.229 3 104378318.95703     -2882.413 3        23.257    25490318.692 5 104378322.93205     -2882.160 5        31.042
I06        22.000    38339664.736 7 150453158.03307      -492.781 7        42.099
S28        23.000    41007280.900 5 215494487.69705      -529.381 5        35.419
G14        24.000    22840007.480 7 120024963.82207     -3496.796 7        43.763                                    22840012.929 5  93525925.75605     -2724.765 5        30.943    22840013.073 7  93525927.74307     -2724.786 7        42.952
S23        25.000    38258160.413 7 201047875.48207      -521.609 7        44.790
E08        26.000    23632408.229 8 124189081.35908      -812.030 8        48.942                                                                    23632412.024 8  92738579.57108      -606.330 8        50.975    23632411.003 8  95157846.65708      -622.160 8        51.039
C07        27.000                                                                                                                                    39088337.954 6 203543184.28506      -984.723 6        40.887    39088340.520 7 157392502.42007      -761.423 7        44.063    39088336.727 6 165395499.77806      -800.179 6        40.906
G13        28.000    21616061.140 8 113593086.31108     -3462.990 8        48.730                                    21616062.116 5  88514051.79505     -2698.427 5        35.638
I02        29.000    37086261.236 7 145534463.78907      -223.839 7        43.160
G10        30.000    24783054.035 6 130235740.39206       924.036 6        40.479                                    24783060.914 5 101482378.04805       720.030 5        35.057    24783061.707 6 101482370.04206       720.056 6        38.492
E07        31.000    25888801.552 7 136046485.95207      1764.057 7        43.462                                                                    25888810.814 7 101593149.19807      1317.284 7        46.617    25888809.599 7 104243403.67507      1351.631 7        46.840
E03        32.000    25606043.440 7 134560572.93507     -3182.122 7        44.372                                                                    25606051.661 7 100483530.90807     -2376.256 7        47.481    25606050.402 7 103104838.10207     -2438.205 7        47.880
E10        33.000    28882909.431 5 151780696.87605      1185.048 5        35.581                                                                    28882927.944 6 113342793.90506       885.034 6        38.279    28882925.965 6 116299551.53606       907.977 6        39.156
G02        34.000    25799267.715 6 135576090.07106      -531.126 6        36.892                                    25799274.669 3 105643747.00303      -413.826 3        18.537
C24        35.000                                                                                                                                    23678686.130 7 123301154.74507      1837.758 7        46.815                                                                    23678688.359 7 100192307.07907      1493.350 7        46.722
G23        36.000    23329833.970 7 122598988.86807     -1523.945 7        43.367                                    23329838.729 4  95531634.86304     -1187.480 4        28.768    23329839.289 7  95531635.85907     -1187.446 7        42.394
R04        38.000    24628783.940 7 131886008.72807      3792.081 7        42.722                                                                    24628785.235 6 102578013.79006      2949.277 6        37.830
C33        39.000                                                                                                                                    24421168.150 7 127167418.48607       876.551 7        46.044                                                                    24421185.665 7 103334016.13807       712.248 7        46.030
E25        40.000    25174502.329 7 132292857.11507     -2649.975 7        44.880                                                                    25174510.843 8  98790109.56308     -1978.877 8        48.020    25174509.510 8 101367236.56308     -2030.512 8        48.176
S44        42.000    40982112.515 6 215362447.18406      -483.058 6        37.388
R22        43.000    24006321.408 7 128147409.02907      3291.283 7        42.076                                                                    24006333.839 6  99670270.41806      2559.913 6        38.763
C05        44.000                                                                                                                                    39540556.055 6 205897923.79806      -556.373 6        38.051    39540561.535 7 159213317.29507      -430.351 7        42.978    39540560.453 6 167308998.25606      -452.276 6        39.168
C40        45.000                                                                                                                                    39202118.664 7 204135672.65907     -1189.052 7        42.373                                                                    39202123.732 7 165876961.39507      -966.063 7        42.311
C21        46.000                                                                                                                                    25757756.571 7 134127216.99807     -4011.677 7        43.115                                                                    25757759.464 7 108989285.30507     -3259.941 7        42.698
R20        47.000    23689794.420 5 126679994.46505     -2366.194 5        30.641                                                                    23689806.122 6  98528943.92306     -1840.308 6        39.694
C10        49.000                                                                                                                                    38608896.324 7 201046660.08207      -610.238 7        42.489    38608900.176 7 155462046.94407      -471.824 7        44.575    38608896.373 6 163366883.36406      -495.834 6        41.635
C42        50.000                                                                                                                                    23267958.376 8 121162276.26808     -2288.459 8        48.725                                                                    23267970.598 8  98454292.60608     -1859.445 8        48.667
S48        51.000    77263550.435 6 406022301.51806      -513.598 6        38.510
E02        53.000    23290828.725 8 122394222.07908      -122.887 8        49.020                                                                    23290832.768 8  91398362.12908       -91.781 8        51.286    23290831.729 8  93782648.46408       -94.177 8        51.137
C60        54.000                                                                                                                                    40982117.946 6 213404624.23006      -478.663 6        40.756                                                                    40982112.390 6 173408662.16106      -388.945 6        39.760
C45        55.000                                                                                                                                    24109787.412 7 125545878.71407     -2974.258 7        45.719                                                                    24109786.271 7 102016260.09407     -2416.792 7        46.411
R12        56.000    19484954.295 8 104085219.08908     -1196.353 8        51.587                                                                    19484958.666 7  80955208.41807      -930.399 7        47.169
C02        57.000                                                                                                                                    41091032.814 5 213971610.35405      -526.751 5        30.483    41091040.959 5 165456356.05005      -407.268 5        35.895    41091040.624 5 173869415.71905      -427.789 5        30.853
I03        58.000   122571197.633 5 405210157.53105       890.165 5        34.205
C14        59.000                                                                                                                                    23317359.090 7 121419539.46307      -687.611 7        46.240    23317361.162 8  93889261.08208      -531.668 8        51.022    23317358.442 8  98663292.02608      -558.749 8        48.455
R13        60.000    20821382.492 7 111185098.37207      1809.223 7        44.199
> 2025 01 01 10 30 50.0000000  0 54
G19         1.000    22239417.537 7 116869086.37507      1834.633 7        46.371                                    22239418.937 5  91066908.93205      1429.591 5        35.910
R01         2.000    23047045.230 6 123199468.17606     -5084.486 6        41.175                                                                    23047055.514 6  95821830.48006     -3954.435 6        36.605
G24         3.000    21002195.142 7 110367298.75407      1489.655 7        46.980                                    21002198.877 8  86000525.78608      1160.770 8        48.806    21002198.941 7  86000522.79307      1160.755 7        44.704
R02         4.000    19970051.387 8 106563953.39708     -2565.039 8        52.741                                                                    19970055.758 7  82883072.94007     -1995.029 7        47.054
S21         5.000    38554111.407 7 202602957.20207      -518.043 7        42.512
G17         7.000    22108071.107 7 116178861.68907      -600.168 7        46.495                                    22108073.645 7  90529072.45907      -467.666 7        44.196    22108073.856 7  90529068.46907      -467.706 7        42.070
R21         8.000    22599520.098 7 120934669.88107       906.143 7        45.347                                                                    22599529.648 7  94060377.98607       704.853 7        42.612
E12         9.000    28982549.171 5 152304328.66705       266.250 5        30.936                                                                    28982562.234 6 113733803.58306       198.752 6        36.397    28982560.756 6 116700760.91206       203.862 6        36.491
E30        10.000    26416163.011 7 138817981.84607      2061.005 7        43.321                                                                    26416172.134 7 103662877.18707      1539.084 7        45.908    26416170.571 7 106367116.05207      1579.278 7        45.856
C26        11.000                                                                                                                                    21758473.149 8 113302099.29008      -476.175 8        50.551                                                                    21758475.652 8  92067254.95708      -386.926 8        49.123
S27        12.000    39292485.350 6 206483266.01006      -550.350 6        36.677
G15        13.000    20714167.093 8 108853614.58908     -2260.440 8        48.679                                    20714168.254 8  84820964.54308     -1761.378 8        48.837    20714168.399 7  84820956.53207     -1761.304 7        44.525
S36        14.000    38325103.357 7 201400176.33007      -518.870 7        44.617
G12        15.000    23580594.598 7 123916952.46507      3003.121 7        43.587                                    23580598.043 6  96558726.72906      2340.093 6        38.306    23580598.838 6  96558726.75206      2340.109 6        38.922
R11        16.000    22731603.108 7 121470660.46807     -3953.601 7        45.070                                                                    22731612.593 6  94477143.42306     -3075.074 6        41.058
S45        17.000    63509741.273 6 333747240.04706      -573.399 6        36.457
R03        18.000    20863812.031 8 111685573.39008      1758.848 8        51.296                                                                    20863816.295 7  86866559.36807      1368.036 7        45.916
C35        19.000                                                                                                                                    25477599.124 7 132668616.02807      2409.342 7        42.281                                                                    25477606.381 7 107804180.91307      1957.898 7        42.679
G30        21.000    25493825.746 5 133970738.49805     -3698.737 5        34.381                                    25493838.718 3 104392730.30903     -2882.126 3        23.295    25493839.250 5 104392734.34005     -2882.452 5        31.577
I06        22.000    38340292.266 7 150455620.87307      -492.446 7        42.190
S28        23.000    41007782.383 5 215497133.18705      -528.982 5        35.262
G14        24.000    22843334.872 7 120042449.44407     -3497.492 7        43.583                                    22843340.317 5  93539550.87005     -2725.313 5        30.740    22843340.404 7  93539552.85107     -2725.281 7        42.811
S23        25.000    38258654.661 7 201050482.30107      -521.278 7        44.752
E08        26.000    23633181.585 8 124193145.80108      -813.819 8        48.872                                                                    23633185.460 8  92741614.69208      -607.710 8        51.074    23633184.443 8  95160960.95508      -623.570 8        51.054
C07        27.000                                                                                                                                    39089283.450 6 203548108.76406      -985.090 6        40.596    39089286.392 7 157396310.31307      -761.646 7        44.017    39089282.352 6 165399501.30606      -800.442 6        40.801
G13        28.000    21619356.472 8 113610405.48708     -3464.682 8        48.514                                    21619357.907 5  88527547.22605     -2699.746 5        35.662
I02        29.000    37086546.381 7 145535583.28707      -223.940 7        43.173
G10        30.000    24782176.039 6 130231126.93006       921.274 6        40.367                                    24782182.982 5 101478783.13105       717.879 5        35.019    24782183.166 6 101478775.10306       718.002 6        37.868
E07        31.000    25887123.452 7 136037667.65507      1763.150 7        43.462                                                                    25887132.712 7 101586564.10907      1316.679 7        46.687    25887131.496 7 104236646.79407      1351.058 7        46.940
E03        32.000    25609071.619 7 134576485.43107     -3182.960 7        44.296                                                                    25609079.738 7 100495413.59507     -2376.888 7        47.615    25609078.485 7 103117030.77407     -2438.900 7        47.925
E10        33.000    28881782.218 5 151774774.63905      1183.547 5        35.233                                                                    28881801.003 6 113338371.44006       883.968 6        38.387    28881798.714 6 116295013.69706       907.118 6        38.586
G02        34.000    25799773.957 6 135578750.27906      -533.312 6        37.036                                    25799780.745 3 105645819.91303      -415.557 3        18.866
C24        35.000                                                                                                                                    23676921.709 7 123291967.35907      1837.197 7        46.709                                                                    23676924.013 7 100184841.59007      1492.820 7        46.567
G23        36.000    23331284.885 7 122606615.11307     -1526.653 7        43.299                                    23331289.990 4  95537577.37104     -1189.601 4        28.730    23331290.286 7  95537578.37607     -1189.548 7        42.034
R04        38.000    24625243.185 6 131867048.85306      3791.645 6        41.480                                                                    24625245.284 6 102563267.14306      2948.987 6        37.399
C33        39.000                                                                                                                                    24420327.311 7 127163041.61607       874.141 7        45.818                                                                    24420345.124 7 103330459.56807       710.351 7        45.974
E25        40.000    25177024.112 7 132306108.70407     -2650.706 7        45.025                                                                    25177032.581 8  98800005.20508     -1979.382 8        48.063    25177031.146 8 101377390.34908     -2031.026 8        48.168
S44        42.000    40982571.236 6 215364862.12206      -482.836 6        37.346
R22        43.000    24003238.193 6 128130953.32706      3290.865 6        41.833                                                                    24003250.919 6  99657471.57706      2559.601 6        38.492
C05        44.000                                                                                                                                    39541090.168 6 205900705.39306      -556.206 6        38.081    39541095.997 7 159215468.18407      -430.142 7        42.965    39541094.691 6 167311258.51106      -451.875 6        39.075
C40        45.000                                                                                                                                    39203260.105 7 204141618.36307     -1189.452 7        42.142                                                                    39203265.677 7 165881792.76207      -966.541 7        42.171
C21        46.000                                                                                                                                    25761608.868 7 134147275.45007     -4011.814 7        42.633                                                                    25761611.624 7 109005584.39707     -3259.842 7        42.586
R20        47.000    23692008.095 5 126691834.12205     -2369.575 5        31.389                                                                    23692019.268 6  98538152.58006     -1843.024 6        40.014
C10        49.000                                                                                                                                    38609482.349 7 201049712.23107      -610.616 7        42.451    38609486.539 7 155464407.06807      -472.105 7        44.596    38609482.579 6 163369363.50606      -496.216 6        41.364
C42        50.000                                                                                                                                    23270156.626 8 121173723.54808     -2290.583 8        48.421                                                                    23270168.888 8  98463594.44908     -1861.267 8        48.609
S48        51.000    77264042.721 6 406024869.13806      -513.437 6        38.384
E02        53.000    23290946.396 8 122394840.22608      -124.444 8        48.922                                                                    23290950.459 8  91398823.72108       -92.849 8        51.387    23290949.350 8  93783122.10008       -95.306 8        51.146
C60        54.000                                                                                                                                    40982577.379 6 213407017.21006      -478.410 6        40.715                                                                    40982571.867 6 173410606.67106      -388.878 6        39.634
C45        55.000                                                                                                                                    24112643.439 7 125560750.64207     -2974.561 7        46.056                                                                    24112642.386 7 102028344.73607     -2417.010 7        46.347
R12        56.000    19486075.131 8 104091205.75908     -1198.432 8        51.966                                                                    19486079.632 7  80959864.70407      -932.103 7        47.768
C02        57.000                                                                                                                                    41091539.096 5 213974242.53905      -526.078 5        30.506    41091547.272 5 165458391.45205      -406.862 5        35.719    41091546.436 5 173871554.62405      -427.503 5        30.800
I03        58.000   122570063.185 5 405205704.97105       890.655 5        34.281
C14        59.000                                                                                                                                    23318019.908 7 121422983.83107      -690.227 7        46.165    23318022.497 8  93891924.47608      -533.744 8        50.951    23318019.905 8  98666090.85008      -560.844 8        48.372
R13        60.000    20819690.183 7 111176056.24107      1807.580 7        44.501
> 2025 01 01 10 30 55.0000000  0 54
G19         1.000    22237673.290 7 116859920.13807      1832.259 7        45.916                                    22237674.750 6  91059766.41306      1427.733 6        36.125
R01         2.000    23051800.139 6 123224893.45806     -5085.268 6        40.513                                                                    23051812.365 6  95841605.62606     -3955.322 6        36.749
G24         3.000    21000778.980 7 110359856.22907      1487.744 7        47.449                                    21000782.616 8  85994726.41708      1159.278 8        49.110    21000782.890 7  85994723.42907      1159.209 7        44.789
R02         4.000    19972456.686 8 106576790.01408     -2569.212 8        52.361                                                                    19972461.432 7  82893056.96007     -1998.293 7        47.250
S21         5.000    38554604.462 7 202605548.39907      -518.190 7        42.523
G17         7.000    22108643.721 7 116181871.74907      -603.491 7        46.477                                    22108646.402 7  90531417.96707      -470.253 7        44.468    22108646.667 7  90531413.98107      -470.287 7        42.235
R21         8.000    22598675.561 7 120930150.11507       902.036 7        45.138                                                                    22598685.372 7  94056862.64307       701.540 7        43.010
E12         9.000    28982298.042 5 152303004.73205       263.767 5        30.491                                                                    28982310.423 6 113732814.92906       196.949 6        36.393    28982308.757 6 116699746.48406       201.865 6        36.677
E30        10.000    26414202.487 7 138807680.31707      2059.969 7        43.173                                                                    26414211.759 7 103655184.48507      1538.250 7        46.126    26414210.142 7 106359222.67207      1578.393 7        45.684
C26        11.000                                                                                                                                    21758931.237 8 113304485.44608      -477.877 8        50.499                                                                    21758933.874 8  92069193.89408      -388.415 8        49.126
S27        12.000    39293006.178 6 206486018.90306      -550.366 6        36.760
G15        13.000    20716319.565 8 108864925.69708     -2263.632 8        48.880                                    20716320.705 8  84829778.37808     -1763.865 8        49.102    20716320.945 7  84829770.37607     -1763.904 7        44.530
S36        14.000    38325596.210 7 201402772.87307      -519.176 7        44.689
G12        15.000    23577738.278 7 123901940.71107      3001.979 7        43.824                                    23577741.410 6  96547029.27706      2339.202 6        38.628    23577742.109 6  96547029.27806      2339.254 6        39.471
R11        16.000    22735302.762 7 121490430.41107     -3953.919 7        44.954                                                                    22735312.525 7  94492520.00907     -3075.382 7        42.040
S45        17.000    63510239.429 6 333750108.42506      -573.413 6        36.420
R03        18.000    20862171.371 8 111676789.33008      1755.111 8        50.585                                                                    20862175.730 7  86859727.34307      1365.005 7        46.526
C35        19.000                                                                                                                                    25475285.943 7 132656571.81207      2408.653 7        42.737                                                                    25475293.432 7 107794394.01307      1957.105 7        42.863
G30        21.000    25497345.927 5 133989235.17505     -3699.342 5        34.800                                    25497358.493 4 104407143.27604     -2882.596 4        24.015    25497358.997 5 104407147.29605     -2882.711 5        31.849
I06        22.000    38340919.730 7 150458084.11707      -492.575 7        42.009
S28        23.000    41008286.684 5 215499779.09705      -528.869 5        35.357
G14        24.000    22846663.484 7 120059940.66207     -3498.622 7        43.647                                    22846668.760 5  93553180.34105     -2726.185 5        31.079    22846669.031 7  93553182.32507     -2726.156 7        43.081
S23        25.000    38259152.017 7 201053089.49107      -521.327 7        44.901
E08        26.000    23633957.243 8 124197221.47608      -816.041 8        48.899                                                                    23633961.079 8  92744658.20808      -609.384 8        51.149    23633960.054 8  95164083.87008      -625.304 8        51.023
C07        27.000                                                                                                                                    39090229.332 6 203553036.38506      -985.661 6        40.675    39090232.488 7 157400120.65307      -762.163 7        44.126    39090228.666 6 165403505.39206      -800.975 6        40.896
G13        28.000    21622654.237 8 113627735.10308     -3466.786 8        48.677                                    21622655.711 5  88541050.79405     -2701.386 5        35.838
I02        29.000    37086832.288 7 145536704.23707      -224.317 7        43.189
G10        30.000    24781301.197 6 130226528.29906       918.306 6        40.296                                    24781307.854 5 101475199.76105       715.566 5        35.095    24781307.895 6 101475191.75106       715.610 6        37.788
E07        31.000    25885446.397 7 136028855.63907      1761.959 7        43.295                                                                    25885455.909 7 101579983.72307      1315.769 7        46.742    25885454.636 7 104229894.73707      1350.221 7        46.794
E03        32.000    25612100.660 7 134592404.19907     -3184.221 7        44.515                                                                    25612108.968 7 100507300.96507     -2377.785 7        47.617    25612107.775 7 103129228.25007     -2439.795 7        47.739
E10        33.000    28880657.654 5 151768861.88405      1181.771 5        35.514                                                                    28880675.622 6 113333956.06706       882.720 6        38.787    28880673.290 6 116290483.13806       905.540 6        38.393
G02        34.000    25800282.635 6 135581424.46106      -536.095 6        36.246                                    25800289.620 3 105647903.69603      -417.710 3        18.925
C24        35.000                                                                                                                                    23675158.367 7 123282785.04307      1836.172 7        46.624                                                                    23675160.667 7 100177380.20207      1491.909 7        46.650
G23        36.000    23332738.812 7 122614257.21007     -1529.830 7        42.633                                    23332744.278 4  95543532.23204     -1192.071 4        29.062    23332743.791 6  95543533.21206     -1191.977 6        41.666
R04        38.000    24621703.238 6 131848093.45006      3790.828 6        40.675                                                                    24621705.191 6 102548523.98706      2948.413 6        36.355
C33        39.000                                                                                                                                    24419489.373 7 127158678.42007       871.456 7        45.819                                                                    24419507.224 7 103326914.11707       708.005 7        46.033
E25        40.000    25179547.023 7 132319365.53207     -2651.721 7        45.223                                                                    25179555.276 8  98809904.75408     -1980.140 8        48.100    25179553.877 8 101387548.16108     -2031.883 8        48.045
S44        42.000    40983034.081 6 215367277.34806      -482.865 6        37.713
R22        43.000    24000156.601 6 128114501.99306      3290.188 6        41.843                                                                    24000168.772 6  99644676.17506      2558.904 6        38.357
C05        44.000                                                                                                                                    39541624.299 6 205903487.32006      -556.164 6        38.051    39541630.123 7 159217619.32707      -430.090 7        43.005    39541628.951 6 167313519.03606      -452.034 6        39.390
C40        45.000                                                                                                                                    39204402.956 7 204147567.90907     -1190.137 7        42.279                                                                    39204408.239 7 165886627.25507      -967.267 7        42.324
C21        46.000                                                                                                                                    25765461.100 7 134167336.20707     -4012.135 7        42.413                                                                    25765464.455 7 109021885.36607     -3260.253 7        42.946
R20        47.000    23694226.147 5 126703693.66705     -2373.813 5        30.898                                                                    23694237.232 6  98547376.65506     -1846.359 6        40.017
C10        49.000                                                                                                                                    38610069.095 7 201052767.80207      -611.245 7        42.466    38610073.405 7 155466769.84507      -472.628 7        44.659    38610069.327 6 163371846.41006      -496.830 6        41.504
C42        50.000                                                                                                                                    23272357.255 8 121185183.58208     -2293.149 8        48.239                                                                    23272369.703 8  98472906.63808     -1863.357 8        48.582
S48        51.000    77264531.022 6 406027437.05306      -513.516 6        38.471
E02        53.000    23291065.852 8 122395467.94408      -126.324 8        49.085                                                                    23291069.926 8  91399292.46808       -94.290 8        51.479    23291068.822 8  93783603.07708       -96.758 8        51.108
C60        54.000                                                                                                                                    40983037.093 6 213409410.47506      -478.514 6        40.782                                                                    40983031.500 6 173412551.38906      -388.902 6        39.823
C45        55.000                                                                                                                                    24115500.251 7 125575626.09707     -2975.264 7        46.516                                                                    24115498.996 7 102040432.24907     -2417.709 7        46.379
R12        56.000    19487198.171 8 104097204.82008     -1200.858 8        51.877                                                                    19487202.731 7  80964530.64107      -934.035 7        47.796
C02        57.000                                                                                                                                    41092044.036 5 213976875.04105      -526.511 5        30.340    41092052.628 5 165460427.04605      -406.926 5        35.724    41092052.060 5 173873693.68605      -427.513 5        30.528
I03        58.000   122568929.318 5 405201252.50405       890.723 5        34.033
C14        59.000                                                                                                                                    23318684.529 7 121426443.41107      -693.248 7        46.179    23318687.032 8  93894599.63808      -536.070 8        50.898    23318684.273 8  98668902.02808      -563.381 8        48.409
R13        60.000    20817998.591 7 111167024.34707      1805.574 7        44.966
> 2025 01 01 10 31  0.0000000  0 54
G19         1.000    22235931.156 7 116850766.24107      1829.593 7        45.940                                    22235932.726 5  91052633.51805      1425.654 5        35.776
R01         2.000    23056557.630 6 123250323.26306     -5086.218 6        40.513                                                                    23056569.605 6  95861384.28106     -3955.979 6        37.089
G24         3.000    20999364.838 7 110352423.78207      1485.527 7        47.310                                    20999368.264 8  85988934.90808      1157.553 8        48.992    20999368.601 7  85988931.90607      1157.518 7        44.793
R02         4.000    19974865.969 8 106589647.90908     -2573.596 8        52.308                                                                    19974870.832 7  82903057.53207     -2001.662 7        47.247
S21         5.000    38555096.586 7 202608140.04607      -518.311 7        42.677
G17         7.000    22109219.853 7 116184898.28307      -606.913 7        46.819                                    22109222.307 7  90533776.31507      -472.917 7        44.302    22109222.691 7  90533772.31807      -472.895 7        42.502
R21         8.000    22597834.566 7 120925651.12407       897.849 7        44.566                                                                    22597844.636 7  94053363.45907       698.242 7        42.620
E12         9.000    28982047.079 5 152301692.81005       261.432 5        31.072                                                                    28982060.738 6 113731835.26606       195.157 6        36.457    28982059.143 6 116698741.25206       200.152 6        36.605
E30        10.000    26412243.132 7 138797384.07307      2058.761 7        43.031                                                                    26412252.501 7 103647495.71907      1537.469 7        46.164    26412250.900 7 106351333.33307      1577.511 7        45.698
C26        11.000                                                                                                                                    21759391.152 8 113306880.04208      -479.738 8        50.648                                                                    21759393.710 8  92071139.72108      -389.914 8        49.103
S27        12.000    39293534.930 6 206488771.68806      -550.523 6        36.926
G15        13.000    20718475.408 8 108876253.19908     -2267.064 8        49.174                                    20718476.287 8  84838604.99308     -1766.541 8        48.936    20718476.771 7  84838596.98307     -1766.476 7        45.058
S36        14.000    38326089.788 7 201405369.76107      -519.399 7        44.527
G12        15.000    23574882.613 7 123886934.89407      3000.651 7        43.494                                    23574886.050 6  96535336.44306      2338.168 6        38.450    23574886.701 6  96535336.47706      2338.161 6        40.007
R11        16.000    22739002.863 7 121510202.47707     -3954.623 7        44.685                                                                    22739012.796 7  94507898.21807     -3075.756 7        42.620
S45        17.000    63510737.885 6 333751277.25416      -573.762 6        36.605
R03        18.000    20860533.637 8 111668024.62508      1751.025 8        50.453                                                                    20860538.406 7  86852910.34407      1361.963 7        46.299
C35        19.000                                                                                                                                    25472973.285 7 132644531.56207      2407.645 7        42.753                                                                    25472981.254 7 107784610.34807      1956.323 7        42.804
G30        21.000    25500865.316 5 134007733.92105     -3699.885 5        34.890                                    25500878.697 3 104421557.85503     -2883.023 3        23.790    25500879.072 5 104421561.88005     -2883.758 5        31.109
I06        22.000    38341547.969 6 150460547.78306      -492.740 6        41.936
S28        23.000    41008788.386 5 215502425.30205      -529.169 5        35.505
G14        24.000    22849992.748 7 120077437.52207     -3499.886 7        43.991                                    22849998.429 5  93566814.21105     -2727.176 5        30.906    22849998.709 7  93566816.18307     -2727.145 7        43.234
S23        25.000    38259648.372 7 201055697.12207      -521.449 7        44.846
E08        26.000    23634734.946 8 124201308.44108      -818.460 8        48.962                                                                    23634738.818 8  92747710.14808      -611.112 8        51.237    23634737.722 8  95167215.42808      -627.065 8        50.923
C07        27.000                                                                                                                                    39091176.608 6 203557967.25306      -986.475 6        40.658    39091179.438 7 157403933.50207      -762.753 7        43.977    39091175.547 6 165407512.14206      -801.593 6        40.784
G13        28.000    21625954.091 8 113645075.19308     -3468.993 8        48.651                                    21625955.456 5  88554562.52405     -2703.107 5        35.486
I02        29.000    37087118.293 7 145537826.75507      -224.582 7        42.950
G10        30.000    24780429.176 6 130221944.57406       915.225 6        40.834                                    24780435.718 5 101471628.00205       713.167 5        35.100    24780436.277 6 101471620.00206       713.308 6        38.333
E07        31.000    25883770.853 7 136020049.97407      1760.571 7        43.386                                                                    25883780.170 7 101573408.06607      1314.785 7        46.826    25883778.972 7 104223147.55307      1349.022 7        46.757
E03        32.000    25615131.067 7 134608329.25907     -3185.557 7        44.466                                                                    25615139.350 7 100519193.03707     -2378.810 7        47.711    25615138.190 7 103141430.55407     -2440.858 7        47.865
E10        33.000    28879534.184 5 151762958.67105      1179.734 5        35.833                                                                    28879552.429 6 113329547.83406       880.960 6        38.784    28879549.885 6 116285959.89406       904.001 6        38.117
G02        34.000    25800793.573 6 135584112.67506      -539.124 6        36.628                                    25800801.196 3 105649998.41103      -420.103 3        18.119
C24        35.000                                                                                                                                    23673396.072 7 123273607.82007      1835.014 7        46.892                                                                    23673398.329 7 100169922.98407      1490.901 7        46.563
G23        36.000    23334196.302 7 122621915.10907     -1533.022 7        42.665                                    23334201.544 4  95549499.40904     -1194.557 4        28.976    23334201.796 6  95549500.41406     -1194.594 6        41.819
R04        38.000    24618165.095 6 131829142.33306      3789.946 6        40.265                                                                    24618165.317 5 102533784.14905      2947.801 5        35.929
C33        39.000                                                                                                                                    24418654.432 7 127154328.96307       868.559 7        46.279                                                                    24418671.929 7 103323379.85207       705.624 7        45.872
E25        40.000    25182070.605 7 132332627.63507     -2652.927 7        45.509                                                                    25182079.095 8  98819808.24608     -1981.054 8        48.032    25182077.631 8 101397710.00008     -2032.715 8        48.080
S44        42.000    40983494.430 6 215369692.92306      -483.012 6        37.323
R22        43.000    23997075.537 7 128098055.10307      3289.058 7        42.506                                                                    23997087.323 6  99631884.19606      2558.075 6        38.664
C05        44.000                                                                                                                                    39542158.533 6 205906269.63906      -556.559 6        38.276    39542164.514 7 159219770.75907      -430.220 7        42.927    39542163.225 6 167315779.90706      -452.427 6        38.970
C40        45.000                                                                                                                                    39205545.962 7 204153521.34307     -1190.975 7        42.364                                                                    39205551.557 7 165891464.91807      -967.908 7        42.061
C21        46.000                                                                                                                                    25769314.096 7 134187399.34907     -4012.743 7        42.400                                                                    25769317.539 7 109038188.28207     -3260.861 7        43.247
R20        47.000    23696447.664 5 126715573.12405     -2377.568 5        30.913                                                                    23696458.790 6  98556616.25206     -1849.323 6        39.465
C10        49.000                                                                                                                                    38610656.340 7 201055826.76107      -612.028 7        42.718    38610660.765 7 155469135.22707      -473.235 7        44.625    38610656.775 6 163374332.08906      -497.487 6        41.344
C42        50.000                                                                                                                                    23274560.573 8 121196656.38808     -2295.756 8        48.475                                                                    23274572.967 8  98482229.25508     -1865.674 8        48.527
S48        51.000    77265021.926 6 406030005.25706      -513.614 6        38.429
E02        53.000    23291187.065 8 122396105.29008      -128.386 8        49.224                                                                    23291191.165 8  91399768.40708       -95.878 8        51.456    23291190.081 8  93784091.43308       -98.370 8        51.052
C60        54.000                                                                                                                                    40983496.610 6 213411804.08506      -478.677 6        41.015                                                                    40983491.219 6 173414496.42806      -389.148 6        39.538
C45        55.000                                                                                                                                    24118357.949 7 125590505.13107     -2976.114 7        46.909                                                                    24118356.371 7 102052522.69607     -2418.440 7        46.342
R12        56.000    19488323.258 8 104103216.28208     -1203.474 8        52.011                                                                    19488328.193 7  80969206.19707      -935.993 7        47.857
C02        57.000                                                                                                                                    41092548.610 5 213979507.80605      -526.268 5        30.355    41092558.096 5 165462462.90005      -407.207 5        35.890    41092557.380 5 173875833.09105      -428.003 5        30.483
I03        58.000   122567793.773 5 405196800.21105       890.701 5        34.062
C14        59.000                                                                                                                                    23319352.371 7 121429918.19507      -696.452 7        46.475    23319354.328 8  93897286.54508      -538.469 8        50.701    23319351.648 8  98671725.59508      -566.018 8        48.314
R13        60.000    20816309.706 7 111158002.74407      1803.396 7        44.856
> 2025 01 01 10 31  5.0000000  0 54
G19         1.000    22234191.954 7 116841624.99607      1826.950 7        45.684                                    22234193.028 5  91045510.47005      1423.595 5        35.748
R01         2.000    23061315.587 6 123275758.00106     -5087.527 6        40.827                                                                    23061327.296 6  95881166.77106     -3956.887 6        37.289
G24         3.000    20997951.969 7 110345001.72707      1483.274 7        47.059                                    20997955.897 8  85983151.48808      1155.796 8        48.963    20997956.234 7  85983148.49007      1155.856 7        44.969
R02         4.000    19977279.968 8 106602527.25908     -2578.071 8        52.328                                                                    19977284.511 7  82913074.78107     -2005.195 7        47.145
S21         5.000    38555591.545 7 202610732.61807      -518.809 7        42.682
G17         7.000    22109798.787 7 116187941.62707      -610.406 7        46.400                                    22109801.422 7  90536147.76307      -475.644 7        44.250    22109801.617 7  90536143.77407      -475.647 7        42.637
R21         8.000    22596997.926 7 120921173.28607       893.436 7        45.579                                                                    22597007.327 7  94049880.71007       694.848 7        42.682
E12         9.000    28981800.463 5 152300393.28905       258.859 5        31.487                                                                    28981813.278 5 113730864.83905       193.050 5        35.786    28981811.812 6 116697745.50306       198.050 6        36.703
E30        10.000    26410285.113 7 138787093.40307      2057.443 7        43.145                                                                    26410294.320 7 103639811.13807      1536.402 7        45.878    26410292.662 7 106343448.27907      1576.487 7        45.639
C26        11.000                                                                                                                                    21759852.840 8 113309283.39408      -481.598 8        50.761                                                                    21759855.261 8  92073092.61608      -391.315 8        49.214
S27        12.000    39294055.619 6 206491525.87006      -550.928 6        36.790
G15        13.000    20720634.177 8 108887597.44808     -2270.585 8        48.733                                    20720635.070 8  84847444.65308     -1769.284 8        48.931    20720635.393 7  84847436.65307     -1769.348 7        44.837
S36        14.000    38326583.956 7 201407967.01307      -519.565 7        44.582
G12        15.000    23572028.115 7 123871935.38807      2999.271 7        43.755                                    23572031.903 6  96523648.53606      2337.092 6        38.535    23572032.740 6  96523648.55806      2336.936 6        39.625
R11        16.000    22742703.809 7 121529977.01207     -3955.234 7        45.017                                                                    22742713.464 7  94523278.36007     -3076.313 7        42.449
S45        17.000    63511236.521 6 333754146.86006      -573.879 6        36.352
R03        18.000    20858900.363 8 111659279.81608      1746.987 8        51.075                                                                    20858904.657 7  86846108.84707      1358.669 7        46.500
C35        19.000                                                                                                                                    25470661.144 7 132632495.61607      2406.695 7        42.006                                                                    25470669.859 7 107774830.14207      1955.694 7        42.944
G30        21.000    25504386.311 5 134026235.09505     -3700.520 5        35.262                                    25504399.675 3 104435974.33303     -2883.518 3        23.810    25504399.587 5 104435978.32705     -2883.859 5        31.525
I06        22.000    38342175.733 6 150463012.10806      -493.018 6        41.805
S28        23.000    41009294.847 5 215505072.55905      -529.669 5        35.424
G14        24.000    22853323.724 7 120094940.33507     -3501.160 7        44.093                                    22853329.202 5  93580452.72105     -2728.168 5        30.800    22853329.365 7  93580454.69707     -2728.229 7        43.354
S23        25.000    38260145.075 7 201058305.52607      -521.791 7        44.829
E08        26.000    23635514.912 8 124205407.01408      -820.926 8        48.931                                                                    23635518.745 8  92750770.76708      -613.064 8        50.918    23635517.679 8  95170355.89108      -629.072 8        50.979
C07        27.000                                                                                                                                    39092123.782 6 203562901.64906      -987.354 6        40.627    39092127.067 7 157407749.07607      -763.495 7        43.937    39092123.217 6 165411521.71106      -802.259 6        40.992
G13        28.000    21629255.766 8 113662426.05408     -3471.331 8        48.323                                    21629257.132 5  88568082.64705     -2704.930 5        35.505
I02        29.000    37087404.772 7 145538951.04007      -225.135 7        43.084
G10        30.000    24779559.768 6 130217376.10306       912.178 6        41.185                                    24779566.511 5 101468068.12705       710.794 5        35.300    24779565.788 6 101468060.12906       710.624 6        39.057
E07        31.000    25882096.389 7 136011251.00307      1758.967 7        43.191                                                                    25882105.874 7 101566837.41107      1313.494 7        46.472    25882104.541 7 104216405.48507      1347.849 7        46.781
E03        32.000    25618162.848 7 134624260.97107     -3187.142 7        44.330                                                                    25618171.105 7 100531090.06907     -2379.931 7        47.444    25618170.001 7 103153637.94207     -2442.034 7        47.894
E10        33.000    28878412.878 5 151757065.32905      1177.688 5        35.705                                                                    28878430.690 6 113325146.97106       879.288 6        38.288    28878428.463 6 116281444.24206       902.231 6        38.036
G02        34.000    25801308.365 5 135586815.21005      -541.917 5        35.919                                    25801315.563 2 105652104.30902      -422.289 2        17.849
C24        35.000                                                                                                                                    23671634.774 7 123264436.02007      1833.784 7        47.040                                                                    23671637.030 7 100162470.13207      1490.132 7        46.722
G23        36.000    23335657.130 7 122629589.20607     -1536.436 7        42.574                                    23335661.918 4  95555479.20804     -1197.217 4        28.938    23335661.844 7  95555480.20707     -1197.414 7        42.224
R04        38.000    24614626.503 6 131810195.88406      3788.762 6        41.709                                                                    24614627.756 6 102519047.93006      2946.874 6        37.796
C33        39.000                                                                                                                                    24417821.790 7 127149993.58307       865.655 7        46.390                                                                    24417839.430 7 103319856.98307       703.424 7        46.068
E25        40.000    25184595.079 7 132345895.33607     -2654.241 7        45.520                                                                    25184603.867 7  98829715.91707     -1982.007 7        47.934    25184602.438 8 101407876.13908     -2033.692 8        48.056
S44        42.000    40983953.088 6 215372109.16006      -483.439 6        37.338
R22        43.000    23993995.381 7 128081613.03507      3288.005 7        42.891                                                                    23994008.022 6  99619095.95306      2557.214 6        38.838
C05        44.000                                                                                                                                    39542692.843 6 205909052.64406      -556.764 6        38.213    39542699.056 7 159221922.73707      -430.454 7        42.967    39542697.620 6 167318041.29406      -452.324 6        39.198
C40        45.000                                                                                                                                    39206690.124 7 204159479.01207     -1191.985 7        42.707                                                                    39206695.578 7 165896305.98007      -968.463 7        42.260
C21        46.000                                                                                                                                    25773167.684 7 134207465.17107     -4013.561 7        42.320                                                                    25773171.170 7 109054493.32507     -3261.203 7        43.736
R20        47.000    23698671.528 5 126727472.93605     -2382.205 5        30.785                                                                    23698684.176 6  98565871.63606     -1852.761 6        39.402
C10        49.000                                                                                                                                    38611244.466 7 201058889.52807      -612.991 7        42.679    38611248.854 7 155471503.55207      -474.005 7        44.795    38611244.966 6 163376820.81106      -498.042 6        41.619
C42        50.000                                                                                                                                    23276766.431 8 121208142.30308     -2298.556 8        48.561                                                                    23276778.690 8  98491562.46808     -1867.729 8        48.623
S48        51.000    77265513.871 6 406032574.27806      -513.788 6        38.174
E02        53.000    23291310.089 8 122396752.59708      -130.511 8        49.082                                                                    23291314.371 8  91400251.78308       -97.470 8        51.252    23291313.238 8  93784587.41808      -100.011 8        51.047
C60        54.000                                                                                                                                    40983956.919 6 213414198.36606      -479.058 6        41.094                                                                    40983950.929 6 173416441.96406      -389.157 6        39.727
C45        55.000                                                                                                                                    24121216.296 7 125605388.07907     -2977.051 7        46.587                                                                    24121214.494 7 102064616.26907     -2419.031 7        46.371
R12        56.000    19489450.892 8 104109240.52308     -1206.190 8        51.498                                                                    19489455.827 7  80973891.71407      -938.174 7        47.901
C02        57.000                                                                                                                                    41093054.453 5 213982141.27905      -526.521 5        30.800    41093063.747 5 165464499.24405      -407.575 5        35.776    41093063.308 5 173877972.97205      -427.933 5        30.740
I03        58.000   122566658.514 5 405192348.33805       889.992 5        34.448
C14        59.000                                                                                                                                    23320023.210 7 121433408.52507      -699.680 7        46.595    23320024.557 8  93899985.48008      -541.066 8        50.650    23320021.940 8  98674561.74308      -568.493 8        48.465
R13        60.000    20814620.968 7 111148991.82707      1800.949 7        44.473
> 2025 01 01 10 31 10.0000000  0 54
G19         1.000    22232454.722 7 116832496.31307      1824.532 7        46.249                                    22232455.754 5  91038397.22305      1421.711 5        35.662
R01         2.000    23066075.296 6 123301197.46506     -5088.234 6        40.741                                                                    23066086.315 6  95900952.92906     -3957.382 6        36.892
G24         3.000    20996541.607 7 110337589.99307      1481.410 7        47.297                                    20996545.494 8  85977376.11508      1154.344 8        48.984    20996545.751 7  85977373.12607      1154.259 7        44.575
R02         4.000    19979697.798 8 106615427.97708     -2582.230 8        52.596                                                                    19979701.969 7  82923108.65707     -2008.349 7        47.279
S21         5.000    38556086.366 7 202613325.83607      -518.565 7        42.415
G17         7.000    22110381.031 7 116191001.68807      -613.574 7        46.721                                    22110383.752 7  90538532.23607      -478.112 7        44.281    22110384.230 7  90538528.23907      -478.040 7        42.887
R21         8.000    22596165.717 7 120916716.43907       889.315 7        45.099                                                                    22596174.690 7  94046414.31407       691.697 7        42.902
E12         9.000    28981555.955 5 152299106.07305       256.370 5        31.155                                                                    28981568.339 6 113729903.60806       191.528 6        36.072    28981566.865 6 116696759.21506       196.381 6        36.586
E30        10.000    26408327.797 7 138776808.26907      2056.634 7        43.105                                                                    26408337.024 7 103632130.67607      1535.751 7        45.890    26408335.394 7 106335567.45807      1575.834 7        45.613
C26        11.000                                                                                                                                    21760316.048 8 113311695.40408      -483.173 8        50.825                                                                    21760318.473 8  92075052.56608      -392.744 8        49.095
S27        12.000    39294578.387 6 206494280.08506      -551.012 6        36.469
G15        13.000    20722795.722 8 108898958.30208     -2273.760 8        48.889                                    20722797.001 8  84856297.25308     -1771.756 8        48.957    20722797.039 7  84856289.24207     -1771.744 7        45.011
S36        14.000    38327081.643 7 201410565.66307      -519.656 7        44.588
G12        15.000    23569174.742 7 123856942.13007      2998.165 7        44.248                                    23569178.869 6  96511965.49606      2336.229 6        38.655    23569179.436 6  96511965.50606      2336.253 6        38.880
R11        16.000    22746404.912 7 121549753.86207     -3955.557 7        44.975                                                                    22746414.393 7  94538660.30907     -3076.456 7        42.599
S45        17.000    63511733.184 6 333757017.19406      -574.235 6        36.397
R03        18.000    20857270.552 8 111650554.67208      1743.133 8        50.714                                                                    20857274.709 7  86839322.61807      1355.803 7        46.256
C35        19.000                                                                                                                                    25468350.320 6 132620463.89206      2406.019 6        41.352                                                                    25468359.195 7 107765053.37007      1955.013 7        42.601
G30        21.000    25507907.698 5 134044738.57605     -3700.922 5        35.867                                    25507920.769 4 104450392.61004     -2883.829 4        24.015    25507922.295 5 104450396.62805     -2883.687 5        31.585
I06        22.000    38342803.730 6 150465477.03906      -493.005 6        41.940
S28        23.000    41009797.301 5 215507720.52905      -529.328 5        34.938
G14        24.000    22856655.664 7 120112449.00907     -3502.248 7        43.843                                    22856661.044 5  93594095.79005     -2729.011 5        30.808    22856661.088 7  93594097.77107     -2729.021 7        42.832
S23        25.000    38260640.571 7 201060914.61007      -521.714 7        44.757
E08        26.000    23636297.153 8 124209517.11608      -823.093 8        48.807                                                                    23636300.870 8  92753839.98708      -614.630 8        50.924    23636299.825 8  95173505.17708      -630.688 8        50.957
C07        27.000                                                                                                                                    39093072.589 6 203567839.51706      -987.826 6        40.660    39093075.219 7 157411567.34307      -763.862 7        43.888    39093071.639 6 165415534.12806      -802.854 6        40.787
G13        28.000    21632559.406 8 113679787.56008     -3473.327 8        48.362                                    21632560.807 5  88581611.06105     -2706.486 5        35.438
I02        29.000    37087691.851 7 145540077.15607      -225.182 7        43.075
G10        30.000    24778693.329 6 130212822.80606       909.242 6        41.039                                    24778700.241 5 101464520.07405       708.508 5        35.329    24778699.535 6 101464512.06006       708.636 6        38.574
E07        31.000    25880423.155 7 136002458.60707      1757.931 7        43.132                                                                    25880432.727 7 101560271.66907      1312.744 7        46.593    25880431.402 7 104209668.46307      1346.996 7        46.785
E03        32.000    25621195.768 7 134640199.19207     -3188.162 7        44.358                                                                    25621204.153 7 100542991.98107     -2380.799 7        47.492    25621202.952 7 103165850.33607     -2442.891 7        47.823
E10        33.000    28877293.094 5 151751181.78505      1175.890 5        35.624                                                                    28877311.186 6 113320753.41806       877.989 6        38.201    28877309.078 6 116276936.05606       901.019 6        37.845
G02        34.000    25801826.087 6 135589532.02306      -544.596 6        36.658                                    25801832.549 3 105654221.29103      -424.366 3        18.179
C24        35.000                                                                                                                                    23669874.417 7 123255269.56707      1832.798 7        46.892                                                                    23669876.674 7 100155021.62607      1489.297 7        46.550
G23        36.000    23337120.273 7 122637279.36507     -1539.534 7        42.542                                    23337125.475 4  95561471.51504     -1199.634 4        28.825    23337125.215 6  95561472.51406     -1199.588 6        41.850
R04        38.000    24611088.840 7 131791254.11007      3788.018 7        42.557                                                                    24611090.824 6 102504315.38606      2946.266 6        39.486
C33        39.000                                                                                                                                    24416991.495 7 127145672.18707       862.987 7        46.319                                                                    24417009.455 7 103316345.48307       701.191 7        45.949
E25        40.000    25187120.929 7 132359168.52407     -2655.150 7        45.401                                                                    25187129.727 7  98839627.69307     -1982.698 7        47.916    25187128.340 7 101418046.48607     -2034.404 7        47.993
S44        42.000    40984412.378 6 215374525.97006      -483.349 6        37.289
R22        43.000    23990916.742 7 128065175.70407      3287.044 7        42.842                                                                    23990928.733 6  99606311.40806      2556.708 6        38.934
C05        44.000                                                                                                                                    39543227.050 6 205911836.25806      -556.761 6        38.219    39543233.374 7 159224075.17907      -430.455 7        42.933    39543232.283 6 167320303.16406      -452.405 6        39.150
C40        45.000                                                                                                                                    39207834.944 7 204165440.79507     -1192.748 7        42.753                                                                    39207840.550 7 165901150.41507      -969.310 7        42.076
C21        46.000                                                                                                                                    25777021.115 7 134227533.54507     -4013.988 7        42.169                                                                    25777025.251 7 109070800.47307     -3261.621 7        43.886
R20        47.000    23700899.263 4 126739392.74504     -2385.844 4        29.517                                                                    23700912.892 6  98575142.73406     -1855.880 6        40.100
C10        49.000                                                                                                                                    38611833.447 7 201061955.98407      -613.627 7        42.609    38611837.554 7 155473874.74307      -474.528 7        44.790    38611833.850 6 163379312.56106      -498.637 6        41.452
C42        50.000                                                                                                                                    23278974.625 8 121219641.22508     -2301.044 8        48.454                                                                    23278986.920 8  98500906.26208     -1869.805 8        48.568
S48        51.000    77266007.292 6 406035144.21606      -513.755 6        37.535
E02        53.000    23291435.161 8 122397409.75608      -132.319 8        49.028                                                                    23291439.431 8  91400742.51808       -98.818 8        51.288    23291438.344 8  93785090.95408      -101.395 8        51.083
C60        54.000                                                                                                                                    40984416.360 6 213416593.20206      -478.967 6        41.104                                                                    40984410.799 6 173418387.95306      -389.197 6        39.649
C45        55.000                                                                                                                                    24124074.861 7 125620274.83607     -2977.622 7        46.208                                                                    24124073.357 7 102076712.94807     -2419.598 7        46.232
R12        56.000    19490580.966 8 104115277.47808     -1208.568 8        51.462                                                                    19490585.873 7  80978587.10407      -939.984 7        47.794
C02        57.000                                                                                                                                    41093561.459 5 213984775.30205      -526.736 5        30.475    41093569.197 5 165466536.01005      -407.235 5        35.729    41093569.357 5 173880113.29305      -428.224 5        30.823
I03        58.000   122565525.065 5 405187896.74505       890.362 5        34.109
C14        59.000                                                                                                                                    23320696.475 7 121436914.29007      -702.597 7        46.565    23320697.697 8  93902696.33608      -543.258 8        50.649    23320695.160 8  98677410.44308      -570.908 8        48.413
R13        60.000    20812935.601 7 111139991.43307      1799.081 7        44.677
> 2025 01 01 10 31 15.0000000  0 54
G19         1.000    22230720.112 7 116823379.46307      1822.138 7        45.871                                    22230720.746 5  91031293.19305      1419.847 5        35.519
R01         2.000    23070835.326 6 123326640.90706     -5089.146 6        40.250                                                                    23070846.671 6  95920742.20606     -3958.241 6        36.957
G24         3.000    20995133.251 7 110330187.83807      1479.362 7        47.406                                    20995136.902 8  85971608.20608      1152.745 8        48.864    20995137.173 7  85971605.20407      1152.768 7        44.631
R02         4.000    19982119.425 8 106628349.39008     -2586.364 8        52.836                                                                    19982123.705 7  82933158.62807     -2011.623 7        47.045
S21         5.000    38556577.471 7 202615918.69007      -518.706 7        42.417
G17         7.000    22110966.665 7 116194077.74407      -616.900 7        45.628                                    22110969.124 7  90540929.17407      -480.705 7        44.108    22110969.102 7  90540925.18107      -480.678 7        42.535
R21         8.000    22595335.814 7 120912279.81407       885.231 7        45.458                                                                    22595345.456 7  94042963.63607       688.473 7        42.548
E12         9.000    28981312.365 5 152297830.36505       254.217 5        31.653                                                                    28981325.470 5 113728950.99905       189.318 5        35.643    28981324.147 6 116695781.72106       194.515 6        36.367
E30        10.000    26406371.577 7 138766527.90307      2055.573 7        43.244                                                                    26406380.723 7 103624453.78007      1534.963 7        45.785    26406379.141 7 106327690.29907      1574.903 7        45.536
C26        11.000                                                                                                                                    21760780.799 8 113314115.33808      -484.858 8        50.690                                                                    21760783.171 8  92077018.94408      -394.194 8        49.121
S27        12.000    39295105.752 6 206497034.37106      -550.882 6        36.510
G15        13.000    20724961.098 8 108910335.00708     -2277.011 8        48.875                                    20724961.937 8  84865162.20408     -1774.293 8        48.801    20724962.263 7  84865154.20507     -1774.365 7        44.870
S36        14.000    38327573.414 7 201413164.75907      -519.973 7        44.504
G12        15.000    23566322.448 7 123841954.37807      2996.861 7        43.718                                    23566326.815 6  96500286.74606      2335.213 6        38.571    23566327.202 6  96500286.74306      2335.263 6        39.201
R11        16.000    22750106.263 7 121569532.29307     -3955.864 7        44.476                                                                    22750115.629 7  94554043.48107     -3076.780 7        42.482
S45        17.000    63512233.603 6 333759887.53506      -574.080 6        36.170
R03        18.000    20855644.011 8 111641848.44308      1739.285 8        50.840                                                                    20855648.034 7  86832551.12207      1352.791 7        46.247
C35        19.000                                                                                                                                    25466041.176 6 132608435.66106      2405.177 6        41.220                                                                    25466049.249 7 107755279.43407      1954.248 7        42.461
G30        21.000    25511428.706 5 134063243.61505     -3701.256 5        35.357                                    25511442.203 3 104464812.10903     -2884.103 3        23.695    25511441.364 5 104464816.09705     -2883.843 5        31.441
I06        22.000    38343431.816 7 150467941.99307      -493.103 7        42.021
S28        23.000    41010302.576 5 215510368.58305      -529.792 5        34.976
G14        24.000    22859988.065 7 120129962.78207     -3503.272 7        43.314                                    22859993.878 5  93607742.83905     -2729.811 5        30.566    22859993.856 7  93607744.83007     -2729.966 7        42.516
S23        25.000    38261138.634 7 201063523.75607      -521.962 7        44.652
E08        26.000    23637081.217 8 124213637.98808      -825.308 8        48.836                                                                    23637085.009 8  92756917.25208      -616.296 8        50.839    23637083.975 8  95176662.71908      -632.381 8        50.834
C07        27.000                                                                                                                                    39094021.242 6 203572780.06306      -988.436 6        40.498    39094023.879 7 157415387.67007      -764.350 7        43.735    39094020.377 6 165419548.71406      -803.615 6        40.834
G13        28.000    21635865.388 8 113697158.97708     -3475.345 8        48.239                                    21635866.499 5  88595147.20005     -2708.052 5        35.248
I02        29.000    37087979.210 7 145541204.32107      -225.500 7        42.971
G10        30.000    24777828.913 6 130208283.88606       906.340 6        40.081                                    24777836.592 5 101460983.22905       706.243 5        35.095    24777836.327 6 101460975.22406       706.204 6        38.339
E07        31.000    25878750.955 7 135993672.07607      1756.681 7        43.035                                                                    25878760.646 7 101553710.29607      1311.825 7        46.508    25878759.362 7 104202935.92007      1346.095 7        46.635
E03        32.000    25624230.086 7 134656143.22007     -3189.440 7        44.166                                                                    25624238.169 7 100554898.20807     -2381.770 7        47.372    25624236.978 7 103178067.16407     -2443.873 7        47.686
E10        33.000    28876174.557 5 151745307.29805      1173.971 5        35.290                                                                    28876193.274 6 113316366.62906       876.561 6        37.784    28876191.348 6 116272434.84306       899.326 6        37.701
G02        34.000    25802346.137 6 135592262.35106      -547.306 6        37.482                                    25802352.237 2 105656348.86202      -426.488 2        17.924
C24        35.000                                                                                                                                    23668114.923 7 123246107.69807      1831.813 7        46.507                                                                    23668117.174 7 100147576.85107      1488.350 7        46.641
G23        36.000    23338586.354 7 122644984.84307     -1542.636 7        42.347                                    23338591.792 4  95567475.76904     -1202.044 4        28.597    23338591.632 7  95567476.77407     -1202.107 7        42.294
R04        38.000    24607552.024 7 131772316.05207      3787.052 7        42.495                                                                    24607554.790 6 102489585.70206      2945.743 6        39.664
C33        39.000                                                                                                                                    24416164.544 7 127141364.04007       860.251 7        46.224                                                                    24416182.140 7 103312844.75007       698.828 7        45.964
E25        40.000    25189647.685 7 132372446.45907     -2656.087 7        44.966                                                                    25189656.384 7  98849543.01407     -1983.513 7        47.849    25189655.049 8 101428220.47008     -2035.282 8        48.022
S44        42.000    40984872.387 6 215376942.61506      -483.453 6        37.085
R22        43.000    23987837.478 7 128048742.35507      3286.154 7        42.491                                                                    23987849.881 6  99593529.96406      2555.835 6        38.754
C05        44.000                                                                                                                                    39543762.213 6 205914619.73706      -556.749 6        38.066    39543767.993 7 159226227.53207      -430.658 7        42.836    39543766.879 6 167322564.95406      -452.643 6        39.168
C40        45.000                                                                                                                                    39208980.520 7 204171405.96507     -1193.443 7        42.798                                                                    39208986.075 7 165905997.58807      -970.021 7        42.317
C21        46.000                                                                                                                                    25780875.382 7 134247603.73907     -4014.271 7        42.176                                                                    25780879.609 7 109087109.09007     -3262.092 7        43.941
R20        47.000    23703132.227 5 126751332.04405     -2390.302 5        30.460                                                                    23703146.876 6  98584428.73606     -1858.590 6        40.286
C10        49.000                                                                                                                                    38612423.325 7 201065025.40307      -614.154 7        42.650    38612426.945 7 155476248.20607      -474.954 7        44.719    38612423.215 6 163381806.70706      -499.381 6        41.340
C42        50.000                                                                                                                                    23281185.107 8 121231152.39608     -2303.523 8        48.340                                                                    23281197.528 8  98510260.01408     -1871.984 8        48.553
S48        51.000    77266494.583 6 406037714.06206      -513.935 6        38.012
E02        53.000    23291561.956 8 122398076.03408      -134.200 8        49.011                                                                    23291566.170 8  91401240.05808      -100.244 8        51.167    23291565.130 8  93785601.47208      -102.871 8        50.929
C60        54.000                                                                                                                                    40984876.338 6 213418987.87906      -478.917 6        40.846                                                                    40984870.777 6 173420333.82606      -389.404 6        39.553
C45        55.000                                                                                                                                    24126934.111 7 125635164.65407     -2978.358 7        45.905                                                                    24126932.707 7 102088812.11407     -2420.330 7        46.191
R12        56.000    19491713.640 8 104121326.23808     -1211.041 8        51.461                                                                    19491718.161 7  80983291.68407      -941.882 7        47.711
C02        57.000                                                                                                                                    41094068.201 5 213987409.07805      -526.449 5        30.151    41094075.224 5 165468572.61205      -407.420 5        35.476    41094074.789 5 173882253.43905      -427.831 5        31.004
I03        58.000   122564390.737 5 405183444.93205       890.424 5        33.940
C14        59.000                                                                                                                                    23321371.631 7 121440434.79707      -705.612 7        46.294    23321373.937 8  93905418.60408      -545.676 8        50.593    23321371.173 8  98680271.12308      -573.536 8        48.360
R13        60.000    20811252.333 7 111131000.75007      1797.147 7        44.486
> 2025 01 01 10 31 20.0000000  0 54
G19         1.000    22228987.456 7 116814275.45007      1819.658 7        46.096                                    22228988.216 5  91024199.16305      1417.911 5        35.510
R01         2.000    23075595.931 6 123352089.24406     -5089.967 6        40.508                                                                    23075607.305 6  95940535.28406     -3958.814 6        36.915
G24         3.000    20993726.587 7 110322796.22607      1477.560 7        47.308                                    20993730.312 8  85965848.50908      1151.346 8        48.833    20993730.663 7  85965845.51907      1151.261 7        44.858
R02         4.000    19984544.495 8 106641292.34308     -2590.546 8        52.243                                                                    19984549.030 7  82943225.34307     -2014.920 7        46.814
S21         5.000    38557073.244 7 202618512.55107      -518.648 7        42.341
G17         7.000    22111554.908 7 116197170.71007      -620.116 7        45.988                                    22111557.719 7  90543339.28907      -483.208 7        44.078    22111557.670 7  90543335.29107      -483.195 7        42.461
R21         8.000    22594511.257 7 120907864.34607       881.126 7        45.747                                                                    22594520.323 7  94039529.40907       685.251 7        42.849
E12         9.000    28981072.426 5 152296567.21605       251.574 5        31.366                                                                    28981085.162 5 113728007.73005       187.863 5        35.748    28981083.576 6 116694813.86406       192.830 6        36.858
E30        10.000    26404416.459 7 138756253.23707      2054.642 7        42.955                                                                    26404425.539 7 103616781.13707      1534.249 7        45.750    26404423.960 7 106319817.50507      1574.231 7        45.628
C26        11.000                                                                                                                                    21761247.149 8 113316544.13808      -486.463 8        50.754                                                                    21761249.671 8  92078992.53008      -395.358 8        49.173
S27        12.000    39295628.485 6 206499789.49906      -550.809 6        36.431
G15        13.000    20727129.026 8 108921728.48608     -2280.205 8        49.135                                    20727130.071 8  84874040.22508     -1776.782 8        48.760    20727130.441 7  84874032.22307     -1776.791 7        45.010
S36        14.000    38328067.117 7 201415764.55407      -519.888 7        44.405
G12        15.000    23563471.337 7 123826972.97507      2995.772 7        43.206                                    23563475.963 6  96488612.93606      2334.365 6        38.535    23563476.927 6  96488612.95206      2334.314 6        39.631
R11        16.000    22753807.480 7 121589313.22407     -3956.212 7        44.587                                                                    22753816.961 7  94569428.60807     -3077.146 7        42.254
S45        17.000    63512728.835 6 333762758.87906      -574.444 6        36.234
R03        18.000    20854021.416 8 111633162.19608      1735.410 8        50.504                                                                    20854026.063 7  86825795.16207      1349.749 7        46.648
C35        19.000                                                                                                                                    25463732.724 6 132596411.85506      2404.552 6        41.683                                                                    25463740.200 7 107745509.10207      1953.874 7        42.328
G30        21.000    25514950.526 5 134081751.20105     -3701.634 5        35.371                                    25514964.143 3 104479233.59103     -2884.389 3        23.448    25514964.083 5 104479237.61305     -2884.663 5        31.049
I06        22.000    38344060.518 6 150470407.70106      -493.083 6        41.924
S28        23.000    41010806.613 5 215513017.47305      -529.364 5        34.810
G14        24.000    22863322.110 7 120147482.60907     -3504.452 7        43.160                                    22863327.728 5  93621394.60605     -2730.733 5        30.581    22863327.766 7  93621396.59007     -2730.753 7        42.531
S23        25.000    38261635.069 7 201066133.92307      -522.073 7        44.628
E08        26.000    23637867.537 8 124217770.59508      -827.558 8        48.820                                                                    23637871.434 8  92760003.27308      -617.933 8        50.846    23637870.394 8  95179829.24708      -634.080 8        50.911
C07        27.000                                                                                                                                    39094970.526 6 203577724.26106      -989.152 6        40.229    39094973.298 7 157419210.82107      -764.803 7        43.513    39094969.859 6 165423566.25606      -803.760 6        40.853
G13        28.000    21639173.158 8 113714541.25208     -3477.353 8        48.338                                    21639174.354 5  88608691.79805     -2709.619 5        35.200
I02        29.000    37088266.167 7 145542333.26607      -225.979 7        43.031
G10        30.000    24776968.391 6 130203760.37006       903.284 6        40.920                                    24776975.907 5 101457458.37405       703.861 5        35.086    24776975.257 6 101457450.37006       703.808 6        38.057
E07        31.000    25877080.461 7 135984892.37107      1755.437 7        43.196                                                                    25877090.051 7 101547154.01907      1310.834 7        46.441    25877088.632 7 104196208.61007      1345.050 7        46.678
E03        32.000    25627265.222 7 134672093.95607     -3190.545 7        43.890                                                                    25627273.418 7 100566809.44807     -2382.628 7        47.405    25627272.346 7 103190289.13607     -2444.780 7        47.577
E10        33.000    28875058.901 5 151739442.83805      1171.994 5        35.481                                                                    28875077.254 6 113311987.30606       875.095 6        37.614    28875075.277 6 116267941.28406       897.993 6        37.686
G02        34.000    25802867.328 6 135595007.10606      -550.244 6        36.764                                    25802874.500 3 105658487.62303      -428.764 3        18.388
C24        35.000                                                                                                                                    23666356.714 7 123236951.36907      1830.908 7        46.601                                                                    23666358.805 7 100140136.57907      1487.764 7        46.561
G23        36.000    23340056.002 7 122652706.59607     -1545.858 7        42.754                                    23340061.167 4  95573492.69504     -1204.559 4        28.787    23340061.012 7  95573493.69607     -1204.523 7        42.040
R04        38.000    24604016.819 7 131753382.93907      3786.381 7        42.715                                                                    24604020.054 6 102474859.86606      2944.869 6        39.444
C33        39.000                                                                                                                                    24415339.875 7 127137070.09607       857.531 7        46.203                                                                    24415357.548 7 103309355.56507       696.773 7        45.920
E25        40.000    25192175.543 7 132385730.09507     -2657.141 7        44.679                                                                    25192184.206 7  98859462.57207     -1984.217 7        47.766    25192182.812 7 101438398.80307     -2036.005 7        47.907
S44        42.000    40985331.359 6 215379360.03806      -483.423 6        36.998
R22        43.000    23984759.903 7 128032313.94607      3285.372 7        42.047                                                                    23984772.787 6  99580752.39106      2555.384 6        38.772
C05        44.000                                                                                                                                    39544296.975 6 205917404.04406      -556.807 6        37.894    39544302.758 7 159228380.51007      -430.538 7        42.684    39544301.622 6 167324827.42206      -452.550 6        39.168
C40        45.000                                                                                                                                    39210126.756 7 204177375.45507     -1194.102 7        42.914                                                                    39210132.525 7 165910848.26907      -970.346 7        42.112
C21        46.000                                                                                                                                    25784730.230 7 134267676.67407     -4014.635 7        42.328                                                                    25784734.538 7 109103419.94507     -3262.280 7        43.924
R20        47.000    23705369.626 4 126763291.36504     -2393.272 4        29.668                                                                    23705382.208 6  98593730.50506     -1861.812 6        40.436
C10        49.000                                                                                                                                    38613013.461 7 201068098.69607      -614.798 7        42.591    38613017.056 7 155478624.67607      -475.446 7        44.576    38613013.322 6 163384304.00206      -499.557 6        41.366
C42        50.000                                                                                                                                    23283398.443 8 121242676.76208     -2306.088 8        48.396                                                                    23283410.683 8  98519624.48308     -1873.826 8        48.601
S48        51.000    77266985.022 6 406040284.84806      -514.160 6        37.875
E02        53.000    23291690.714 8 122398752.36808      -136.102 8        48.938                                                                    23291694.928 8  91401745.10308      -101.655 8        51.182    23291693.783 8  93786119.69708      -104.303 8        51.031
C60        54.000                                                                                                                                    40985336.249 6 213421383.32706      -479.006 6        40.899                                                                    40985330.764 6 173422280.31906      -389.197 6        39.778
C45        55.000                                                                                                                                    24129794.259 7 125650058.46107     -2979.046 7        45.836                                                                    24129792.908 7 102100914.52807     -2420.708 7        46.084
R12        56.000    19492848.633 8 104127387.84608     -1213.440 8        51.746                                                                    19492852.728 7  80988006.25707      -943.796 7        47.647
C02        57.000                                                                                                                                    41094573.767 5 213990043.63305      -527.028 5        30.755    41094581.134 5 165470609.81505      -407.242 5        35.638    41094580.865 5 173884394.23205      -428.112 5        30.423
I03        58.000   122563256.638 5 405178993.60505       890.498 5        34.248
C14        59.000                                                                                                                                    23322050.692 7 121443970.91307      -708.606 7        46.449    23322053.149 8  93908152.94408      -547.959 8        50.560    23322050.324 8  98683144.49708      -575.828 8        48.363
R13        60.000    20809570.429 7 111122020.85607      1795.018 7        44.372
> 2025 01 01 10 31 25.0000000  0 54
G19         1.000    22227257.272 7 116805183.31107      1817.207 7        46.477                                    22227258.016 5  91017114.38705      1416.007 5        35.538
R01         2.000    23080357.671 6 123377541.72806     -5091.024 6        41.104                                                                    23080368.725 6  95960331.56406     -3959.503 6        37.066
G24         3.000    20992321.669 7 110315414.20507      1475.388 7        47.478                                    20992325.575 8  85960096.28508      1149.652 8        48.884    20992325.842 7  85960093.29507      1149.602 7        44.879
R02         4.000    19986973.652 8 106654256.02108     -2594.875 8        52.064                                                                    19986978.315 7  82953308.19707     -2018.182 7        46.821
S21         5.000    38557566.751 7 202621106.68007      -519.054 7        42.565
G17         7.000    22112147.018 7 116200279.68907      -623.516 7        46.374                                    22112149.346 7  90545761.88007      -485.858 7        44.116    22112149.197 7  90545757.89607      -485.905 7        42.093
R21         8.000    22593689.795 7 120903469.23007       876.855 7        45.526                                                                    22593699.131 7  94036111.00207       682.126 7        42.760
E12         9.000    28980834.397 5 152295315.56905       249.814 5        30.883                                                                    28980846.839 5 113727073.10505       186.082 5        35.886    28980845.513 6 116693854.85806       190.778 6        36.658
E30        10.000    26402462.116 7 138745983.38407      2053.412 7        43.357                                                                    26402471.267 7 103609112.07807      1533.404 7        45.991    26402469.700 7 106311948.37707      1573.483 7        45.822
C26        11.000                                                                                                                                    21761715.040 8 113318980.87108      -488.280 8        50.834                                                                    21761717.564 8  92080972.59208      -396.696 8        49.144
S27        12.000    39296153.167 6 206502545.00106      -551.082 6        36.522
G15        13.000    20729300.238 8 108933137.80608     -2283.537 8        48.883                                    20729301.204 8  84882930.59008     -1779.375 8        48.807    20729301.415 7  84882922.58407     -1779.388 7        45.174
S36        14.000    38328565.117 7 201418364.30107      -520.284 7        44.448
G12        15.000    23560621.503 7 123811997.07107      2994.469 7        42.950                                    23560626.122 6  96476943.41206      2333.351 6        38.643    23560626.572 6  96476943.42506      2333.326 6        39.802
R11        16.000    22757510.130 7 121609095.76107     -3956.786 7        45.243                                                                    22757519.497 7  94584814.98207     -3077.503 7        42.332
S45        17.000    63513229.644 6 333765630.19106      -574.366 6        36.049
R03        18.000    20852402.137 8 111624495.03908      1731.439 8        50.969                                                                    20852406.864 7  86819054.03907      1346.727 7        46.241
C35        19.000                                                                                                                                    25461424.208 7 132584391.60007      2403.613 7        42.165                                                                    25461431.789 7 107735741.68607      1953.267 7        42.231
G30        21.000    25518472.709 5 134100260.33005     -3702.089 5        35.314                                    25518486.324 3 104493656.26403     -2884.733 3        23.010    25518486.110 4 104493660.24404     -2884.650 4        29.744
I06        22.000    38344688.472 6 150472873.47406      -493.158 6        41.924
S28        23.000    41011310.310 5 215515665.99005      -530.014 5        34.967
G14        24.000    22866657.219 7 120165007.52507     -3505.592 7        42.995                                    22866662.624 5  93635050.33505     -2731.622 5        30.634    22866663.079 7  93635052.32207     -2731.580 7        42.686
S23        25.000    38262129.577 7 201068744.08307      -522.233 7        44.593
E08        26.000    23638656.081 8 124221913.99108      -829.842 8        48.989                                                                    23638659.921 8  92763097.35708      -619.715 8        50.997    23638658.915 8  95183004.04808      -635.868 8        50.936
C07        27.000                                                                                                                                    39095920.362 6 203582671.20806      -989.777 6        40.203    39095923.474 7 157423036.10807      -765.250 7        43.706    39095919.964 6 165427586.07206      -804.097 6        40.975
G13        28.000    21642482.775 7 113731933.48807     -3479.556 7        47.931                                    21642484.026 5  88622244.15805     -2711.339 5        35.410
I02        29.000    37088554.814 7 145543463.47307      -226.278 7        42.912
G10        30.000    24776110.565 6 130199251.26306       900.249 6        41.135                                    24776117.946 5 101453944.74805       701.500 5        35.271    24776117.609 6 101453936.74006       701.417 6        38.625
E07        31.000    25875410.922 7 135976118.52007      1754.102 7        43.399                                                                    25875420.464 7 101540602.12707      1309.818 7        46.593    25875419.024 7 104189485.80207      1344.000 7        46.726
E03        32.000    25630301.798 7 134688050.47907     -3191.887 7        43.903                                                                    25630309.998 7 100578725.00607     -2383.598 7        47.588    25630308.706 7 103202515.54507     -2445.815 7        47.566
E10        33.000    28873945.253 5 151733587.46305      1170.094 5        35.895                                                                    28873963.109 6 113307614.79506       873.640 6        37.633    28873961.185 6 116263454.69706       896.461 6        38.156
G02        34.000    25803391.989 6 135597765.40006      -553.304 6        36.578                                    25803399.401 2 105660636.96202      -431.156 2        17.887
C24        35.000                                                                                                                                    23664599.348 7 123227799.66107      1829.780 7        46.822                                                                    23664601.239 7 100132700.09207      1486.928 7        46.646
G23        36.000    23341528.470 7 122660443.65507     -1549.086 7        43.024                                    23341533.493 4  95579521.55504     -1207.073 4        28.863    23341533.039 6  95579522.54706     -1207.020 6        41.437
R04        38.000    24600482.395 7 131734453.74307      3785.234 7        43.397                                                                    24600485.496 6 102460136.99906      2943.892 6        39.565
C33        39.000                                                                                                                                    24414517.781 7 127132789.42607       854.655 7        46.366                                                                    24414535.429 7 103305877.19007       694.589 7        45.976
E25        40.000    25194704.368 7 132399018.47707     -2658.248 7        44.837                                                                    25194712.851 7  98869385.68607     -1985.031 7        47.967    25194711.580 8 101448580.78608     -2036.882 8        48.066
S44        42.000    40985791.283 6 215381777.31406      -483.620 6        37.172
R22        43.000    23981683.182 7 128015889.59507      3284.333 7        42.404                                                                    23981695.734 6  99567977.93906      2554.532 6        39.063
C05        44.000                                                                                                                                    39544831.432 6 205920188.23606      -556.868 6        38.201    39544837.573 7 159230533.40407      -430.607 7        42.756    39544836.343 6 167327089.79906      -452.451 6        39.162
C40        45.000                                                                                                                                    39211273.791 7 204183348.33307     -1194.959 7        43.101                                                                    39211279.583 7 165915701.73307      -970.899 7        42.152
C21        46.000                                                                                                                                    25788585.739 7 134287751.43507     -4015.270 7        42.679                                                                    25788589.717 7 109119732.30707     -3262.557 7        43.772
R20        47.000    23707609.168 4 126775270.06104     -2397.483 4        29.450                                                                    23707622.214 6  98603047.29306     -1864.942 6        40.010
C10        49.000                                                                                                                                    38613603.828 7 201071174.93607      -615.639 7        42.747    38613608.080 7 155481003.41707      -476.104 7        44.530    38613604.120 6 163386803.72106      -500.168 6        41.549
C42        50.000                                                                                                                                    23285613.962 8 121254213.38508     -2308.650 8        48.387                                                                    23285626.195 8  98528998.94408     -1875.909 8        48.574
S48        51.000    77267473.108 6 406042855.59706      -514.449 6        37.883
E02        53.000    23291821.027 8 122399437.81608      -138.086 8        49.123                                                                    23291825.352 8  91402256.96108      -103.193 8        51.331    23291824.248 8  93786644.90508      -105.843 8        51.013
C60        54.000                                                                                                                                    40985796.151 6 213423778.62506      -479.056 6        40.858                                                                    40985790.693 6 173424226.71606      -389.211 6        39.649
C45        55.000                                                                                                                                    24132655.190 7 125664955.33107     -2979.799 7        45.944                                                                    24132653.725 7 102113019.46807     -2421.240 7        46.008
R12        56.000    19493985.530 8 104133461.23408     -1216.002 8        51.624                                                                    19493989.898 7  80992729.98707      -945.748 7        47.633
C02        57.000                                                                                                                                    41095078.618 5 213992678.03405      -527.367 5        30.943    41095086.897 5 165472646.86705      -407.486 5        35.505    41095086.964 5 173886534.87805      -427.807 5        30.000
I03        58.000   122562121.477 5 405174542.08105       890.139 5        34.081
C14        59.000                                                                                                                                    23322733.107 7 121447521.75707      -711.720 7        46.690    23322735.248 8  93910898.67108      -550.411 8        50.681    23322732.266 8  98686029.86708      -578.389 8        48.377
R13        60.000    20807890.681 7 111113050.77007      1792.992 7        44.259
> 2025 01 01 10 31 30.0000000  0 54
G19         1.000    22225529.647 7 116796103.78707      1814.726 7        45.869                                    22225530.248 5  91010039.44005      1414.074 5        35.686
R01         2.000    23085119.304 6 123402998.83306     -5091.860 6        41.316                                                                    23085129.950 6  95980131.48206     -3960.297 6        37.414
G24         3.000    20990919.081 7 110308042.54107      1473.354 7        47.555                                    20990922.795 8  85954352.13608      1148.069 8        48.994    20990923.011 7  85954349.14507      1148.062 7        44.984
R02         4.000    19989407.034 8 106667241.02108     -2599.129 8        52.242                                                                    19989412.038 7  82963407.61907     -2021.509 7        47.008
S21         5.000    38558061.522 7 202623701.82407      -518.981 7        42.472
G17         7.000    22112741.808 7 116203405.44007      -626.761 7        46.606                                    22112744.157 7  90548197.54007      -488.386 7        44.203    22112744.320 7  90548193.55507      -488.527 7        42.099
R21         8.000    22592871.861 7 120899095.10207       872.772 7        45.357                                                                    22592881.192 7  94032708.93507       678.814 7        42.332
E12         9.000    28980598.594 5 152294076.29605       246.307 5        31.600                                                                    28980611.273 6 113726147.63406       184.285 6        36.174    28980609.556 6 116692905.25506       188.945 6        36.888
E30        10.000    26400509.094 7 138735719.04307      2052.419 7        43.772                                                                    26400518.000 7 103601447.14007      1532.587 7        45.998    26400516.479 7 106304083.48907      1572.565 7        45.893
C26        11.000                                                                                                                                    21762184.676 8 113321426.25208      -489.894 8        50.751                                                                    21762187.191 8  92082959.66008      -397.988 8        49.141
S27        12.000    39296677.112 6 206505301.16206      -551.437 6        36.446
G15        13.000    20731474.386 8 108944563.69508     -2286.801 8        48.792                                    20731475.482 8  84891833.86608     -1781.917 8        48.871    20731475.533 7  84891825.85507     -1781.872 7        45.004
S36        14.000    38329057.832 7 201420964.63607      -520.162 7        44.483
G12        15.000    23557773.248 7 123797027.39807      2993.232 7        43.378                                    23557777.412 6  96465278.74506      2332.387 6        38.658    23557777.808 6  96465278.74906      2332.576 6        39.063
R11        16.000    22761212.979 7 121628880.58807     -3957.092 7        45.419                                                                    22761222.353 7  94600203.14607     -3077.760 7        42.908
S45        17.000    63513728.529 5 333768502.34705      -574.529 5        35.995
R03        18.000    20850786.592 8 111615847.49608      1727.565 8        51.018                                                                    20850790.478 7  86812328.17707      1343.660 7        46.263
C35        19.000                                                                                                                                    25459117.125 7 132572375.61307      2402.712 7        42.372                                                                    25459124.178 7 107725977.70107      1952.603 7        42.154
G30        21.000    25521994.668 5 134118771.76705     -3702.379 5        35.362                                    25522008.746 3 104508080.77203     -2884.980 3        22.514    25522009.379 4 104508084.75704     -2885.087 4        29.972
I06        22.000    38345317.398 7 150475339.82307      -493.299 7        42.019
S28        23.000    41011817.034 5 215518315.34505      -530.215 5        34.995
G14        24.000    22869993.168 7 120182538.27007     -3506.723 7        42.935                                    22869998.776 5  93648710.61005     -2732.500 5        30.687    22869999.085 7  93648712.59007     -2732.483 7        42.815
S23        25.000    38262629.442 7 201071354.98107      -522.242 7        44.659
E08        26.000    23639446.776 8 124226068.90808      -832.082 8        48.932                                                                    23639450.604 8  92766200.04708      -621.370 8        51.035    23639449.553 8  95186187.67708      -637.591 8        51.028
C07        27.000                                                                                                                                    39096870.759 6 203587621.58506      -990.433 6        40.117    39096874.138 7 157426864.05107      -765.844 7        43.471    39096870.643 6 165431608.64906      -804.537 6        41.042
G13        28.000    21645794.343 8 113749336.35108     -3481.600 8        48.015                                    21645795.727 5  88635804.80205     -2712.926 5        35.390
I02        29.000    37088843.237 7 145544595.30107      -226.522 7        43.122
G10        30.000    24775254.981 6 130194757.36606       897.060 6        41.318                                    24775262.842 5 101450442.96905       699.017 5        35.381    24775262.875 6 101450434.94306       699.007 6        38.688
E07        31.000    25873742.463 7 135967351.29707      1752.891 7        43.767                                                                    25873752.041 7 101534055.18507      1308.819 7        46.636    25873750.714 7 104182768.06707      1343.036 7        46.840
E03        32.000    25633339.636 7 134704013.51907     -3193.200 7        44.325                                                                    25633347.785 7 100590645.43807     -2384.570 7        47.718    25633346.328 7 103214746.94507     -2446.791 7        47.689
E10        33.000    28872832.717 5 151727741.91105      1167.982 5        35.938                                                                    28872850.586 6 113303249.60006       872.229 6        37.505    28872848.964 6 116258975.62806       895.130 6        38.610
G02        34.000    25803919.532 6 135600537.89906      -556.117 6        36.514                                    25803927.098 3 105662797.33603      -433.347 3        18.298
C24        35.000                                                                                                                                    23662842.730 7 123218653.28807      1828.771 7        46.672                                                                    23662844.792 7 100125267.92607      1486.079 7        46.746
G23        36.000    23343003.160 7 122668196.75207     -1552.194 7        43.399                                    23343008.829 4  95585562.90804     -1209.499 4        28.900    23343008.596 6  95585563.90606     -1209.408 6        41.442
R04        38.000    24596947.802 6 131715529.27906      3784.516 6        41.671                                                                    24596951.071 6 102445417.90306      2943.471 6        39.336
C33        39.000                                                                                                                                    24413698.507 7 127128522.75707       851.977 7        46.169                                                                    24413716.025 7 103302410.17907       692.317 7        46.020
E25        40.000    25197234.125 7 132412312.31707     -2659.261 7        45.099                                                                    25197242.542 8  98879312.88808     -1985.902 8        48.015    25197241.352 8 101458766.95608     -2037.671 8        48.153
S44        42.000    40986253.363 6 215384195.16106      -483.761 6        37.100
R22        43.000    23978607.266 6 127999470.04306      3283.428 6        41.511                                                                    23978619.228 6  99555207.26906      2553.781 6        38.865
C05        44.000                                                                                                                                    39545365.652 6 205922973.03606      -556.696 6        38.264    39545372.286 7 159232686.77307      -430.608 7        42.667    39545371.065 6 167329352.67606      -452.592 6        39.156
C40        45.000                                                                                                                                    39212421.515 7 204189325.33007     -1195.882 7        43.179                                                                    39212427.410 7 165920558.53007      -971.578 7        42.233
C21        46.000                                                                                                                                    25792441.719 7 134307828.72407     -4015.743 7        42.933                                                                    25792445.272 7 109136046.70207     -3263.070 7        43.786
R20        47.000    23709851.351 4 126787268.91004     -2401.730 4        29.877                                                                    23709867.061 6  98612379.65006     -1867.990 6        40.465
C10        49.000                                                                                                                                    38614195.270 7 201074254.80807      -616.305 7        42.766    38614199.416 7 155483384.96707      -476.557 7        44.500    38614195.747 6 163389306.37406      -500.821 6        41.533
C42        50.000                                                                                                                                    23287831.843 8 121265762.97408     -2311.197 8        48.189                                                                    23287844.171 8  98538383.92108     -1877.940 8        48.641
S48        51.000    77267969.333 6 406045427.48506      -514.682 6        38.096
E02        53.000    23291953.361 8 122400133.11608      -140.012 8        49.105                                                                    23291957.694 8  91402776.17108      -104.562 8        51.379    23291956.588 8  93787177.66008      -107.296 8        51.077
C60        54.000                                                                                                                                    40986256.272 6 213426174.49706      -479.285 6        40.868                                                                    40986250.805 6 173426173.56506      -389.187 6        39.667
C45        55.000                                                                                                                                    24135516.648 7 125679855.99807     -2980.465 7        45.854                                                                    24135515.290 7 102125127.46207     -2421.814 7        46.216
R12        56.000    19495124.554 8 104139547.33208     -1218.443 8        51.550                                                                    19495129.146 7  80997463.60607      -947.712 7        47.693
C02        57.000                                                                                                                                    41095583.804 5 213995312.93505      -527.232 5        30.370    41095592.763 5 165474684.31405      -407.459 5        35.600    41095592.619 5 173888675.94605      -427.890 5        30.951
I03        58.000   122560987.482 5 405170090.85205       890.342 5        34.181
C14        59.000                                                                                                                                    23323418.318 7 121451088.07607      -714.765 7        46.673    23323420.200 8  93913656.36208      -552.735 8        50.650    23323417.144 8  98688927.77408      -580.717 8        48.366
R13        60.000    20806213.106 7 111104091.27007      1790.853 7        44.403
> 2025 01 01 10 31 35.0000000  0 54
G19         1.000    22223804.119 7 116787036.76407      1812.274 7        46.246                                    22223804.828 5  91002974.23405      1412.161 5        35.900
R01         2.000    23089882.734 6 123428460.43206     -5092.545 6        41.428                                                                    23089893.921 6  95999934.87906     -3961.074 6        38.096
G24         3.000    20989518.076 7 110300681.14807      1471.392 7        47.424                                    20989521.970 8  85948615.99308      1146.538 8        49.141    20989522.080 7  85948613.00407      1146.523 7        44.673
R02         4.000    19991844.773 8 106680247.43008     -2603.228 8        52.090                                                                    19991849.290 7  82973523.70207     -2024.802 7        47.211
S21         5.000    38558553.566 7 202626297.80907      -519.174 7        42.360
G17         7.000    22113339.641 7 116206547.73107      -630.070 7        46.116                                    22113342.080 7  90550646.08907      -490.963 7        44.313    22113342.690 7  90550642.09207      -490.962 7        42.099
R21         8.000    22592059.200 7 120894742.00307       868.669 7        45.228                                                                    22592067.124 7  94029323.22407       675.656 7        42.415
E12         9.000    28980364.852 5 152292849.19005       244.596 5        31.502                                                                    28980377.817 6 113725231.33906       182.690 6        36.193    28980376.119 6 116691965.05106       187.081 6        36.707
E30        10.000    26398556.586 7 138725460.13207      2051.403 7        42.982                                                                    26398565.827 7 103593786.25807      1531.897 7        45.925    26398564.324 7 106296222.76207      1571.867 7        45.834
C26        11.000                                                                                                                                    21762655.901 8 113323880.21408      -491.540 8        50.801                                                                    21762658.476 8  92084953.67108      -399.404 8        49.267
S27        12.000    39297200.113 6 206508057.48806      -551.230 6        36.393
G15        13.000    20733651.992 8 108956006.07508     -2290.014 8        48.857                                    20733652.893 8  84900749.99108     -1784.423 8        48.986    20733653.110 7  84900741.98607     -1784.447 7        44.850
S36        14.000    38329553.180 7 201423565.51007      -520.075 7        44.381
G12        15.000    23554926.246 7 123782063.86307      2992.239 7        43.424                                    23554929.838 6  96453618.86406      2331.615 6        38.757    23554930.098 6  96453618.88706      2331.492 6        38.441
R11        16.000    22764915.552 7 121648667.61807     -3957.473 7        45.488                                                                    22764925.273 7  94615593.00107     -3078.046 7        43.005
S45        17.000    63514226.820 6 333769675.34016      -574.603 6        36.079
R03        18.000    20849174.719 8 111607219.73708      1723.725 8        50.329                                                                    20849179.533 7  86805617.71207      1340.638 7        46.106
C35        19.000                                                                                                                                    25456810.320 7 132560363.79807      2402.003 7        42.546                                                                    25456817.265 7 107716217.09107      1951.890 7        42.006
G30        21.000    25525518.988 5 134137285.43505     -3702.856 5        34.924                                    25525531.535 3 104522506.99303     -2885.338 3        22.381    25525530.274 4 104522511.01804     -2885.777 4        29.450
I06        22.000    38345945.876 7 150477806.70807      -493.278 7        42.174
S28        23.000    41012314.484 5 215520965.44005      -530.029 5        35.152
G14        24.000    22873330.499 7 120200074.72907     -3507.673 7        42.978                                    22873335.961 5  93662375.33805     -2733.243 5        30.830    22873336.209 7  93662377.31607     -2733.317 7        42.838
S23        25.000    38263123.985 7 201073966.50707      -522.229 7        44.542
E08        26.000    23640239.458 8 124230235.25208      -834.363 8        48.740                                                                    23640243.432 8  92769311.27708      -623.050 8        50.848    23640242.379 8  95189380.06908      -639.276 8        50.869
C07        27.000                                                                                                                                    39097821.655 6 203592575.27106      -991.040 6        40.098    39097825.460 7 157430694.53907      -766.316 7        43.454    39097822.010 6 165435633.89106      -805.153 6        41.085
G13        28.000    21649108.333 7 113766749.74107     -3483.606 7        47.884                                    21649109.441 5  88649373.64305     -2714.490 5        35.510
I02        29.000    37089131.860 7 145545728.87507      -226.798 7        42.991
G10        30.000    24774403.242 6 130190278.54206       894.345 6        41.335                                    24774410.658 5 101446952.94005       696.902 5        35.557    24774410.220 6 101446944.90906       697.078 6        38.462
E07        31.000    25872074.997 7 135958590.62507      1751.575 7        43.378                                                                    25872084.911 7 101527513.11807      1308.023 7        46.477    25872083.579 7 104176055.33207      1342.191 7        46.785
E03        32.000    25636378.501 7 134719982.97107     -3194.391 7        44.077                                                                    25636386.696 7 100602570.65607     -2385.435 7        47.583    25636385.389 7 103226983.25707     -2447.669 7        47.535
E10        33.000    28871721.906 6 151721906.06506      1166.365 6        36.197                                                                    28871739.963 6 113298891.66906       871.093 6        37.618    28871738.481 6 116254504.02606       893.623 6        38.556
G02        34.000    25804450.195 6 135603324.59606      -558.415 6        37.410                                    25804457.258 3 105664968.80603      -435.122 3        18.388
C24        35.000                                                                                                                                    23661087.388 7 123209512.15907      1827.903 7        47.256                                                                    23661089.342 7 100117839.98307      1485.340 7        46.779
G23        36.000    23344481.805 7 122675965.78607     -1555.284 7        42.918                                    23344487.201 4  95591616.68804     -1211.912 4        29.071    23344487.308 6  95591617.65906     -1211.794 6        41.626
R04        38.000    24593414.313 6 131696609.41606      3783.612 6        41.855                                                                    24593418.018 6 102430702.36806      2942.980 6        38.267
C33        39.000                                                                                                                                    24412881.828 7 127124270.01307       849.303 7        46.249                                                                    24412899.478 7 103298954.45207       690.160 7        46.099
E25        40.000    25199764.814 7 132425611.53807     -2660.249 7        44.885                                                                    25199773.323 7  98889244.09107     -1986.502 7        47.810    25199772.147 8 101468957.24408     -2038.368 8        48.096
S44        42.000    40986713.019 6 215386613.47406      -483.595 6        37.308
R22        43.000    23975531.515 6 127983055.22206      3282.646 6        41.154                                                                    23975543.669 6  99542440.26506      2553.198 6        38.513
C05        44.000                                                                                                                                    39545901.303 6 205925758.38206      -556.942 6        38.318    39545907.338 7 159234840.55307      -430.778 7        42.667    39545905.933 6 167331615.93906      -452.557 6        39.255
C40        45.000                                                                                                                                    39213570.271 7 204195306.34007     -1196.461 7        43.306                                                                    39213575.917 7 165925418.56607      -972.291 7        42.286
C21        46.000                                                                                                                                    25796297.824 7 134327908.42207     -4016.032 7        42.792                                                                    25796301.308 7 109152363.02907     -3263.361 7        43.429
R20        47.000    23712100.381 5 126799287.68805     -2405.982 5        30.521                                                                    23712113.893 6  98621727.61106     -1871.168 6        39.880
C10        49.000                                                                                                                                    38614787.529 7 201077338.29807      -616.890 7        43.069    38614791.641 7 155485769.33107      -477.067 7        44.429    38614787.734 6 163391811.94106      -501.222 6        41.590
C42        50.000                                                                                                                                    23290052.458 8 121277325.43808     -2313.690 8        48.427                                                                    23290064.645 8  98547779.33008     -1880.017 8        48.729
S48        51.000    77268456.731 6 406047999.75406      -514.443 6        38.054
E02        53.000    23292087.717 8 122400838.15708      -141.800 8        48.901                                                                    23292091.831 8  91403302.66108      -105.889 8        51.197    23292090.757 8  93787717.89108      -108.723 8        50.990
C60        54.000                                                                                                                                    40986716.777 6 213428570.81806      -479.141 6        40.875                                                                    40986711.015 6 173428120.77506      -389.450 6        39.751
C45        55.000                                                                                                                                    24138378.974 7 125694760.35107     -2981.079 7        46.059                                                                    24138377.588 7 102137238.43007     -2422.414 7        46.273
R12        56.000    19496266.144 8 104145645.92208     -1220.841 8        51.584                                                                    19496270.919 7  81002206.95707      -949.577 7        47.560
C02        57.000                                                                                                                                    41096091.306 5 213997948.27805      -526.990 5        30.657    41096099.616 5 165476722.16705      -407.584 5        35.286    41096098.932 5 173890817.40205      -428.196 5        30.853
I03        58.000   122559853.352 5 405165639.89705       890.182 5        34.114
C14        59.000                                                                                                                                    23324105.857 7 121454669.71607      -717.703 7        46.738    23324107.612 8  93916425.90208      -554.952 8        50.559    23324104.935 8  98691838.11608      -583.206 8        48.453
R13        60.000    20804537.790 7 111095142.20307      1788.890 7        44.582
> 2025 01 01 10 31 40.0000000  0 54
G19         1.000    22222081.000 7 116777982.11907      1809.835 7        46.175                                    22222081.791 5  90995918.67705      1410.263 5        35.790
R01         2.000    23094646.657 6 123453926.47306     -5093.536 6        40.963                                                                    23094658.944 6  96019741.69306     -3961.580 6        38.637
G24         3.000    20988119.226 7 110293329.82707      1469.445 7        47.646                                    20988123.063 8  85942887.69608      1145.019 8        49.105    20988123.267 7  85942884.69707      1145.103 7        44.820
R02         4.000    19994286.096 8 106693274.97408     -2607.390 8        52.266                                                                    19994290.504 7  82983656.21607     -2027.953 7        46.893
S21         5.000    38559047.506 7 202628894.42607      -519.395 7        42.241
G17         7.000    22113940.524 7 116209706.43507      -633.223 7        46.525                                    22113943.155 7  90553107.42807      -493.425 7        44.284    22113943.512 7  90553103.43807      -493.518 7        42.224
R21         8.000    22591249.217 7 120890409.69307       864.569 7        44.093                                                                    22591258.659 7  94025953.70107       672.420 7        42.262
E12         9.000    28980133.910 5 152291634.22205       241.811 5        31.623                                                                    28980146.666 6 113724324.07806       180.388 6        36.276    28980144.623 6 116691034.08606       185.415 6        36.567
E30        10.000    26396605.576 7 138715206.51207      2050.388 7        42.609                                                                    26396614.729 7 103586129.33507      1531.101 7        45.704    26396613.098 7 106288366.09207      1571.034 7        45.627
C26        11.000                                                                                                                                    21763128.788 8 113326342.57208      -493.110 8        50.834                                                                    21763131.326 8  92086954.53308      -400.741 8        49.337
S27        12.000    39297727.590 6 206510814.38106      -551.034 6        36.582
G15        13.000    20735832.413 8 108967464.76108     -2293.213 8        48.987                                    20735833.395 8  84909678.82708     -1786.918 8        48.931    20735833.459 7  84909670.82407     -1786.919 7        44.760
S36        14.000    38330048.314 7 201426166.61007      -520.188 7        44.448
G12        15.000    23552079.923 7 123767106.36107      2990.990 7        43.630                                    23552083.454 6  96441963.67606      2330.639 6        38.688    23552084.673 6  96441963.68206      2330.724 6        39.132
R11        16.000    22768617.922 7 121668456.71307     -3957.918 7        44.941                                                                    22768628.392 7  94630984.47807     -3078.328 7        42.753
S45        17.000    63514727.154 6 333772548.75806      -574.536 6        36.155
R03        18.000    20847566.786 8 111598611.38008      1719.800 8        50.425                                                                    20847571.207 7  86798922.32607      1337.623 7        46.663
C35        19.000                                                                                                                                    25454504.261 7 132548356.00407      2401.322 7        42.935                                                                    25454511.177 7 107706459.77907      1951.232 7        42.262
G30        21.000    25529041.320 5 134155801.16105     -3703.053 5        34.681                                    25529055.035 3 104536934.81203     -2885.492 3        22.229    25529055.217 5 104536938.79805     -2884.979 5        30.143
I06        22.000    38346574.639 7 150480274.00307      -493.411 7        42.172
S28        23.000    41012822.845 5 215523616.10905      -529.944 5        35.233
G14        24.000    22876668.652 7 120217616.73907     -3508.710 7        43.192                                    22876674.260 5  93676044.39205     -2734.044 5        30.883    22876674.375 7  93676046.36107     -2734.033 7        43.287
S23        25.000    38263622.173 7 201076578.55707      -522.185 7        44.555
E08        26.000    23641034.617 8 124234412.88908      -836.571 8        48.513                                                                    23641038.377 8  92772430.92408      -624.668 8        50.817    23641037.361 8  95192581.10208      -641.011 8        50.942
C07        27.000                                                                                                                                    39098773.885 6 203597532.16906      -991.612 6        40.420    39098777.198 7 157434527.52107      -766.759 7        43.575    39098773.968 6 165439661.76906      -805.758 6        41.209
G13        28.000    21652424.027 7 113784173.50507     -3485.646 7        47.941                                    21652425.114 5  88662950.57405     -2716.081 5        35.443
I02        29.000    37089421.142 7 145546864.02007      -227.054 7        43.048
G10        30.000    24773553.380 6 130185814.69406       891.375 6        40.701                                    24773561.265 5 101443474.57005       694.580 5        35.395    24773560.945 6 101443466.57306       694.425 6        38.688
E07        31.000    25870409.160 7 135949836.31207      1750.375 7        43.312                                                                    25870418.927 7 101520975.82207      1307.118 7        46.460    25870417.724 7 104169347.50407      1341.198 7        46.697
E03        32.000    25639418.444 7 134735958.68307     -3195.604 7        43.587                                                                    25639426.825 7 100614500.55107     -2386.389 7        47.430    25639425.675 7 103239224.36407     -2448.602 7        47.755
E10        33.000    28870613.579 6 151716079.83906      1164.248 6        36.450                                                                    28870631.161 6 113294540.89906       869.634 6        37.350    28870629.962 6 116250039.76806       892.066 6        39.060
G02        34.000    25804982.950 6 135606125.31506      -561.330 6        36.703                                    25804990.056 3 105667151.19903      -437.402 3        18.597
C24        35.000                                                                                                                                    23659332.728 7 123200376.14707      1826.820 7        47.268                                                                    23659334.945 7 100110416.22507      1484.357 7        46.888
G23        36.000    23345963.466 7 122683750.58607     -1558.302 7        43.041                                    23345968.619 4  95597682.74504     -1214.256 4        28.995    23345968.845 6  95597683.73706     -1214.224 6        41.390
R04        38.000    24589882.534 6 131677694.10706      3782.714 6        41.897                                                                    24589885.490 6 102415990.38106      2942.066 6        38.351
C33        39.000                                                                                                                                    24412068.009 7 127120031.05307       846.515 7        46.481                                                                    24412085.340 7 103295509.94607       687.824 7        46.186
E25        40.000    25202296.684 7 132438915.97007     -2661.248 7        44.435                                                                    25202305.152 7  98899179.19607     -1987.325 7        47.764    25202303.968 8 101479151.52108     -2039.137 8        48.042
S44        42.000    40987171.740 6 215389032.11806      -483.576 6        37.240
R22        43.000    23972458.016 6 127966644.99306      3281.666 6        41.917                                                                    23972470.245 6  99529676.80706      2552.443 6        38.387
C05        44.000                                                                                                                                    39546436.284 6 205928544.07006      -557.125 6        38.468    39546442.327 7 159236994.59707      -430.739 7        42.709    39546440.958 6 167333879.51906      -452.785 6        39.366
C40        45.000                                                                                                                                    39214719.785 7 204201291.21507     -1197.307 7        43.234                                                                    39214725.365 7 165930281.75707      -972.954 7        42.409
C21        46.000                                                                                                                                    25800154.106 7 134347990.40207     -4016.469 7        42.773                                                                    25800157.732 7 109168681.24207     -3263.721 7        43.153
R20        47.000    23714352.269 5 126811326.28405     -2410.093 5        30.770                                                                    23714364.921 6  98631090.95906     -1874.212 6        40.305
C10        49.000                                                                                                                                    38615380.335 7 201080425.18907      -617.581 7        42.908    38615384.399 7 155488156.30507      -477.511 7        44.540    38615380.537 6 163394320.30206      -501.901 6        41.738
C42        50.000                                                                                                                                    23292275.794 8 121288900.62308     -2316.176 8        48.310                                                                    23292287.574 8  98557185.10108     -1882.117 8        48.770
S48        51.000    77268948.976 6 406050572.10206      -514.493 6        37.682
E02        53.000    23292223.640 8 122401552.80608      -143.717 8        48.580                                                                    23292227.860 8  91403836.32108      -107.330 8        51.149    23292226.786 8  93788265.47008      -110.131 8        51.059
C60        54.000                                                                                                                                    40987177.149 6 213430967.49006      -479.244 6        41.280                                                                    40987171.226 6 173430068.25506      -389.415 6        40.072
C45        55.000                                                                                                                                    24141241.837 7 125709668.23707     -2981.802 7        46.451                                                                    24141240.568 7 102149352.29307     -2422.993 7        46.386
R12        56.000    19497410.325 8 104151756.94208     -1223.272 8        51.775                                                                    19497414.820 8  81006959.95008      -951.408 8        48.015
C02        57.000                                                                                                                                    41096597.382 5 214000583.94205      -527.357 5        30.717    41096605.764 5 165478760.22305      -407.608 5        35.567    41096604.981 5 173892959.06205      -427.810 5        30.823
I03        58.000   122558719.169 5 405161189.05505       890.205 5        34.238
C14        59.000                                                                                                                                    23324796.770 7 121458266.55307      -720.764 7        46.815    23324798.209 8  93919207.20008      -557.366 8        50.623    23324795.638 8  98694760.83308      -585.741 8        48.558
R13        60.000    20802863.061 7 111086203.39207      1786.851 7        44.116
> 2025 01 01 10 31 45.0000000  0 54
G19         1.000    22220360.559 7 116768940.07407      1807.265 7        46.314                                    22220361.195 5  90988872.94005      1408.253 5        35.962
R01         2.000    23099410.026 6 123479397.10806     -5094.497 6        40.031                                                                    23099423.524 6  96039552.13606     -3962.570 6        38.820
G24         3.000    20986722.322 7 110285988.83107      1467.288 7        47.727                                    20986726.124 8  85937167.44408      1143.340 8        49.199    20986726.646 7  85937164.45107      1143.348 7        45.121
R02         4.000    19996731.493 8 106706323.74108     -2611.804 8        52.248                                                                    19996735.923 7  82993805.23607     -2031.420 7        47.172
S21         5.000    38559543.713 7 202631491.84707      -519.285 7        42.504
G17         7.000    22114544.928 7 116212881.80707      -636.617 7        46.704                                    22114547.414 7  90555581.75507      -496.069 7        44.315    22114547.727 7  90555577.76507      -496.138 7        42.762
R21         8.000    22590442.264 7 120886098.38307       860.327 7        44.293                                                                    22590453.172 7  94022600.49307       669.080 7        42.766
E12         9.000    28979904.938 5 152290431.46305       239.578 5        31.585                                                                    28979917.634 6 113723425.91706       179.003 6        36.374    28979915.881 6 116690112.51706       183.322 6        36.786
E30        10.000    26394655.540 7 138704958.36407      2049.258 7        42.565                                                                    26394664.520 7 103578476.50307      1530.248 7        45.908    26394662.926 7 106280513.62307      1570.155 7        45.758
C26        11.000                                                                                                                                    21763603.343 8 113328813.53208      -494.991 8        50.696                                                                    21763605.898 8  92088962.39308      -402.075 8        49.426
S27        12.000    39298252.465 6 206513572.07606      -551.578 6        36.715
G15        13.000    20738016.137 8 108978939.95208     -2296.561 8        49.506                                    20738017.050 8  84918620.52108     -1789.528 8        48.987    20738017.172 7  84918612.52307     -1789.562 7        44.987
S36        14.000    38330544.034 7 201428769.26907      -520.767 7        44.585
G12        15.000    23549234.864 7 123752155.06407      2989.710 7        42.967                                    23549238.330 6  96430313.32606      2329.642 6        38.739    23549239.221 6  96430313.32706      2329.640 6        39.066
R11        16.000    22772321.596 7 121688248.00907     -3958.510 7        44.197                                                                    22772331.412 7  94646377.66307     -3078.677 7        42.584
S45        17.000    63515227.994 6 333775422.90706      -574.894 6        36.454
R03        18.000    20845962.811 8 111590022.96508      1715.869 8        50.991                                                                    20845966.678 7  86792242.45507      1334.506 7        46.629
C35        19.000                                                                                                                                    25452198.617 7 132536352.46807      2400.393 7        42.745                                                                    25452206.155 7 107696705.92407      1950.465 7        42.214
G30        21.000    25532565.976 5 134174319.09805     -3703.647 5        34.595                                    25532578.750 3 104551364.36403     -2885.964 3        22.190    25532580.236 5 104551368.39305     -2886.236 5        30.702
I06        22.000    38347203.298 7 150482741.84507      -493.632 7        42.246
S28        23.000    41013324.078 5 215526267.57005      -529.954 5        35.310
G14        24.000    22880007.990 7 120235164.49107     -3510.010 7        43.318                                    22880013.654 5  93689717.90805     -2735.062 5        31.072    22880013.496 7  93689719.89207     -2735.055 7        43.363
S23        25.000    38264118.836 7 201079191.27607      -522.523 7        44.677
E08        26.000    23641831.704 8 124238601.99708      -838.871 8        48.427                                                                    23641835.571 8  92775559.14208      -626.406 8        50.842    23641834.538 8  95195790.93008      -642.784 8        50.987
C07        27.000                                                                                                                                    39099726.225 6 203602492.44006      -992.313 6        40.279    39099729.736 7 157438363.11707      -767.263 7        43.479    39099726.556 6 165443692.41106      -806.301 6        41.354
G13        28.000    21655741.686 8 113801607.82008     -3487.796 8        48.198                                    21655742.847 5  88676535.72305     -2717.755 5        35.571
I02        29.000    37089710.902 7 145548000.81907      -227.375 7        43.081
G10        30.000    24772707.031 6 130181365.96806       888.373 6        40.801                                    24772714.679 5 101440008.01105       692.247 5        35.390    24772714.138 6 101439999.99006       692.254 6        38.619
E07        31.000    25868744.339 7 135941088.59307      1748.998 7        42.955                                                                    25868754.305 7 101514443.44807      1306.029 7        46.482    25868753.034 7 104162644.72107      1340.136 7        46.727
E03        32.000    25642459.726 7 134751940.82407     -3196.903 7        43.572                                                                    25642468.023 7 100626435.24207     -2387.310 7        47.382    25642466.843 7 103251470.39507     -2449.520 7        47.720
E10        33.000    28869507.066 6 151710263.36806      1162.539 6        36.665                                                                    28869524.129 6 113290197.44606       868.003 6        37.750    28869522.991 6 116245583.00106       890.660 6        39.006
G02        34.000    25805518.592 6 135608940.23006      -564.265 6        37.788                                    25805525.890 3 105669344.65603      -439.689 3        18.716
C24        35.000                                                                                                                                    23657579.230 7 123191245.41707      1825.717 7        46.965                                                                    23657581.558 7 100102996.77307      1483.628 7        46.892
G23        36.000    23347447.351 7 122691551.35807     -1561.661 7        42.711                                    23347453.010 4  95603761.25104     -1216.880 4        28.995    23347453.186 6  95603762.24506     -1216.729 6        41.864
R04        38.000    24586351.907 7 131658783.38307      3781.708 7        42.059                                                                    24586353.992 6 102401281.92506      2941.483 6        37.645
C33        39.000                                                                                                                                    24411256.234 7 127115806.05607       843.783 7        46.133                                                                    24411273.949 7 103292076.80207       685.697 7        46.183
E25        40.000    25204829.681 7 132452225.79507     -2662.347 7        44.227                                                                    25204838.009 7  98909118.32607     -1988.112 7        47.784    25204836.710 8 101489349.94208     -2040.014 8        48.082
S44        42.000    40987635.742 6 215391451.28406      -483.898 6        37.350
R22        43.000    23969384.831 6 127950239.57306      3280.622 6        41.850                                                                    23969396.487 6  99516917.10506      2551.650 6        38.523
C05        44.000                                                                                                                                    39546971.412 6 205931330.30306      -557.051 6        38.321    39546977.299 7 159239149.07907      -430.759 7        42.662    39546976.024 6 167336143.56806      -452.596 6        39.297
C40        45.000                                                                                                                                    39215869.888 7 204207280.14407     -1198.055 7        42.900                                                                    39215875.453 7 165935148.24807      -973.395 7        42.478
C21        46.000                                                                                                                                    25804010.857 7 134368074.81707     -4016.880 7        42.309                                                                    25804014.679 7 109185001.43607     -3264.055 7        42.872
R20        47.000    23716605.051 4 126823384.81704     -2413.946 4        29.374                                                                    23716620.941 6  98640469.82206     -1877.223 6        40.803
C10        49.000                                                                                                                                    38615973.812 7 201083515.70407      -618.387 7        42.747    38615977.816 7 155490546.08907      -478.110 7        44.432    38615974.030 6 163396831.60306      -502.405 6        41.802
C42        50.000                                                                                                                                    23294500.505 8 121300488.67508     -2318.700 8        48.248                                                                    23294512.953 8  98566601.35108     -1884.122 8        48.726
S48        51.000    77269438.999 6 406053145.04106      -514.446 6        38.372
E02        53.000    23292361.551 8 122402277.23708      -145.708 8        48.520                                                                    23292365.736 8  91404377.29108      -108.822 8        51.175    23292364.607 8  93788820.55108      -111.673 8        51.101
C60        54.000                                                                                                                                    40987636.867 6 213433364.64906      -479.354 6        40.841                                                                    40987631.526 6 173432016.17906      -389.429 6        39.883
C45        55.000                                                                                                                                    24144105.555 7 125724579.84607     -2982.536 7        46.338                                                                    24144104.264 7 102161469.19107     -2423.492 7        46.557
R12        56.000    19498557.008 8 104157880.46408     -1225.832 8        51.734                                                                    19498561.194 7  81011722.67807      -953.499 7        47.796
C02        57.000                                                                                                                                    41097103.114 5 214003220.12505      -527.059 5        30.725    41097111.482 5 165480798.67705      -407.960 5        35.543    41097111.616 5 173895101.17005      -428.371 5        31.170
I03        58.000   122557585.349 5 405156738.52705       889.971 5        34.233
C14        59.000                                                                                                                                    23325490.576 7 121461878.76907      -723.873 7        46.597    23325492.175 8  93922000.38708      -559.700 8        50.639    23325489.395 8  98697696.05908      -588.065 8        48.525
R13        60.000    20801191.113 7 111077275.16307      1784.707 7        44.095
> 2025 01 01 10 31 50.0000000  0 54
G19         1.000    22218642.173 7 116759909.97107      1805.062 7        46.757                                    22218642.813 6  90981836.50506      1406.540 6        36.057
R01         2.000    23104176.056 6 123504871.73506     -5095.108 6        39.649                                                                    23104188.170 6  96059365.63306     -3962.895 6        38.288
G24         3.000    20985327.339 7 110278657.46707      1465.572 7        47.790                                    20985331.000 8  85931454.69308      1142.002 8        49.196    20985331.255 7  85931451.70207      1141.930 7        44.891
R02         4.000    19999180.692 8 106719393.05508     -2615.681 8        52.326                                                                    19999185.312 7  83003970.23507     -2034.411 7        46.742
S21         5.000    38560035.891 7 202634089.55207      -519.218 7        42.385
G17         7.000    22115152.168 7 116216073.12007      -639.626 7        46.383                                    22115154.714 7  90558068.50507      -498.414 7        44.316    22115155.323 7  90558064.50707      -498.444 7        42.965
R21         8.000    22589641.039 7 120881807.38807       856.298 7        44.767                                                                    22589651.587 7  94019263.06407       666.140 7        42.700
E12         9.000    28979678.622 5 152289240.27205       237.607 5        31.328                                                                    28979691.018 6 113722536.43306       177.240 6        36.200    28979689.270 6 116689199.80906       181.848 6        36.730
E30        10.000    26392705.842 7 138694715.00407      2048.359 7        42.463                                                                    26392715.249 7 103570827.24207      1529.616 7        45.722    26392713.687 7 106272664.80907      1569.510 7        45.696
C26        11.000                                                                                                                                    21764079.335 8 113331292.40908      -496.382 8        50.751                                                                    21764081.938 8  92090976.70308      -403.512 8        49.254
S27        12.000    39298775.720 6 206516329.99106      -551.422 6        36.499
G15        13.000    20740202.926 8 108990430.97908     -2299.573 8        49.214                                    20740203.740 8  84927574.55208     -1791.874 8        49.023    20740204.048 7  84927566.55107     -1791.804 7        44.634
S36        14.000    38331038.846 7 201431372.41007      -520.657 7        44.501
G12        15.000    23546390.996 7 123737209.29207      2988.849 7        42.792                                    23546394.316 6  96418667.28006      2328.967 6        38.841    23546394.873 6  96418667.29206      2329.007 6        39.258
R11        16.000    22776025.833 7 121708040.83007     -3958.460 7        44.047                                                                    22776035.533 6  94661772.04406     -3078.942 6        41.986
S45        17.000    63515725.779 6 333778297.05506      -574.565 6        36.325
R03        18.000    20844362.012 8 111581453.48008      1712.225 8        51.209                                                                    20844365.817 7  86785577.30807      1331.675 7        46.579
C35        19.000                                                                                                                                    25449893.935 7 132524352.50707      2399.819 7        42.607                                                                    25449901.857 7 107686954.98907      1949.834 7        42.059
G30        21.000    25536089.885 5 134192838.60005     -3703.565 5        34.438                                    25536102.813 3 104565795.14503     -2885.895 3        21.857    25536102.550 4 104565799.13604     -2886.023 4        29.687
I06        22.000    38347832.393 7 150485209.74107      -493.471 7        42.375
S28        23.000    41013832.466 5 215528918.90605      -529.901 5        35.000
G14        24.000    22883347.989 7 120252717.30107     -3510.880 7        43.746                                    22883353.943 5  93703395.37905     -2735.742 5        31.034    22883353.492 7  93703397.35707     -2735.724 7        42.379
S23        25.000    38264617.445 7 201081803.98207      -522.312 7        44.602
E08        26.000    23642630.944 8 124242801.88308      -840.780 8        48.552                                                                    23642634.834 8  92778695.41608      -627.846 8        50.711    23642633.814 8  95199009.02008      -644.265 8        50.871
C07        27.000                                                                                                                                    39100679.190 6 203607455.41506      -992.665 6        40.334    39100683.070 7 157442200.80107      -767.580 7        43.585    39100679.738 6 165447725.24306      -806.696 6        41.130
G13        28.000    21659061.076 8 113819051.98508     -3489.572 8        48.355                                    21659062.473 5  88690128.54705     -2719.141 5        35.567
I02        29.000    37090000.893 7 145549138.83207      -227.574 7        43.082
G10        30.000    24771863.409 6 130176931.70806       885.687 6        41.073                                    24771870.799 5 101436552.70705       690.152 5        35.205    24771869.993 6 101436544.72406       690.055 6        37.917
E07        31.000    25867080.948 7 135932346.78907      1748.068 7        43.039                                                                    25867090.772 7 101507915.49107      1305.269 7        46.397    25867089.437 7 104155946.46707      1339.305 7        46.677
E03        32.000    25645502.325 7 134767928.70607     -3197.905 7        44.290                                                                    25645510.308 7 100638374.23007     -2388.103 7        47.143    25645509.050 7 103263720.84207     -2450.330 7        47.609
E10        33.000    28868401.577 6 151704456.03106      1160.726 6        36.733                                                                    28868419.331 6 113285860.79806       866.773 6        38.036    28868417.783 6 116241133.22006       889.378 6        38.682
G02        34.000    25806057.462 6 135611768.68206      -567.113 6        37.550                                    25806064.216 3 105671548.63403      -441.918 3        18.716
C24        35.000                                                                                                                                    23655826.645 7 123182119.30607      1824.947 7        47.030                                                                    23655828.916 7 100095581.08207      1482.795 7        46.775
G23        36.000    23348934.849 7 122699367.37907     -1564.414 7        43.704                                    23348940.240 4  95609851.63804     -1219.016 4        29.137    23348940.537 6  95609852.63306     -1219.081 6        41.268
R04        38.000    24582821.126 7 131639876.74507      3781.242 7        42.923                                                                    24582822.974 6 102386576.69406      2941.016 6        38.429
C33        39.000                                                                                                                                    24410447.307 7 127111594.35607       841.299 7        46.281                                                                    24410465.263 7 103288654.47707       683.422 7        46.123
E25        40.000    25207363.177 7 132465540.33207     -2663.125 7        44.488                                                                    25207371.739 7  98919060.97607     -1988.719 7        47.668    25207370.390 8 101499551.97108     -2040.686 8        48.083
S44        42.000    40988092.800 6 215393870.27906      -483.622 6        37.108
R22        43.000    23966312.006 6 127933838.31806      3279.986 6        41.468                                                                    23966323.561 6  99504160.64506      2550.939 6        38.513
C05        44.000                                                                                                                                    39547506.732 6 205934116.43006      -556.992 6        38.273    39547512.391 7 159241303.46807      -430.705 7        42.872    39547511.116 6 167338407.52606      -452.596 6        39.177
C40        45.000                                                                                                                                    39217020.534 7 204213272.45607     -1198.586 7        42.912                                                                    39217026.358 7 165940017.50507      -974.097 7        42.364
C21        46.000                                                                                                                                    25807868.068 7 134388160.98307     -4017.146 7        42.737                                                                    25807871.970 7 109201323.06107     -3264.405 7        42.474
R20        47.000    23718866.322 5 126835462.70405     -2416.924 5        30.468                                                                    23718879.160 6  98649863.77106     -1880.094 6        40.439
C10        49.000                                                                                                                                    38616567.959 7 201086609.15807      -618.740 7        42.906    38616571.875 7 155492938.14507      -478.431 7        44.429    38616568.117 6 163399345.30606      -502.933 6        41.611
C42        50.000                                                                                                                                    23296728.405 8 121312088.95308     -2321.024 8        48.522                                                                    23296740.669 8  98576027.53708     -1886.201 8        48.678
S48        51.000    77269930.949 6 406055718.02806      -514.335 6        38.171
E02        53.000    23292501.180 8 122403010.76208      -147.398 8        48.766                                                                    23292505.283 8  91404925.05208      -110.091 8        51.096    23292504.200 8  93789382.60208      -112.953 8        50.991
C60        54.000                                                                                                                                    40988097.458 6 213435761.65906      -479.219 6        41.015                                                                    40988091.942 6 173433963.96506      -389.558 6        39.718
C45        55.000                                                                                                                                    24146969.877 7 125739494.51207     -2983.068 7        46.251                                                                    24146968.536 7 102173588.57807     -2424.091 7        46.471
R12        56.000    19499705.363 8 104164015.83908     -1228.030 8        51.708                                                                    19499709.306 7  81016494.63307      -955.129 7        47.109
C02        57.000                                                                                                                                    41097608.680 5 214005856.04605      -526.507 5        31.072    41097617.683 5 165482836.96305      -407.666 5        35.676    41097617.039 5 173897243.12305      -427.866 5        30.219
I03        58.000   122556450.696 5 405152287.75705       890.420 5        34.633
C14        59.000                                                                                                                                    23326186.676 7 121465505.72907      -726.573 7        46.813    23326188.847 8  93924804.96508      -561.892 8        50.864    23326185.901 8  98700643.26308      -590.538 8        48.432
R13        60.000    20799520.886 7 111068356.73407      1782.945 7        44.137
