     3.04           OBSERVATION DATA    M                   RINEX VERSION / TYPE
ssrcrin-15.6.1x                         20250102 034500 UTC PGM / RUN BY / DATE 
(00000000023479385599111004) Septentrio proprietary         COMMENT             
rref                                                        MARKER NAME         
01                                                          MARKER NUMBER       
geodetic                                                    MARKER TYPE         
NFB                 CLIMERS@TUW                             OBSERVER / AGENCY   
3297213             SEPT ASTERX SB3 PROB4.14.4              REC # / TYPE / VERS 
Unknown             Unknown                                 ANT # / TYPE        
  4127831.9780  1207193.2225  4695247.4914                  APPROX POSITION XYZ 
        0.0000        0.0000        0.0000                  ANTENNA: DELTA H/E/N
G   23 X1  C1C L1C D1C S1C C1W S1W C2W L2W D2W S2W C2L L2L  SYS / # / OBS TYPES 
       D2L S2L C5Q L5Q D5Q S5Q C1L L1L D1L S1L              SYS / # / OBS TYPES 
E   21 X1  C1C L1C D1C S1C C6C L6C D6C S6C C5Q L5Q D5Q S5Q  SYS / # / OBS TYPES 
       C7Q L7Q D7Q S7Q C8Q L8Q D8Q S8Q                      SYS / # / OBS TYPES 
S    9 X1  C1C L1C D1C S1C C5I L5I D5I S5I                  SYS / # / OBS TYPES 
R   17 X1  C1C L1C D1C S1C C2P L2P D2P S2P C2C L2C D2C S2C  SYS / # / OBS TYPES 
       C3Q L3Q D3Q S3Q                                      SYS / # / OBS TYPES 
C   25 X1  C1P L1P D1P S1P C5P L5P D5P S5P C2I L2I D2I S2I  SYS / # / OBS TYPES 
       C7I L7I D7I S7I C6I L6I D6I S6I C7D L7D D7D S7D      SYS / # / OBS TYPES 
J   17 X1  C1C L1C D1C S1C C2L L2L D2L S2L C5Q L5Q D5Q S5Q  SYS / # / OBS TYPES 
       C1L L1L D1L S1L                                      SYS / # / OBS TYPES 
I    5 X1  C5A L5A D5A S5A                                  SYS / # / OBS TYPES 
SEPTENTRIO RECEIVERS OUTPUT ALIGNED CARRIER PHASES.         COMMENT             
NO FURTHER PHASE SHIFT APPLIED IN THE RINEX ENCODER.        COMMENT             
G L1C                                                       SYS / PHASE SHIFT   
G L2W                                                       SYS / PHASE SHIFT   
G L2L  0.00000                                              SYS / PHASE SHIFT   
G L5Q  0.00000                                              SYS / PHASE SHIFT   
G L1L  0.00000                                              SYS / PHASE SHIFT   
E L1C  0.00000                                              SYS / PHASE SHIFT   
E L6C  0.00000                                              SYS / PHASE SHIFT   
E L5Q  0.00000                                              SYS / PHASE SHIFT   
E L7Q  0.00000                                              SYS / PHASE SHIFT   
E L8Q  0.00000                                              SYS / PHASE SHIFT   
S L1C                                                       SYS / PHASE SHIFT   
S L5I                                                       SYS / PHASE SHIFT   
R L1C                                                       SYS / PHASE SHIFT   
R L2P  0.00000                                              SYS / PHASE SHIFT   
R L2C                                                       SYS / PHASE SHIFT   
R L3Q  0.00000                                              SYS / PHASE SHIFT   
C L1P  0.00000                                              SYS / PHASE SHIFT   
C L5P  0.00000                                              SYS / PHASE SHIFT   
C L2I                                                       SYS / PHASE SHIFT   
C L7I                                                       SYS / PHASE SHIFT   
C L6I                                                       SYS / PHASE SHIFT   
C L7D                                                       SYS / PHASE SHIFT   
J L1C                                                       SYS / PHASE SHIFT   
J L2L  0.00000                                              SYS / PHASE SHIFT   
J L5Q  0.00000                                              SYS / PHASE SHIFT   
J L1L  0.00000                                              SYS / PHASE SHIFT   
I L5A                                                       SYS / PHASE SHIFT   
  2025     1     2     3    45    0.0000000     GPS         TIME OF FIRST OBS   
 C1C    0.000 C2C    0.000 C2P    0.000                     GLONASS COD/PHS/BIS 
DBHZ                                                        SIGNAL STRENGTH UNIT
    18                                                      LEAP SECONDS        
 24 R01  1 R02 -4 R03  5 R04  6 R05  1 R06 -4 R07  5 R08  6 GLONASS SLOT / FRQ #
    R09 -2 R10 -7 R11  0 R12 -1 R13 -2 R14 -7 R15  0 R16 -1 GLONASS SLOT / FRQ #
    R17  4 R18 -3 R19  3 R20  2 R21  4 R22 -3 R23  3 R24  2 GLONASS SLOT / FRQ #
                                                            END OF HEADER       
> 2025 01 02 03 45  0.0000000  0 57
G09         1.000    20153280.565 8 105906239.48708      -212.705 8        50.909                                    20153277.324 8  82524348.75308      -165.746 8        53.280    20153277.760 7  82524348.75407      -165.682 7        45.654
G06         2.000    21350257.729 8 112196384.43808      -440.590 8        48.613                                    21350255.758 8  87425759.76908      -343.318 8        50.195    21350256.535 7  87425767.77607      -343.367 7        45.514
E11         3.000    25243816.522 7 132657172.83407      1052.926 7        42.097                                                                    25243812.154 7  99062165.88407       786.265 7        43.846    25243812.170 7 101646392.39307       806.700 7        44.682
G16         4.000    24471593.106 6 128599097.41906      1695.052 6        38.889                                    24471588.189 3 100207071.12903      1320.808 3        18.925
S21         5.000    38612579.039 7 202910186.19107      -474.140 7        42.468
E10         6.000    24291419.950 7 127652286.84207      -499.237 7        47.955                                                                    24291418.430 8  95324757.41608      -372.795 8        50.674    24291418.316 8  97811489.56908      -382.503 8        51.409
G20         7.000    24972193.422 6 131229760.84506      2967.142 6        38.513                                    24972188.103 3 102256935.42503      2312.095 3        18.209
G03         8.000    22579149.937 7 118654329.07507     -3426.603 7        43.585                                    22579147.671 6  92457959.48106     -2670.075 6        41.626    22579148.159 6  92457957.47706     -2670.034 6        40.958
R10         9.000    22533888.372 6 120118301.83106      3393.162 6        39.574
G31        10.000    25030769.330 6 131537587.14006     -4080.748 6        38.634                                    25030764.700 4 102496804.28704     -3179.802 4        29.242    25030765.188 5 102496809.28105     -3179.834 5        34.829
G30        11.000    25559026.013 6 134313589.34606      3205.183 6        38.432                                    25559024.404 5 104659929.80905      2497.542 5        31.004    25559024.375 5 104659937.83405      2497.194 5        35.210
S27        12.000    39241319.059 6 206214548.18206      -478.315 6        36.510
G26        13.000    24311644.650 6 127758560.71606      -523.115 6        38.982                                    24311642.898 5  99552132.33305      -407.621 5        31.562    24311643.073 6  99552132.35506      -407.678 6        36.106
S36        14.000    38380115.113 7 201689386.69407      -474.505 7        44.861
I09        15.000    37849802.011 7 148530752.85507      -691.393 7        42.747
G19        16.000    24741669.762 6 130018365.88506     -3567.802 6        38.856                                    24741664.618 3 101312994.04003     -2780.093 3        21.310
S45        17.000    63569377.773 6 334060562.65806      -514.601 6        37.565
E12        19.000    24530250.492 7 128907347.09207     -1908.548 7        45.011                                                                    24530246.270 7  96261969.30107     -1425.171 7        46.726    24530246.517 8  98773150.48708     -1462.395 8        48.119
E21        20.000    28578586.807 6 150181474.01406      2235.725 6        36.851                                                                    28578586.271 6 112148516.09606      1669.864 6        38.438    28578586.022 6 115074126.15406      1713.320 6        40.422
G11        21.000    23269301.463 7 122281020.10707      1978.624 7        43.693                                    23269297.293 5  95283893.83305      1541.780 5        30.649    23269297.137 7  95283906.84907      1541.617 7        42.798
I06        22.000    38172622.445 7 149797812.60007      -306.542 7        43.136
S28        23.000    41042908.011 5 215681956.77205      -471.540 5        34.752
R08        24.000    19906825.331 8 106600185.82908       415.173 8        51.207                                                                    19906822.427 7  82911260.41107       322.879 7        47.487
S23        25.000    38322341.750 7 201385263.34207      -470.227 7        44.674
R01        26.000    23437589.049 6 125287345.70806      2745.167 6        41.001                                                                    23437588.008 5  97445705.36405      2135.002 5        33.844
R16        27.000    23103868.311 7 123416730.83807     -2997.245 7        44.155                                                                    23103868.017 6  95990792.69206     -2331.188 6        41.874
R24        29.000    21921583.631 8 117224571.25508      1606.852 8        48.044                                                                    21921582.658 7  91174654.70507      1249.744 7        43.710
E19        30.000    23129132.654 7 121544447.53107     -1056.447 7        43.232                                                                    23129130.073 7  90763713.75007      -788.882 7        45.800    23129130.086 7  93131459.50607      -809.526 7        47.236
C23        31.000                                                                                                                                    24762778.565 7 128946295.44807     -1199.789 7        45.147                                                                    24762769.310 7 104779395.39307      -974.857 7        45.889
R23        32.000    20787147.618 8 111197237.73508     -2873.650 8        49.011
E29        33.000    26007544.114 7 136670650.13607     -2785.009 7        42.955                                                                    26007542.084 7 102059266.72007     -2079.760 7        45.920    26007541.703 7 104721676.85507     -2133.949 7        46.420
E04        34.000    25322401.993 7 133070154.91607      1539.659 7        44.494                                                                    25322399.287 7  99370581.54207      1149.766 7        47.641    25322399.271 8 101962853.07308      1179.704 8        48.726
C16        35.000                                                                                                                                    39582052.973 6 206114165.93406     -1354.241 6        41.330    39582051.931 7 159380560.17107     -1047.142 7        42.193    39582049.192 6 167484643.86706     -1100.390 6        38.168
C32        36.000                                                                                                                                    24252614.561 7 126289782.85907     -2758.343 7        46.736                                                                    24252613.943 7 102620814.49707     -2241.328 7        47.019
I01        37.000   381858728.723 7 195354862.85507     -2797.349 7        42.808
E27        38.000    27846667.814 6 146335228.05506       838.644 6        38.426                                                                    27846667.271 6 109276317.57506       626.290 6        41.223    27846667.094 7 112127000.46807       642.486 7        42.216
C19        39.000                                                                                                                                    24322969.606 7 126656089.24307      1847.529 7        46.240                                                                    24322964.691 7 102918425.10307      1501.324 7        46.504
C39        40.000                                                                                                                                    40337632.002 6 210048661.43406     -1616.066 6        41.094                                                                    40337627.600 6 170681738.48906     -1313.181 6        40.386
E33        41.000    27219075.753 6 143037293.48206     -3728.924 6        39.931                                                                    27219073.762 7 106813595.25007     -2784.516 7        42.760    27219073.472 7 109600032.92007     -2857.252 7        44.263
S44        42.000    40911219.478 6 214990117.33006      -549.286 6        37.406
R06        43.000    24393194.886 5 130166807.72005     -3838.969 5        33.102
C05        44.000                                                                                                                                    39335171.332 6 204828601.11406      -511.272 6        39.087    39335164.519 7 158386493.96407      -395.287 7        43.107    39335166.750 6 166440121.89206      -415.328 6        40.405
C29        45.000                                                                                                                                    24623877.860 7 128223013.02407     -3082.088 7        45.330                                                                    24623874.964 7 104191699.20607     -2504.395 7        44.435
G04        46.000    20754834.298 7 109067425.98907     -2007.247 7        47.063                                    20754830.443 6  84987591.40906     -1564.089 6        38.429    20754830.698 7  84987593.41107     -1564.088 7        46.815
E30        47.000    28976313.376 5 152271574.57905     -1332.177 5        35.486                                                                    28976312.940 6 113709285.30406      -994.735 6        39.676    28976312.514 6 116675612.93806     -1020.651 6        41.297
R22        48.000    23138602.916 7 123515454.23607     -4927.965 7        44.045                                                                    23138600.931 7  96067571.75307     -3832.839 7        42.436
C20        49.000                                                                                                                                    22044675.102 8 114792435.52408      -259.550 8        51.942                                                                    22044668.731 8  93278241.48008      -210.858 8        49.567
C06        50.000                                                                                                                                    39018141.716 6 203177733.43806     -1316.039 6        40.062    39018135.355 7 157109895.50807     -1017.723 7        43.604    39018135.024 6 165098532.55906     -1069.304 6        40.493
S48        51.000    77354482.414 6 406500000.50606      -461.409 6        37.807
E06        52.000    27528240.690 6 144661901.30906      2087.695 6        39.754                                                                    27528240.198 6 108026754.60006      1559.051 6        41.027    27528240.106 6 110844841.88206      1599.485 6        41.347
C09        53.000                                                                                                                                    38767548.980 7 201872824.04307      -878.440 7        42.028    38767545.405 7 156100864.05907      -679.363 7        47.233    38767543.499 7 164038185.59307      -713.878 7        42.186
C60        54.000                                                                                                                                    40911221.703 6 213035681.25106      -544.401 6        39.402                                                                    40911205.455 6 173108913.37506      -442.364 6        40.498
R09        55.000    21308562.447 7 113786561.83607       695.859 7        47.639                                                                    21308561.319 7  88500653.89307       541.243 7        46.253
G07        56.000    22784652.175 7 119734170.74907      2385.983 7        46.132                                    22784647.004 7  93299336.82707      1859.207 7        42.961    22784647.159 6  93299345.82306      1859.339 6        40.782
C02        57.000                                                                                                                                    40859169.513 5 212764480.15205      -549.473 5        35.133    40859162.248 6 164522989.31706      -424.871 6        39.369    40859166.250 5 172888574.11405      -446.394 5        35.871
I03        58.000   101098207.739 6 320945856.98306       862.058 6        41.199
R07        59.000    20644437.579 8 110511358.48208     -2564.445 8        49.311                                                                    20644436.943 7  85953332.52007     -1994.506 7        46.192
> 2025 01 02 03 45  5.0000000  0 57
G09         1.000    20153483.884 8 105907308.54108      -214.893 8        50.617                                    20153480.752 8  82525181.78408      -167.450 8        53.253    20153481.043 7  82525181.78007      -167.420 7        45.627
G06         2.000    21350678.264 8 112198595.55308      -443.809 8        48.236                                    21350676.511 8  87427482.71608      -345.826 8        50.072    21350677.566 7  87427490.72007      -345.829 7        45.834
E11         3.000    25242815.828 6 132651912.97206      1051.053 6        41.928                                                                    25242811.154 7  99058238.07407       784.860 7        43.900    25242811.320 7 101642362.11107       805.396 7        44.555
G16         4.000    24469981.117 6 128590627.29506      1692.912 6        38.871                                    24469976.178 3 100200471.04003      1319.141 3        19.254
S21         5.000    38613029.626 7 202912556.82807      -473.956 7        42.641
E10         6.000    24291896.038 8 127654788.81608      -501.503 8        48.015                                                                    24291894.563 8  95326625.77208      -374.497 8        50.764    24291894.421 8  97813406.66808      -384.260 8        51.310
G20         7.000    24969369.559 6 131214924.40406      2967.359 6        38.276                                    24969364.757 3 102245374.55103      2312.229 3        18.179
G03         8.000    22582411.020 7 118671464.92907     -3427.657 7        43.918                                    22582408.575 6  92471312.09306     -2670.904 6        41.633    22582409.234 6  92471310.09306     -2670.960 6        41.089
R10         9.000    22530706.965 6 120101339.63306      3391.566 6        40.198
G31        10.000    25034652.650 6 131557993.51006     -4081.672 6        38.529                                    25034647.951 4 102512705.35004     -3180.524 4        29.261    25034648.377 5 102512710.35105     -3180.441 5        35.090
G30        11.000    25555976.670 6 134297563.29906      3205.322 6        38.417                                    25555974.758 5 104647441.98205      2497.651 5        30.785    25555974.592 5 104647449.98705      2497.748 5        35.067
S27        12.000    39241776.922 6 206216938.90306      -478.091 6        36.749
G26        13.000    24312143.718 6 127761184.06206      -526.232 6        38.610                                    24312142.043 5  99554176.50705      -410.051 5        31.525    24312142.294 6  99554176.51706      -410.115 6        36.571
S36        14.000    38380567.972 7 201691758.60107      -474.167 7        44.956
I09        15.000    37850682.540 7 148534209.98207      -691.469 7        42.734
G19        16.000    24745064.541 6 130036205.25406     -3568.048 6        38.498                                    24745059.067 3 101326894.83703     -2780.281 3        20.881
S45        17.000    63569823.589 6 334063135.32606      -514.518 6        37.822
E12        19.000    24532067.531 7 128916895.18107     -1910.597 7        45.073                                                                    24532063.296 7  96269099.37107     -1426.795 7        46.900    24532063.497 7  98780466.55207     -1463.938 7        47.987
E21        20.000    28576459.131 6 150170294.53106      2235.898 6        36.662                                                                    28576458.953 6 112140167.78906      1669.675 6        38.667    28576458.535 6 115065560.05206      1713.250 6        40.305
G11        21.000    23267420.199 7 122271133.01707      1976.376 7        44.056                                    23267415.871 5  95276189.61305      1540.033 5        30.589    23267415.752 7  95276202.60807      1540.030 7        42.535
I06        22.000    38173012.902 7 149799345.12307      -306.511 7        42.959
S28        23.000    41043357.762 5 215684312.90305      -471.041 5        34.786
R08        24.000    19906438.315 8 106598114.67708       413.413 8        50.857                                                                    19906435.889 7  82909649.52207       321.521 7        47.751
S23        25.000    38322789.431 7 201387614.33207      -470.091 7        44.894
R01        26.000    23435020.713 6 125273620.29506      2744.857 6        41.411                                                                    23435020.121 5  97435030.02505      2134.866 5        34.762
R16        27.000    23106675.361 7 123431725.74507     -3000.703 7        43.065                                                                    23106675.455 7  96002455.38807     -2333.806 7        42.440
R24        29.000    21920084.011 7 117216546.77007      1603.130 7        47.676                                                                    21920082.450 7  91168413.44807      1246.835 7        44.041
E19        30.000    23130138.624 7 121549733.32307     -1057.644 7        43.270                                                                    23130135.917 7  90767660.93207      -789.889 7        45.871    23130135.970 7  93135509.65507      -810.499 7        47.123
C23        31.000                                                                                                                                    24763931.742 7 128952300.93607     -1202.275 7        45.174                                                                    24763922.624 7 104784275.34107      -977.005 7        45.988
R23        32.000    20789835.533 8 111211615.62708     -2877.407 8        49.091
E29        33.000    26010193.959 7 136684576.07507     -2785.183 7        42.861                                                                    26010192.062 7 102069665.96407     -2079.954 7        45.898    26010191.840 7 104732347.38207     -2134.171 7        46.386
E04        34.000    25320937.638 7 133062459.02307      1538.823 7        44.680                                                                    25320934.885 7  99364834.62107      1149.126 7        47.675    25320934.737 8 101956956.22908      1179.087 8        48.597
C16        35.000                                                                                                                                    39583352.927 6 206120937.33206     -1354.272 6        41.263    39583352.414 7 159385796.23907     -1047.139 7        42.066    39583349.605 6 167490146.17806     -1100.573 6        38.078
C32        36.000                                                                                                                                    24255263.605 7 126303576.00707     -2758.887 7        46.509                                                                    24255262.768 7 102632022.54407     -2241.918 7        46.991
I01        37.000   381862292.755 7 195368849.82207     -2797.358 7        42.535
E27        38.000    27845870.811 6 146331040.02706       836.818 6        38.559                                                                    27845870.283 6 109273190.13706       624.888 6        41.313    27845870.050 7 112123791.44907       641.173 7        42.136
C19        39.000                                                                                                                                    24321195.872 7 126646852.95507      1847.023 7        46.238                                                                    24321190.917 7 102910919.85007      1500.751 7        46.564
C39        40.000                                                                                                                                    40339183.917 6 210056742.30806     -1616.269 6        41.063                                                                    40339179.517 6 170688304.85006     -1313.333 6        40.315
E33        41.000    27222624.106 6 143055939.09106     -3729.109 6        40.050                                                                    27222621.885 7 106827518.93007     -2784.772 7        42.779    27222621.650 7 109614319.81307     -2857.463 7        44.166
S44        42.000    40911743.101 6 214992863.81806      -549.337 6        37.478
R06        43.000    24396790.574 5 130186001.40405     -3838.573 5        31.751
C05        44.000                                                                                                                                    39335661.780 6 204831156.85906      -511.046 6        39.162    39335655.378 7 158388470.21707      -395.206 7        43.092    39335657.444 6 166442198.63706      -415.423 6        40.241
C29        45.000                                                                                                                                    24626837.896 7 128238426.86507     -3083.364 7        45.366                                                                    24626835.088 7 104204224.19907     -2505.493 7        44.391
G04        46.000    20756745.097 7 109077466.46307     -2008.860 7        46.773                                    20756741.091 6  84995415.15706     -1565.344 6        38.366    20756741.186 7  84995417.15307     -1565.330 7        46.975
E30        47.000    28977581.556 5 152278240.20805     -1334.252 5        35.476                                                                    28977581.423 6 113714262.86306      -996.171 6        39.793    28977580.922 6 116680720.36006     -1022.228 6        41.054
R22        48.000    23143218.271 7 123540095.73607     -4928.662 7        43.740                                                                    23143216.719 7  96086737.36507     -3833.330 7        42.658
C20        49.000                                                                                                                                    22044924.866 8 114793736.49408      -260.775 8        52.078                                                                    22044918.607 8  93279298.61708      -211.998 8        49.478
C06        50.000                                                                                                                                    39019405.683 6 203184314.84706     -1316.377 6        40.281    39019399.364 7 157114984.66807     -1017.909 7        43.391    39019398.926 6 165103880.49506     -1069.675 6        40.574
S48        51.000    77354923.137 6 406502307.40906      -461.329 6        38.006
E06        52.000    27526254.705 6 144651464.19706      2087.196 6        39.916                                                                    27526253.897 6 108018960.66206      1558.605 6        41.004    27526254.026 6 110836844.61006      1599.354 6        41.170
C09        53.000                                                                                                                                    38768392.748 7 201877218.28807      -878.942 7        42.116    38768389.340 7 156104261.96707      -679.719 7        46.946    38768387.262 7 164041756.27307      -714.353 7        42.250
C60        54.000                                                                                                                                    40911744.230 6 213038402.76206      -544.165 6        39.276                                                                    40911728.201 6 173111124.80806      -442.389 6        40.355
R09        55.000    21307913.292 7 113783092.63907       691.817 7        47.842                                                                    21307911.717 7  88497955.62907       537.991 7        46.690
G07        56.000    22782382.580 7 119722244.17107      2384.747 7        46.030                                    22782377.373 7  93290043.38707      1858.243 7        42.823    22782377.816 6  93290052.40206      1858.105 6        41.809
C02        57.000                                                                                                                                    40859698.076 5 212767227.74205      -549.467 5        35.229    40859689.927 6 164525113.91206      -424.814 6        39.243    40859694.130 6 172890806.74606      -446.601 6        36.023
I03        58.000   101097109.822 6 320941546.33006       862.208 6        41.039
R07        59.000    20646833.187 8 110524183.72108     -2565.636 8        49.243                                                                    20646832.293 7  85963307.71207     -1995.464 7        46.381
> 2025 01 02 03 45 10.0000000  0 57
G09         1.000    20153689.311 8 105908388.77008      -217.132 8        50.523                                    20153686.317 8  82526023.52008      -169.190 8        53.450    20153686.667 7  82526023.51707      -169.138 7        45.980
G06         2.000    21351102.251 8 112200823.60308      -447.179 8        48.082                                    21351100.492 8  87429218.86108      -348.451 8        50.264    21351101.293 7  87429226.86507      -348.493 7        45.759
E11         3.000    25241817.032 6 132646663.17806      1048.984 6        41.831                                                                    25241812.160 7  99054317.77007       783.291 7        43.841    25241812.215 7 101638339.54407       803.728 7        44.704
G16         4.000    24468371.778 6 128582168.25106      1690.585 6        38.604                                    24468366.188 3 100193879.59903      1317.351 3        20.071
S21         5.000    38613484.475 7 202914927.29507      -473.968 7        42.536
E10         6.000    24292374.484 7 127657303.01807      -504.126 7        47.833                                                                    24292372.983 8  95328503.26108      -376.353 8        50.828    24292372.849 8  97815333.13308      -386.227 8        51.393
G20         7.000    24966546.549 6 131200088.22206      2967.174 6        38.063                                    24966541.558 3 102233813.89303      2312.065 3        18.567
G03         8.000    22585673.128 7 118688607.20107     -3429.196 7        43.450                                    22585670.682 6  92484669.70306     -2672.097 6        41.776    22585671.270 6  92484667.69906     -2672.044 6        40.984
R10         9.000    22527526.666 6 120084386.36406      3389.719 6        39.877
G31        10.000    25038537.048 6 131578405.55906     -4083.071 6        38.468                                    25038532.208 4 102528610.85004     -3181.618 4        29.355    25038532.599 5 102528615.84505     -3181.517 5        35.181
G30        11.000    25552926.688 6 134281536.71906      3205.412 6        38.285                                    25552925.008 5 104634953.75705      2497.718 5        31.057    25552925.451 5 104634961.75405      2497.602 5        35.410
S27        12.000    39242228.708 6 206219328.62206      -478.017 6        36.783
G26        13.000    24312645.884 6 127763823.14806      -529.387 6        38.724                                    24312644.376 5  99556232.94205      -412.510 5        31.615    24312644.946 6  99556232.95306      -412.640 6        36.975
S36        14.000    38381016.691 7 201694130.50607      -474.433 7        44.974
I09        15.000    37851564.017 7 148537667.54507      -691.608 7        42.921
G19        16.000    24748460.480 6 130054047.77606     -3568.980 6        38.057                                    24748454.437 3 101340798.11003     -2781.017 3        21.000
S45        17.000    63570270.519 6 334064107.96116      -514.423 6        37.856
E12        19.000    24533886.624 7 128926454.28907     -1912.774 7        45.025                                                                    24533882.357 7  96276237.66007     -1428.414 7        46.973    24533882.500 8  98787791.06808     -1465.739 8        48.060
E21        20.000    28574331.997 6 150159116.26106      2235.576 6        36.805                                                                    28574331.938 6 112131820.40006      1669.340 6        39.225    28574331.345 6 115056994.91006      1712.850 6        40.329
G11        21.000    23265540.786 7 122261257.74407      1973.929 7        43.577                                    23265536.681 5  95268494.59505      1538.124 5        30.845    23265536.587 7  95268507.60307      1538.094 7        42.427
I06        22.000    38173403.354 7 149800877.72007      -306.522 7        42.993
S28        23.000    41043803.471 5 215686669.12905      -471.170 5        35.243
R08        24.000    19906053.427 8 106596053.11408       411.399 8        50.909                                                                    19906050.702 7  82908046.08307       319.948 7        47.603
S23        25.000    38323237.997 7 201389965.26507      -470.089 7        44.924
R01        26.000    23432452.853 6 125259897.29706      2744.240 6        40.579                                                                    23432453.954 5  97424356.59405      2134.363 5        35.271
R16        27.000    23109485.306 7 123446738.14407     -3004.240 7        44.066                                                                    23109485.324 6  96014131.71906     -2336.612 6        41.692
R24        29.000    21918586.249 8 117208542.02108      1599.040 8        48.317                                                                    21918585.519 7  91162187.52707      1243.690 7        43.865
E19        30.000    23131145.736 7 121555025.59307     -1059.158 7        43.230                                                                    23131142.986 7  90771612.95007      -790.812 7        45.770    23131143.063 7  93139564.77207      -811.521 7        47.223
C23        31.000                                                                                                                                    24765087.637 7 128958320.07807     -1205.218 7        45.321                                                                    24765078.451 7 104789166.40007      -979.331 7        45.967
R23        32.000    20792526.648 8 111226013.19808     -2881.455 8        48.772
E29        33.000    26012844.259 7 136698504.11207     -2785.899 7        42.538                                                                    26012842.564 7 102080066.76207     -2080.284 7        46.066    26012842.331 7 104743019.50207     -2134.506 7        46.385
E04        34.000    25319473.732 7 133054768.06507      1537.653 7        44.402                                                                    25319471.321 7  99359091.36007      1148.294 7        47.712    25319471.211 8 101951063.14808      1178.154 8        48.790
C16        35.000                                                                                                                                    39584653.518 6 206127710.34006     -1354.722 6        41.316    39584652.796 6 159391033.56606     -1047.640 6        41.962    39584650.408 6 167495649.81406     -1100.817 6        38.252
C32        36.000                                                                                                                                    24257912.963 7 126317372.82107     -2759.710 7        46.730                                                                    24257912.234 7 102643233.59607     -2242.495 7        46.866
I01        37.000   381865857.430 7 195382837.31507     -2797.599 7        42.571
E27        38.000    27845075.902 6 146326861.88606       834.553 6        38.273                                                                    27845075.250 6 109270070.11706       623.261 6        41.139    27845074.914 7 112120590.02707       639.545 7        42.254
C19        39.000                                                                                                                                    24319422.628 7 126637619.91707      1846.355 7        46.106                                                                    24319417.800 7 102903417.26907      1500.276 7        46.465
C39        40.000                                                                                                                                    40340736.119 6 210064824.00206     -1616.414 6        40.820                                                                    40340731.488 6 170694871.90806     -1313.608 6        40.358
E33        41.000    27226172.501 6 143074586.94906     -3729.831 6        39.886                                                                    27226170.647 7 106841444.28107     -2785.189 7        42.880    27226170.438 7 109628608.43407     -2857.913 7        44.153
S44        42.000    40912267.090 6 214995610.09006      -549.220 6        37.701
R06        43.000    24400386.843 5 130205195.21505     -3838.747 5        31.426
C05        44.000                                                                                                                                    39336152.563 6 204833712.52706      -511.039 6        39.027    39336146.157 7 158390446.43807      -395.209 7        42.889    39336148.285 6 166444275.36206      -415.391 6        40.160
C29        45.000                                                                                                                                    24629799.253 7 128253847.56107     -3084.800 7        45.180                                                                    24629796.572 7 104216754.79107     -2506.625 7        44.408
G04        46.000    20758657.260 7 109087515.92507     -2010.804 7        46.885                                    20758653.483 6  85003245.90806     -1566.855 6        38.571    20758653.677 7  85003247.90407     -1566.835 7        46.880
E30        47.000    28978851.922 5 152284916.92705     -1336.291 5        35.148                                                                    28978851.930 6 113719248.74606      -997.886 6        39.811    28978851.569 6 116685836.31806     -1024.058 6        41.051
R22        48.000    23147834.641 7 123564740.85807     -4929.439 7        43.587                                                                    23147833.913 7  96105905.79307     -3833.958 7        42.535
C20        49.000                                                                                                                                    22045176.023 8 114795044.54608      -262.332 8        52.262                                                                    22045169.782 8  93280361.53408      -213.197 8        49.457
C06        50.000                                                                                                                                    39020669.606 6 203190898.19406     -1316.739 6        40.210    39020663.466 7 157120075.33307     -1018.287 7        43.359    39020663.140 6 165109230.02106     -1070.064 6        40.501
S48        51.000    77355366.055 6 406504614.40206      -461.070 6        38.093
E06        52.000    27524268.703 6 144641029.56406      2086.839 6        39.096                                                                    27524268.573 6 108011168.57706      1558.300 6        41.211    27524268.349 6 110828849.26406      1598.902 6        41.242
C09        53.000                                                                                                                                    38769237.549 7 201881615.00507      -879.574 7        42.068    38769233.535 7 156107661.79307      -680.227 7        47.065    38769231.650 7 164045328.98507      -714.801 7        42.209
C60        54.000                                                                                                                                    40912266.699 6 213041124.08506      -544.150 6        39.444                                                                    40912250.719 6 173113336.11706      -442.140 6        40.412
R09        55.000    21307267.572 7 113779644.40307       687.557 7        47.660                                                                    21307265.685 7  88495273.67307       534.736 7        46.377
G07        56.000    22780114.158 7 119710325.11307      2383.092 7        46.459                                    22780109.246 7  93280755.81207      1856.954 7        43.096    22780109.530 6  93280764.81106      1857.032 6        41.774
C02        57.000                                                                                                                                    40860225.688 5 212769975.18905      -549.416 5        35.119    40860217.529 6 164527238.42006      -424.787 6        39.303    40860221.754 5 172893039.29405      -446.299 5        35.990
I03        58.000   101096011.283 6 320937235.68206       862.126 6        40.918
R07        59.000    20649230.565 8 110537015.73408     -2567.141 8        49.185                                                                    20649229.343 7  85973288.16807     -1996.697 7        46.520
> 2025 01 02 03 45 15.0000000  0 57
G09         1.000    20153897.247 8 105909480.62808      -219.711 8        50.992                                    20153894.086 8  82526874.31808      -171.205 8        53.226    20153894.603 7  82526874.32007      -171.191 7        46.316
G06         2.000    21351529.833 8 112203069.03408      -450.902 8        48.143                                    21351527.774 8  87430968.54308      -351.353 8        50.133    21351528.739 7  87430976.54807      -351.352 7        46.160
E11         3.000    25240820.102 6 132641423.89206      1046.799 6        41.740                                                                    25240815.151 7  99050405.32107       781.636 7        43.814    25240815.154 7 101634325.02407       802.037 7        44.707
G16         4.000    24466764.080 6 128573720.76806      1688.167 6        38.054                                    24466758.971 3 100187297.14703      1315.471 3        19.403
S21         5.000    38613933.900 7 202917298.00907      -474.334 7        42.861
E10         6.000    24292855.527 7 127659829.88407      -506.770 7        47.808                                                                    24292853.849 8  95330390.21408      -378.495 8        50.791    24292853.645 8  97817269.30808      -388.340 8        51.368
G20         7.000    24963723.810 6 131185252.74306      2966.786 6        38.384                                    24963718.493 3 102222253.77103      2311.805 3        18.060
G03         8.000    22588936.051 7 118705756.29307     -3430.604 7        43.344                                    22588934.063 6  92498032.62806     -2673.195 6        41.456    22588934.580 6  92498030.63306     -2673.249 6        41.020
R10         9.000    22524347.074 6 120067442.30406      3387.880 6        38.195
G31        10.000    25042422.672 6 131598823.67506     -4084.416 6        38.405                                    25042417.659 4 102544521.06604     -3182.662 4        29.346    25042418.002 5 102544526.06205     -3182.532 5        35.271
G30        11.000    25549876.675 6 134265510.13106      3205.127 6        38.450                                    25549875.178 5 104622465.50805      2497.499 5        30.853    25549875.777 5 104622473.50805      2497.395 5        35.310
S27        12.000    39242685.292 6 206221719.24006      -478.557 6        37.104
G26        13.000    24313151.241 6 127766478.41906      -532.772 6        38.108                                    24313149.893 5  99558301.99005      -415.144 5        31.457    24313150.608 6  99558301.97006      -414.923 6        37.028
S36        14.000    38381467.944 7 201696503.47107      -474.702 7        45.117
I09        15.000    37852445.272 7 148541125.91207      -691.891 7        42.736
G19        16.000    24751856.765 6 130071893.87006     -3569.627 6        38.547                                    24751850.379 3 101354704.13403     -2781.519 3        20.833
S45        17.000    63570715.329 6 334066680.76806      -514.558 6        38.048
E12        19.000    24535707.956 7 128936024.80807     -1915.369 7        44.900                                                                    24535703.586 7  96283384.48007     -1430.338 7        46.880    24535703.698 8  98795124.32308     -1467.660 8        48.036
E21        20.000    28572205.363 6 150147939.69806      2234.908 6        36.715                                                                    28572205.168 6 112123474.26706      1668.930 6        39.477    28572204.655 6 115048431.05206      1712.584 6        40.334
G11        21.000    23263663.614 7 122251394.77507      1971.241 7        43.336                                    23263659.865 5  95260809.16205      1536.022 5        30.566    23263659.885 7  95260822.16907      1535.982 7        42.389
I06        22.000    38173794.282 7 149802410.70507      -306.789 7        42.906
S28        23.000    41044255.856 5 215689025.05005      -471.299 5        35.019
R08        24.000    19905670.429 8 106594001.47108       409.197 8        51.021                                                                    19905667.375 7  82906450.36407       318.260 7        47.346
S23        25.000    38323682.311 7 201392316.36607      -470.388 7        45.058
R01        26.000    23429886.885 6 125246176.91906      2743.710 6        41.361                                                                    23429886.968 5  97413685.20505      2133.984 5        35.438
R16        27.000    23112299.302 7 123461768.42007     -3007.981 7        44.042                                                                    23112298.734 6  96025821.92106     -2339.656 6        41.480
R24        29.000    21917093.569 8 117200557.42108      1594.779 8        48.667                                                                    21917091.907 7  91155977.27807      1240.381 7        43.655
E19        30.000    23132154.215 7 121560324.80007     -1060.693 7        43.170                                                                    23132151.436 7  90775570.15307      -792.030 7        45.856    23132151.431 7  93143625.20207      -812.716 7        47.233
C23        31.000                                                                                                                                    24766246.259 7 128964353.28007     -1208.192 7        45.339                                                                    24766237.185 7 104794068.85907      -981.628 7        46.163
R23        32.000    20795221.368 8 111240430.78108     -2885.683 8        48.425
E29        33.000    26015495.337 7 136712434.66107     -2786.430 7        42.320                                                                    26015493.536 7 102090469.44307     -2080.840 7        46.001    26015493.269 7 104753693.56107     -2135.054 7        46.476
E04        34.000    25318011.401 7 133047082.45407      1536.361 7        44.504                                                                    25318008.882 7  99353352.09807      1147.306 7        47.739    25318008.636 8 101945174.16708      1177.250 8        48.761
C16        35.000                                                                                                                                    39585954.786 6 206134485.40706     -1355.377 6        41.402    39585953.886 7 159396272.46907     -1048.101 7        42.030    39585951.486 6 167501155.10506     -1101.198 6        38.474
C32        36.000                                                                                                                                    24260563.346 7 126331173.76207     -2760.745 7        47.070                                                                    24260562.569 7 102654447.99207     -2243.235 7        46.952
I01        37.000   381869422.055 7 195396825.61307     -2797.848 7        42.383
E27        38.000    27844282.772 6 146322694.12406       832.441 6        38.535                                                                    27844282.054 6 109266957.82306       621.617 6        41.220    27844281.680 7 112117396.54507       637.803 7        42.195
C19        39.000                                                                                                                                    24317650.510 7 126628390.59707      1845.359 7        45.934                                                                    24317645.424 7 102895917.68607      1499.631 7        46.699
C39        40.000                                                                                                                                    40342288.223 6 210072906.99406     -1616.712 6        40.617                                                                    40342283.841 6 170701439.98206     -1313.701 6        40.465
E33        41.000    27229721.776 6 143093237.46206     -3730.532 6        39.874                                                                    27229719.804 7 106855371.60907     -2785.834 7        43.185    27229719.461 7 109642899.06907     -2858.422 7        44.181
S44        42.000    40912789.845 6 214998356.66106      -549.427 6        37.592
R06        43.000    24403985.593 5 130224389.49405     -3838.828 5        31.457
C05        44.000                                                                                                                                    39336643.748 6 204836268.63506      -511.278 6        38.850    39336636.721 7 158392422.97607      -395.446 7        43.096    39336639.198 6 166446352.39706      -415.597 6        40.291
C29        45.000                                                                                                                                    24632761.687 7 128269275.56707     -3086.396 7        44.877                                                                    24632759.302 7 104229291.29707     -2507.809 7        44.659
G04        46.000    20760571.410 7 109097574.80307     -2012.856 7        47.332                                    20760567.615 6  85011083.99406     -1568.460 6        38.405    20760567.766 7  85011085.99707     -1568.464 7        46.938
E30        47.000    28980124.560 5 152291605.29605     -1339.125 5        34.814                                                                    28980124.641 6 113724243.31106      -999.841 6        39.949    28980124.188 6 116690961.16206     -1025.919 6        41.080
R22        48.000    23152452.787 7 123589390.03207     -4930.331 7        43.710                                                                    23152450.617 6  96125077.36706     -3834.786 6        41.795
C20        49.000                                                                                                                                    22045428.867 8 114796360.14108      -263.946 8        52.259                                                                    22045422.439 8  93281430.56508      -214.469 8        49.632
C06        50.000                                                                                                                                    39021934.100 6 203197483.89406     -1317.423 6        40.100    39021928.067 7 157125167.81407     -1018.854 7        43.793    39021927.762 6 165114581.42306     -1070.423 6        40.489
S48        51.000    77355809.301 6 406506921.38806      -461.636 6        38.288
E06        52.000    27522283.947 6 144630597.87706      2086.095 6        38.682                                                                    27522283.589 6 108003378.68806      1557.720 6        41.302    27522283.183 6 110820856.15406      1598.398 6        41.313
C09        53.000                                                                                                                                    38770082.401 6 201886014.71306      -880.447 6        41.974    38770078.476 7 156111063.90907      -680.747 7        47.019    38770076.638 7 164048904.08707      -715.310 7        42.379
C60        54.000                                                                                                                                    40912789.365 6 213043845.70406      -544.477 6        39.330                                                                    40912773.372 6 173115547.63506      -442.328 6        40.625
R09        55.000    21306625.722 7 113776217.70007       683.033 7        47.657                                                                    21306624.219 7  88492608.46807       531.242 7        46.546
G07        56.000    22777847.739 7 119698413.96907      2381.374 7        46.381                                    22777842.697 7  93271474.40407      1855.615 7        43.018    22777842.896 6  93271483.41006      1855.600 6        41.526
C02        57.000                                                                                                                                    40860752.718 5 212772722.99805      -549.684 5        35.243    40860745.382 6 164529363.20306      -425.208 6        39.321    40860749.267 6 172895272.10906      -446.735 6        36.189
I03        58.000   101094912.758 6 320932925.36906       861.934 6        40.713
R07        59.000    20651629.472 8 110549855.21308     -2568.731 8        49.317                                                                    20651627.705 7  85983274.42107     -1997.988 7        46.377
> 2025 01 02 03 45 20.0000000  0 57
G09         1.000    20154107.389 8 105910583.36408      -221.624 8        50.922                                    20154103.921 8  82527733.59308      -172.694 8        53.298    20154104.153 7  82527733.59807      -172.725 7        46.465
G06         2.000    21351960.163 8 112205331.09608      -453.978 8        48.295                                    21351958.230 8  87432731.19108      -353.750 8        50.121    21351958.649 7  87432739.20007      -353.798 7        45.849
E11         3.000    25239824.849 6 132636194.38106      1045.029 6        41.766                                                                    25239819.961 7  99046500.17207       780.315 7        43.898    25239820.065 7 101630317.99907       800.675 7        44.718
G16         4.000    24465158.504 6 128565284.13606      1686.338 6        38.589                                    24465153.775 3 100180723.15103      1314.047 3        19.045
S21         5.000    38614385.100 7 202919668.10707      -473.875 7        42.923
E10         6.000    24293338.634 7 127662368.69007      -508.929 7        47.926                                                                    24293336.919 8  95332286.07408      -380.051 8        50.763    24293336.790 8  97819214.62508      -389.956 8        51.402
G20         7.000    24960900.689 6 131170417.17206      2967.108 6        38.655                                    24960895.307 3 102210693.59903      2312.017 3        18.090
G03         8.000    22592201.089 7 118722911.46607     -3431.645 7        43.018                                    22592198.611 6  92511400.29206     -2674.003 6        41.263    22592199.280 6  92511398.29106     -2674.074 6        41.011
R10         9.000    22521169.001 6 120050506.88106      3386.165 6        38.568
G31        10.000    25046309.192 6 131619247.16106     -4085.213 6        38.426                                    25046304.139 4 102560435.47204     -3183.284 4        29.517    25046304.577 5 102560440.46805     -3183.323 5        35.524
G30        11.000    25546826.586 6 134249482.75206      3205.625 6        38.306                                    25546825.286 5 104609976.64605      2497.889 5        30.830    25546825.594 5 104609984.65705      2497.726 5        35.695
S27        12.000    39243137.109 6 206224111.71906      -478.460 6        36.964
G26        13.000    24313659.682 6 127769149.14706      -535.731 6        38.366                                    24313658.236 5  99560383.08205      -417.456 5        31.472    24313658.360 6  99560383.07706      -417.259 6        37.051
S36        14.000    38381918.961 7 201698875.50507      -474.139 7        45.073
I09        15.000    37853326.668 7 148544584.52907      -691.651 7        42.726
G19        16.000    24755252.626 6 130089742.76106     -3570.017 6        39.249                                    24755247.024 3 101368612.36403     -2781.828 3        21.095
S45        17.000    63571165.394 6 334069253.28106      -514.386 6        38.057
E12        19.000    24537531.248 7 128945606.02107     -1917.302 7        45.070                                                                    24537526.792 7  96290539.28307     -1431.775 7        46.833    24537527.003 8  98802465.76608     -1469.073 8        48.048
E21        20.000    28570078.781 6 150136764.09706      2234.968 6        36.556                                                                    28570078.600 6 112115128.84306      1669.045 6        39.664    28570078.067 6 115039867.93506      1712.625 6        40.496
G11        21.000    23261789.313 7 122241543.35707      1969.233 7        43.484                                    23261785.235 5  95253132.73505      1534.467 5        30.619    23261785.189 7  95253145.72807      1534.505 7        42.205
I06        22.000    38174184.485 7 149803943.56207      -306.639 7        42.861
S28        23.000    41044701.588 5 215691380.47605      -471.141 5        35.238
R08        24.000    19905288.868 8 106591959.06608       407.595 8        51.087                                                                    19905285.948 7  82904861.82407       316.980 7        47.164
S23        25.000    38324130.636 7 201394666.88907      -469.979 7        45.020
R01        26.000    23427321.893 6 125232458.60706      2743.473 6        41.304                                                                    23427321.189 5  97403015.37605      2133.817 5        35.229
R16        27.000    23115115.868 7 123476815.97007     -3011.313 7        43.312                                                                    23115115.633 6  96037525.56006     -2341.878 6        40.837
R24        29.000    21915603.870 8 117192592.18108      1591.060 8        48.430                                                                    21915602.648 7  91149782.09307      1237.519 7        44.214
E19        30.000    23133163.682 7 121565630.09507     -1061.667 7        43.162                                                                    23133160.928 7  90779531.89907      -792.795 7        45.917    23133161.019 7  93147690.29807      -813.467 7        47.218
C23        31.000                                                                                                                                    24767407.505 7 128970399.81907     -1210.711 7        45.326                                                                    24767398.367 7 104798982.17207      -983.841 7        46.106
R23        32.000    20797920.715 8 111254867.56608     -2889.333 8        48.819
E29        33.000    26018146.765 7 136726367.01307     -2786.741 7        42.394                                                                    26018144.699 7 102100873.45707     -2080.857 7        45.998    26018144.538 7 104764368.99107     -2135.174 7        46.461
E04        34.000    25316549.677 7 133039401.46507      1535.767 7        44.232                                                                    25316547.204 7  99347616.29807      1146.768 7        47.803    25316547.020 8 101939288.73108      1176.705 8        48.756
C16        35.000                                                                                                                                    39587256.345 6 206141261.77906     -1355.376 6        41.437    39587255.398 7 159401512.40407     -1048.167 7        42.099    39587252.792 6 167506661.47006     -1101.606 6        38.384
C32        36.000                                                                                                                                    24263214.349 7 126344978.09307     -2761.158 7        47.240                                                                    24263213.595 7 102665665.14707     -2243.832 7        46.953
I01        37.000   381872986.456 7 195410814.22707     -2797.718 7        42.360
E27        38.000    27843491.709 6 146318535.99806       830.541 6        38.234                                                                    27843490.721 6 109263852.72206       620.285 6        41.168    27843490.216 7 112114210.44307       636.491 7        42.072
C19        39.000                                                                                                                                    24315878.817 7 126619164.25707      1844.970 7        46.298                                                                    24315873.551 7 102888420.52907      1499.111 7        46.704
C39        40.000                                                                                                                                    40343840.535 6 210080990.55106     -1616.782 6        40.653                                                                    40343836.135 6 170708008.53406     -1313.866 6        40.517
E33        41.000    27233271.116 6 143111889.87006     -3730.600 6        39.814                                                                    27233269.292 7 106869300.35507     -2785.935 7        43.479    27233268.907 7 109657191.19207     -2858.573 7        44.218
S44        42.000    40913310.829 6 215001102.80106      -549.396 6        38.090
R06        43.000    24407583.494 5 130243583.66905     -3838.579 5        32.048
C05        44.000                                                                                                                                    39337134.665 6 204838824.38406      -511.055 6        38.955    39337127.870 7 158394399.25507      -395.198 7        42.876    39337129.931 6 166448429.15806      -415.437 6        40.284
C29        45.000                                                                                                                                    24635726.118 7 128284710.14307     -3087.607 7        45.288                                                                    24635723.243 7 104241833.16007     -2509.027 7        44.560
G04        46.000    20762487.175 7 109107642.37507     -2014.358 7        47.146                                    20762483.410 6  85018928.85406     -1569.629 6        38.363    20762483.447 7  85018930.85007     -1569.589 7        47.028
E30        47.000    28981399.839 5 152298304.50105     -1340.930 5        35.043                                                                    28981399.442 6 113729245.94806     -1001.312 6        40.107    28981399.147 6 116696094.32206     -1027.445 6        41.116
R22        48.000    23157071.583 7 123614042.54107     -4930.824 7        43.367                                                                    23157068.977 6  96144251.53106     -3835.084 6        41.337
C20        49.000                                                                                                                                    22045682.627 8 114797682.54808      -265.126 8        52.261                                                                    22045676.349 8  93282505.12108      -215.525 8        49.658
C06        50.000                                                                                                                                    39023199.465 6 203204071.22606     -1317.595 6        40.217    39023193.328 7 157130261.55007     -1018.857 7        43.634    39023192.924 6 165119934.17606     -1070.811 6        40.660
S48        51.000    77356254.142 6 406509227.87006      -461.350 6        38.039
E06        52.000    27520299.574 6 144620168.38406      2085.870 6        39.105                                                                    27520298.910 6 107995590.45006      1557.489 6        41.206    27520298.452 6 110812864.74606      1598.102 6        41.368
C09        53.000                                                                                                                                    38770927.197 7 201890416.61407      -880.604 7        42.155    38770923.907 7 156114467.74307      -680.901 7        46.990    38770921.990 7 164052481.01507      -715.782 7        42.263
C60        54.000                                                                                                                                    40913311.735 6 213046566.86606      -544.116 6        39.393                                                                    40913295.930 6 173117758.80606      -442.347 6        40.663
R09        55.000    21305987.724 7 113772811.88807       679.129 7        47.074                                                                    21305986.367 7  88489959.50307       528.161 7        46.583
G07        56.000    22775582.276 7 119686510.06207      2380.051 7        46.593                                    22775577.475 7  93262198.63207      1854.585 7        42.944    22775578.092 6  93262207.62906      1854.635 6        41.781
C02        57.000                                                                                                                                    40861280.843 5 212775470.44805      -549.402 5        35.133    40861272.559 6 164531487.70606      -424.818 6        39.147    40861276.869 6 172897504.63806      -446.726 6        36.231
I03        58.000   101093814.447 6 320928614.81206       862.108 6        40.789
R07        59.000    20654028.949 8 110562701.29208     -2569.910 8        49.139                                                                    20654027.006 7  85993265.80907     -1998.729 7        45.848
> 2025 01 02 03 45 25.0000000  0 57
G09         1.000    20154319.146 8 105911697.56008      -223.897 8        50.720                                    20154315.952 8  82528601.79808      -174.462 8        53.315    20154316.140 7  82528601.80307      -174.473 7        46.173
G06         2.000    21352393.939 8 112207610.38808      -457.458 8        48.159                                    21352391.960 8  87434507.26508      -356.462 8        50.100    21352392.889 7  87434515.26407      -356.510 7        46.026
E11         3.000    25238831.761 6 132630975.24606      1042.941 6        41.652                                                                    25238826.848 7  99042602.75607       778.844 7        44.008    25238826.913 7 101626318.92007       799.111 7        44.677
G16         4.000    24463555.145 6 128556858.95006      1684.037 6        38.345                                    24463550.510 3 100174158.08703      1312.234 3        19.403
S21         5.000    38614835.241 7 202922038.53807      -474.043 7        42.736
E10         6.000    24293824.144 7 127664920.01907      -511.401 7        47.938                                                                    24293822.431 8  95334191.28008      -381.842 8        50.877    24293822.278 8  97821169.53308      -391.812 8        51.393
G20         7.000    24958077.818 6 131155582.14306      2967.143 6        39.225                                    24958072.287 3 102199133.82903      2312.065 3        18.806
G03         8.000    22595466.749 7 118740073.32107     -3432.906 7        43.291                                    22595464.465 6  92524773.16306     -2674.990 6        41.189    22595465.338 6  92524771.15706     -2675.001 6        40.934
R10         9.000    22517994.501 6 120033580.80706      3384.292 6        39.826
G31        10.000    25050197.145 6 131639676.54106     -4086.275 6        38.228                                    25050191.767 4 102576354.46304     -3184.113 4        29.583    25050191.861 5 102576359.46705     -3184.075 5        35.867
G30        11.000    25543777.097 6 134233455.20306      3205.512 6        38.234                                    25543775.308 5 104597487.65905      2497.798 5        30.800    25543776.145 5 104597495.64705      2497.976 5        35.167
S27        12.000    39243592.235 6 206226503.66106      -478.106 6        36.828
G26        13.000    24314170.514 6 127771835.89606      -538.949 6        38.562                                    24314169.692 5  99562476.65705      -419.962 5        31.472    24314169.851 6  99562476.66706      -420.064 6        37.009
S36        14.000    38382372.581 7 201701247.40707      -473.979 7        45.130
I09        15.000    37854208.367 7 148548043.83207      -691.808 7        42.700
G19        16.000    24758650.013 6 130107595.07906     -3570.660 6        38.787                                    24758644.147 3 101382523.25203     -2782.344 3        20.833
S45        17.000    63571609.976 6 334071825.98306      -514.578 6        37.905
E12        19.000    24539356.413 7 128955198.51307     -1919.505 7        45.028                                                                    24539352.173 7  96297702.50207     -1433.442 7        46.974    24539352.401 8  98809815.85408     -1470.798 8        48.076
E21        20.000    28567952.175 6 150125590.05506      2234.721 6        36.586                                                                    28567952.265 6 112106784.60606      1668.875 6        40.160    28567951.537 6 115031306.00506      1712.357 6        40.303
G11        21.000    23259916.834 7 122231704.10407      1966.688 7        44.033                                    23259912.851 5  95245465.78505      1532.481 5        30.611    23259912.795 7  95245478.78307      1532.498 7        42.229
I06        22.000    38174575.455 7 149805476.68407      -306.646 7        42.857
S28        23.000    41045149.309 5 215693736.51005      -471.107 5        35.105
R08        24.000    19904909.324 8 106589926.42708       405.660 8        50.914                                                                    19904906.596 7  82903280.87807       315.526 7        47.347
S23        25.000    38324578.576 7 201397017.73307      -470.048 7        45.156
R01        26.000    23424755.005 6 125218742.94406      2742.949 6        41.785                                                                    23424755.200 5  97392347.64205      2133.568 5        34.652
R16        27.000    23117935.867 7 123491881.24407     -3014.696 7        43.562                                                                    23117935.454 6  96049242.99806     -2344.714 6        40.818
R24        29.000    21914118.396 8 117184647.06308      1587.169 8        48.673                                                                    21914116.641 7  91143602.55107      1234.444 7        43.911
E19        30.000    23134174.601 7 121570942.20307     -1062.994 7        43.255                                                                    23134171.788 7  90783498.72807      -793.782 7        45.971    23134171.845 7  93151760.61007      -814.466 7        47.207
C23        31.000                                                                                                                                    24768571.631 7 128976460.27307     -1213.360 7        45.154                                                                    24768562.253 7 104803906.77507      -985.860 7        46.179
R23        32.000    20800623.440 8 111269324.26008     -2893.238 8        48.919
E29        33.000    26020798.391 7 136740301.70307     -2787.053 7        42.535                                                                    26020796.358 7 102111279.24507     -2081.199 7        46.172    26020796.221 7 104775046.23207     -2135.514 7        46.435
E04        34.000    25315088.973 7 133031725.69607      1534.730 7        44.725                                                                    25315086.565 7  99341884.38907      1146.155 7        47.874    25315086.417 8 101933407.29908      1176.028 8        48.825
C16        35.000                                                                                                                                    39588557.924 6 206148040.06006     -1355.743 6        41.387    39588557.071 7 159406753.79007     -1048.312 7        42.171    39588554.492 6 167512169.34306     -1101.381 6        38.306
C32        36.000                                                                                                                                    24265865.947 7 126358786.40707     -2761.941 7        46.930                                                                    24265865.392 7 102676885.51507     -2244.234 7        46.950
I01        37.000   381876551.394 7 195424803.56307     -2797.820 7        42.641
E27        38.000    27842702.278 6 146314388.08206       828.708 6        38.237                                                                    27842701.587 6 109260755.26306       618.746 6        41.187    27842700.821 6 112111032.16706       634.993 6        41.881
C19        39.000                                                                                                                                    24314107.289 7 126609941.46707      1844.313 7        46.054                                                                    24314102.453 7 102880926.25207      1498.711 7        46.663
C39        40.000                                                                                                                                    40345393.154 6 210089075.24106     -1617.038 6        40.493                                                                    40345388.601 6 170714577.98406     -1313.801 6        40.517
E33        41.000    27236820.959 6 143130544.79506     -3731.095 6        39.820                                                                    27236819.342 7 106883230.97507     -2786.179 7        43.786    27236818.757 7 109671485.22007     -2858.800 7        44.008
S44        42.000    40913835.458 6 215003849.02106      -549.026 6        37.803
R06        43.000    24411178.671 5 130262778.21505     -3839.191 5        31.857
C05        44.000                                                                                                                                    39337624.876 6 204841380.39806      -511.151 6        38.727    39337618.573 7 158396375.70807      -395.179 7        42.916    39337620.822 6 166450506.09506      -415.166 6        40.403
C29        45.000                                                                                                                                    24638691.580 7 128300151.84807     -3088.925 7        45.171                                                                    24638688.655 7 104254380.79607     -2509.940 7        44.611
G04        46.000    20764404.486 7 109117719.20307     -2016.199 7        47.078                                    20764400.967 6  85026780.92906     -1571.064 6        38.330    20764401.138 7  85026782.92807     -1571.053 7        47.062
E30        47.000    28982676.874 5 152305015.14705     -1343.318 5        35.905                                                                    28982676.522 6 113734257.14406     -1003.012 6        40.386    28982676.202 6 116701236.22206     -1029.136 6        40.934
R22        48.000    23161689.830 7 123638698.89807     -4931.471 7        43.007                                                                    23161688.423 6  96163428.71806     -3835.735 6        41.335
C20        49.000                                                                                                                                    22045937.809 8 114799012.33908      -266.547 8        52.180                                                                    22045931.753 8  93283585.67108      -216.471 8        49.731
C06        50.000                                                                                                                                    39024465.016 6 203210660.72906     -1317.911 6        40.072    39024458.744 7 157135356.97507     -1019.113 7        43.609    39024458.274 6 165125288.66906     -1070.787 6        40.729
S48        51.000    77356699.927 6 406511534.48106      -461.399 6        38.099
E06        52.000    27518315.072 6 144609741.70906      2085.100 6        39.673                                                                    27518314.824 6 107987804.29106      1557.115 6        41.399    27518314.261 6 110804875.46206      1597.708 6        41.437
C09        53.000                                                                                                                                    38771773.326 7 201894821.33307      -881.150 7        42.059    38771769.594 7 156117873.74307      -681.269 7        46.773    38771767.792 7 164056060.18107      -715.726 7        42.434
C60        54.000                                                                                                                                    40913834.531 6 213049288.11906      -544.201 6        39.676                                                                    40913818.546 6 173119970.04506      -442.050 6        40.679
R09        55.000    21305354.239 8 113769427.36008       674.905 8        48.053                                                                    21305352.453 7  88487327.08207       524.919 7        46.772
G07        56.000    22773318.505 7 119674613.95007      2378.607 7        46.366                                    22773313.703 7  93252928.93407      1853.460 7        42.965    22773314.476 6  93252937.93606      1853.387 6        40.944
C02        57.000                                                                                                                                    40861809.027 5 212778218.11005      -549.541 5        35.119    40861800.541 6 164533612.35706      -424.867 6        39.141    40861804.727 6 172899737.30906      -446.311 6        36.087
I03        58.000   101092716.089 6 320924304.46606       862.174 6        40.849
R07        59.000    20656429.622 8 110575554.77008     -2571.293 8        49.114                                                                    20656428.614 7  86003262.96407     -1999.879 7        45.698
> 2025 01 02 03 45 30.0000000  0 57
G09         1.000    20154533.180 8 105912822.93608      -226.163 8        50.589                                    20154530.103 8  82529478.71508      -176.233 8        53.227    20154530.095 7  82529478.71007      -176.182 7        45.956
G06         2.000    21352830.689 8 112209906.61608      -460.835 8        48.307                                    21352828.922 8  87436296.53008      -359.090 8        50.017    21352829.926 7  87436304.53307      -359.095 7        46.344
E11         3.000    25237840.184 6 132625766.18706      1040.863 6        41.938                                                                    25237835.661 7  99038712.88407       777.279 7        43.983    25237835.646 7 101622327.55807       797.607 7        44.662
G16         4.000    24461954.056 6 128548444.90906      1681.811 6        38.381                                    24461949.262 3 100167601.69903      1310.494 3        19.015
S21         5.000    38615286.875 7 202924408.92307      -474.048 7        43.223
E10         6.000    24294311.869 7 127667483.57607      -513.880 7        47.964                                                                    24294310.302 8  95336105.62808      -383.723 8        50.809    24294310.136 8  97823133.82008      -393.728 8        51.446
G20         7.000    24955254.510 6 131140747.38706      2967.008 6        38.408                                    24955249.441 3 102187574.29303      2311.958 3        18.597
G03         8.000    22598733.881 7 118757241.56907     -3434.242 7        43.488                                    22598731.451 6  92538151.01606     -2676.034 6        41.142    22598731.814 6  92538149.00706     -2676.005 6        41.094
R10         9.000    22514822.424 6 120016663.60506      3382.560 6        41.018
G31        10.000    25054085.327 6 131660111.56006     -4087.415 6        38.132                                    25054080.536 4 102592277.85204     -3185.003 4        29.820    25054080.442 5 102592282.84205     -3185.029 5        35.938
G30        11.000    25540727.125 6 134217427.20406      3205.777 6        38.075                                    25540725.255 5 104584998.31305      2498.003 5        30.853    25540725.635 5 104585006.33005      2497.818 5        35.038
S27        12.000    39244045.980 6 206228893.71506      -477.898 6        36.915
G26        13.000    24314684.605 6 127774538.40306      -542.036 6        38.357                                    24314684.013 5  99564582.50505      -422.366 5        31.049    24314683.863 6  99564582.49806      -422.301 6        36.681
S36        14.000    38382825.243 7 201703618.42507      -474.052 7        45.285
I09        15.000    37855090.035 7 148551503.61907      -692.098 7        42.629
G19        16.000    24762047.678 6 130125450.45506     -3571.340 6        38.186                                    24762041.699 3 101396436.52503     -2782.854 3        20.690
S45        17.000    63572055.461 6 334074398.50606      -514.374 6        37.921
E12        19.000    24541183.705 7 128964801.96507     -1921.723 7        44.867                                                                    24541179.607 7  96304873.91107     -1435.065 7        46.846    24541179.870 8  98817174.34208     -1472.456 8        48.041
E21        20.000    28565825.933 6 150114417.29106      2234.556 6        36.261                                                                    28565826.081 6 112098441.31506      1668.634 6        40.262    28565825.430 6 115022745.05006      1712.373 6        40.355
G11        21.000    23258046.941 7 122221876.71407      1964.360 7        43.761                                    23258042.746 5  95237808.08705      1530.669 5        30.528    23258043.080 7  95237821.08007      1530.768 7        42.857
I06        22.000    38174965.855 7 149807009.89007      -306.640 7        42.916
S28        23.000    41045597.379 5 215696092.60005      -471.204 5        35.071
R08        24.000    19904531.459 8 106587903.29808       403.737 8        50.796                                                                    19904528.854 7  82901707.33607       314.030 7        47.748
S23        25.000    38325025.041 7 201399368.45807      -470.066 7        45.083
R01        26.000    23422190.074 6 125205029.54806      2742.475 6        41.585                                                                    23422189.424 5  97381681.67605      2132.844 5        35.314
R16        27.000    23120760.744 7 123506963.94507     -3018.215 7        44.352                                                                    23120759.137 6  96060973.97806     -2347.592 6        40.756
R24        29.000    21912636.191 8 117176721.56708      1583.123 8        48.507                                                                    21912634.466 7  91137438.28307      1231.330 7        43.983
E19        30.000    23135186.695 7 121576260.77907     -1064.259 7        43.208                                                                    23135183.920 7  90787470.40307      -794.874 7        45.958    23135183.972 7  93155835.88807      -815.526 7        47.265
C23        31.000                                                                                                                                    24769737.801 7 128982534.36907     -1216.147 7        44.581                                                                    24769728.597 7 104808842.48907      -988.391 7        46.164
R23        32.000    20803329.261 8 111283800.39108     -2897.164 8        48.501
E29        33.000    26023450.557 7 136754238.48607     -2787.510 7        42.918                                                                    26023448.499 7 102121686.57707     -2081.551 7        46.126    26023448.136 7 104785725.06007     -2135.857 7        46.429
E04        34.000    25313629.108 7 133024054.83007      1533.768 7        44.558                                                                    25313626.917 7  99336156.14807      1145.321 7        47.791    25313626.638 8 101927529.62108      1175.229 8        48.772
C16        35.000                                                                                                                                    39589859.863 6 206154819.94906     -1356.129 6        41.170    39589859.283 7 159411996.43107     -1048.586 7        42.315    39589856.624 6 167517678.57706     -1102.074 6        38.565
C32        36.000                                                                                                                                    24268518.345 7 126372598.40607     -2762.722 7        46.368                                                                    24268517.937 7 102688108.90107     -2245.092 7        47.162
I01        37.000   381880116.613 7 195438793.42207     -2798.116 7        42.671
E27        38.000    27841914.611 6 146310250.10906       826.673 6        38.192                                                                    27841914.082 6 109257665.21306       617.345 6        41.416    27841913.347 6 112107861.51506       633.408 6        41.719
C19        39.000                                                                                                                                    24312337.109 7 126600721.95907      1843.637 7        45.889                                                                    24312331.903 7 102873434.65707      1497.920 7        46.763
C39        40.000                                                                                                                                    40346945.822 6 210097160.76806     -1617.231 6        40.408                                                                    40346941.518 6 170721148.14906     -1314.192 6        40.615
E33        41.000    27240371.640 6 143149201.94906     -3731.694 6        39.652                                                                    27240369.664 7 106897163.25907     -2786.573 7        43.674    27240369.160 7 109685780.95407     -2859.286 7        43.926
S44        42.000    40914354.153 6 215006595.10306      -549.199 6        37.599
R06        43.000    24414775.211 5 130281972.83005     -3838.710 5        31.887
C05        44.000                                                                                                                                    39338115.887 6 204843936.37806      -511.160 6        38.523    39338109.454 7 158398352.15007      -395.155 7        42.853    39338111.698 6 166452583.04506      -415.514 6        40.524
C29        45.000                                                                                                                                    24641658.050 7 128315600.39907     -3090.350 7        44.733                                                                    24641655.477 7 104266934.00907     -2511.298 7        44.707
G04        46.000    20766323.649 7 109127805.00007     -2018.041 7        46.532                                    20766320.259 6  85034639.99506     -1572.503 6        38.252    20766320.377 7  85034641.98507     -1572.438 7        47.371
E30        47.000    28983955.831 5 152311736.91505     -1345.325 5        35.881                                                                    28983955.715 6 113739276.66206     -1004.739 6        40.248    28983955.217 6 116706386.69706     -1030.830 6        41.137
R22        48.000    23166309.662 7 123663358.81707     -4932.269 7        43.522                                                                    23166307.839 6  96182608.63306     -3836.150 6        41.414
C20        49.000                                                                                                                                    22046194.607 8 114800349.22208      -268.039 8        52.064                                                                    22046188.509 8  93284672.01308      -217.938 8        49.764
C06        50.000                                                                                                                                    39025730.508 6 203217252.14306     -1318.325 6        40.286    39025724.508 7 157140453.87207     -1019.527 7        43.674    39025724.159 6 165130644.76606     -1071.587 6        40.677
S48        51.000    77357142.023 6 406513840.98906      -461.202 6        38.562
E06        52.000    27516331.725 6 144599317.52206      2084.612 6        39.721                                                                    27516331.207 6 107980020.00606      1556.685 6        41.201    27516330.798 6 110796888.10406      1597.412 6        41.459
C09        53.000                                                                                                                                    38772619.683 6 201899228.55006      -881.644 6        41.781    38772615.886 7 156121281.69907      -681.704 7        46.680    38772614.114 7 164059641.41907      -716.466 7        42.442
C60        54.000                                                                                                                                    40914356.874 6 213052009.23506      -544.193 6        39.210                                                                    40914341.176 6 173122181.17106      -442.312 6        40.753
R09        55.000    21304724.595 7 113766063.79507       670.682 7        47.853                                                                    21304722.945 7  88484710.99207       521.664 7        47.412
G07        56.000    22771055.878 7 119662725.35807      2377.054 7        46.500                                    22771051.388 7  93243665.09707      1852.250 7        42.857    22771051.612 6  93243674.09806      1852.279 6        41.364
C02        57.000                                                                                                                                    40862336.267 5 212780965.65705      -549.385 5        35.329    40862328.358 6 164535736.94906      -424.854 6        39.270    40862332.213 6 172901969.94906      -446.635 6        36.306
I03        58.000   101091617.639 6 320919994.12506       862.173 6        40.861
R07        59.000    20658832.905 8 110588415.03808     -2572.704 8        49.056                                                                    20658831.353 7  86013265.39407     -2000.968 7        46.275
> 2025 01 02 03 45 35.0000000  0 57
G09         1.000    20154749.667 8 105913959.19608      -228.489 8        50.622                                    20154746.328 8  82530364.11308      -178.042 8        53.306    20154746.681 7  82530364.11707      -178.044 7        45.834
G06         2.000    21353271.226 8 112212219.49908      -464.402 8        48.443                                    21353269.055 8  87438098.77908      -361.872 8        50.127    21353269.904 7  87438106.78407      -361.885 7        46.026
E11         3.000    25236850.818 7 132620566.93807      1038.774 7        42.009                                                                    25236846.281 7  99034830.32807       775.651 7        44.026    25236846.263 7 101618343.73307       795.798 7        44.777
G16         4.000    24460354.827 6 128540041.74906      1679.310 6        37.550                                    24460350.076 3 100161053.80703      1308.543 3        19.552
S21         5.000    38615739.331 7 202926778.78707      -474.093 7        42.663
E10         6.000    24294802.068 7 127670059.08907      -516.538 7        47.719                                                                    24294800.413 8  95338028.90008      -385.728 8        50.897    24294800.239 8  97825107.26208      -395.739 8        51.576
G20         7.000    24952431.961 6 131125912.60806      2966.498 6        36.994                                    24952426.452 3 102176014.72103      2311.566 3        18.418
G03         8.000    22602001.863 7 118774415.88007     -3435.703 7        43.494                                    22601999.558 6  92551533.59606     -2677.173 6        41.282    22601999.817 6  92551531.60206     -2677.094 6        40.195
R10         9.000    22511649.777 6 119999754.80306      3380.723 6        40.267
G31        10.000    25057974.809 6 131680551.88606     -4088.712 6        37.849                                    25057970.244 5 102608205.37205     -3186.007 5        30.023    25057970.745 6 102608210.36506     -3186.145 6        36.000
G30        11.000    25537676.699 6 134201398.46806      3205.676 6        38.048                                    25537675.009 5 104572508.39505      2497.930 5        30.740    25537675.193 5 104572516.38505      2498.097 5        34.962
S27        12.000    39244504.983 6 206231283.23606      -478.297 6        36.919
G26        13.000    24315201.887 6 127777256.38506      -545.368 6        37.917                                    24315201.277 5  99566700.41405      -424.961 5        31.004    24315200.388 6  99566700.41606      -425.132 6        36.488
S36        14.000    38383273.899 7 201705989.02507      -474.430 7        45.020
I09        15.000    37855971.529 7 148554963.64707      -692.186 7        42.603
G19        16.000    24765445.492 6 130143308.59406     -3572.045 6        38.970                                    24765439.774 3 101410351.94603     -2783.429 3        20.405
S45        17.000    63572503.831 6 334076970.65306      -514.617 6        37.592
E12        19.000    24543013.220 7 128974416.11207     -1924.115 7        45.049                                                                    24543009.143 7  96312053.30007     -1436.782 7        46.940    24543009.357 8  98824541.02208     -1474.329 8        48.198
E21        20.000    28563700.110 6 150103245.53106      2234.012 6        36.314                                                                    28563700.143 6 112090098.76806      1668.290 6        40.179    28563699.367 6 115014184.89806      1711.702 6        40.479
G11        21.000    23256178.765 7 122212060.93107      1961.779 7        44.406                                    23256174.825 5  95230159.43005      1528.662 5        30.717    23256174.795 7  95230172.41307      1528.663 7        42.131
I06        22.000    38175356.778 7 149808542.94107      -306.655 7        42.914
S28        23.000    41046047.806 5 215698447.98405      -471.205 5        35.229
R08        24.000    19904155.496 8 106585889.38708       401.706 8        51.031                                                                    19904152.237 7  82900140.96307       312.450 7        47.293
S23        25.000    38325472.717 7 201401718.66607      -470.269 7        45.090
R01        26.000    23419624.000 6 125191318.18706      2741.774 6        41.642                                                                    23419624.097 5  97371017.26705      2132.537 5        34.567
R16        27.000    23123585.854 7 123522063.81007     -3021.865 7        42.878                                                                    23123586.490 6  96072718.32706     -2350.263 6        40.794
R24        29.000    21911157.367 8 117168815.58108      1579.097 8        48.261                                                                    21911155.808 7  91131289.21107      1228.146 7        44.155
E19        30.000    23136199.906 7 121581585.57107     -1065.850 7        43.156                                                                    23136197.178 7  90791446.69607      -795.909 7        45.943    23136197.295 7  93159915.91707      -816.672 7        47.389
C23        31.000                                                                                                                                    24770906.934 7 128988621.81407     -1219.036 7        44.441                                                                    24770897.630 7 104813789.02407      -990.575 7        46.063
R23        32.000    20806038.583 8 111298295.73308     -2901.220 8        49.010
E29        33.000    26026103.110 7 136768177.04107     -2788.030 7        43.109                                                                    26026100.861 7 102132095.24807     -2082.018 7        46.127    26026100.503 7 104796405.26807     -2136.380 7        46.519
E04        34.000    25312170.394 7 133016388.62607      1532.611 7        44.781                                                                    25312168.045 7  99330431.38107      1144.492 7        47.805    25312167.802 8 101921655.51108      1174.354 8        48.966
C16        35.000                                                                                                                                    39591162.408 6 206161601.15506     -1356.570 6        41.142    39591161.556 7 159417240.08507     -1048.935 7        42.444    39591158.887 6 167523188.87206     -1102.295 6        38.501
C32        36.000                                                                                                                                    24271171.256 7 126386413.80507     -2763.584 7        46.577                                                                    24271171.061 7 102699335.03407     -2245.625 7        47.126
I01        37.000   381883681.629 7 195452783.53407     -2798.216 7        42.512
E27        38.000    27841129.078 6 146306121.79206       824.597 6        37.970                                                                    27841128.539 6 109254582.38306       615.714 6        41.433    27841127.720 6 112104698.26006       631.774 6        41.967
C19        39.000                                                                                                                                    24310567.050 7 126591505.44407      1842.839 7        46.006                                                                    24310561.924 7 102865945.48407      1497.405 7        46.653
C39        40.000                                                                                                                                    40348498.950 6 210105246.83606     -1617.356 6        40.422                                                                    40348494.370 6 170727718.75406     -1314.357 6        40.269
E33        41.000    27243922.313 6 143167860.98206     -3732.100 6        39.390                                                                    27243920.288 7 106911096.94607     -2786.967 7        43.632    27243919.845 7 109700078.14007     -2859.815 7        44.265
S44        42.000    40914877.681 6 215009340.72306      -549.210 6        37.474
R06        43.000    24418374.563 5 130301167.24105     -3838.942 5        31.623
C05        44.000                                                                                                                                    39338606.513 6 204846492.00706      -511.243 6        38.811    39338600.210 7 158400328.33807      -395.296 7        42.844    39338602.472 6 166454659.72006      -415.489 6        40.312
C29        45.000                                                                                                                                    24644625.997 7 128331055.48707     -3091.876 7        45.347                                                                    24644623.397 7 104279492.53107     -2512.393 7        44.454
G04        46.000    20768244.670 7 109137899.47507     -2019.947 7        46.563                                    20768241.170 6  85042505.81606     -1573.985 6        38.270    20768241.238 7  85042507.81007     -1573.979 7        47.096
E30        47.000    28985236.967 5 152318469.55605     -1347.806 5        35.862                                                                    28985236.892 6 113744304.27406     -1006.467 6        40.586    28985236.455 6 116711545.46506     -1032.714 6        41.352
R22        48.000    23170930.951 7 123688021.97007     -4933.106 7        44.229                                                                    23170927.565 6  96201791.07706     -3836.976 6        40.825
C20        49.000                                                                                                                                    22046452.886 8 114801692.92608      -269.601 8        52.038                                                                    22046446.532 8  93285763.88108      -219.067 8        49.586
C06        50.000                                                                                                                                    39026997.122 6 203223845.21206     -1318.849 6        39.841    39026990.870 7 157145552.05707     -1019.879 7        43.664    39026990.271 6 165136002.16006     -1071.725 6        40.508
S48        51.000    77357584.678 6 406516147.13706      -461.344 6        38.090
E06        52.000    27514348.115 6 144588895.54706      2084.028 6        39.763                                                                    27514347.826 6 107972237.36806      1556.221 6        41.385    27514347.622 6 110788902.44506      1596.734 6        41.635
C09        53.000                                                                                                                                    38773466.509 6 201903637.99606      -882.422 6        41.905    38773462.572 7 156124691.35907      -682.266 7        46.736    38773460.872 7 164063224.44007      -716.844 7        42.233
C60        54.000                                                                                                                                    40914879.459 6 213054729.90306      -544.497 6        39.240                                                                    40914863.810 6 173124391.92806      -442.183 6        40.834
R09        55.000    21304097.843 7 113762720.93307       666.252 7        47.512                                                                    21304096.213 7  88482110.98807       518.189 7        46.723
G07        56.000    22768795.213 7 119650844.01007      2375.349 7        45.985                                    22768790.536 7  93234406.90907      1850.923 7        42.927    22768791.039 6  93234415.91206      1850.986 6        41.890
C02        57.000                                                                                                                                    40862864.209 5 212783712.85505      -549.411 5        35.029    40862855.800 6 164537861.24506      -424.920 6        39.225    40862859.792 5 172904202.27205      -446.642 5        35.890
I03        58.000   101090519.217 6 320915683.56606       862.013 6        40.691
R07        59.000    20661236.711 8 110601282.03008     -2574.243 8        49.678                                                                    20661234.682 7  86023273.04407     -2002.192 7        46.072
> 2025 01 02 03 45 40.0000000  0 57
G09         1.000    20154967.954 8 105915106.53108      -230.557 8        50.558                                    20154964.660 8  82531258.14008      -179.656 8        53.278    20154964.583 7  82531258.14007      -179.656 7        45.663
G06         2.000    21353714.309 8 112214549.22008      -467.564 8        48.350                                    21353712.381 8  87439914.14508      -364.336 8        50.106    21353712.978 7  87439922.14207      -364.367 7        45.964
E11         3.000    25235863.541 6 132615377.69606      1036.914 6        41.788                                                                    25235858.758 7  99030955.24607       774.255 7        43.996    25235858.795 7 101614367.55307       794.482 7        44.787
G16         4.000    24458757.506 6 128531649.64706      1677.351 6        37.474                                    24458753.121 3 100154514.51203      1307.023 3        19.731
S21         5.000    38616188.041 7 202929148.76607      -473.999 7        42.487
E10         6.000    24295294.453 7 127672646.73207      -518.747 7        47.962                                                                    24295292.729 8  95339961.23008      -387.401 8        50.834    24295292.651 8  97827090.00008      -397.463 8        51.605
G20         7.000    24949608.790 6 131111077.94306      2967.071 6        38.006                                    24949603.449 3 102164455.25303      2312.007 3        18.119
G03         8.000    22605271.198 7 118791596.46707     -3436.791 7        43.700                                    22605268.851 6  92564921.06406     -2678.023 6        41.313    22605269.602 6  92564919.06206     -2677.893 6        40.083
R10         9.000    22508478.468 6 119982854.89406      3378.951 6        40.410
G31        10.000    25061865.999 6 131700997.70906     -4089.617 6        38.195                                    25061861.025 5 102624137.17305     -3186.715 5        30.075    25061861.453 6 102624142.18006     -3186.704 6        36.363
G30        11.000    25534626.592 6 134185369.18906      3205.789 6        37.913                                    25534624.661 5 104560018.05105      2498.012 5        30.468    25534625.238 5 104560026.06505      2498.027 5        35.300
S27        12.000    39244955.477 6 206233673.68206      -478.385 6        36.749
G26        13.000    24315721.532 6 127779989.96606      -548.246 6        37.304                                    24315721.296 5  99568830.47805      -427.207 5        30.830    24315721.448 6  99568830.49606      -427.133 6        36.310
S36        14.000    38383725.662 7 201708359.93707      -474.064 7        44.928
I09        15.000    37856853.266 7 148558424.08007      -692.186 7        42.573
G19        16.000    24768844.777 6 130161169.68406     -3572.534 6        39.637                                    24768838.275 3 101424269.69103     -2783.794 3        20.690
S45        17.000    63572950.456 6 334079542.63606      -514.273 6        37.902
E12        19.000    24544845.002 7 128984041.10507     -1926.056 7        45.093                                                                    24544840.701 7  96319240.79107     -1438.261 7        46.928    24544840.932 8  98831916.01308     -1475.785 8        48.133
E21        20.000    28561574.029 6 150092074.97006      2233.995 6        36.405                                                                    28561574.301 6 112081757.12106      1668.402 6        40.255    28561573.716 6 115005625.63206      1711.806 6        40.491
G11        21.000    23254313.137 7 122202256.94107      1959.676 7        44.051                                    23254309.277 5  95222519.95805      1527.020 5        30.755    23254308.891 6  95222532.96206      1527.049 6        41.783
I06        22.000    38175747.330 7 149810076.00407      -306.571 7        43.033
S28        23.000    41046495.334 5 215700802.91905      -470.989 5        34.810
R08        24.000    19903781.387 8 106583884.88008       400.038 8        51.123                                                                    19903778.017 7  82898581.89707       311.085 7        47.311
S23        25.000    38325918.672 7 201404068.52307      -470.090 7        44.783
R01        26.000    23417059.741 6 125177609.08106      2741.695 6        41.890                                                                    23417059.655 5  97360354.61505      2132.569 5        34.609
R16        27.000    23126414.978 7 123537181.08007     -3025.220 7        42.997                                                                    23126416.287 6  96084476.19906     -2352.830 6        41.046
R24        29.000    21909682.327 8 117160929.36908      1575.296 8        48.527                                                                    21909682.198 7  91125155.47407      1225.305 7        44.596
E19        30.000    23137214.482 7 121586916.73607     -1066.821 7        43.405                                                                    23137211.649 7  90795427.76507      -796.682 7        45.916    23137211.720 7  93164000.84107      -817.427 7        47.432
C23        31.000                                                                                                                                    24772078.595 7 128994722.75507     -1221.598 7        44.760                                                                    24772069.283 7 104818746.54507      -992.754 7        46.123
R23        32.000    20808752.221 8 111312810.38808     -2904.844 8        48.508
E29        33.000    26028755.568 7 136782117.57507     -2788.265 7        42.787                                                                    26028753.596 7 102142505.38007     -2082.151 7        46.010    26028753.449 7 104807086.96607     -2136.477 7        46.495
E04        34.000    25310712.605 7 133008727.21107      1531.832 7        44.795                                                                    25310710.110 7  99324710.21107      1143.908 7        47.811    25310709.911 8 101915785.09108      1173.733 8        48.989
C16        35.000                                                                                                                                    39592464.339 6 206168383.86706     -1356.647 6        40.982    39592464.071 7 159422484.91107     -1049.134 7        42.370    39592461.577 6 167528700.37906     -1102.701 6        38.483
C32        36.000                                                                                                                                    24273824.981 7 126400232.76107     -2764.112 7        47.327                                                                    24273824.863 7 102710564.08307     -2246.206 7        47.181
I01        37.000   381887246.587 7 195466774.08107     -2798.168 7        42.574
E27        38.000    27840345.219 6 146302003.32806       822.805 6        37.607                                                                    27840344.670 6 109251506.90506       614.403 6        41.342    27840344.182 7 112101542.56107       630.393 7        42.154
C19        39.000                                                                                                                                    24308797.855 7 126582292.10207      1842.395 7        46.057                                                                    24308792.639 7 102858458.89007      1496.925 7        46.708
C39        40.000                                                                                                                                    40350051.916 6 210113333.67106     -1617.392 6        40.465                                                                    40350047.423 6 170734289.96706     -1314.422 6        40.310
E33        41.000    27247473.289 6 143186522.11506     -3732.387 6        39.258                                                                    27247471.390 7 106925032.20307     -2787.223 7        43.661    27247471.145 7 109714376.92407     -2859.957 7        44.349
S44        42.000    40915399.108 6 215012086.06706      -548.957 6        37.652
R06        43.000    24421971.158 5 130320361.69805     -3838.957 5        32.084
C05        44.000                                                                                                                                    39339097.394 6 204849047.50206      -510.888 6        38.799    39339090.989 7 158402304.40807      -395.161 7        42.792    39339093.238 6 166456736.27006      -415.498 6        40.224
C29        45.000                                                                                                                                    24647595.551 7 128346517.26907     -3093.042 7        45.275                                                                    24647592.654 7 104292056.50207     -2513.463 7        44.504
G04        46.000    20770167.629 7 109148002.79507     -2021.504 7        46.672                                    20770163.766 6  85050378.53106     -1575.197 6        38.264    20770163.627 7  85050380.53007     -1575.268 7        46.601
E30        47.000    28986520.395 6 152325213.22906     -1349.820 6        36.147                                                                    28986520.123 6 113749340.13106     -1008.012 6        40.579    28986519.725 6 116716712.69406     -1034.302 6        41.385
R22        48.000    23175551.919 7 123712688.55407     -4933.581 7        44.445                                                                    23175548.786 6  96220976.18406     -3837.332 6        40.617
C20        49.000                                                                                                                                    22046712.295 8 114803043.63108      -270.789 8        51.959                                                                    22046705.876 8  93286861.43208      -220.123 8        49.606
C06        50.000                                                                                                                                    39028263.016 6 203230440.06006     -1319.145 6        39.973    39028257.138 7 157150651.59807     -1019.882 7        43.587    39028256.778 6 165141361.02006     -1072.126 6        40.582
S48        51.000    77358027.583 6 406518452.99606      -461.139 6        38.141
E06        52.000    27512365.654 6 144578475.98106      2083.677 6        39.673                                                                    27512365.055 6 107964456.51806      1556.099 6        41.437    27512364.740 6 110780918.61406      1596.622 6        41.554
C09        53.000                                                                                                                                    38774313.813 6 201908049.85806      -882.583 6        41.878    38774309.855 7 156128102.88607      -682.514 7        46.390    38774308.250 7 164066809.46507      -717.369 7        42.256
C60        54.000                                                                                                                                    40915402.201 6 213057450.29906      -544.154 6        39.312                                                                    40915386.033 6 173126602.47406      -442.163 6        40.756
R09        55.000    21303475.812 7 113759399.22407       662.289 7        47.908                                                                    21303474.632 7  88479527.44007       515.063 7        47.180
G07        56.000    22766535.541 7 119638970.09207      2374.106 7        45.728                                    22766531.030 7  93225154.50207      1849.948 7        42.906    22766531.154 6  93225163.50906      1850.072 6        40.984
C02        57.000                                                                                                                                    40863390.635 5 212786459.84305      -549.470 5        35.071    40863383.710 6 164539985.39006      -424.803 6        39.264    40863387.399 6 172906434.41806      -446.428 6        36.072
I03        58.000   101089420.538 6 320911372.93406       862.216 6        40.925
R07        59.000    20663641.108 8 110614155.66708     -2575.350 8        49.387                                                                    20663639.335 7  86033285.88707     -2003.051 7        46.420
> 2025 01 02 03 45 45.0000000  0 57
G09         1.000    20155188.226 8 105916264.80808      -232.777 8        50.491                                    20155185.070 8  82532160.69508      -181.383 8        53.327    20155185.245 7  82532160.69407      -181.365 7        45.517
G06         2.000    21354160.911 8 112216895.66608      -470.955 8        48.261                                    21354158.895 8  87441742.54608      -366.976 8        50.131    21354159.284 7  87441750.54407      -366.994 7        45.970
E11         3.000    25234877.861 7 132610198.36207      1034.740 7        42.080                                                                    25234873.173 7  99027087.56007       772.754 7        43.826    25234873.189 7 101610398.97407       792.951 7        44.956
G16         4.000    24457163.347 6 128523268.53606      1674.955 6        37.399                                    24457158.330 3 100147983.78003      1305.159 3        20.190
S21         5.000    38616637.452 7 202931518.63707      -473.972 7        42.320
E10         6.000    24295789.047 8 127675246.39908      -521.270 8        48.130                                                                    24295787.492 8  95341902.54208      -389.192 8        50.720    24295787.350 8  97829081.96008      -399.357 8        51.657
G20         7.000    24946786.572 6 131096243.45506      2966.771 6        38.673                                    24946780.662 3 102152895.92403      2311.749 3        18.000
G03         8.000    22608541.419 7 118808783.21407     -3438.135 7        43.668                                    22608539.405 6  92578313.33006     -2679.064 6        41.364    22608540.271 6  92578311.32406     -2678.988 6        40.594
R10         9.000    22505309.906 6 119965964.00706      3377.086 6        40.434
G31        10.000    25065757.976 6 131721448.92506     -4090.822 6        38.321                                    25065752.929 5 102640073.17705     -3187.656 5        30.083    25065753.709 6 102640078.19206     -3187.863 6        36.189
G30        11.000    25531576.133 6 134169339.29406      3205.929 6        37.868                                    25531574.272 5 104547527.22805      2498.128 5        30.445    25531574.526 5 104547535.24005      2498.322 5        34.924
S27        12.000    39245412.472 6 206236065.02606      -478.465 6        36.442
G26        13.000    24316245.391 6 127782739.14506      -551.362 6        37.728                                    24316244.355 5  99570972.69605      -429.628 5        30.619    24316244.225 6  99570972.67506      -429.619 6        36.140
S36        14.000    38384176.755 7 201710730.85107      -474.252 7        44.801
I09        15.000    37857735.381 7 148561884.82607      -692.213 7        42.567
G19        16.000    24772244.944 6 130179033.60606     -3573.097 6        39.730                                    24772237.549 3 101438189.62103     -2784.221 3        21.286
S45        17.000    63573397.239 6 334080514.29416      -514.424 6        37.921
E12        19.000    24546678.576 7 128993676.87707     -1928.381 7        45.225                                                                    24546674.327 7  96326436.33107     -1439.920 7        46.766    24546674.556 8  98839299.26308     -1477.513 8        48.223
E21        20.000    28559448.854 6 150080905.50506      2233.733 6        36.620                                                                    28559448.812 6 112073416.30206      1667.982 6        40.296    28559448.312 6 114997067.23206      1711.533 6        40.586
G11        21.000    23252449.320 7 122192464.66807      1957.239 7        43.917                                    23252445.858 5  95214889.61505      1525.122 5        30.770    23252445.930 6  95214902.61706      1525.057 6        41.752
I06        22.000    38176137.817 7 149811608.98507      -306.706 7        42.969
S28        23.000    41046942.219 5 215703157.71305      -470.913 5        34.533
R08        24.000    19903408.768 8 106581889.67508       398.023 8        51.438                                                                    19903405.370 7  82897030.06307       309.588 7        46.766
S23        25.000    38326367.695 7 201406418.21207      -469.939 7        44.665
R01        26.000    23414496.299 6 125163902.09606      2741.009 6        41.900                                                                    23414495.214 5  97349693.64605      2131.733 5        34.243
R16        27.000    23129250.594 7 123552315.42707     -3028.712 7        43.520                                                                    23129249.454 6  96096247.33506     -2355.657 6        41.554
R24        29.000    21908211.789 7 117153062.71707      1571.316 7        47.604                                                                    21908210.431 7  91119036.97907      1222.101 7        43.812
E19        30.000    23138229.980 7 121592254.07507     -1068.179 7        43.405                                                                    23138227.314 7  90799413.43607      -797.659 7        45.691    23138227.346 7  93168090.49007      -818.462 7        47.452
C23        31.000                                                                                                                                    24773252.584 7 129000837.11507     -1224.254 7        45.291                                                                    24773243.547 7 104823714.95907      -994.753 7        46.005
R23        32.000    20811469.372 8 111327344.32908     -2908.779 8        48.630
E29        33.000    26031408.612 7 136796059.96107     -2788.754 7        42.461                                                                    26031406.627 7 102152916.90407     -2082.471 7        45.837    26031406.743 7 104817770.08507     -2136.747 7        46.577
E04        34.000    25309255.303 7 133001070.54707      1530.795 7        44.921                                                                    25309253.054 7  99318992.56207      1143.113 7        47.675    25309252.872 8 101909918.28908      1172.942 8        49.020
C16        35.000                                                                                                                                    39593767.170 6 206175167.96506     -1356.913 6        40.992    39593766.602 7 159427730.81107     -1049.394 7        42.665    39593764.364 6 167534213.00006     -1102.541 6        38.264
C32        36.000                                                                                                                                    24276479.885 7 126414055.20207     -2764.954 7        47.704                                                                    24276479.257 7 102721795.94507     -2246.575 7        47.040
I01        37.000   381890812.081 7 195480765.07707     -2798.365 7        42.491
E27        38.000    27839563.321 6 146297894.61506       820.613 6        37.304                                                                    27839562.770 6 109248438.71506       612.857 6        41.218    27839562.383 7 112098394.32907       628.856 7        42.368
C19        39.000                                                                                                                                    24307028.831 7 126573081.85307      1841.672 7        45.974                                                                    24307023.917 7 102850974.79507      1496.673 7        46.500
C39        40.000                                                                                                                                    40351604.904 6 210121421.11306     -1617.634 6        40.408                                                                    40351600.461 6 170740861.66906     -1314.392 6        40.086
E33        41.000    27251024.813 6 143205185.20206     -3732.998 6        39.529                                                                    27251022.827 7 106938968.92107     -2787.513 7        43.416    27251022.728 7 109728677.21807     -2860.285 7        44.578
S44        42.000    40915923.259 6 215014831.05706      -549.169 6        37.369
R06        43.000    24425567.450 5 130339555.94605     -3838.587 5        31.947
C05        44.000                                                                                                                                    39339588.464 6 204851602.75506      -511.124 6        38.775    39339581.597 7 158404280.29307      -395.208 7        42.859    39339583.967 6 166458812.61106      -415.183 6        40.119
C29        45.000                                                                                                                                    24650566.038 7 128361985.66607     -3094.419 7        44.871                                                                    24650563.219 7 104304625.82207     -2514.301 7        44.352
G04        46.000    20772091.876 7 109158114.86307     -2023.338 7        46.568                                    20772088.075 6  85058258.06306     -1576.627 6        38.390    20772087.972 7  85058260.05407     -1576.645 7        46.790
E30        47.000    28987806.360 5 152331967.83005     -1352.043 5        35.833                                                                    28987805.577 6 113754384.14506     -1009.717 6        40.346    28987805.148 6 116721888.29806     -1035.849 6        41.452
R22        48.000    23180173.037 7 123737358.41207     -4934.394 7        44.385                                                                    23180170.998 6  96240163.86706     -3837.844 6        40.684
C20        49.000                                                                                                                                    22046972.957 8 114804401.23708      -272.273 8        51.931                                                                    22046966.624 8  93287964.59308      -221.154 8        49.443
C06        50.000                                                                                                                                    39029529.690 6 203237036.59506     -1319.464 6        39.751    39029523.835 7 157155752.46407     -1020.258 7        43.699    39029523.694 6 165146721.22606     -1072.085 6        40.381
S48        51.000    77358469.165 6 406520758.60606      -461.178 6        37.690
E06        52.000    27510383.192 6 144568058.70606      2083.061 6        39.817                                                                    27510382.711 6 107956677.39206      1555.660 6        41.213    27510382.221 6 110772936.55806      1596.221 6        41.361
C09        53.000                                                                                                                                    38775161.664 7 201912463.99207      -883.105 7        42.161    38775157.561 7 156131516.18307      -682.864 7        46.453    38775155.853 7 164070396.29307      -717.505 7        42.163
C60        54.000                                                                                                                                    40915924.334 6 213060170.31006      -544.070 6        39.345                                                                    40915908.547 6 173128812.69706      -441.838 6        40.513
R09        55.000    21302857.704 7 113756098.33907       657.963 7        47.825                                                                    21302856.574 7  88476960.07107       511.816 7        46.711
G07        56.000    22764277.511 7 119627103.54907      2372.488 7        46.250                                    22764272.838 7  93215907.85307      1848.693 7        42.971    22764272.760 6  93215916.85506      1848.695 6        41.204
C02        57.000                                                                                                                                    40863918.425 5 212789206.58505      -549.400 5        35.048    40863910.387 6 164542109.33706      -424.728 6        39.030    40863914.787 5 172908666.36605      -446.367 5        35.971
I03        58.000   101088322.286 6 320907062.15006       862.174 6        40.720
R07        59.000    20666047.169 8 110627036.14708     -2576.783 8        48.902                                                                    20666045.565 7  86043304.03207     -2004.181 7        46.056
> 2025 01 02 03 45 50.0000000  0 57
G09         1.000    20155410.686 8 105917434.18908      -234.896 8        50.518                                    20155407.596 8  82533071.90108      -183.036 8        53.299    20155407.638 7  82533071.91207      -183.075 7        45.228
G06         2.000    21354610.434 8 112219259.00408      -474.261 8        48.167                                    21354608.615 8  87443584.10508      -369.553 8        50.133    21354609.359 7  87443592.10407      -369.494 7        46.222
E11         3.000    25233894.260 7 132605029.08307      1032.830 7        42.193                                                                    25233889.527 7  99023227.38807       771.331 7        43.987    25233889.441 7 101606438.09807       791.439 7        44.772
G16         4.000    24455570.461 6 128514898.52706      1672.922 6        37.769                                    24455565.498 3 100141461.71503      1303.582 3        19.701
S21         5.000    38617091.219 7 202933888.45907      -473.824 7        42.282
E10         6.000    24296286.209 8 127677858.23308      -523.505 8        48.148                                                                    24296284.472 8  95343852.94208      -390.958 8        50.846    24296284.373 8  97831083.23608      -401.109 8        51.506
G20         7.000    24943963.561 6 131081409.17406      2966.845 6        38.628                                    24943957.860 3 102141336.73403      2311.838 3        18.179
G03         8.000    22611813.384 7 118825976.23707     -3439.170 7        44.081                                    22611811.224 6  92591710.48606     -2679.872 6        41.397    22611812.007 6  92591708.49206     -2679.882 6        41.042
R10         9.000    22502143.274 6 119949082.08206      3375.513 6        40.043
G31        10.000    25069651.109 6 131741905.67806     -4091.834 6        38.550                                    25069645.789 5 102656013.49405     -3188.446 5        30.068    25069645.720 6 102656018.49006     -3188.510 6        36.174
G30        11.000    25528525.510 6 134153308.88106      3206.266 6        37.682                                    25528523.686 5 104535036.01405      2498.387 5        30.181    25528524.132 5 104535044.00305      2498.341 5        34.714
S27        12.000    39245867.866 6 206238454.65406      -478.099 6        36.484
G26        13.000    24316771.631 6 127785503.99106      -554.318 6        37.860                                    24316770.455 5  99573127.11605      -431.930 5        30.611    24316770.319 6  99573127.12706      -432.002 6        36.461
S36        14.000    38384626.833 7 201713100.66707      -474.028 7        44.928
I09        15.000    37858617.461 7 148565345.99907      -692.274 7        42.578
G19        16.000    24775644.256 6 130196900.49006     -3573.695 6        39.246                                    24775637.395 3 101452111.86903     -2784.705 3        20.667
S45        17.000    63573842.389 6 334083085.64106      -514.345 6        37.709
E12        19.000    24548514.187 7 129003323.54507     -1930.340 7        45.232                                                                    24548510.179 7  96333640.00607     -1441.375 7        46.940    24548510.284 8  98846690.86308     -1479.069 8        48.237
E21        20.000    28557323.870 6 150069737.28706      2233.682 6        36.911                                                                    28557323.659 6 112065076.41006      1667.897 6        40.167    28557322.983 6 114988509.77006      1711.439 6        40.517
G11        21.000    23250588.536 7 122182684.24007      1954.989 7        43.397                                    23250584.720 5  95207268.51005      1523.365 5        30.709    23250585.190 7  95207281.51707      1523.363 7        42.157
I06        22.000    38176528.650 7 149813141.97307      -306.544 7        43.022
S28        23.000    41047390.620 5 215705512.44905      -471.001 5        34.629
R08        24.000    19903038.051 8 106579903.92908       396.208 8        51.213                                                                    19903034.878 7  82895485.60407       308.126 7        47.188
S23        25.000    38326814.419 7 201408767.87907      -469.934 7        44.761
R01        26.000    23411931.438 6 125150197.37006      2740.655 6        41.666                                                                    23411931.355 5  97339034.40205      2131.498 5        35.138
R16        27.000    23132086.458 7 123567467.14907     -3032.125 7        43.706                                                                    23132085.561 6  96108032.02706     -2358.336 6        40.841
R24        29.000    21906744.248 8 117145215.73208      1567.423 8        48.757                                                                    21906742.688 7  91112933.74907      1219.197 7        43.477
E19        30.000    23139247.009 7 121597597.89007     -1069.307 7        43.456                                                                    23139244.219 7  90803403.94607      -798.494 7        45.887    23139244.320 7  93172185.10107      -819.356 7        47.374
C23        31.000                                                                                                                                    24774429.233 7 129006965.01907     -1226.886 7        45.601                                                                    24774420.446 7 104828694.40707      -996.948 7        45.863
R23        32.000    20814189.941 8 111341897.79508     -2912.584 8        48.990
E29        33.000    26034062.357 7 136810004.33907     -2789.017 7        42.330                                                                    26034060.189 7 102163329.90507     -2082.662 7        46.033    26034060.276 7 104828454.73707     -2137.088 7        46.515
E04        34.000    25307799.436 7 132993418.72707      1529.863 7        45.147                                                                    25307796.963 7  99313278.53807      1142.438 7        47.923    25307796.821 8 101904055.20608      1172.241 8        48.991
C16        35.000                                                                                                                                    39595069.951 6 206181953.60406     -1357.249 6        40.868    39595069.741 7 159432977.89207     -1049.476 7        42.715    39595067.292 6 167539726.90406     -1102.889 6        38.309
C32        36.000                                                                                                                                    24279135.068 7 126427881.26007     -2765.517 7        47.327                                                                    24279134.400 7 102733030.75807     -2247.243 7        46.923
I01        37.000   381894377.380 7 195494756.55607     -2798.276 7        42.491
E27        38.000    27838783.499 6 146293795.80906       818.612 6        38.096                                                                    27838782.591 6 109245377.90606       611.476 6        41.187    27838782.491 7 112095253.67107       627.468 7        42.237
C19        39.000                                                                                                                                    24305260.811 7 126563874.81307      1841.128 7        45.779                                                                    24305255.863 7 102843493.34807      1495.984 7        46.495
C39        40.000                                                                                                                                    40353158.077 6 210129509.34306     -1617.693 6        40.617                                                                    40353153.714 6 170747434.01306     -1314.467 6        40.074
E33        41.000    27254576.853 6 143223850.38306     -3733.121 6        39.510                                                                    27254574.633 7 106952907.21707     -2787.780 7        43.611    27254574.625 7 109742979.11007     -2860.471 7        44.596
S44        42.000    40916443.196 6 215017575.78706      -548.882 6        37.319
R06        43.000    24429163.861 5 130358750.19305     -3838.655 5        31.645
C05        44.000                                                                                                                                    39340079.059 6 204854157.89806      -510.950 6        38.742    39340072.367 7 158406256.09107      -395.113 7        42.936    39340074.651 6 166460888.88706      -415.169 6        40.215
C29        45.000                                                                                                                                    24653537.729 7 128377460.77707     -3095.626 7        44.998                                                                    24653535.079 7 104317200.63307     -2515.430 7        44.197
G04        46.000    20774017.580 7 109168235.80507     -2024.992 7        46.773                                    20774014.026 6  85066144.50906     -1577.914 6        38.345    20774014.086 7  85066146.50907     -1577.961 7        46.685
E30        47.000    28989093.217 5 152338733.51105     -1354.226 5        35.976                                                                    28989092.922 6 113759436.43506     -1011.267 6        40.338    28989092.727 6 116727072.38406     -1037.633 6        41.328
R22        48.000    23184794.734 7 123762031.69207     -4935.030 7        43.932                                                                    23184793.565 6  96259354.17306     -3838.318 6        41.659
C20        49.000                                                                                                                                    22047234.928 8 114805765.86208      -273.608 8        51.924                                                                    22047228.715 8  93289073.48008      -222.341 8        49.379
C06        50.000                                                                                                                                    39030796.598 6 203243634.97606     -1319.848 6        39.904    39030790.854 7 157160854.75707     -1020.632 7        43.881    39030790.885 6 165152082.96206     -1072.372 6        40.532
S48        51.000    77358911.489 6 406523064.17606      -460.818 6        37.720
E06        52.000    27508401.319 6 144557643.86406      2082.959 6        40.460                                                                    27508400.883 6 107948900.09306      1555.230 6        41.163    27508400.312 6 110764956.36106      1595.979 6        41.290
C09        53.000                                                                                                                                    38776010.107 7 201916880.58007      -883.548 7        42.210    38776005.691 7 156134931.35007      -683.209 7        46.473    38776004.052 7 164073985.14107      -717.944 7        42.076
C60        54.000                                                                                                                                    40916446.830 6 213062890.08306      -543.821 6        39.216                                                                    40916430.676 6 173131022.75906      -441.842 6        40.503
R09        55.000    21302243.186 8 113752818.47708       653.948 8        48.141                                                                    21302242.333 7  88474409.09107       508.571 7        45.973
G07        56.000    22762021.061 7 119615244.50607      2371.121 7        46.208                                    22762016.086 7  93206667.03807      1847.629 7        43.005    22762016.389 6  93206676.04106      1847.620 6        41.185
C02        57.000                                                                                                                                    40864446.251 5 212791953.17405      -549.475 5        34.852    40864438.454 6 164544233.16006      -424.737 6        39.174    40864442.183 5 172910898.17805      -446.216 5        35.571
I03        58.000   101087223.684 6 320902751.29206       862.376 6        40.839
R07        59.000    20668454.687 8 110639923.27408     -2578.098 8        49.227                                                                    20668453.227 7  86053327.34907     -2005.147 7        45.919
> 2025 01 02 03 45 55.0000000  0 57
G09         1.000    20155635.509 8 105918614.66608      -237.172 8        50.830                                    20155632.237 8  82533991.75308      -184.811 8        53.211    20155632.643 7  82533991.75607      -184.792 7        45.487
G06         2.000    21355063.600 8 112221639.19408      -477.704 8        48.106                                    21355061.550 8  87445438.79708      -372.238 8        50.038    21355062.366 7  87445446.80107      -372.217 7        46.081
E11         3.000    25232912.460 7 132599869.83707      1030.782 7        42.138                                                                    25232907.722 7  99019374.71507       769.709 7        43.645    25232907.708 7 101602484.92307       789.906 7        44.527
G16         4.000    24453979.707 6 128506539.71206      1670.469 6        38.565                                    24453974.835 3 100134948.36503      1301.670 3        19.672
S21         5.000    38617542.835 7 202936258.00007      -473.817 7        42.182
E10         6.000    24296785.576 8 127680482.25308      -526.003 8        48.080                                                                    24296783.819 8  95345812.43308      -392.808 8        50.569    24296783.704 8  97833093.84808      -403.031 8        51.359
G20         7.000    24941139.797 6 131066575.10206      2966.839 6        37.932                                    24941135.131 3 102129777.73003      2311.823 3        18.000
G03         8.000    22615086.521 7 118843175.57807     -3440.576 7        43.708                                    22615084.246 6  92605112.56706     -2680.967 6        41.273    22615084.787 6  92605110.55406     -2680.871 6        41.280
R10         9.000    22498977.879 6 119932209.07306      3373.667 6        39.393
G31        10.000    25073543.926 6 131762367.90606     -4092.980 6        38.375                                    25073539.692 4 102671958.08404     -3189.335 4        29.858    25073538.714 6 102671963.07006     -3189.349 6        36.200
G30        11.000    25525474.976 6 134137277.99506      3206.282 6        37.448                                    25525473.069 5 104522544.41605      2498.400 5        30.045    25525473.610 5 104522552.41705      2498.357 5        34.838
S27        12.000    39246322.702 6 206240843.19606      -478.066 6        36.707
G26        13.000    24317300.896 6 127788284.52006      -557.656 6        38.045                                    24317299.479 5  99575293.76105      -434.539 5        30.679    24317300.259 6  99575293.78106      -434.651 6        36.639
S36        14.000    38385080.850 7 201715470.07107      -473.897 7        44.834
I09        15.000    37859499.347 7 148568807.58607      -692.452 7        42.643
G19        16.000    24779044.108 6 130214770.32906     -3574.156 6        38.862                                    24779037.934 3 101466036.41403     -2785.041 3        21.119
S45        17.000    63574289.618 6 334085656.90506      -514.418 6        37.705
E12        19.000    24550352.175 7 129012981.09407     -1932.629 7        45.252                                                                    24550347.779 7  96340851.81707     -1443.123 7        46.763    24550348.066 7  98854090.80707     -1480.807 7        47.969
E21        20.000    28555198.487 6 150058570.34506      2233.151 6        36.888                                                                    28555198.443 6 112056737.46506      1667.663 6        40.036    28555198.127 6 114979953.29106      1711.140 6        40.424
G11        21.000    23248729.585 7 122172915.69707      1952.521 7        43.695                                    23248725.884 5  95199656.65505      1521.440 5        30.792    23248726.041 7  95199669.65307      1521.400 7        42.072
I06        22.000    38176919.123 7 149814675.00107      -306.714 7        43.200
S28        23.000    41047838.055 5 215707867.09105      -470.927 5        34.729
R08        24.000    19902668.284 8 106577927.64208       394.295 8        50.896                                                                    19902665.824 7  82893948.49507       306.692 7        47.103
S23        25.000    38327260.145 7 201411117.14907      -469.843 7        44.558
R01        26.000    23409368.550 6 125136494.80206      2740.276 6        40.818                                                                    23409369.241 5  97328376.87405      2131.396 5        34.429
R16        27.000    23134926.108 7 123582636.25407     -3035.531 7        43.564                                                                    23134925.461 6  96119830.22006     -2360.973 6        41.125
R24        29.000    21905281.409 8 117137388.52508      1563.414 8        48.757                                                                    21905279.798 7  91106845.93407      1216.043 7        44.777
E19        30.000    23140264.967 7 121602948.01707     -1070.828 7        43.410                                                                    23140262.275 7  90807399.16607      -799.523 7        45.500    23140262.374 7  93176284.54107      -820.372 7        47.199
C23        31.000                                                                                                                                    24775608.479 7 129013106.48107     -1229.711 7        45.818                                                                    24775599.824 7 104833684.84607      -999.268 7        46.051
R23        32.000    20816914.156 8 111356470.54008     -2916.480 8        48.674
E29        33.000    26036716.370 7 136823950.71907     -2789.628 7        42.063                                                                    26036714.167 7 102173744.40507     -2083.107 7        45.451    26036714.257 7 104839140.91507     -2137.407 7        46.427
E04        34.000    25306344.296 7 132985771.75207      1528.875 7        45.020                                                                    25306341.829 7  99307568.14307      1141.704 7        47.536    25306341.615 8 101898195.83908      1171.499 8        48.751
C16        35.000                                                                                                                                    39596373.639 6 206188740.75206     -1357.576 6        40.844    39596372.941 7 159438226.16007     -1049.777 7        42.781    39596370.733 6 167545242.02706     -1103.145 6        38.420
C32        36.000                                                                                                                                    24281790.831 7 126441710.92007     -2766.294 7        47.209                                                                    24281790.333 7 102744268.48607     -2247.820 7        47.117
I01        37.000   381897942.946 7 195508748.45807     -2798.498 7        42.639
E27        38.000    27838005.554 6 146289706.88306       816.679 6        38.489                                                                    27838004.625 6 109242324.50606       609.828 6        40.882    27838004.525 7 112092120.61807       625.804 7        42.209
C19        39.000                                                                                                                                    24303493.425 7 126554671.00307      1840.392 7        46.081                                                                    24303488.325 7 102836014.49807      1495.439 7        46.542
C39        40.000                                                                                                                                    40354711.609 6 210137598.33206     -1617.893 6        40.605                                                                    40354707.077 6 170754006.98906     -1314.705 6        40.234
E33        41.000    27258128.827 6 143242517.68106     -3733.795 6        39.357                                                                    27258126.977 7 106966847.07107     -2788.116 7        43.382    27258126.879 7 109757282.61107     -2860.822 7        44.415
S44        42.000    40916965.867 6 215020320.29606      -548.794 6        37.259
R06        43.000    24432761.386 5 130377944.38005     -3838.785 5        31.283
C05        44.000                                                                                                                                    39340569.403 6 204856712.94406      -511.069 6        38.874    39340563.230 7 158408231.81407      -395.196 7        42.967    39340565.322 6 166462965.06706      -415.174 6        40.246
C29        45.000                                                                                                                                    24656511.490 7 128392942.61207     -3097.027 7        44.579                                                                    24656508.159 7 104329780.89407     -2516.659 7        44.324
G04        46.000    20775945.594 7 109178365.61707     -2026.890 7        46.975                                    20775941.684 6  85074037.86806     -1579.396 6        38.222    20775941.938 7  85074039.85507     -1579.271 7        47.236
E30        47.000    28990382.459 5 152345510.22505     -1356.500 5        35.767                                                                    28990382.539 6 113764496.96906     -1012.916 6        40.093    28990382.163 6 116732264.93106     -1039.399 6        41.170
R22        48.000    23189416.947 7 123786708.37107     -4935.663 7        43.069                                                                    23189416.359 7  96278547.15107     -3838.835 7        42.411
C20        49.000                                                                                                                                    22047498.447 8 114807137.53008      -275.095 8        52.055                                                                    22047492.088 8  93290188.07508      -223.522 8        49.462
C06        50.000                                                                                                                                    39032064.529 6 203250235.16706     -1320.235 6        39.802    39032058.280 7 157165958.45107     -1020.864 7        43.697    39032058.351 6 165157446.18006     -1072.966 6        40.443
S48        51.000    77359353.522 6 406525369.08106      -460.772 6        37.735
E06        52.000    27506420.054 6 144547231.48706      2082.036 6        39.952                                                                    27506419.221 6 107941124.61606      1554.880 6        41.032    27506419.018 6 110756978.05706      1595.487 6        41.051
C09        53.000                                                                                                                                    38776858.684 7 201921299.59707      -884.100 7        42.345    38776854.583 7 156138348.43507      -683.649 7        46.667    38776852.621 7 164077575.97607      -718.506 7        42.195
C60        54.000                                                                                                                                    40916968.508 6 213065609.64706      -543.944 6        39.294                                                                    40916952.894 6 173133232.62806      -441.991 6        40.610
R09        55.000    21301633.328 7 113749559.59707       649.674 7        47.988                                                                    21301631.701 7  88471874.38607       505.322 7        45.830
G07        56.000    22759765.633 7 119603392.99507      2369.529 7        46.190                                    22759760.801 7  93197432.09207      1846.388 7        42.944    22759761.089 6  93197441.10206      1846.314 6        40.944
C02        57.000                                                                                                                                    40864974.037 5 212794699.54605      -549.444 5        35.348    40864965.663 6 164546356.83606      -424.743 6        39.294    40864969.620 5 172913129.82605      -446.401 5        35.548
I03        58.000   101086124.733 6 320898440.39506       862.243 6        41.018
R07        59.000    20670864.205 8 110652817.32408     -2579.512 8        49.938                                                                    20670862.032 7  86063356.05707     -2006.300 7        46.457
> 2025 01 02 03 46  0.0000000  0 57
G09         1.000    20155862.308 8 105919806.43708      -239.654 8        50.927                                    20155859.020 8  82534920.40708      -186.742 8        53.244    20155859.398 7  82534920.41607      -186.803 7        45.594
G06         2.000    21355519.436 8 112224036.47208      -481.270 8        48.372                                    21355517.740 8  87447306.81008      -375.014 8        50.081    21355518.348 7  87447314.81407      -375.147 7        45.863
E11         3.000    25231932.328 7 132594720.87007      1028.532 7        42.487                                                                    25231927.985 7  99015529.70407       768.050 7        43.687    25231927.877 7 101598539.60207       788.180 7        44.631
G16         4.000    24452391.009 6 128498192.24106      1668.368 6        38.538                                    24452386.398 3 100128443.84503      1300.025 3        19.940
S21         5.000    38617992.251 7 202938627.52507      -473.978 7        42.368
E10         6.000    24297287.177 8 127683118.64108      -528.679 8        48.291                                                                    24297285.502 8  95347781.16508      -394.816 8        50.598    24297285.355 8  97835113.93708      -405.115 8        51.391
G20         7.000    24938317.193 6 131051741.52006      2966.394 6        38.520                                    24938312.365 3 102118219.11203      2311.453 3        18.209
G03         8.000    22618360.600 7 118860381.39207     -3442.013 7        43.644                                    22618358.426 6  92618519.69406     -2682.086 6        41.237    22618358.614 6  92618517.69006     -2681.962 6        40.727
R10         9.000    22495814.030 6 119915345.01706      3371.623 6        40.229
G31        10.000    25077438.882 6 131782835.81406     -4094.341 6        38.664                                    25077434.649 4 102687907.10404     -3190.395 4        29.488    25077433.949 5 102687912.09705     -3190.238 5        35.881
G30        11.000    25522423.839 6 134121246.84706      3206.262 6        37.353                                    25522422.488 4 104510052.61804      2498.386 4        29.934    25522422.710 5 104510060.62505      2498.367 5        34.838
S27        12.000    39246775.329 6 206243231.88306      -478.134 6        36.495
G26        13.000    24317832.802 6 127791080.95706      -561.039 6        38.886                                    24317831.673 5  99577472.80605      -437.174 5        31.026    24317831.951 6  99577472.80606      -437.278 6        36.242
S36        14.000    38385530.686 7 201717839.34507      -474.204 7        44.900
I09        15.000    37860381.504 7 148572269.73907      -692.596 7        42.669
G19        16.000    24782446.073 6 130232643.27106     -3575.073 6        38.408                                    24782439.260 3 101479963.37203     -2785.769 3        20.881
S45        17.000    63574737.912 6 334088228.09806      -514.275 6        37.743
E12        19.000    24552191.998 7 129022649.72707     -1935.033 7        45.463                                                                    24552187.788 7  96348071.90707     -1444.995 7        46.567    24552187.955 7  98861499.24207     -1482.694 7        47.990
E21        20.000    28553073.865 6 150047404.84306      2232.881 6        36.756                                                                    28553073.785 6 112048399.59706      1667.335 6        39.922    28553073.320 6 114971397.90906      1710.778 6        40.572
G11        21.000    23246873.503 7 122163159.22807      1949.868 7        43.822                                    23246869.298 5  95192054.21505      1519.378 5        30.770    23246869.433 7  95192067.21007      1519.472 7        42.391
I06        22.000    38177309.907 7 149816208.17907      -306.892 7        42.976
S28        23.000    41048288.553 5 215710221.58505      -471.033 5        34.695
R08        24.000    19902300.925 8 106575960.98408       392.235 8        50.984                                                                    19902298.239 7  82892418.87707       305.035 7        47.486
S23        25.000    38327708.564 7 201413466.40907      -470.028 7        44.695
R01        26.000    23406805.283 6 125122794.73806      2739.674 6        40.861                                                                    23406804.825 5  97317721.25805      2131.052 5        34.605
R16        27.000    23137768.469 7 123597822.77607     -3039.220 7        43.270                                                                    23137768.773 6  96131641.96606     -2363.776 6        40.963
R24        29.000    21903820.590 8 117129581.18908      1559.336 8        48.575                                                                    21903819.353 7  91100773.56107      1212.845 7        44.026
E19        30.000    23141284.251 7 121608304.71807     -1072.206 7        43.723                                                                    23141281.735 7  90811399.31007      -800.635 7        45.658    23141281.738 7  93180389.03907      -821.583 7        47.222
C23        31.000                                                                                                                                    24776790.683 7 129019261.66807     -1232.600 7        45.670                                                                    24776781.798 7 104838686.42907     -1001.452 7        45.839
R23        32.000    20819641.925 8 111371062.84508     -2920.620 8        49.047
E29        33.000    26039370.547 7 136837899.25407     -2790.112 7        42.747                                                                    26039368.551 7 102184160.51707     -2083.479 7        45.625    26039368.495 7 104849828.76107     -2137.872 7        46.500
E04        34.000    25304889.793 7 132978129.84107      1527.757 7        45.479                                                                    25304887.624 7  99301861.52507      1140.780 7        47.579    25304887.317 8 101892340.35308      1170.571 8        48.828
C16        35.000                                                                                                                                    39597677.101 6 206195529.63106     -1357.983 6        40.734    39597676.713 7 159443475.75907     -1050.211 7        42.885    39597674.376 6 167550758.54806     -1103.486 6        38.120
C32        36.000                                                                                                                                    24284447.439 7 126455544.38807     -2767.204 7        46.940                                                                    24284446.906 7 102755509.29207     -2248.447 7        47.050
I01        37.000   381901508.536 7 195522740.85707     -2798.676 7        42.533
E27        38.000    27837229.110 6 146285628.07306       814.668 6        38.465                                                                    27837228.524 6 109239278.63906       608.255 6        40.903    27837228.471 7 112088995.30707       624.096 7        42.394
C19        39.000                                                                                                                                    24301726.641 7 126545470.60607      1839.563 7        46.311                                                                    24301721.480 7 102828538.40207      1494.890 7        46.527
C39        40.000                                                                                                                                    40356264.952 6 210145688.28306     -1618.371 6        40.708                                                                    40356260.705 6 170760580.72006     -1314.817 6        39.751
E33        41.000    27261681.350 6 143261187.24806     -3734.287 6        39.159                                                                    27261679.657 7 106980788.63307     -2788.660 7        43.166    27261679.417 7 109771587.86007     -2861.357 7        44.415
S44        42.000    40917488.769 6 215023064.77206      -549.031 6        37.176
R06        43.000    24436358.493 5 130397138.84305     -3839.191 5        30.543
C05        44.000                                                                                                                                    39341060.101 6 204859268.05206      -511.155 6        38.790    39341053.781 7 158410207.59207      -395.268 7        43.160    39341056.114 6 166465041.29906      -415.315 6        40.246
C29        45.000                                                                                                                                    24659485.300 7 128408431.34807     -3098.594 7        44.251                                                                    24659482.520 7 104342366.73007     -2517.768 7        44.266
G04        46.000    20777874.748 7 109188504.48607     -2028.810 7        46.899                                    20777871.042 6  85081938.28906     -1580.892 6        38.216    20777870.847 7  85081940.28407     -1580.948 7        47.114
E30        47.000    28991674.412 5 152352298.19105     -1359.032 5        35.329                                                                    28991674.194 6 113769565.90406     -1014.830 6        39.871    28991673.737 6 116737466.09206     -1041.135 6        40.970
R22        48.000    23194040.652 7 123811388.60407     -4936.490 7        42.959                                                                    23194039.652 7  96297742.89807     -3839.542 7        42.102
C20        49.000                                                                                                                                    22047763.292 8 114808516.41408      -276.683 8        52.090                                                                    22047756.920 8  93291308.52008      -224.662 8        49.386
C06        50.000                                                                                                                                    39033332.658 6 203256837.41206     -1320.795 6        39.946    39033326.180 7 157171063.70307     -1021.345 7        43.786    39033326.292 6 165162811.01106     -1073.295 6        40.546
S48        51.000    77359799.562 6 406527673.97006      -461.304 6        37.856
E06        52.000    27504438.800 6 144536821.72006      2081.704 6        39.868                                                                    27504438.390 6 107933351.11206      1554.379 6        40.984    27504438.173 6 110749001.76906      1594.867 6        41.132
C09        53.000                                                                                                                                    38777707.548 7 201925721.24907      -884.847 7        42.281    38777703.735 7 156141767.52207      -684.123 7        46.826    38777701.910 7 164081168.90207      -718.821 7        42.027
C60        54.000                                                                                                                                    40917491.245 6 213068329.17606      -544.131 6        39.276                                                                    40917475.251 6 173135442.45106      -442.040 6        40.484
R09        55.000    21301026.766 8 113746322.03308       645.227 8        48.022                                                                    21301025.698 7  88469356.28307       501.856 7        45.731
G07        56.000    22757511.873 7 119591549.18007      2367.906 7        46.367                                    22757507.027 7  93188203.15007      1845.121 7        43.027    22757507.280 6  93188212.15506      1845.050 6        41.387
C02        57.000                                                                                                                                    40865500.999 5 212797445.96205      -549.480 5        35.038    40865492.984 6 164548480.54106      -424.839 6        39.538    40865497.124 5 172915361.52305      -446.351 5        35.857
I03        58.000   101085026.373 6 320894129.58506       862.103 6        41.015
R07        59.000    20673273.951 8 110665718.47808     -2581.062 8        49.835                                                                    20673272.095 7  86073390.28307     -2007.528 7        46.120
> 2025 01 02 03 46  5.0000000  0 57
G09         1.000    20156091.099 8 105921009.26008      -241.660 8        50.957                                    20156087.904 8  82535857.66908      -188.308 8        53.294    20156088.456 7  82535857.66807      -188.275 7        45.920
G06         2.000    21355979.233 8 112226450.57208      -484.393 8        48.470                                    21355977.137 8  87449187.92508      -377.448 8        50.093    21355977.888 7  87449195.92707      -377.525 7        46.086
E11         3.000    25230954.773 7 132589581.91407      1026.873 7        42.377                                                                    25230949.973 7  99011692.16907       766.816 7        43.841    25230949.949 7 101594601.96507       786.809 7        44.590
G16         4.000    24450804.400 6 128489855.94306      1666.386 6        38.396                                    24450800.197 3 100121948.04803      1298.483 3        19.851
S21         5.000    38618440.062 7 202940996.54207      -473.745 7        42.400
E10         6.000    24297791.149 8 127685767.16608      -530.895 8        48.447                                                                    24297789.502 8  95349758.95808      -396.414 8        50.687    24297789.382 8  97837143.32308      -406.765 8        51.447
G20         7.000    24935494.125 6 131036908.10606      2966.805 6        38.802                                    24935489.640 2 102106660.59802      2311.806 2        17.887
G03         8.000    22621635.812 7 118877593.43107     -3442.901 7        43.907                                    22621633.693 6  92631931.66506     -2682.779 6        41.254    22621634.337 6  92631929.66206     -2682.752 6        40.543
R10         9.000    22492652.094 6 119898489.98206      3370.230 6        39.742
G31        10.000    25081334.836 6 131803309.13006     -4095.000 6        38.736                                    25081330.564 4 102703860.33404     -3190.909 4        29.403    25081329.845 5 102703865.31405     -3190.825 5        35.524
G30        11.000    25519373.410 6 134105215.20806      3206.450 6        37.059                                    25519371.683 4 104497560.43904      2498.531 4        29.763    25519372.487 5 104497568.42905      2498.596 5        34.681
S27        12.000    39247233.107 6 206245621.78806      -477.773 6        36.684
G26        13.000    24318368.295 6 127793893.02506      -563.818 6        39.351                                    24318366.766 5  99579664.03105      -439.332 5        31.419    24318366.052 5  99579664.05105      -439.685 5        35.667
S36        14.000    38385980.558 7 201720209.40407      -473.919 7        44.831
I09        15.000    37861264.229 7 148575732.28607      -692.540 7        42.688
G19        16.000    24785847.529 6 130250519.12606     -3575.431 6        38.234                                    24785840.917 3 101493892.59903     -2786.074 3        20.857
S45        17.000    63575183.205 6 334090799.06706      -514.053 6        37.826
E12        19.000    24554034.002 7 129032329.20507     -1936.873 7        45.434                                                                    24554029.686 7  96355300.08207     -1446.370 7        46.638    24554029.882 7  98868915.97907     -1484.110 7        47.989
E21        20.000    28550949.490 6 150036240.59106      2232.834 6        36.911                                                                    28550949.327 6 112040062.65706      1667.220 6        40.010    28550948.840 6 114962843.48306      1710.959 6        40.546
G11        21.000    23245019.104 7 122153414.59407      1947.931 7        43.139                                    23245014.943 5  95184460.99505      1517.867 5        30.694    23245015.274 7  95184473.99407      1517.802 7        42.468
I06        22.000    38177700.782 7 149817741.35007      -306.573 7        42.982
S28        23.000    41048736.297 5 215712575.63605      -470.594 5        34.919
R08        24.000    19901935.707 8 106574003.70508       390.569 8        51.079                                                                    19901932.805 7  82890896.54407       303.763 7        47.017
S23        25.000    38328155.476 7 201415815.51707      -469.746 7        44.828
R01        26.000    23404243.773 6 125109096.92906      2739.478 6        41.783                                                                    23404242.478 5  97307067.37305      2130.503 5        34.343
R16        27.000    23140614.474 7 123613026.70507     -3042.396 7        44.014                                                                    23140614.723 6  96143467.24606     -2366.398 6        41.185
R24        29.000    21902363.899 8 117121793.64708      1555.627 8        48.833                                                                    21902362.956 7  91094716.60607      1209.841 7        43.892
E19        30.000    23142304.871 7 121613667.73907     -1073.149 7        43.613                                                                    23142302.245 7  90815404.16007      -801.400 7        45.725    23142302.270 7  93184498.36007      -822.265 7        47.272
C23        31.000                                                                                                                                    24777975.066 7 129025430.36407     -1235.045 7        45.448                                                                    24777966.356 7 104843699.01507     -1003.706 7        45.928
R23        32.000    20822373.442 8 111385674.42508     -2924.185 8        48.878
E29        33.000    26042025.403 7 136851849.72807     -2790.174 7        43.355                                                                    26042023.305 7 102194578.08607     -2083.594 7        45.619    26042023.075 7 104860518.09607     -2138.014 7        46.636
E04        34.000    25303436.395 7 132970492.76807      1527.003 7        45.406                                                                    25303434.370 7  99296158.50407      1140.362 7        47.698    25303434.106 8 101886488.56808      1170.023 8        48.805
C16        35.000                                                                                                                                    39598980.676 6 206202320.01806     -1358.186 6        40.596    39598980.687 7 159448726.49607     -1050.155 7        42.739    39598978.379 6 167556276.30006     -1103.755 6        38.168
C32        36.000                                                                                                                                    24287104.850 7 126469381.41807     -2767.724 7        46.553                                                                    24287104.145 7 102766753.02907     -2249.062 7        47.048
I01        37.000   381905074.255 7 195536733.65207     -2798.495 7        42.383
E27        38.000    27836454.827 6 146281559.14106       812.928 6        38.381                                                                    27836454.360 6 109236240.15406       607.001 6        40.937    27836454.224 7 112085877.54507       622.938 7        42.548
C19        39.000                                                                                                                                    24299960.472 7 126536273.38907      1839.181 7        46.188                                                                    24299955.295 7 102821064.93507      1494.407 7        46.604
C39        40.000                                                                                                                                    40357818.841 6 210153778.94806     -1618.090 6        40.510                                                                    40357814.364 6 170767155.05806     -1314.884 6        39.943
E33        41.000    27265234.533 6 143279858.87406     -3734.584 6        39.264                                                                    27265232.665 7 106994731.70807     -2788.792 7        43.194    27265232.328 7 109785894.67807     -2861.534 7        44.137
S44        42.000    40918010.540 6 215025808.96806      -548.742 6        37.308
R06        43.000    24439954.893 5 130416333.29805     -3838.832 5        30.808
C05        44.000                                                                                                                                    39341550.951 6 204861823.03906      -510.816 6        38.715    39341544.559 7 158412183.25807      -394.875 7        43.145    39341546.638 6 166467117.44906      -415.175 6        40.243
C29        45.000                                                                                                                                    24662460.989 7 128423926.70807     -3099.652 7        44.492                                                                    24662458.284 7 104354958.00407     -2518.771 7        44.324
G04        46.000    20779805.879 7 109198652.18807     -2030.370 7        46.877                                    20779802.063 6  85089845.58606     -1582.106 6        38.288    20779801.798 7  85089847.59107     -1582.056 7        46.669
E30        47.000    28992968.314 5 152359097.16405     -1360.848 5        35.286                                                                    28992968.064 6 113774643.05506     -1016.113 6        39.802    28992967.581 6 116742675.70206     -1042.681 6        40.903
R22        48.000    23198664.897 7 123836072.17707     -4936.988 7        43.278                                                                    23198663.275 6  96316941.21706     -3839.844 6        41.633
C20        49.000                                                                                                                                    22048029.377 8 114809902.30608      -277.851 8        52.022                                                                    22048023.091 8  93292434.69108      -225.879 8        49.490
C06        50.000                                                                                                                                    39034600.245 6 203263441.41206     -1320.851 6        39.589    39034594.303 7 157176170.33507     -1021.364 7        43.833    39034594.397 6 165168177.31606     -1073.406 6        40.646
S48        51.000    77360243.017 6 406529978.54106      -460.735 6        38.021
E06        52.000    27502458.133 6 144526414.40206      2081.219 6        39.823                                                                    27502458.141 6 107925579.40506      1554.222 6        41.173    27502457.789 6 110741027.31106      1594.799 6        41.428
C09        53.000                                                                                                                                    38778556.877 7 201930145.26507      -884.881 7        42.112    38778553.343 7 156145188.45207      -684.268 7        46.904    38778551.521 7 164084763.80107      -719.249 7        42.180
C60        54.000                                                                                                                                    40918013.400 6 213071048.41906      -543.830 6        39.183                                                                    40917997.461 6 173137652.06906      -441.763 6        40.565
R09        55.000    21300425.060 7 113743105.53107       641.266 7        47.821                                                                    21300423.670 7  88466854.57107       498.787 7        46.779
G07        56.000    22755259.597 7 119579712.85907      2366.650 7        46.299                                    22755254.711 7  93178980.04107      1844.142 7        43.073    22755255.148 6  93178989.06106      1844.058 6        41.254
C02        57.000                                                                                                                                    40866028.678 5 212800192.19005      -549.294 5        35.148    40866020.479 6 164550604.08706      -424.555 6        39.529    40866024.610 5 172917593.06005      -446.234 5        35.948
I03        58.000   101083927.700 6 320889818.70106       862.231 6        40.701
R07        59.000    20675685.192 8 110678626.49608     -2582.249 8        49.767                                                                    20675683.163 7  86083429.85507     -2008.362 7        46.622
> 2025 01 02 03 46 10.0000000  0 57
G09         1.000    20156322.014 8 105922223.07708      -243.658 8        51.035                                    20156318.886 8  82536803.50108      -189.863 8        53.286    20156319.391 7  82536803.51207      -189.894 7        45.791
G06         2.000    21356441.721 8 112228881.46808      -487.636 8        48.351                                    21356439.722 8  87451082.12608      -379.976 8        50.102    21356440.506 7  87451090.13107      -379.956 7        46.265
E11         3.000    25229978.668 7 132584452.92007      1025.150 7        42.182                                                                    25229973.967 7  99007862.08907       765.523 7        43.754    25229973.923 7 101590671.96407       785.477 7        44.861
G16         4.000    24449220.361 6 128481530.73106      1664.100 6        38.510                                    24449216.004 3 100115460.88403      1296.688 3        19.791
S21         5.000    38618893.355 7 202943365.07807      -473.365 7        42.121
E10         6.000    24298297.410 8 127688427.76408      -533.090 8        48.490                                                                    24298295.793 8  95351745.77008      -398.103 8        50.583    24298295.709 8  97839181.96308      -408.455 8        51.469
G20         7.000    24932671.855 6 131022074.89506      2966.707 6        38.411                                    24932666.991 2 102095102.25802      2311.731 2        17.660
G03         8.000    22624912.434 7 118894811.65907     -3444.003 7        43.839                                    22624910.149 6  92645348.46506     -2683.640 6        41.249    22624911.048 6  92645346.46606     -2683.604 6        40.527
R10         9.000    22489491.708 6 119881643.85106      3368.660 6        39.592
G31        10.000    25085231.211 6 131823787.78506     -4096.055 6        38.562                                    25085227.413 4 102719817.71904     -3191.733 4        29.175    25085226.786 5 102719822.70705     -3191.595 5        35.090
G30        11.000    25516323.392 6 134089183.00706      3206.692 6        36.862                                    25516320.883 4 104485067.82504      2498.717 4        29.412    25516320.938 5 104485075.82305      2498.870 5        34.719
S27        12.000    39247684.790 6 206248011.06106      -477.354 6        36.658
G26        13.000    24318906.281 6 127796720.70706      -566.893 6        39.228                                    24318904.773 5  99581867.42405      -441.738 5        31.585    24318905.120 5  99581867.43505      -441.839 5        35.586
S36        14.000    38386430.998 7 201722579.29707      -473.854 7        44.670
I09        15.000    37862146.333 7 148579195.20507      -692.475 7        42.764
G19        16.000    24789249.856 6 130268397.81906     -3575.857 6        38.568                                    24789243.375 3 101507824.04303     -2786.392 3        20.905
S45        17.000    63575633.421 6 334093369.64606      -514.081 6        37.285
E12        19.000    24555878.061 7 129042019.46207     -1938.914 7        45.409                                                                    24555873.674 7  96362536.31207     -1447.901 7        46.610    24555873.887 8  98876340.98308     -1485.620 8        48.029
E21        20.000    28548825.426 6 150025077.50906      2232.923 6        36.991                                                                    28548825.139 6 112031726.60506      1667.344 6        40.133    28548824.740 6 114954289.98006      1710.695 6        40.734
G11        21.000    23243166.540 7 122143681.78007      1945.505 7        43.352                                    23243162.783 5  95176876.99105      1515.973 5        30.687    23243162.503 7  95176889.99107      1516.131 7        42.548
I06        22.000    38178091.353 7 149819274.48807      -306.591 7        43.073
S28        23.000    41049182.364 5 215714929.66805      -470.270 5        34.562
R08        24.000    19901572.383 8 106572055.76808       388.872 8        51.068                                                                    19901569.286 7  82889381.47307       302.443 7        47.123
S23        25.000    38328601.319 7 201418164.42507      -469.527 7        44.444
R01        26.000    23401682.563 6 125095401.34806      2739.105 6        41.373                                                                    23401681.374 5  97296415.28205      2130.357 5        34.362
R16        27.000    23143464.627 7 123628247.58207     -3045.592 7        44.074                                                                    23143464.001 6  96155305.69206     -2368.923 6        41.037
R24        29.000    21900911.490 8 117114025.83308      1551.860 8        48.851                                                                    21900910.304 7  91088674.95807      1207.052 7        44.150
E19        30.000    23143326.768 7 121619037.08607     -1074.316 7        43.683                                                                    23143324.013 7  90819413.73307      -802.188 7        45.592    23143324.041 7  93188612.52707      -823.142 7        47.320
C23        31.000                                                                                                                                    24779162.334 7 129031612.50907     -1237.666 7        45.415                                                                    24779153.566 7 104848722.49507     -1005.606 7        45.688
R23        32.000    20825108.643 8 111400305.28808     -2927.894 8        48.741
E29        33.000    26044680.480 7 136865802.09307     -2790.482 7        43.547                                                                    26044678.273 7 102204997.06007     -2083.854 7        45.710    26044678.037 7 104871208.85607     -2138.052 7        46.607
E04        34.000    25301984.159 7 132962860.43907      1526.287 7        45.246                                                                    25301981.991 7  99290459.03907      1139.698 7        47.640    25301981.769 8 101880640.41408      1169.389 8        48.895
C16        35.000                                                                                                                                    39600285.435 6 206209111.82106     -1358.320 6        40.265    39600285.087 7 159453978.36207     -1050.257 7        42.866    39600282.478 6 167561795.18206     -1103.579 6        37.902
C32        36.000                                                                                                                                    24289762.647 7 126483221.96007     -2768.269 7        46.349                                                                    24289761.964 7 102777999.58107     -2249.442 7        46.862
I01        37.000   381908640.154 7 195550726.83407     -2798.513 7        42.245
E27        38.000    27835682.515 6 146277500.04106       810.973 6        38.492                                                                    27835681.923 6 109233209.00106       605.775 6        40.815    27835681.768 7 112082767.33407       621.458 7        42.548
C19        39.000                                                                                                                                    24298194.630 7 126527079.30607      1838.723 7        46.151                                                                    24298189.623 7 102813593.97607      1494.113 7        46.538
C39        40.000                                                                                                                                    40359372.616 6 210161870.29006     -1618.127 6        40.560                                                                    40359368.367 6 170773729.92306     -1314.781 6        39.655
E33        41.000    27268788.187 6 143298532.45906     -3734.747 6        39.574                                                                    27268786.137 7 107008676.26807     -2788.883 7        43.126    27268785.782 7 109800203.01007     -2861.646 7        44.069
S44        42.000    40918535.384 6 215028552.82406      -548.547 6        37.316
R06        43.000    24443552.087 5 130435527.59405     -3838.450 5        31.306
C05        44.000                                                                                                                                    39342041.301 6 204864377.78106      -510.649 6        38.631    39342035.096 7 158414158.74807      -394.815 7        43.069    39342037.170 6 166469193.36706      -414.918 6        40.231
C29        45.000                                                                                                                                    24665437.812 7 128439428.66007     -3100.837 7        44.470                                                                    24665435.403 7 104367554.58407     -2519.678 7        44.290
G04        46.000    20781738.706 7 109208808.64307     -2031.977 7        46.921                                    20781734.756 6  85097759.70606     -1583.359 6        38.255    20781734.794 7  85097761.71107     -1583.380 7        46.826
E30        47.000    28994264.267 5 152365907.12005     -1363.151 5        35.376                                                                    28994263.910 6 113779728.40006     -1017.635 6        40.040    28994263.528 6 116747893.70006     -1044.280 6        40.942
R22        48.000    23203289.953 7 123860758.98207     -4937.443 7        44.069                                                                    23203287.885 6  96336142.06306     -3840.276 6        40.984
C20        49.000                                                                                                                                    22048297.023 8 114811295.14908      -279.084 8        52.092                                                                    22048290.512 8  93293566.47008      -226.724 8        49.369
C06        50.000                                                                                                                                    39035869.041 6 203270047.13406     -1321.120 6        39.757    39035862.916 7 157181278.31007     -1021.600 7        43.865    39035863.091 6 165173545.00806     -1073.498 6        40.365
S48        51.000    77360684.916 6 406532282.86506      -460.770 6        37.837
E06        52.000    27500478.350 6 144516009.40106      2081.050 6        39.535                                                                    27500478.135 6 107917809.45206      1553.921 6        40.965    27500477.789 6 110733054.66406      1594.565 6        41.564
C09        53.000                                                                                                                                    38779406.986 7 201934571.63307      -885.329 7        42.178    38779403.482 7 156148611.20107      -684.606 7        47.145    38779401.331 7 164088360.56707      -719.379 7        42.059
C60        54.000                                                                                                                                    40918535.579 6 213073767.33606      -543.522 6        39.315                                                                    40918519.590 6 173139861.39906      -441.702 6        40.381
R09        55.000    21299826.299 7 113739909.84707       637.274 7        47.753                                                                    21299825.104 7  88464369.03607       495.617 7        46.776
G07        56.000    22753008.436 7 119567884.03307      2365.253 7        46.351                                    22753003.777 7  93169762.77507      1843.054 7        43.118    22753003.941 6  93169771.78006      1843.071 6        40.942
C02        57.000                                                                                                                                    40866555.962 5 212802938.19505      -549.051 5        35.109    40866548.081 6 164552727.46506      -424.377 6        39.517    40866551.828 5 172919824.38305      -445.924 5        35.752
I03        58.000   101082829.454 6 320885507.70106       862.324 6        40.856
R07        59.000    20678097.269 8 110691541.10508     -2583.342 8        49.423                                                                    20678095.911 7  86093474.54807     -2009.288 7        46.426
> 2025 01 02 03 46 15.0000000  0 57
G09         1.000    20156555.122 8 105923448.44008      -246.009 8        50.997                                    20156552.068 8  82537758.33008      -191.699 8        53.168    20156552.414 7  82537758.33207      -191.685 7        45.586
G06         2.000    21356907.514 8 112231329.66908      -491.040 8        48.114                                    21356905.607 8  87452989.81808      -382.628 8        50.112    21356906.214 7  87452997.82107      -382.645 7        45.952
E11         3.000    25229004.817 7 132579334.48907      1022.817 7        42.061                                                                    25228999.950 7  99004039.87707       763.801 7        43.600    25228999.983 7 101586750.04807       783.730 7        44.743
G16         4.000    24447638.658 6 128473217.20506      1661.748 6        37.902                                    24447634.409 3 100108982.82503      1294.856 3        19.493
S21         5.000    38619343.665 7 202945733.79207      -473.482 7        42.341
E10         6.000    24298806.251 8 127691100.99408      -535.663 8        48.280                                                                    24298804.497 8  95353742.01508      -400.047 8        50.455    24298804.410 8  97841230.28608      -410.448 8        51.499
G20         7.000    24929849.337 6 131007242.39006      2966.661 6        38.204                                    24929844.472 3 102083544.46303      2311.674 3        18.388
G03         8.000    22628190.011 7 118912036.59807     -3445.415 7        44.060                                    22628187.933 6  92658770.49006     -2684.739 6        41.097    22628188.537 6  92658768.49506     -2684.793 6        40.646
R10         9.000    22486333.066 6 119864807.20606      3366.533 6        39.441
G31        10.000    25089129.813 6 131844272.31706     -4097.289 6        38.742                                    25089125.416 4 102735779.68504     -3192.690 4        28.938    25089125.484 5 102735784.68305     -3192.806 5        34.943
G30        11.000    25513272.674 6 134073150.83906      3206.640 6        36.949                                    25513270.087 4 104472575.22804      2498.682 4        29.185    25513270.647 5 104472583.22805      2498.645 5        35.057
S27        12.000    39248135.256 6 206250400.18406      -477.518 6        36.253
G26        13.000    24319447.190 6 127799564.51706      -570.030 6        38.523                                    24319445.777 5  99584083.37405      -444.177 5        31.426    24319445.998 5  99584083.38105      -444.336 5        35.586
S36        14.000    38386883.348 7 201724949.45207      -473.869 7        44.816
I09        15.000    37863028.845 7 148582658.85507      -692.589 7        42.700
G19        16.000    24792652.409 6 130286279.80606     -3576.467 6        38.820                                    24792646.615 3 101521758.04103     -2786.844 3        20.548
S45        17.000    63576078.187 6 334095940.46406      -513.878 6        37.970
E12        19.000    24557724.074 7 129051721.04007     -1941.231 7        45.354                                                                    24557719.879 7  96369780.99807     -1449.697 7        46.509    24557719.958 8  98883774.65608     -1487.457 8        48.047
E21        20.000    28546701.322 6 150013916.19306      2232.514 6        37.028                                                                    28546701.289 6 112023391.86506      1667.008 6        40.164    28546700.767 6 114945737.81606      1710.451 6        40.698
G11        21.000    23241317.208 7 122133961.32507      1943.167 7        43.824                                    23241313.110 5  95169302.60805      1514.157 5        30.536    23241312.996 7  95169315.60907      1514.085 7        42.466
I06        22.000    38178482.234 7 149820807.95807      -306.603 7        43.073
S28        23.000    41049631.744 5 215717284.28005      -470.864 5        34.529
R08        24.000    19901210.028 8 106570117.73708       386.837 8        50.684                                                                    19901207.657 7  82887874.12307       300.887 7        47.333
S23        25.000    38329048.777 7 201420513.60407      -469.558 7        44.608
R01        26.000    23399119.400 6 125081708.39906      2738.531 6        40.293                                                                    23399118.918 5  97285765.18305      2129.793 5        33.802
R16        27.000    23146317.290 7 123643486.27907     -3049.399 7        44.245                                                                    23146316.619 6  96167158.00206     -2371.683 6        41.356
R24        29.000    21899462.411 8 117106278.26108      1547.780 8        48.816                                                                    21899461.527 7  91082649.07407      1203.794 7        43.994
E19        30.000    23144349.863 7 121624413.21707     -1075.594 7        43.769                                                                    23144347.020 7  90823428.38307      -803.247 7        45.475    23144347.014 7  93192731.90807      -824.198 7        47.286
C23        31.000                                                                                                                                    24780352.245 7 129037808.63107     -1240.430 7        45.404                                                                    24780343.442 7 104853757.32907     -1007.802 7        45.555
R23        32.000    20827847.126 8 111414955.85308     -2931.868 8        48.590
E29        33.000    26047335.932 7 136879756.86507     -2791.036 7        43.424                                                                    26047333.859 7 102215417.84007     -2084.175 7        45.610    26047333.446 7 104881901.48607     -2138.600 7        46.519
E04        34.000    25300532.783 7 132955233.41907      1525.092 7        45.251                                                                    25300530.588 7  99284763.54107      1138.861 7        47.448    25300530.414 8 101874796.33708      1168.539 8        48.872
C16        35.000                                                                                                                                    39601590.009 6 206215905.58306     -1358.769 6        40.119    39601589.455 7 159459231.72807     -1050.633 7        42.578    39601587.144 6 167567315.65706     -1104.074 6        38.093
C32        36.000                                                                                                                                    24292421.282 7 126497066.52707     -2769.031 7        46.506                                                                    24292420.580 7 102789249.41307     -2249.921 7        46.658
I01        37.000   381912205.963 7 195564720.79407     -2798.644 7        42.226
E27        38.000    27834912.397 6 146273451.31406       808.944 6        38.619                                                                    27834911.473 6 109230185.60906       604.091 6        40.827    27834911.321 7 112079665.05707       619.839 7        42.299
C19        39.000                                                                                                                                    24296429.805 7 126517888.90407      1837.949 7        46.063                                                                    24296424.662 7 102806126.00607      1493.634 7        46.446
C39        40.000                                                                                                                                    40360926.900 6 210169962.82006     -1618.389 6        40.579                                                                    40360922.223 6 170780305.75206     -1314.890 6        39.375
E33        41.000    27272342.292 6 143317208.54606     -3735.134 6        39.646                                                                    27272340.124 7 107022622.70007     -2789.250 7        42.978    27272339.953 7 109814513.26607     -2862.090 7        44.290
S44        42.000    40919056.328 6 215031296.89306      -548.647 6        37.440
R06        43.000    24447147.805 5 130454722.41205     -3838.888 5        31.343
C05        44.000                                                                                                                                    39342532.142 6 204866932.88806      -510.827 6        38.652    39342525.637 7 158416134.52007      -395.021 7        43.105    39342527.783 6 166471269.58806      -415.033 6        39.973
C29        45.000                                                                                                                                    24668416.262 7 128454937.71807     -3102.299 7        44.676                                                                    24668413.768 7 104380156.95307     -2520.722 7        44.102
G04        46.000    20783672.886 7 109218974.37407     -2033.799 7        46.955                                    20783669.243 6  85105681.05806     -1584.780 6        38.174    20783669.553 7  85105683.06407     -1584.896 7        47.140
E30        47.000    28995562.259 5 152372728.53405     -1365.246 5        35.357                                                                    28995561.827 6 113784822.33706     -1019.592 6        39.949    28995561.700 6 116753120.52206     -1046.044 6        40.875
R22        48.000    23207915.736 7 123885449.58907     -4938.293 7        44.333                                                                    23207913.031 6  96355345.85206     -3840.894 6        41.042
C20        49.000                                                                                                                                    22048565.928 8 114812695.46708      -280.564 8        52.095                                                                    22048559.446 8  93294704.32908      -227.881 8        49.262
C06        50.000                                                                                                                                    39037137.886 6 203276655.13206     -1321.456 6        40.010    39037131.911 7 157186388.03407     -1021.914 7        43.712    39037131.959 6 165178914.52806     -1073.737 6        40.276
S48        51.000    77361127.097 6 406534587.62006      -460.595 6        37.637
E06        52.000    27498498.993 6 144505607.30706      2080.510 6        39.691                                                                    27498498.523 6 107910041.66106      1553.354 6        40.868    27498498.299 6 110725084.23606      1594.083 6        41.735
C09        53.000                                                                                                                                    38780257.891 7 201939000.84907      -885.976 7        42.290    38780253.974 7 156152036.15807      -685.063 7        47.095    38780252.065 6 164091959.65806      -719.749 6        41.907
C60        54.000                                                                                                                                    40919058.034 6 213076486.46406      -543.641 6        39.553                                                                    40919041.549 6 173142070.88906      -441.450 6        40.157
R09        55.000    21299231.616 7 113736735.77107       632.905 7        47.756                                                                    21299230.550 7  88461900.31007       492.252 7        46.846
G07        56.000    22750759.073 7 119556063.21307      2363.563 7        45.615                                    22750754.305 7  93160551.74907      1841.737 7        43.016    22750754.333 6  93160560.74906      1841.765 6        41.032
C02        57.000                                                                                                                                    40867083.019 5 212805684.50105      -549.113 5        35.062    40867075.478 6 164554851.08606      -424.476 6        39.501    40867079.314 5 172922055.96305      -445.903 5        35.819
I03        58.000   101081730.654 6 320881196.96506       862.324 6        40.834
R07        59.000    20680511.396 8 110704463.19608     -2584.902 8        49.405                                                                    20680509.582 7  86103525.05807     -2010.500 7        46.019
> 2025 01 02 03 46 20.0000000  0 57
G09         1.000    20156790.523 8 105924684.71408      -248.385 8        51.064                                    20156787.320 8  82538721.66108      -193.546 8        53.313    20156787.662 7  82538721.66507      -193.508 7        45.785
G06         2.000    21357376.765 7 112233794.60607      -494.707 7        47.971                                    21357374.666 8  87454910.54808      -385.487 8        50.087    21357375.501 7  87454918.54707      -385.467 7        46.123
E11         3.000    25228032.729 7 132574225.97707      1020.629 7        42.430                                                                    25228027.925 7  99000225.08207       762.126 7        43.661    25228027.848 7 101582835.73707       782.066 7        44.662
G16         4.000    24446058.628 6 128464914.80106      1659.268 6        38.093                                    24446054.348 3 100102513.42503      1292.938 3        18.716
S21         5.000    38619795.343 7 202948102.05207      -473.646 7        42.392
E10         6.000    24299317.191 8 127693786.23808      -538.253 8        48.179                                                                    24299315.476 8  95355747.22808      -401.950 8        50.508    24299315.371 8  97843287.81208      -412.468 8        51.375
G20         7.000    24927026.914 6 130992410.03306      2966.505 6        38.063                                    24927022.028 3 102071986.78703      2311.577 3        18.448
G03         8.000    22631469.290 7 118929267.65207     -3446.799 7        43.793                                    22631466.871 6  92672197.28406     -2685.818 6        40.989    22631467.706 6  92672195.27306     -2685.713 6        40.529
R10         9.000    22483176.226 6 119847979.47306      3364.480 6        39.874
G31        10.000    25093028.712 6 131864762.11506     -4098.464 6        38.670                                    25093024.371 4 102751745.75704     -3193.602 4        28.986    25093024.353 5 102751750.75105     -3193.356 5        34.848
G30        11.000    25510221.407 6 134057118.06906      3206.481 6        36.563                                    25510219.112 4 104460082.16604      2498.548 4        28.995    25510219.417 5 104460090.15605      2498.767 5        34.767
S27        12.000    39248593.750 6 206252788.39506      -477.890 6        36.711
G26        13.000    24319991.640 6 127802423.87906      -573.604 6        38.321                                    24319989.862 5  99586311.45605      -446.965 5        31.396    24319990.634 6  99586311.45806      -446.918 6        36.314
S36        14.000    38387332.482 7 201727319.17307      -474.148 7        44.795
I09        15.000    37863911.345 7 148586122.83207      -692.815 7        42.845
G19        16.000    24796055.921 6 130304164.47306     -3577.194 6        38.592                                    24796050.025 3 101535694.14503     -2787.433 3        20.929
S45        17.000    63576526.637 6 334096910.93316      -513.590 6        37.278
E12        19.000    24559572.346 7 129061433.35007     -1943.653 7        45.311                                                                    24559568.001 7  96377033.69307     -1451.358 7        46.600    24559568.168 7  98891216.55807     -1489.220 7        47.980
E21        20.000    28544577.718 6 150002756.02706      2231.979 6        36.953                                                                    28544577.766 6 112015057.97906      1666.614 6        40.215    28544577.123 6 114937186.51706      1710.122 6        40.698
G11        21.000    23239469.616 7 122124252.60807      1940.524 7        43.251                                    23239465.646 5  95161737.37705      1512.095 5        30.732    23239465.504 7  95161750.38407      1512.071 7        42.516
I06        22.000    38178873.105 7 149822341.34907      -306.679 7        43.213
S28        23.000    41050078.155 5 215719638.35405      -470.804 5        34.743
R08        24.000    19900850.002 8 106568189.00908       384.752 8        50.933                                                                    19900846.969 7  82886374.00407       299.265 7        46.825
S23        25.000    38329494.960 7 201422862.17007      -469.611 7        44.786
R01        26.000    23396558.433 6 125068017.68806      2737.745 6        41.023                                                                    23396558.820 5  97275116.88605      2129.437 5        34.286
R16        27.000    23149172.409 7 123658742.01607     -3052.700 7        43.105                                                                    23149172.743 6  96179023.59806     -2374.470 6        41.492
R24        29.000    21898016.915 8 117098550.31808      1543.556 8        48.474                                                                    21898016.631 7  91076638.45307      1200.577 7        44.132
E19        30.000    23145373.937 7 121629795.61807     -1077.239 7        43.733                                                                    23145371.308 7  90827447.70507      -804.354 7        45.451    23145371.232 7  93196856.07607      -825.350 7        47.223
C23        31.000                                                                                                                                    24781544.783 7 129044018.11207     -1243.324 7        45.794                                                                    24781535.992 7 104858803.06107     -1010.216 7        45.634
R23        32.000    20830589.320 8 111429625.58008     -2935.916 8        48.229
E29        33.000    26049991.563 7 136893713.46407     -2791.623 7        42.872                                                                    26049989.708 7 102225839.96207     -2084.602 7        45.803    26049989.360 7 104892595.49407     -2138.994 7        46.372
E04        34.000    25299082.293 7 132947611.10407      1523.847 7        45.133                                                                    25299080.096 7  99279071.55507      1138.009 7        47.592    25299079.912 8 101868955.86608      1167.650 8        48.829
C16        35.000                                                                                                                                    39602894.576 6 206222700.69606     -1359.180 6        39.967    39602894.494 7 159464486.14907     -1051.051 7        42.354    39602892.272 6 167572837.25306     -1104.210 6        38.060
C32        36.000                                                                                                                                    24295080.747 7 126510914.54907     -2770.021 7        46.441                                                                    24295079.985 7 102800502.08207     -2250.787 7        46.672
I01        37.000   381915772.341 7 195578715.09307     -2798.942 7        42.468
E27        38.000    27834143.982 6 146269412.37706       806.696 6        38.580                                                                    27834142.885 6 109227169.50606       602.526 6        40.858    27834142.677 7 112076570.28107       618.192 7        42.193
C19        39.000                                                                                                                                    24294665.685 7 126508701.57407      1837.086 7        45.862                                                                    24294660.323 7 102798660.56607      1492.905 7        46.446
C39        40.000                                                                                                                                    40362481.077 6 210178055.96906     -1618.793 6        40.453                                                                    40362476.537 6 170786882.11506     -1315.311 6        39.363
E33        41.000    27275896.574 6 143335886.54606     -3735.795 6        39.769                                                                    27275894.356 7 107036570.54507     -2789.542 7        42.991    27275894.361 7 109828824.97007     -2862.530 7        44.299
S44        42.000    40919580.903 6 215034040.56406      -548.773 6        37.664
R06        43.000    24450746.757 5 130473917.02705     -3838.837 5        32.162
C05        44.000                                                                                                                                    39343022.674 6 204869487.74806      -510.886 6        38.769    39343016.523 7 158418110.09007      -395.059 7        43.120    39343018.477 6 166473345.62506      -415.119 6        39.991
C29        45.000                                                                                                                                    24671396.209 7 128470453.25907     -3103.772 7        45.059                                                                    24671393.401 7 104392764.62007     -2522.043 7        44.137
G04        46.000    20785609.095 7 109229148.79707     -2035.750 7        46.903                                    20785605.393 6  85113609.17406     -1586.297 6        38.225    20785605.558 7  85113611.17307     -1586.280 7        47.297
E30        47.000    28996861.914 5 152379560.85105     -1367.475 5        35.652                                                                    28996862.032 6 113789924.38606     -1021.169 6        39.904    28996861.777 6 116758355.67706     -1047.932 6        40.760
R22        48.000    23212541.638 7 123910143.28407     -4939.091 7        43.922                                                                    23212539.019 6  96374552.04606     -3841.414 6        41.182
C20        49.000                                                                                                                                    22048836.016 8 114814102.66308      -282.177 8        51.974                                                                    22048829.727 8  93295847.80608      -229.216 8        49.311
C06        50.000                                                                                                                                    39038407.679 6 203283264.78706     -1322.232 6        39.949    39038401.205 7 157191499.03907     -1022.400 7        43.816    39038401.336 6 165184285.42606     -1074.232 6        40.343
S48        51.000    77361568.035 6 406536891.80006      -460.631 6        37.788
E06        52.000    27496520.018 6 144495207.49906      2079.626 6        40.324                                                                    27496519.490 6 107902275.57406      1553.044 6        40.815    27496519.153 6 110717115.55706      1593.522 6        41.423
C09        53.000                                                                                                                                    38781109.067 7 201943432.36007      -886.609 7        42.150    38781104.951 7 156155462.88007      -685.512 7        47.172    38781102.885 6 164095560.63706      -720.311 6        41.964
C60        54.000                                                                                                                                    40919580.038 6 213079205.19106      -543.676 6        39.204                                                                    40919563.986 6 173144280.10006      -441.796 6        40.236
R09        55.000    21298641.456 7 113733582.68107       628.455 7        47.562                                                                    21298639.462 7  88459447.91007       488.832 7        46.490
G07        56.000    22748510.949 7 119544249.77807      2361.912 7        45.707                                    22748506.214 7  93151346.47307      1840.451 7        42.906    22748506.588 6  93151355.47506      1840.406 6        41.325
C02        57.000                                                                                                                                    40867610.934 5 212808430.46105      -549.471 5        34.881    40867602.579 6 164556974.43906      -424.730 6        39.501    40867606.666 5 172924287.30405      -446.141 5        35.576
I03        58.000   101080632.604 6 320876886.05606       862.066 6        40.806
R07        59.000    20682927.125 8 110717391.79308     -2586.505 8        49.442                                                                    20682925.083 7  86113580.63707     -2011.713 7        45.920
> 2025 01 02 03 46 25.0000000  0 57
G09         1.000    20157027.899 8 105925932.85508      -250.818 8        50.884                                    20157024.835 8  82539694.23908      -195.442 8        53.074    20157025.416 7  82539694.23707      -195.386 7        45.655
G06         2.000    21357848.906 8 112236277.19608      -498.299 8        48.038                                    21357847.107 8  87456845.03408      -388.284 8        49.909    21357847.856 7  87456853.03207      -388.265 7        45.768
E11         3.000    25227062.704 7 132569128.32207      1018.407 7        42.337                                                                    25227057.794 7  98996418.39607       760.505 7        43.625    25227057.803 7 101578929.74307       780.324 7        44.704
G16         4.000    24444481.101 6 128456624.38506      1656.877 6        38.676                                    24444476.514 3 100096053.34303      1291.065 3        18.985
S21         5.000    38620246.968 7 202950470.94007      -473.959 7        42.262
E10         6.000    24299830.343 8 127696484.44808      -540.968 8        48.255                                                                    24299828.913 8  95357762.12208      -403.929 8        50.548    24299828.823 8  97845355.26608      -414.514 8        51.504
G20         7.000    24924204.886 6 130977578.72006      2966.058 6        38.577                                    24924199.468 3 102060429.92803      2311.227 3        18.597
G03         8.000    22634749.467 7 118946505.73407     -3448.279 7        44.158                                    22634747.035 6  92685629.55506     -2686.973 6        40.708    22634747.811 6  92685627.56006     -2687.112 6        40.129
R10         9.000    22480022.409 6 119831161.80206      3362.522 6        38.919
G31        10.000    25096928.916 6 131885258.11406     -4099.782 6        38.937                                    25096924.516 4 102767716.67104     -3194.639 4        28.730    25096924.274 5 102767721.66305     -3194.748 5        35.195
G30        11.000    25507170.505 6 134041085.64506      3206.472 6        36.673                                    25507168.165 4 104447589.37804      2498.547 4        28.806    25507168.569 5 104447597.38305      2498.446 5        34.424
S27        12.000    39249052.037 6 206255177.55106      -478.020 6        36.363
G26        13.000    24320539.014 6 127805299.71806      -576.897 6        38.799                                    24320537.220 5  99588552.36805      -449.529 5        30.996    24320537.865 6  99588552.35606      -449.684 6        36.560
S36        14.000    38387785.793 7 201729690.23007      -474.198 7        44.802
I09        15.000    37864794.582 7 148589587.78807      -693.148 7        42.794
G19        16.000    24799459.889 6 130322052.77006     -3577.978 6        38.673                                    24799454.155 3 101549633.08203     -2788.048 3        20.714
S45        17.000    63576971.988 6 334099481.92906      -514.110 6        37.629
E12        19.000    24561422.796 7 129071157.29907     -1945.926 7        45.296                                                                    24561418.387 7  96384295.08207     -1453.115 7        46.559    24561418.592 8  98898667.37308     -1491.082 8        48.011
E21        20.000    28542454.349 6 149991597.95606      2231.294 6        36.699                                                                    28542454.438 6 112006725.64206      1666.245 6        40.439    28542453.766 6 114928636.82206      1709.816 6        40.651
G11        21.000    23237624.964 7 122114556.63107      1937.933 7        43.443                                    23237620.493 5  95154182.07105      1510.071 5        30.506    23237620.426 7  95154195.07607      1510.049 7        42.711
I06        22.000    38179263.979 7 149823875.33207      -306.860 7        43.153
S28        23.000    41050529.646 5 215721992.46905      -470.885 5        34.581
R08        24.000    19900491.750 8 106566270.51908       382.667 8        50.985                                                                    19900488.885 7  82884881.83707       297.636 7        46.690
S23        25.000    38329942.055 7 201425211.28907      -469.869 7        44.718
R01        26.000    23393999.026 6 125054329.99906      2737.182 6        41.383                                                                    23393998.736 5  97264470.90505      2128.842 5        34.690
R16        27.000    23152031.065 7 123674015.67207     -3056.594 7        43.729                                                                    23152032.098 6  96190903.09706     -2377.376 6        40.946
R24        29.000    21896576.473 8 117090842.97908      1539.382 8        49.171                                                                    21896574.811 7  91070643.85807      1197.264 7        43.115
E19        30.000    23146399.331 7 121635185.13607     -1078.581 7        43.558                                                                    23146396.765 7  90831472.34807      -805.485 7        45.565    23146396.910 7  93200985.71807      -826.478 7        47.347
C23        31.000                                                                                                                                    24782739.710 7 129050241.87807     -1246.186 7        46.140                                                                    24782731.231 7 104863860.37507     -1012.507 7        45.503
R23        32.000    20833335.864 8 111444315.32808     -2939.972 8        48.159
E29        33.000    26052648.054 7 136907672.79307     -2792.126 7        42.478                                                                    26052646.103 7 102236264.14207     -2085.062 7        45.764    26052645.799 7 104903291.59807     -2139.415 7        46.397
E04        34.000    25297632.779 7 132939994.42807      1522.808 7        45.005                                                                    25297630.715 7  99273383.77607      1137.086 7        47.725    25297630.550 8 101863119.70708      1166.772 8        48.904
C16        35.000                                                                                                                                    39604199.628 6 206229498.11106     -1359.720 6        40.102    39604199.526 7 159469742.33807     -1051.413 7        42.548    39604197.534 6 167578360.70906     -1104.754 6        38.054
C32        36.000                                                                                                                                    24297740.621 7 126524766.92607     -2770.916 7        46.679                                                                    24297740.197 7 102811758.25207     -2251.475 7        46.470
I01        37.000   381919338.873 7 195592710.41407     -2799.101 7        42.445
E27        38.000    27833377.398 6 146265384.13506       804.473 6        38.901                                                                    27833376.330 6 109224161.40906       600.782 6        40.892    27833376.199 7 112073483.71107       616.483 7        42.233
C19        39.000                                                                                                                                    24292902.434 7 126499518.23807      1836.269 7        46.282                                                                    24292896.836 7 102791198.34207      1492.276 7        46.347
C39        40.000                                                                                                                                    40364035.452 6 210186150.62306     -1619.111 6        40.670                                                                    40364031.049 6 170793459.65406     -1315.483 6        39.168
E33        41.000    27279451.354 6 143354567.35606     -3736.334 6        39.895                                                                    27279449.146 7 107050520.51607     -2790.144 7        42.997    27279449.392 7 109843138.84507     -2863.003 7        44.539
S44        42.000    40920099.879 6 215036784.77506      -548.726 6        37.709
R06        43.000    24454343.375 5 130493112.44305     -3839.110 5        31.691
C05        44.000                                                                                                                                    39343513.654 6 204872043.24506      -511.132 6        38.934    39343507.118 7 158420086.17407      -395.221 7        43.170    39343509.273 6 166475422.18206      -415.416 6        40.050
C29        45.000                                                                                                                                    24674376.951 7 128485976.23507     -3105.299 7        45.475                                                                    24674374.341 7 104405378.28807     -2523.274 7        44.038
G04        46.000    20787547.015 7 109239332.82707     -2037.710 7        46.806                                    20787543.349 6  85121544.78406     -1587.827 6        37.977    20787543.206 7  85121546.78307     -1587.909 7        46.942
E30        47.000    28998164.533 5 152386404.98305     -1369.743 5        35.310                                                                    28998164.512 6 113795035.26506     -1023.003 6        39.835    28998164.144 6 116763599.88206     -1049.731 6        40.646
R22        48.000    23217167.446 7 123934841.08707     -4940.025 7        43.202                                                                    23217165.911 6  96393761.45006     -3842.229 6        41.459
C20        49.000                                                                                                                                    22049107.660 8 114815517.66908      -283.774 8        52.173                                                                    22049101.466 8  93296997.59708      -230.510 8        49.185
C06        50.000                                                                                                                                    39039677.436 6 203289877.03606     -1322.657 6        40.148    39039671.027 7 157196612.04607     -1022.778 7        43.782    39039671.047 6 165189658.41006     -1074.770 6        40.353
S48        51.000    77362010.140 6 406539196.56706      -460.974 6        37.883
E06        52.000    27494540.851 6 144484810.91806      2078.982 6        39.532                                                                    27494541.295 6 107894511.90206      1552.536 6        41.015    27494540.442 6 110709149.34506      1593.031 6        41.542
C09        53.000                                                                                                                                    38781960.571 7 201947867.05607      -887.252 7        42.449    38781956.617 7 156158892.07007      -686.027 7        47.262    38781954.692 6 164099164.17806      -720.963 6        41.990
C60        54.000                                                                                                                                    40920101.841 6 213081924.48006      -543.831 6        39.513                                                                    40920086.102 6 173146489.72006      -441.909 6        40.195
R09        55.000    21298054.957 7 113730451.59307       624.087 7        47.482                                                                    21298053.999 7  88457012.62407       485.332 7        46.562
G07        56.000    22746264.693 7 119532444.69507      2360.227 7        46.599                                    22746259.707 7  93142147.71407      1839.136 7        42.770    22746259.977 6  93142156.71906      1839.145 6        41.421
C02        57.000                                                                                                                                    40868138.340 5 212811177.03805      -549.465 5        35.290    40868129.707 6 164559098.26706      -424.691 6        39.823    40868134.143 5 172926519.12105      -446.283 5        35.557
I03        58.000   101079534.067 6 320872575.65806       862.074 6        41.008
R07        59.000    20685343.246 8 110730328.02108     -2587.968 8        49.176                                                                    20685341.722 7  86123642.14307     -2012.943 7        46.099
> 2025 01 02 03 46 30.0000000  0 57
G09         1.000    20157267.550 8 105927192.40408      -253.124 8        50.717                                    20157264.509 8  82540675.70608      -197.239 8        53.176    20157264.932 7  82540675.71407      -197.215 7        45.875
G06         2.000    21358324.751 8 112238776.98608      -501.716 8        48.176                                    21358322.794 8  87458792.92408      -390.947 8        49.979    21358323.583 7  87458800.92807      -390.993 7        45.922
E11         3.000    25226094.634 7 132564041.09807      1016.273 7        42.360                                                                    25226089.777 7  98992619.50407       758.884 7        43.710    25226089.729 7 101575031.74807       778.705 7        44.751
G16         4.000    24442905.868 6 128448345.55706      1654.579 6        38.486                                    24442901.139 2 100089602.32402      1289.302 2        17.887
S21         5.000    38620698.115 7 202952840.19707      -473.978 7        42.669
E10         6.000    24300346.305 8 127699195.16708      -543.501 8        48.063                                                                    24300344.736 8  95359786.36108      -405.860 8        50.689    24300344.636 8  97847432.31308      -416.445 8        51.522
G20         7.000    24921382.511 6 130962747.98506      2966.298 6        38.541                                    24921377.204 3 102048873.51303      2311.397 3        18.716
G03         8.000    22638030.864 7 118963750.41207     -3449.738 7        43.867                                    22638028.432 6  92699066.97006     -2688.105 6        40.856    22638029.453 6  92699064.96806     -2688.077 6        40.114
R10         9.000    22476868.349 6 119814353.70306      3360.673 6        40.241
G31        10.000    25100830.437 6 131905759.82706     -4101.037 6        38.583                                    25100825.899 4 102783692.03004     -3195.613 4        28.891    25100825.912 5 102783697.02105     -3195.584 5        35.424
G30        11.000    25504119.466 6 134025053.13706      3206.461 6        36.650                                    25504117.262 4 104435096.52304      2498.531 4        28.540    25504118.341 5 104435104.52305      2498.753 5        34.167
S27        12.000    39249506.278 6 206257567.60306      -478.256 6        36.344
G26        13.000    24321089.252 6 127808191.56806      -579.986 6        38.195                                    24321087.614 5  99590805.75905      -451.940 5        31.057    24321087.695 6  99590805.77106      -452.017 6        36.885
S36        14.000    38388236.930 7 201732060.89007      -474.271 7        44.918
I09        15.000    37865677.451 7 148593053.40407      -693.250 7        42.880
G19        16.000    24802864.291 6 130339944.25606     -3578.799 6        38.832                                    24802858.598 3 101563574.50703     -2788.680 3        20.667
S45        17.000    63577417.241 6 334102052.99706      -514.230 6        37.512
E12        19.000    24563275.138 7 129080892.43707     -1948.241 7        45.169                                                                    24563270.934 7  96391564.83307     -1454.814 7        46.616    24563271.099 8  98906126.77108     -1492.804 8        48.087
E21        20.000    28540331.204 6 149980441.50606      2231.140 6        36.163                                                                    28540331.316 6 111998394.55106      1666.050 6        40.524    28540330.783 6 114920088.40106      1709.499 6        40.632
G11        21.000    23235781.800 7 122104872.92407      1935.365 7        43.936                                    23235777.679 5  95146636.33305      1508.074 5        30.664    23235777.881 7  95146649.32107      1508.065 7        42.491
I06        22.000    38179654.594 7 149825409.58307      -306.894 7        43.115
S28        23.000    41050971.813 5 215724347.00705      -470.970 5        34.767
R08        24.000    19900135.266 8 106564361.84008       380.618 8        51.176                                                                    19900132.136 7  82883397.31007       296.086 7        46.995
S23        25.000    38330391.091 7 201427560.71707      -469.958 7        44.655
R01        26.000    23391438.965 6 125040644.87006      2736.666 6        41.206                                                                    23391438.245 5  97253826.88605      2128.527 5        34.586
R16        27.000    23154894.607 7 123689306.93607     -3060.107 7        43.860                                                                    23154894.062 6  96202796.28806     -2380.024 6        41.180
R24        29.000    21895139.479 8 117083155.87508      1535.337 8        48.947                                                                    21895137.212 7  91064664.99307      1194.167 7        43.382
E19        30.000    23147426.648 7 121640581.35707     -1079.989 7        43.316                                                                    23147423.695 7  90835501.99007      -806.430 7        45.612    23147423.789 7  93205120.48207      -827.534 7        47.322
C23        31.000                                                                                                                                    24783937.476 7 129056479.51907     -1248.932 7        45.762                                                                    24783929.145 7 104868928.96707     -1014.936 7        45.574
R23        32.000    20836085.744 8 111459024.72208     -2943.969 8        48.611
E29        33.000    26055304.925 7 136921634.42607     -2792.774 7        42.400                                                                    26055302.835 7 102246690.02807     -2085.494 7        45.875    26055302.641 7 104913989.46507     -2139.803 7        46.280
E04        34.000    25296184.529 7 132932382.94207      1521.719 7        44.939                                                                    25296182.234 7  99267699.87307      1136.363 7        47.730    25296182.075 8 101857287.53008      1165.993 8        48.934
C16        35.000                                                                                                                                    39605505.374 6 206236297.37906     -1360.052 6        40.181    39605505.234 7 159474999.96107     -1051.783 7        42.288    39605503.284 6 167583885.65206     -1105.149 6        38.000
C32        36.000                                                                                                                                    24300401.451 7 126538623.22707     -2771.723 7        47.112                                                                    24300401.225 7 102823017.63307     -2252.289 7        46.491
I01        37.000   381922905.701 7 195606706.45207     -2799.283 7        42.425
E27        38.000    27832612.645 6 146261366.17306       802.520 6        38.763                                                                    27832611.892 6 109221160.98806       599.254 6        41.004    27832611.357 7 112070405.01307       614.918 7        42.176
C19        39.000                                                                                                                                    24291139.387 7 126490338.46407      1835.550 7        46.661                                                                    24291133.931 7 102783739.02707      1491.500 7        46.365
C39        40.000                                                                                                                                    40365590.362 6 210194246.35306     -1619.302 6        40.787                                                                    40365585.636 6 170800038.10806     -1315.875 6        39.114
E33        41.000    27283006.704 6 143373250.54706     -3737.097 6        39.952                                                                    27283004.525 7 107064472.25507     -2790.610 7        43.259    27283004.728 7 109857454.53607     -2863.420 7        44.777
S44        42.000    40920624.025 6 215039529.10806      -548.930 6        37.444
R06        43.000    24457941.670 5 130512308.20805     -3839.170 5        31.230
C05        44.000                                                                                                                                    39344004.191 6 204874598.96206      -511.198 6        38.919    39343998.134 7 158422062.42107      -395.453 7        43.179    39344000.208 6 166477498.88706      -415.394 6        39.865
C29        45.000                                                                                                                                    24677359.187 7 128501506.15707     -3106.700 7        45.425                                                                    24677356.690 7 104417997.62207     -2524.460 7        43.898
G04        46.000    20789486.811 7 109249526.01107     -2039.674 7        46.708                                    20789483.058 6  85129487.52406     -1589.354 6        38.039    20789482.828 7  85129489.52007     -1589.313 7        47.030
E30        47.000    28999469.378 5 152393260.48305     -1372.347 5        35.352                                                                    28999469.187 6 113800154.62906     -1024.750 6        39.604    28999468.830 6 116768852.79206     -1051.487 6        40.639
R22        48.000    23221794.502 7 123959542.46407     -4940.585 7        43.048                                                                    23221793.317 6  96412973.63906     -3842.743 6        41.530
C20        49.000                                                                                                                                    22049380.958 8 114816940.03308      -285.289 8        52.220                                                                    22049374.597 8  93298153.38208      -231.764 8        49.132
C06        50.000                                                                                                                                    39040948.017 6 203296491.40906     -1323.172 6        40.386    39040941.354 7 157201726.70607     -1023.111 7        43.795    39040941.166 6 165195033.13606     -1075.381 6        40.260
S48        51.000    77362456.256 6 406541501.50106      -461.189 6        37.747
E06        52.000    27492563.279 6 144474417.11006      2078.530 6        39.523                                                                    27492563.473 6 107886750.31206      1552.042 6        41.070    27492562.577 6 110701185.27606      1592.486 6        41.471
C09        53.000                                                                                                                                    38782813.126 7 201952304.50107      -887.845 7        42.557    38782808.619 7 156162323.39207      -686.584 7        47.185    38782806.806 6 164102769.96706      -721.407 6        41.967
C60        54.000                                                                                                                                    40920624.345 6 213084643.84406      -544.016 6        39.742                                                                    40920608.320 6 173148699.42506      -441.987 6        40.422
R09        55.000    21297472.265 7 113727341.77907       619.753 7        47.892                                                                    21297470.991 7  88454593.87907       482.077 7        46.598
G07        56.000    22744019.907 7 119520647.47307      2358.510 7        46.726                                    22744014.756 7  93132955.07407      1837.803 7        42.935    22744015.293 6  93132964.07006      1837.822 6        41.647
C02        57.000                                                                                                                                    40868665.607 5 212813923.78805      -549.536 5        35.152    40868657.395 6 164561222.23006      -425.048 6        39.592    40868661.750 5 172928751.05905      -446.505 5        35.752
I03        58.000   101078435.730 6 320868265.47206       861.911 6        41.030
R07        59.000    20687761.127 8 110743271.35608     -2589.429 8        49.041                                                                    20687759.269 7  86133709.18807     -2014.075 7        46.227
> 2025 01 02 03 46 35.0000000  0 57
G09         1.000    20157509.377 8 105928463.10908      -255.107 8        50.834                                    20157506.317 8  82541665.86708      -198.783 8        53.216    20157506.635 7  82541665.87007      -198.825 7        45.571
G06         2.000    21358803.805 8 112241293.73308      -504.879 8        48.554                                    21358801.722 8  87460754.02408      -393.411 8        50.044    21358802.320 7  87460762.03007      -393.446 7        45.734
E11         3.000    25225128.221 7 132558964.06607      1014.391 7        42.326                                                                    25225123.715 7  98988828.20407       757.650 7        43.664    25225123.540 7 101571141.54807       777.325 7        44.775
G16         4.000    24441332.230 6 128440078.08006      1652.486 6        38.541                                    24441327.646 3 100083160.13303      1287.654 3        18.687
S21         5.000    38621150.536 7 202955209.49707      -473.663 7        42.529
E10         6.000    24300864.612 8 127701918.13008      -545.659 8        48.283                                                                    24300862.924 8  95361819.74208      -407.508 8        50.647    24300862.790 8  97849518.74408      -418.157 8        51.466
G20         7.000    24918560.076 6 130947917.57106      2966.289 6        38.123                                    24918555.234 3 102037317.34403      2311.400 3        18.269
G03         8.000    22641313.541 7 118981001.39107     -3450.597 7        44.080                                    22641311.126 6  92712509.29406     -2688.777 6        41.051    22641312.707 6  92712507.28706     -2688.767 6        39.961
R10         9.000    22473717.771 6 119797554.55706      3359.119 6        40.455
G31        10.000    25104733.153 6 131926266.98106     -4101.751 6        39.057                                    25104728.199 4 102799671.63304     -3196.172 4        29.014    25104728.545 5 102799676.64505     -3196.305 5        35.186
G30        11.000    25501068.834 6 134009020.30706      3206.772 6        36.715                                    25501066.314 4 104422603.41304      2498.785 4        28.645    25501067.170 5 104422611.41905      2498.667 5        34.448
S27        12.000    39249959.115 6 206259957.69906      -477.721 6        36.575
G26        13.000    24321642.473 6 127811099.20406      -582.907 6        38.961                                    24321641.022 5  99593071.44905      -454.216 5        31.283    24321640.965 6  99593071.44706      -454.068 6        36.189
S36        14.000    38388686.919 7 201734431.18307      -473.830 7        44.895
I09        15.000    37866561.109 7 148596519.51007      -693.154 7        43.012
G19        16.000    24806269.926 6 130357838.59906     -3579.011 6        39.030                                    24806263.770 3 101577518.13603     -2788.835 3        21.238
S45        17.000    63577865.185 6 334104624.04506      -513.874 6        37.418
E12        19.000    24565129.696 7 129090638.50007     -1950.099 7        45.180                                                                    24565125.561 7  96398842.73307     -1456.292 7        46.665    24565125.734 7  98913594.52407     -1494.262 7        47.953
E21        20.000    28538208.449 6 149969286.48106      2231.043 6        36.204                                                                    28538208.587 6 111990064.49106      1665.957 6        40.536    28538208.002 6 114911541.03306      1709.531 6        40.436
G11        21.000    23233941.662 7 122095201.21707      1933.252 7        43.579                                    23233937.236 5  95139099.94105      1506.427 5        30.694    23233937.234 7  95139112.93407      1506.499 7        42.205
I06        22.000    38180045.626 7 149826943.90007      -306.767 7        43.090
S28        23.000    41051422.544 5 215726701.88205      -470.885 5        34.662
R08        24.000    19899780.533 8 106562462.64508       379.050 8        50.942                                                                    19899777.916 7  82881920.16307       294.803 7        47.118
S23        25.000    38330834.573 7 201429909.97707      -469.808 7        44.713
R01        26.000    23388879.272 6 125026962.11606      2736.506 6        41.554                                                                    23388878.223 5  97243184.76605      2128.427 5        35.124
R16        27.000    23157760.685 7 123704615.40207     -3063.245 7        43.509                                                                    23157760.450 6  96214702.88706     -2382.505 6        40.739
R24        29.000    21893704.901 8 117075488.63208      1531.675 8        48.944                                                                    21893703.998 7  91058701.59607      1191.262 7        43.812
E19        30.000    23148454.625 7 121645983.97907     -1080.888 7        43.606                                                                    23148451.788 7  90839536.41607      -807.222 7        45.669    23148451.830 7  93209260.15807      -828.306 7        47.323
C23        31.000                                                                                                                                    24785138.075 7 129062730.75907     -1251.400 7        45.630                                                                    24785129.584 7 104874008.62907     -1016.882 7        45.606
R23        32.000    20838839.278 8 111473753.42108     -2947.490 8        48.774
E29        33.000    26057962.222 7 136935598.06307     -2792.765 7        42.732                                                                    26057960.019 7 102257117.42107     -2085.533 7        45.890    26057959.811 7 104924688.88807     -2139.917 7        46.230
E04        34.000    25294737.076 7 132924776.38307      1520.969 7        45.294                                                                    25294734.780 7  99262019.64907      1135.795 7        47.751    25294734.584 8 101851459.13008      1165.433 8        48.885
C16        35.000                                                                                                                                    39606811.935 6 206243098.20406     -1360.250 6        40.348    39606811.815 7 159480258.78307     -1051.753 7        42.080    39606809.448 6 167589411.91306     -1105.240 6        38.045
C32        36.000                                                                                                                                    24303063.473 7 126552483.19107     -2772.140 7        47.123                                                                    24303062.975 7 102834280.01907     -2252.666 7        46.656
I01        37.000   381926471.752 7 195620702.97707     -2799.204 7        42.453
E27        38.000    27831849.626 6 146257358.23606       800.726 6        38.793                                                                    27831849.175 6 109218168.04106       598.017 6        41.011    27831848.543 6 112067333.98406       613.588 6        41.928
C19        39.000                                                                                                                                    24289376.782 7 126481162.00407      1835.125 7        46.699                                                                    24289371.717 7 102776282.42107      1491.247 7        46.392
C39        40.000                                                                                                                                    40367144.815 6 210202342.88506     -1619.174 6        40.758                                                                    40367140.344 6 170806617.25006     -1315.808 6        38.925
E33        41.000    27286562.264 6 143391935.85306     -3736.947 6        39.450                                                                    27286560.279 7 107078425.56107     -2790.756 7        43.198    27286560.287 7 109871771.83707     -2863.443 7        44.721
S44        42.000    40921144.947 6 215042273.24706      -548.492 6        37.747
R06        43.000    24461537.962 5 130531503.98305     -3838.915 5        32.389
C05        44.000                                                                                                                                    39344495.269 6 204877154.62406      -510.947 6        38.757    39344488.720 7 158424038.60907      -395.187 7        43.156    39344490.875 6 166479575.60006      -415.157 6        39.964
C29        45.000                                                                                                                                    24680343.127 7 128517042.77307     -3107.781 7        45.249                                                                    24680340.246 7 104430622.42007     -2525.407 7        43.867
G04        46.000    20791428.149 7 109259728.07507     -2041.183 7        46.648                                    20791424.458 6  85137437.18706     -1590.532 6        38.183    20791424.530 7  85137439.17707     -1590.445 7        46.922
E30        47.000    29000775.665 5 152400127.09105     -1374.406 5        35.595                                                                    29000775.736 6 113805282.28906     -1026.374 6        39.709    29000775.478 6 116774114.21106     -1053.017 6        40.706
R22        48.000    23226422.976 7 123984247.16607     -4941.010 7        43.414                                                                    23226421.305 6  96432188.39906     -3843.021 6        41.137
C20        49.000                                                                                                                                    22049655.498 8 114818369.50908      -286.449 8        52.264                                                                    22049649.136 8  93299314.97708      -232.798 8        49.249
C06        50.000                                                                                                                                    39042218.841 6 203303107.70006     -1323.250 6        40.081    39042212.178 7 157206842.83407     -1023.310 7        43.689    39042211.913 6 165200409.42306     -1075.227 6        40.098
S48        51.000    77362900.386 6 406543806.16706      -460.638 6        38.093
E06        52.000    27490586.285 6 144464025.83306      2078.267 6        39.592                                                                    27490585.957 6 107878990.59006      1551.898 6        41.182    27490585.447 6 110693223.13406      1592.308 6        41.366
C09        53.000                                                                                                                                    38783665.333 7 201956744.43107      -888.088 7        42.525    38783661.267 7 156165756.61707      -686.725 7        46.888    38783659.402 6 164106377.79106      -721.651 6        41.983
C60        54.000                                                                                                                                    40921146.519 6 213087363.03906      -543.679 6        39.471                                                                    40921130.472 6 173150909.02706      -441.817 6        40.291
R09        55.000    21296894.282 7 113724253.17607       615.804 7        47.920                                                                    21296892.968 7  88452191.64507       478.862 7        46.842
G07        56.000    22741776.520 7 119508857.88507      2357.337 7        46.677                                    22741771.289 7  93123768.37707      1836.889 7        43.081    22741771.764 6  93123777.39606      1836.719 6        41.745
C02        57.000                                                                                                                                    40869192.722 5 212816670.40605      -548.637 5        35.290    40869184.939 6 164563346.10106      -424.533 6        39.492    40869189.007 5 172930982.97305      -446.213 5        35.662
I03        58.000   101077337.262 6 320863955.27106       862.188 6        41.139
R07        59.000    20690180.394 8 110756221.58608     -2590.578 8        49.086                                                                    20690178.589 7  86143781.59507     -2014.942 7        46.012
> 2025 01 02 03 46 40.0000000  0 57
G09         1.000    20157753.337 8 105929744.49208      -257.410 8        50.792                                    20157750.154 8  82542664.35008      -200.579 8        53.116    20157750.530 7  82542664.35507      -200.618 7        45.688
G06         2.000    21359285.724 8 112243826.95608      -508.287 8        48.336                                    21359283.786 8  87462727.96608      -396.069 8        49.962    21359284.478 7  87462735.96007      -396.045 7        45.606
E11         3.000    25224164.131 7 132553896.74207      1012.377 7        42.243                                                                    25224159.375 7  98985044.16207       756.113 7        43.871    25224159.207 7 101567258.79007       775.819 7        44.793
G16         4.000    24439761.203 6 128431821.49406      1650.211 6        38.369                                    24439756.399 3 100076726.42603      1285.889 3        18.896
S21         5.000    38621600.564 7 202957578.35407      -473.636 7        42.500
E10         6.000    24301385.132 8 127704652.89008      -548.107 8        48.160                                                                    24301383.344 8  95363861.93108      -409.323 8        50.695    24301383.217 8  97851614.20208      -420.010 8        51.578
G20         7.000    24915737.681 6 130933087.06306      2966.264 6        37.955                                    24915733.113 2 102025761.11702      2311.356 2        17.924
G03         8.000    22644597.577 7 118998258.23807     -3452.015 7        43.649                                    22644595.072 6  92725956.18306     -2689.884 6        41.185    22644596.413 6  92725954.18406     -2689.862 6        40.474
R10         9.000    22470567.579 6 119780764.05906      3357.236 6        40.010
G31        10.000    25108636.428 6 131946779.15306     -4102.987 6        39.144                                    25108631.505 4 102815655.13504     -3197.135 4        29.137    25108631.732 5 102815660.12505     -3196.960 5        35.171
G30        11.000    25498017.142 6 133992986.69106      3206.621 6        36.526                                    25498015.120 4 104410109.69604      2498.664 4        28.493    25498015.843 5 104410117.68405      2498.777 5        34.262
S27        12.000    39250408.334 6 206262346.46206      -477.490 6        36.575
G26        13.000    24322199.115 6 127814022.14906      -586.135 6        38.802                                    24322197.359 5  99595349.08005      -456.725 5        31.291    24322197.634 6  99595349.08406      -456.859 6        36.314
S36        14.000    38389138.499 7 201736801.23307      -473.916 7        44.743
I09        15.000    37867444.399 7 148599985.73707      -693.208 7        43.304
G19        16.000    24809675.635 6 130375735.35806     -3579.433 6        38.417                                    24809669.345 3 101591463.65403     -2789.165 3        20.905
S45        17.000    63578312.084 6 334107194.56706      -513.913 6        37.403
E12        19.000    24566986.423 7 129100395.01007     -1952.304 7        44.974                                                                    24566982.157 7  96406128.43907     -1457.967 7        46.679    24566982.349 8  98921070.29708     -1495.923 8        48.061
E21        20.000    28536086.039 6 149958132.40806      2230.598 6        37.070                                                                    28536085.906 6 111981735.15606      1665.818 6        40.749    28536085.603 6 114902994.40106      1709.290 6        40.484
G11        21.000    23232102.955 7 122085541.09507      1930.841 7        43.691                                    23232098.947 5  95131572.57705      1504.552 5        30.558    23232099.076 7  95131585.58207      1504.526 7        42.303
I06        22.000    38180436.560 7 149828477.96407      -306.694 7        43.230
S28        23.000    41051869.912 5 215729056.15905      -470.906 5        34.719
R08        24.000    19899427.287 8 106560572.52208       377.142 8        50.797                                                                    19899425.049 7  82880450.07307       293.352 7        47.352
S23        25.000    38331282.933 7 201432258.52007      -469.679 7        44.748
R01        26.000    23386318.718 6 125013281.24206      2735.936 6        41.123                                                                    23386319.319 5  97232544.07505      2127.995 5        34.886
R16        27.000    23160628.364 7 123719940.52807     -3066.785 7        43.418                                                                    23160629.017 6  96226622.42106     -2385.248 6        40.656
R24        29.000    21892274.527 8 117067840.85908      1527.535 8        48.724                                                                    21892273.700 7  91052753.32807      1188.042 7        44.321
E19        30.000    23149483.744 7 121651392.56307     -1082.346 7        43.560                                                                    23149480.969 7  90843575.29607      -808.232 7        45.675    23149481.038 7  93213404.39207      -829.287 7        47.375
C23        31.000                                                                                                                                    24786341.351 7 129068995.11007     -1254.122 7        45.592                                                                    24786332.535 7 104879098.91707     -1019.156 7        45.746
R23        32.000    20841595.952 8 111488500.94208     -2951.376 8        48.419
E29        33.000    26060619.523 7 136949563.25507     -2793.067 7        42.656                                                                    26060617.561 7 102267545.97807     -2085.776 7        45.886    26060617.353 7 104935389.49007     -2140.163 7        46.396
E04        34.000    25293290.334 7 132917174.30207      1519.971 7        44.983                                                                    25293288.157 7  99256342.77007      1135.018 7        47.763    25293288.001 8 101845634.15308      1164.643 8        48.971
C16        35.000                                                                                                                                    39608117.822 6 206249900.15606     -1360.319 6        40.505    39608117.946 7 159485518.48807     -1051.998 7        42.224    39608115.595 6 167594939.03606     -1105.476 6        38.093
C32        36.000                                                                                                                                    24305725.799 7 126566346.35007     -2772.907 7        46.971                                                                    24305725.233 7 102845544.95207     -2253.297 7        46.778
I01        37.000   381930038.926 7 195634699.67107     -2799.315 7        42.590
E27        38.000    27831088.900 6 146253359.84206       798.779 6        38.544                                                                    27831088.319 6 109215182.23106       596.451 6        41.206    27831087.599 6 112064270.29906       612.054 6        41.721
C19        39.000                                                                                                                                    24287614.882 7 126471988.37607      1834.498 7        46.503                                                                    24287610.056 7 102768828.09707      1490.557 7        46.515
C39        40.000                                                                                                                                    40368699.955 6 210210439.79806     -1619.398 6        40.677                                                                    40368695.110 6 170813196.61506     -1315.795 6        39.069
E33        41.000    27290118.025 6 143410622.78506     -3737.575 6        38.955                                                                    27290116.369 7 107092380.08707     -2791.049 7        43.223    27290116.060 7 109886090.39307     -2863.833 7        44.718
S44        42.000    40921670.385 6 215045016.76206      -548.682 6        37.459
R06        43.000    24465136.378 5 130550699.39305     -3838.895 5        31.577
C05        44.000                                                                                                                                    39344985.538 6 204879709.80006      -511.043 6        38.853    39344979.543 7 158426014.42407      -395.039 7        43.048    39344981.577 6 166481651.86706      -415.269 6        39.940
C29        45.000                                                                                                                                    24683327.818 7 128532585.60407     -3109.110 7        45.652                                                                    24683325.057 7 104443252.22207     -2526.444 7        44.012
G04        46.000    20793370.860 7 109269938.55507     -2042.921 7        46.675                                    20793367.468 6  85145393.40006     -1591.887 6        38.093    20793367.343 7  85145395.40107     -1591.896 7        46.997
E30        47.000    29002084.694 5 152407004.32005     -1376.322 5        35.814                                                                    29002084.342 6 113810417.87706     -1027.845 6        39.901    29002084.057 6 116779383.76506     -1054.571 6        40.639
R22        48.000    23231051.969 7 124008954.68307     -4941.852 7        43.755                                                                    23231050.131 6  96451405.35106     -3843.702 6        41.054
C20        49.000                                                                                                                                    22049931.327 8 114819805.63608      -287.865 8        52.358                                                                    22049924.929 8  93300481.93408      -233.955 8        49.304
C06        50.000                                                                                                                                    39043489.191 6 203309725.38006     -1323.706 6        40.112    39043482.807 7 157211960.04107     -1023.540 7        43.653    39043482.615 6 165205786.82506     -1075.821 6        40.198
S48        51.000    77363342.755 6 406546110.24906      -460.567 6        37.800
E06        52.000    27488608.832 6 144453636.62506      2077.738 6        38.961                                                                    27488608.817 6 107871232.42406      1551.507 6        41.204    27488608.447 6 110685262.57206      1591.979 6        41.595
C09        53.000                                                                                                                                    38784518.588 7 201961186.37807      -888.603 7        42.705    38784514.341 7 156169191.41607      -687.079 7        46.850    38784512.401 7 164109987.22507      -722.218 7        42.000
C60        54.000                                                                                                                                    40921668.362 6 213090081.62006      -543.647 6        39.577                                                                    40921652.579 6 173153118.07106      -441.709 6        40.472
R09        55.000    21296319.939 7 113721185.24807       611.508 7        47.984                                                                    21296318.412 7  88449805.47907       475.640 7        46.451
G07        56.000    22739534.140 7 119497075.55407      2355.788 7        47.036                                    22739529.209 7  93114587.34207      1835.683 7        42.984    22739529.284 6  93114596.34606      1835.631 6        41.557
C02        57.000                                                                                                                                    40869720.208 5 212819416.52005      -549.049 5        35.514    40869712.165 6 164565469.55906      -424.721 6        39.489    40869716.265 5 172933214.39705      -446.328 5        35.710
I03        58.000   101076238.714 6 320859644.71606       862.136 6        41.209
R07        59.000    20692600.926 8 110769178.26508     -2591.906 8        49.324                                                                    20692598.852 7  86153859.00507     -2015.921 7        45.777
> 2025 01 02 03 46 45.0000000  0 57
G09         1.000    20157999.313 8 105931037.07108      -259.753 8        50.868                                    20157996.134 8  82543671.55108      -202.407 8        53.223    20157996.656 7  82543671.56007      -202.409 7        46.011
G06         2.000    21359771.072 8 112246377.17408      -511.856 8        48.254                                    21359769.086 8  87464715.14708      -398.848 8        50.070    21359769.931 7  87464723.15407      -398.861 7        45.992
E11         3.000    25223201.782 7 132548839.62207      1010.292 7        42.220                                                                    25223197.073 7  98981267.75007       754.419 7        43.772    25223196.904 7 101563383.86207       774.123 7        44.704
G16         4.000    24438191.621 6 128423576.29106      1647.847 6        38.243                                    24438187.516 3 100070301.60703      1284.033 3        19.104
S21         5.000    38622048.174 7 202959947.13707      -473.788 7        42.404
E10         6.000    24301907.696 8 127707399.94308      -550.675 8        48.053                                                                    24301906.102 8  95365913.30308      -411.245 8        50.637    24301905.959 8  97853719.08808      -421.962 8        51.470
G20         7.000    24912916.019 6 130918256.96206      2965.956 6        38.817                                    24912911.050 3 102014205.20803      2311.138 3        18.179
G03         8.000    22647882.236 7 119015521.42707     -3453.201 7        43.727                                    22647880.324 6  92739408.01506     -2690.807 6        41.411    22647881.592 6  92739406.00806     -2690.792 6        41.085
R10         9.000    22467418.990 6 119763983.01506      3355.279 6        39.282
G31        10.000    25112540.723 6 131967296.82706     -4104.066 6        39.123                                    25112535.961 4 102831642.92504     -3197.966 4        29.365    25112536.284 5 102831647.91405     -3197.903 5        35.100
G30        11.000    25494966.627 6 133976952.78906      3206.847 6        36.677                                    25494963.966 4 104397615.74904      2498.843 4        28.483    25494964.673 5 104397623.74005      2498.952 5        34.500
S27        12.000    39250866.729 6 206264735.26706      -477.734 6        36.533
G26        13.000    24322758.016 6 127816960.89106      -589.457 6        39.066                                    24322756.629 5  99597639.00605      -459.317 5        31.592    24322756.602 6  99597639.00106      -459.381 6        36.836
S36        14.000    38389588.013 7 201739170.95907      -473.971 7        44.760
I09        15.000    37868327.959 7 148603452.46107      -693.511 7        43.251
G19        16.000    24813081.206 6 130393635.01106     -3580.470 6        38.775                                    24813075.500 3 101605411.43103     -2789.962 3        21.048
S45        17.000    63578755.410 6 334109765.06706      -514.168 6        37.372
E12        19.000    24568845.207 7 129110162.51807     -1954.727 7        45.038                                                                    24568840.828 7  96413422.34107     -1459.653 7        46.600    24568841.071 8  98928554.47608     -1497.729 8        48.135
E21        20.000    28533963.764 6 149946979.77206      2230.385 6        36.907                                                                    28533963.725 6 111973406.90906      1665.458 6        40.508    28533963.332 6 114894448.89306      1708.899 6        40.215
G11        21.000    23230267.042 7 122075893.07907      1928.311 7        43.706                                    23230262.993 5  95124054.64105      1502.582 5        30.694    23230263.212 7  95124067.64407      1502.537 7        42.263
I06        22.000    38180827.544 7 149830012.12207      -306.955 7        43.361
S28        23.000    41052317.682 5 215731410.10705      -470.934 5        34.767
R08        24.000    19899076.292 8 106558691.98708       375.061 8        51.058                                                                    19899073.353 7  82878987.43407       291.655 7        46.678
S23        25.000    38331732.103 7 201434606.97807      -469.798 7        44.777
R01        26.000    23383760.516 6 124999602.82706      2735.309 6        41.630                                                                    23383760.560 5  97221905.31805      2127.391 5        35.214
R16        27.000    23163501.414 7 123735283.02407     -3070.276 7        44.035                                                                    23163501.420 6  96238555.47006     -2388.047 6        40.844
R24        29.000    21890848.239 8 117060213.07308      1523.538 8        48.274                                                                    21890847.076 7  91046820.62307      1185.013 7        44.187
E19        30.000    23150514.160 7 121656807.55807     -1083.718 7        43.509                                                                    23150511.305 7  90847618.95407      -809.188 7        45.675    23150511.474 7  93217553.54107      -830.393 7        47.304
C23        31.000                                                                                                                                    24787547.228 7 129075273.09907     -1257.036 7        45.309                                                                    24787538.202 7 104884200.29407     -1021.435 7        45.886
R23        32.000    20844356.087 8 111503267.74208     -2955.366 8        48.215
E29        33.000    26063277.387 7 136963530.54807     -2793.801 7        42.629                                                                    26063275.453 7 102277976.08107     -2086.205 7        45.809    26063275.263 7 104946091.68407     -2140.625 7        46.300
E04        34.000    25291844.730 7 132909577.20907      1518.827 7        45.013                                                                    25291842.422 7  99250669.62007      1134.198 7        47.651    25291842.282 8 101839813.00808      1163.817 8        48.880
C16        35.000                                                                                                                                    39609424.516 6 206256703.74306     -1361.113 6        40.653    39609424.555 7 159490779.43307     -1052.278 7        42.235    39609422.262 6 167600467.51106     -1105.932 6        38.336
C32        36.000                                                                                                                                    24308388.554 7 126580213.22807     -2773.810 7        46.863                                                                    24308388.234 7 102856812.92907     -2253.946 7        46.916
I01        37.000   381933605.697 7 195648696.91207     -2799.616 7        42.686
E27        38.000    27830329.598 6 146249371.54906       796.649 6        37.996                                                                    27830329.302 6 109212203.96206       594.836 6        41.137    27830328.502 6 112061214.32106       610.385 6        41.559
C19        39.000                                                                                                                                    24285853.734 7 126462818.12907      1833.648 7        46.641                                                                    24285848.953 7 102761376.52007      1489.970 7        46.577
C39        40.000                                                                                                                                    40370255.139 6 210218537.56406     -1619.766 6        40.555                                                                    40370250.294 6 170819776.72406     -1316.144 6        38.916
E33        41.000    27293674.446 6 143429311.86206     -3738.346 6        38.823                                                                    27293672.863 7 107106336.20507     -2791.436 7        43.429    27293672.301 7 109900410.58707     -2864.260 7        44.558
S44        42.000    40922189.688 6 215047760.16206      -548.640 6        37.558
R06        43.000    24468733.764 5 130569894.89905     -3839.324 5        31.140
C05        44.000                                                                                                                                    39345476.848 6 204882264.96406      -511.163 6        38.850    39345470.152 7 158427990.24607      -395.286 7        43.249    39345472.356 6 166483728.15006      -415.286 6        40.193
C29        45.000                                                                                                                                    24686313.833 7 128548135.14807     -3110.628 7        45.625                                                                    24686311.243 7 104455887.50507     -2527.625 7        44.099
G04        46.000    20795315.845 7 109280157.95007     -2044.865 7        46.767                                    20795312.181 6  85153356.56706     -1593.402 6        38.165    20795312.105 7  85153358.56207     -1593.385 7        46.990
E30        47.000    29003395.906 6 152413892.70006     -1378.660 6        36.015                                                                    29003395.233 6 113815561.78506     -1029.617 6        39.916    29003394.859 6 116784661.87106     -1056.535 6        40.617
R22        48.000    23235681.337 7 124033665.50407     -4942.682 7        43.776                                                                    23235678.663 6  96470624.86206     -3844.186 6        41.516
C20        49.000                                                                                                                                    22050208.414 8 114821248.92608      -289.430 8        52.267                                                                    22050202.068 8  93301654.72408      -235.147 8        49.391
C06        50.000                                                                                                                                    39044760.211 6 203316344.97006     -1324.130 6        39.907    39044753.982 7 157217078.74407     -1023.994 7        43.566    39044753.869 6 165211165.79006     -1076.019 6        40.420
S48        51.000    77363785.566 6 406548414.57306      -460.932 6        38.099
E06        52.000    27486633.048 6 144443249.99106      2077.049 6        39.426                                                                    27486632.187 6 107863476.17506      1550.983 6        41.163    27486631.968 6 110677303.99906      1591.431 6        41.535
C09        53.000                                                                                                                                    38785371.987 7 201965630.85307      -889.255 7        42.775    38785367.934 7 156172628.16907      -687.523 7        46.815    38785365.913 7 164113598.73107      -722.520 7        42.038
C60        54.000                                                                                                                                    40922190.576 6 213092800.06906      -543.679 6        39.643                                                                    40922174.636 6 173155327.04906      -442.073 6        40.446
R09        55.000    21295748.939 8 113718138.59408       607.130 8        48.005                                                                    21295748.182 7  88447435.84907       472.170 7        46.469
G07        56.000    22737293.259 7 119485300.93407      2354.035 7        46.161                                    22737288.630 7  93105412.31307      1834.313 7        43.103    22737288.649 6  93105421.31106      1834.337 6        41.578
C02        57.000                                                                                                                                    40870247.622 5 212822162.56005      -549.271 5        35.514    40870239.768 6 164567592.96106      -424.605 6        39.688    40870243.680 5 172935445.76405      -446.305 5        35.695
I03        58.000   101075140.412 6 320855334.19806       861.961 6        41.099
R07        59.000    20695023.126 8 110782141.75108     -2593.504 8        50.186                                                                    20695020.734 7  86163941.71207     -2017.160 7        45.800
> 2025 01 02 03 46 50.0000000  0 57
G09         1.000    20158247.491 8 105932341.27008      -262.073 8        50.891                                    20158244.304 8  82544687.81208      -204.215 8        53.201    20158244.618 7  82544687.81507      -204.242 7        45.675
G06         2.000    21360259.324 8 112248944.83308      -515.423 8        48.182                                    21360257.687 8  87466715.91908      -401.627 8        50.041    21360258.496 7  87466723.92207      -401.569 7        45.830
E11         3.000    25222241.348 7 132543793.17807      1008.091 7        42.032                                                                    25222236.727 7  98977499.29307       752.854 7        43.882    25222236.633 7 101559517.10307       772.446 7        44.588
G16         4.000    24436625.234 6 128415342.96606      1645.221 6        37.958                                    24436620.977 3 100063886.02103      1282.001 3        19.075
S21         5.000    38622497.523 7 202962316.28807      -473.931 7        42.502
E10         6.000    24302432.888 8 127710159.73408      -553.398 8        48.014                                                                    24302431.296 8  95367974.18408      -413.220 8        50.678    24302431.131 8  97855833.73208      -424.007 8        51.363
G20         7.000    24910094.537 6 130903427.67606      2965.668 6        38.138                                    24910089.165 3 102002649.91903      2310.894 3        18.567
G03         8.000    22651169.199 7 119032791.41607     -3454.927 7        43.575                                    22651166.828 6  92752865.14406     -2692.147 6        41.421    22651167.660 6  92752863.13406     -2692.047 6        40.958
R10         9.000    22464272.545 6 119747211.64006      3353.172 6        39.574
G31        10.000    25116445.700 6 131987820.37006     -4105.416 6        39.252                                    25116441.377 4 102847635.29804     -3199.023 4        29.507    25116441.707 5 102847640.29205     -3198.696 5        35.057
G30        11.000    25491915.579 6 133960919.06006      3206.563 6        36.628                                    25491912.791 4 104385121.94604      2498.608 4        28.360    25491913.190 5 104385129.93805      2498.605 5        33.928
S27        12.000    39251322.638 6 206267124.72706      -477.769 6        36.219
G26        13.000    24323320.503 6 127819915.89306      -592.665 6        39.108                                    24323318.887 5  99599941.60805      -461.817 5        31.509    24323318.520 6  99599941.62406      -462.045 6        36.495
S36        14.000    38390041.614 7 201741540.94407      -474.224 7        44.906
I09        15.000    37869211.631 7 148606920.02307      -693.692 7        43.209
G19        16.000    24816488.409 6 130411537.99806     -3581.027 6        38.396                                    24816482.076 3 101619361.79903     -2790.412 3        20.714
S45        17.000    63579207.048 6 334112335.92006      -514.407 6        37.425
E12        19.000    24570705.966 7 129119941.41207     -1957.048 7        45.022                                                                    24570701.732 7  96420724.77107     -1461.423 7        46.650    24570701.931 7  98936047.39807     -1499.555 7        47.941
E21        20.000    28531841.743 6 149935829.07406      2229.800 6        36.945                                                                    28531841.821 6 111965080.07106      1665.218 6        40.389    28531841.330 6 114885904.85006      1708.511 6        39.985
G11        21.000    23228433.443 7 122066257.57907      1925.708 7        43.640                                    23228429.435 5  95116546.46605      1500.546 5        30.641    23228429.590 7  95116559.46407      1500.561 7        42.227
I06        22.000    38181218.691 7 149831546.68907      -307.036 7        43.350
S28        23.000    41052768.784 5 215733764.09305      -470.868 5        34.710
R08        24.000    19898727.857 8 106556821.39108       372.917 8        51.213                                                                    19898724.452 7  82877532.50907       290.095 7        46.673
S23        25.000    38332177.231 7 201436955.88007      -470.021 7        44.524
R01        26.000    23381203.182 7 124985927.21807      2734.612 7        42.157                                                                    23381203.071 6  97211268.71306      2127.085 6        36.072
R16        27.000    23166378.124 7 123750643.22607     -3073.910 7        44.486                                                                    23166376.773 6  96250502.27906     -2390.752 6        40.861
R24        29.000    21889425.470 8 117052605.77008      1519.303 8        48.094                                                                    21889424.642 7  91040903.84807      1181.592 7        44.653
E19        30.000    23151545.866 7 121662229.45307     -1085.050 7        43.223                                                                    23151543.134 7  90851667.78307      -810.405 7        45.699    23151543.184 7  93221707.98907      -831.524 7        47.193
C23        31.000                                                                                                                                    24788755.323 7 129081565.13407     -1259.947 7        45.400                                                                    24788746.519 7 104889313.08207     -1023.800 7        45.880
R23        32.000    20847120.232 8 111518054.28308     -2959.442 8        48.485
E29        33.000    26065935.702 7 136977500.29507     -2794.359 7        42.728                                                                    26065933.714 7 102288408.04107     -2086.660 7        45.725    26065933.534 7 104956795.78407     -2141.118 7        46.277
E04        34.000    25290399.819 7 132901985.52107      1517.713 7        44.799                                                                    25290397.740 7  99245000.50007      1133.353 7        47.768    25290397.632 8 101833996.00308      1162.881 8        48.858
C16        35.000                                                                                                                                    39610731.568 6 206263509.36506     -1361.491 6        40.925    39610731.645 7 159496041.97807     -1052.783 7        42.305    39610729.250 6 167605997.62206     -1106.178 6        38.426
C32        36.000                                                                                                                                    24311052.491 7 126594084.23207     -2774.698 7        46.565                                                                    24311052.006 7 102868084.24607     -2254.726 7        47.045
I01        37.000   381937173.179 7 195662695.02907     -2799.811 7        42.728
E27        38.000    27829572.696 6 146245393.78306       794.244 6        38.027                                                                    27829572.387 6 109209233.53906       593.338 6        41.139    27829571.578 6 112058166.41306       608.666 6        41.364
C19        39.000                                                                                                                                    24284094.000 7 126453651.65407      1832.778 7        46.722                                                                    24284088.648 7 102753928.00407      1489.304 7        46.461
C39        40.000                                                                                                                                    40371810.312 6 210226636.60706     -1620.129 6        40.558                                                                    40371805.751 6 170826357.86206     -1316.422 6        38.769
E33        41.000    27297231.359 6 143448003.47006     -3738.659 6        38.664                                                                    27297229.730 7 107120294.22607     -2791.871 7        43.507    27297228.997 7 109914732.72807     -2864.735 7        44.131
S44        42.000    40922710.658 6 215050503.84406      -548.611 6        37.100
R06        43.000    24472329.063 5 130589090.92005     -3839.346 5        30.521
C05        44.000                                                                                                                                    39345967.403 6 204884820.55806      -511.242 6        38.751    39345961.033 7 158429966.40107      -395.305 7        43.185    39345963.067 6 166485804.78406      -415.448 6        40.126
C29        45.000                                                                                                                                    24689301.288 7 128563691.81307     -3112.165 7        45.342                                                                    24689298.905 7 104468528.56107     -2528.909 7        44.098
G04        46.000    20797262.435 7 109290386.68807     -2046.836 7        46.822                                    20797258.691 6  85161327.01306     -1594.935 6        38.126    20797258.465 7  85161329.01607     -1594.975 7        46.942
E30        47.000    29004708.851 5 152420792.63205     -1381.137 5        35.395                                                                    29004708.336 6 113820714.34406     -1031.557 6        39.817    29004707.706 6 116789948.84106     -1058.352 6        40.296
R22        48.000    23240311.171 7 124058380.03807     -4943.384 7        43.742                                                                    23240308.943 6  96489847.29806     -3844.801 6        41.321
C20        49.000                                                                                                                                    22050486.875 8 114822699.79408      -291.045 8        52.121                                                                    22050480.661 8  93302833.66808      -236.460 8        49.359
C06        50.000                                                                                                                                    39046031.907 6 203322966.94106     -1324.751 6        40.060    39046025.635 7 157222199.25007     -1024.370 7        43.763    39046025.561 6 165216546.66606     -1076.382 6        40.157
S48        51.000    77364227.430 6 406550718.97106      -461.053 6        37.936
E06        52.000    27484657.152 6 144432866.37006      2076.310 6        39.907                                                                    27484656.267 6 107855722.17106      1550.512 6        41.011    27484655.951 6 110669347.71306      1590.949 6        41.485
C09        53.000                                                                                                                                    38786226.128 7 201970078.29107      -889.967 7        42.516    38786221.909 7 156176067.20607      -688.151 7        46.888    38786220.082 7 164117212.62407      -722.996 7        42.034
C60        54.000                                                                                                                                    40922712.624 6 213095518.83106      -544.023 6        39.399                                                                    40922696.890 6 173157536.25006      -441.992 6        40.541
R09        55.000    21295182.744 8 113715113.64108       602.636 8        48.044                                                                    21295181.113 7  88445083.09907       468.753 7        45.862
G07        56.000    22735053.995 7 119473534.44607      2352.323 7        46.424                                    22735049.586 7  93096243.62207      1832.977 7        43.010    22735049.974 6  93096252.62306      1833.006 6        41.785
C02        57.000                                                                                                                                    40870775.368 5 212824909.02305      -549.558 5        35.448    40870767.330 6 164569716.69306      -424.850 6        39.712    40870771.166 5 172937677.47505      -446.448 5        35.781
I03        58.000   101074042.216 6 320851024.03606       861.899 6        41.104
R07        59.000    20697446.439 8 110795112.72408     -2595.064 8        50.141                                                                    20697444.351 7  86174030.23707     -2018.402 7        46.056
