     3.04           OBSERVATION DATA    M                   RINEX VERSION / TYPE
ssrcrin-15.6.1x                         20250102 091500 UTC PGM / RUN BY / DATE 
(00000000023479385599111004) Septentrio proprietary         COMMENT             
rref                                                        MARKER NAME         
01                                                          MARKER NUMBER       
geodetic                                                    MARKER TYPE         
NFB                 CLIMERS@TUW                             OBSERVER / AGENCY   
3297213             SEPT ASTERX SB3 PROB4.14.4              REC # / TYPE / VERS 
Unknown             Unknown                                 ANT # / TYPE        
  4127831.6536  1207193.1308  4695248.2798                  APPROX POSITION XYZ 
        0.0000        0.0000        0.0000                  ANTENNA: DELTA H/E/N
G   23 X1  C1C L1C D1C S1C C1W S1W C2W L2W D2W S2W C2L L2L  SYS / # / OBS TYPES 
       D2L S2L C5Q L5Q D5Q S5Q C1L L1L D1L S1L              SYS / # / OBS TYPES 
E   21 X1  C1C L1C D1C S1C C6C L6C D6C S6C C5Q L5Q D5Q S5Q  SYS / # / OBS TYPES 
       C7Q L7Q D7Q S7Q C8Q L8Q D8Q S8Q                      SYS / # / OBS TYPES 
S    9 X1  C1C L1C D1C S1C C5I L5I D5I S5I                  SYS / # / OBS TYPES 
R   17 X1  C1C L1C D1C S1C C2P L2P D2P S2P C2C L2C D2C S2C  SYS / # / OBS TYPES 
       C3Q L3Q D3Q S3Q                                      SYS / # / OBS TYPES 
C   25 X1  C1P L1P D1P S1P C5P L5P D5P S5P C2I L2I D2I S2I  SYS / # / OBS TYPES 
       C7I L7I D7I S7I C6I L6I D6I S6I C7D L7D D7D S7D      SYS / # / OBS TYPES 
J   17 X1  C1C L1C D1C S1C C2L L2L D2L S2L C5Q L5Q D5Q S5Q  SYS / # / OBS TYPES 
       C1L L1L D1L S1L                                      SYS / # / OBS TYPES 
I    5 X1  C5A L5A D5A S5A                                  SYS / # / OBS TYPES 
SEPTENTRIO RECEIVERS OUTPUT ALIGNED CARRIER PHASES.         COMMENT             
NO FURTHER PHASE SHIFT APPLIED IN THE RINEX ENCODER.        COMMENT             
G L1C                                                       SYS / PHASE SHIFT   
G L2W                                                       SYS / PHASE SHIFT   
G L2L  0.00000                                              SYS / PHASE SHIFT   
G L5Q  0.00000                                              SYS / PHASE SHIFT   
G L1L  0.00000                                              SYS / PHASE SHIFT   
E L1C  0.00000                                              SYS / PHASE SHIFT   
E L6C  0.00000                                              SYS / PHASE SHIFT   
E L5Q  0.00000                                              SYS / PHASE SHIFT   
E L7Q  0.00000                                              SYS / PHASE SHIFT   
E L8Q  0.00000                                              SYS / PHASE SHIFT   
S L1C                                                       SYS / PHASE SHIFT   
S L5I                                                       SYS / PHASE SHIFT   
R L1C                                                       SYS / PHASE SHIFT   
R L2P  0.00000                                              SYS / PHASE SHIFT   
R L2C                                                       SYS / PHASE SHIFT   
R L3Q  0.00000                                              SYS / PHASE SHIFT   
C L1P  0.00000                                              SYS / PHASE SHIFT   
C L5P  0.00000                                              SYS / PHASE SHIFT   
C L2I                                                       SYS / PHASE SHIFT   
C L7I                                                       SYS / PHASE SHIFT   
C L6I                                                       SYS / PHASE SHIFT   
C L7D                                                       SYS / PHASE SHIFT   
J L1C                                                       SYS / PHASE SHIFT   
J L2L  0.00000                                              SYS / PHASE SHIFT   
J L5Q  0.00000                                              SYS / PHASE SHIFT   
J L1L  0.00000                                              SYS / PHASE SHIFT   
I L5A                                                       SYS / PHASE SHIFT   
  2025     1     2     9    15    0.0000000     GPS         TIME OF FIRST OBS   
 C1C    0.000 C2C    0.000 C2P    0.000                     GLONASS COD/PHS/BIS 
DBHZ                                                        SIGNAL STRENGTH UNIT
    18                                                      LEAP SECONDS        
 24 R01  1 R02 -4 R03  5 R04  6 R05  1 R06 -4 R07  5 R08  6 GLONASS SLOT / FRQ #
    R09 -2 R10 -7 R11  0 R12 -1 R13 -2 R14 -7 R15  0 R16 -1 GLONASS SLOT / FRQ #
    R17  4 R18 -3 R19  3 R20  2 R21  4 R22 -3 R23  3 R24  2 GLONASS SLOT / FRQ #
                                                            END OF HEADER       
> 2025 01 02 09 15  0.0000000  0 53
E24         1.000    25850590.777 7 135845851.32907      2204.196 7        44.390                                                                    25850595.913 7 101443387.88807      1645.995 7        46.343    25850594.760 7 104089727.28007      1688.930 7        46.925
G15         2.000    20289802.416 8 106623587.08608       684.638 8        48.849                                    20289800.687 8  83083291.64608       533.483 8        48.900    20289801.067 7  83083286.64107       533.510 7        45.100
E15         3.000    28416093.679 5 149327542.78205     -1209.148 5        35.757                                                                    28416099.656 6 111510818.14106      -902.837 6        39.577    28416099.008 6 114419793.27806      -926.506 6        40.703
G19         4.000    24530812.132 6 128910325.81906      2886.704 6        40.038                                    24530817.811 4 100449606.29404      2249.365 4        25.594
S21         5.000    38352430.766 7 201543002.57007      -514.750 7        42.311
E05         6.000    23696900.072 7 124528010.96107      1676.800 7        44.042                                                                    23696903.807 7  92991670.78307      1252.126 7        47.445    23696903.033 8  95417539.96608      1284.745 8        48.032
S45         7.000    63378597.343 6 333058059.01406      -564.129 6        36.159
R02         8.000    19881935.723 8 106093756.55808     -3152.109 8        52.365                                                                    19881938.401 7  82517351.06907     -2451.629 7        47.084
R20         9.000    23808034.399 5 127312275.91905     -1916.567 5        31.479                                                                    23808040.178 6  99020678.54806     -1490.651 6        40.622
G24        10.000    22993093.035 6 120829487.42606      2682.645 6        41.919                                    22993096.504 6  94152853.74906      2090.369 6        37.826    22993096.472 6  94152858.76406      2090.292 6        38.664
G30        11.000    22855762.990 7 120107772.09507     -3199.271 7        43.700                                    22855766.168 6  93590442.88606     -2492.938 6        40.646    22855766.773 6  93590450.89706     -2493.039 6        40.157
S27        12.000    39063166.925 6 205278187.75006      -547.719 6        36.552
G13        13.000    19845745.314 8 104290054.47908     -1286.726 8        48.946                                    19845742.883 6  81264945.60606     -1002.645 6        40.717
S36        14.000    38122008.225 7 200332940.07107      -515.635 7        44.369
I09        15.000    40327043.421 6 158251709.64206     -1042.531 6        40.067
E09        16.000    23362934.089 8 122773024.65408      -851.400 8        48.648                                                                    23362936.284 8  91681141.27708      -635.816 8        50.710    23362935.563 8  94072820.92408      -652.352 8        51.170
R21        18.000    23397433.828 7 125204453.23507      1095.919 7        42.834                                                                    23397439.971 6  97381295.37506       852.361 6        39.622
R03        21.000    19629373.094 8 105077533.61108      1179.130 8        52.744                                                                    19629373.134 7  81726961.04007       917.103 7        47.741
I06        22.000    38031475.706 7 149243801.34507      -473.315 7        42.785
S28        23.000    40796628.364 5 214387560.59905      -524.762 5        35.119
S23        25.000    38054590.256 7 199978141.62907      -516.076 7        44.144
R01        26.000                                                                                                                                    23788678.653 3                     -3926.047 3        18.955
C07        27.000                                                                                                                                    38723890.778 6 201645425.64006      -407.088 6        41.447    38723889.097 7 155925020.12207      -314.770 7        44.376    38723886.417 6 163853402.21406      -330.799 6        41.549
R04        28.000    23112515.781 7 123766441.09007      3667.054 7        45.342                                                                    23112519.258 6  96262759.78006      2852.213 6        41.526
C40        29.000                                                                                                                                    38728492.996 7 201669409.13707      -463.066 7        43.642                                                                    38728494.997 7 163872914.87907      -376.178 7        43.388
G17        30.000    22890904.667 7 120292614.54007      1792.319 7        44.345                                    22890906.916 6  93734557.92006      1396.613 6        40.026    22890907.277 6  93734554.92906      1396.656 6        40.672
G14        31.000    20751967.097 7 109052313.18607     -1915.597 7        47.082                                    20751966.198 6  84975825.25806     -1492.672 6        38.577    20751966.823 7  84975811.25907     -1492.695 7        47.451
G23        32.000    23456435.597 7 123264348.49807      1275.680 7        42.004                                    23456436.176 4  96050115.61604       994.041 4        27.533    23456436.990 6  96050110.62406       993.903 6        41.535
I02        33.000    37180967.716 7 145906099.74507        -3.885 7        43.378
E04        34.000    25612747.712 7 134595840.31907     -3002.027 7        43.314                                                                    25612752.451 7 100509864.47507     -2241.801 7        47.035    25612751.676 7 103131859.64307     -2300.277 7        47.463
R13        35.000    19440851.277 7 103813096.10207       793.551 7        47.079
R12        36.000    19731731.907 8 105403345.53708     -2644.903 8        51.560                                                                    19731734.514 7  81980378.11007     -2057.226 7        47.894
C42        37.000                                                                                                                                    26549084.427 6 138248053.00906      2622.246 6        39.315                                                                    26549096.696 7 112337912.63207      2130.954 7        42.061
C10        38.000                                                                                                                                    38562456.676 7 200804817.88807       -24.120 7        42.121    38562457.573 7 155275021.63507       -18.605 7        45.091    38562454.357 6 163170350.36306       -19.633 6        41.433
C19        39.000                                                                                                                                    26181479.892 6 136333609.02006     -4073.376 6        41.704                                                                    26181486.316 6 110782154.38306     -3309.956 6        41.824
C30        40.000                                                                                                                                    26073654.840 6 135772373.34506      1993.099 6        41.538                                                                    26073662.749 6 110326209.76906      1619.711 6        40.322
G05        41.000    23468847.387 7 123329498.07207     -3965.634 7        42.457                                    23468851.417 6  96100854.48906     -3090.093 6        38.033    23468852.101 6  96100863.48506     -3090.110 6        39.796
S44        42.000    40799091.749 6 214400711.04506      -503.696 6        36.533
C36        43.000                                                                                                                                    21650827.121 8 112741506.81208     -1580.175 8        50.444                                                                    21650833.851 8  91611722.45408     -1283.983 8        50.137
C05        44.000                                                                                                                                    39296405.052 6 204626602.47306      -565.714 6        39.141    39296405.891 7 158230262.57507      -437.385 7        42.436    39296405.944 6 166275954.83806      -459.654 6        39.598
R14        45.000    23652099.556 7 126079001.91607      3266.705 7        44.519                                                                    23652109.906 6  98061500.66106      2540.697 6        40.503
R11        47.000    24310463.939 6 129907542.09006     -4470.617 6        40.579                                                                    24310473.385 5 101039155.85905     -3476.964 5        35.952
C45        50.000                                                                                                                                    22354996.830 8 116408356.29708      1190.016 8        50.051                                                                    22354991.333 8  94591312.48408       967.005 8        49.797
S48        51.000    77064922.862 6 404978846.45706      -505.577 6        37.777
E06        52.000    23860141.252 8 125385855.91208     -2088.931 8        48.536                                                                    23860144.811 8  93632289.69608     -1559.940 8        50.173    23860144.201 8  96074870.99308     -1600.641 8        50.857
C09        53.000                                                                                                                                    41131435.644 5 214182007.90205     -1127.452 5        35.048    41131444.360 6 165619055.58106      -871.747 6        40.534    41131439.811 6 174040365.37906      -916.050 6        36.560
C60        54.000                                                                                                                                    40799097.556 6 212451631.49406      -499.154 6        40.079                                                                    40799089.876 6 172634285.48406      -405.569 6        38.640
E31        55.000    23317144.212 8 122532421.57908      -150.850 8        48.552                                                                    23317147.336 8  91501515.49108      -112.679 8        50.513    23317146.656 8  93888507.69208      -115.546 8        51.014
C26        56.000                                                                                                                                    26937119.274 6 140268645.25206      2511.382 6        37.637                                                                    26937124.448 6 113979788.19006      2040.512 6        37.395
C02        57.000                                                                                                                                    40868790.781 5 212814392.76805      -548.194 5        32.108    40868795.885 6 164561536.48206      -424.303 6        37.365    40868796.426 5 172929093.28705      -446.102 5        31.653
I03        58.000    94713056.248 6 295888899.90806       861.369 6        40.548
C21        59.000                                                                                                                                    23026260.039 8 119903730.33408       699.313 8        48.936                                                                    23026256.646 8  97431569.04208       568.300 8        49.037
C22        60.000                                                                                                                                    22349740.757 8 116380899.09008     -2538.098 8        51.001                                                                    22349737.402 8  94568975.86808     -2062.374 8        49.680
> 2025 01 02 09 15  5.0000000  0 52
E24         1.000    25848493.887 7 135834832.21407      2203.372 7        44.220                                                                    25848498.907 7 101435159.35707      1645.369 7        46.267    25848497.745 7 104081284.08607      1688.314 7        47.078
G15         2.000    20289152.206 8 106620171.08108       681.681 8        48.667                                    20289150.643 8  83080629.82208       531.181 8        48.881    20289150.964 7  83080624.82507       531.160 7        45.138
E15         3.000    28417244.946 5 149333593.60405     -1211.125 5        35.781                                                                    28417251.071 6 111515336.61106      -904.591 6        39.297    28417250.489 6 114424429.62006      -928.235 6        40.894
G19         4.000    24528065.376 6 128895891.62306      2886.945 6        40.164                                    24528070.956 4 100438358.92304      2249.554 4        25.233
S21         5.000    38352923.127 7 201545576.32507      -514.650 7        42.290
E05         6.000    23695304.807 7 124519628.71007      1676.044 7        44.001                                                                    23695308.702 7  92985411.31107      1251.612 7        47.264    23695307.934 8  95411117.20308      1284.244 8        48.161
S45         7.000    63379084.401 6 333060878.39906      -563.795 6        36.132
R02         8.000    19884890.667 8 106109524.91508     -3155.337 8        52.543                                                                    19884893.810 7  82529615.32407     -2454.141 7        47.272
R20         9.000    23809826.520 5 127321867.97905     -1920.012 5        30.740                                                                    23809835.116 6  99028139.07706     -1493.641 6        40.305
G24        10.000    22990540.580 7 120816076.14107      2681.980 7        42.140                                    22990544.356 6  94142403.40906      2089.851 6        37.811    22990544.846 6  94142408.43506      2089.651 6        38.273
G30        11.000    22858807.734 7 120123770.26407     -3199.895 7        43.642                                    22858810.556 6  93602908.97406     -2493.419 6        40.567    22858811.139 6  93602916.97206     -2493.434 6        39.943
S27        12.000    39063684.488 6 205280925.56006      -547.479 6        36.514
G13        13.000    19846970.933 8 104296494.18908     -1289.188 8        48.835                                    19846968.313 6  81269963.56006     -1004.559 6        40.751
S36        14.000    38122493.853 7 200335517.79707      -515.461 7        44.333
I09        15.000    40328371.735 6 158256921.45706     -1042.342 6        40.029
E09        16.000    23363744.865 8 122777285.47508      -852.970 8        48.529                                                                    23363747.114 8  91684323.05508      -636.995 8        50.617    23363746.375 8  94076085.70708      -653.624 8        51.307
R21        18.000    23396411.825 7 125198982.37107      1092.321 7        43.048                                                                    23396418.046 6  97377040.22206       849.621 6        39.877
R03        21.000    19628273.019 8 105071646.81208      1175.542 8        52.577                                                                    19628273.864 7  81722382.41307       914.335 7        47.592
I06        22.000    38032078.876 7 149246167.61907      -473.186 7        42.629
S28        23.000    40797127.003 5 214390183.30005      -524.536 5        35.124
S23        25.000    38055081.312 7 199980721.01907      -515.726 7        44.205
C07        27.000                                                                                                                                    38724281.385 6 201647462.27906      -407.544 6        41.447    38724280.137 7 155926594.94307      -315.201 7        44.271    38724277.438 6 163855057.10606      -331.209 6        41.459
R04        28.000    23109092.841 7 123748107.47907      3666.356 7        44.969                                                                    23109095.389 6  96248500.27906      2851.585 6        41.049
C40        29.000                                                                                                                                    38728937.914 7 201671725.74307      -463.678 7        43.765                                                                    38728939.843 7 163874797.31107      -376.924 7        43.448
G17        30.000    22889200.096 7 120283656.79707      1790.671 7        43.761                                    22889202.436 6  93727577.86106      1395.326 6        40.086    22889202.544 6  93727574.86906      1395.261 6        41.006
G14        31.000    20753790.782 7 109061896.99707     -1917.997 7        47.163                                    20753789.923 6  84983293.15406     -1494.544 6        38.523    20753790.125 7  84983279.15307     -1494.504 7        47.111
G23        32.000    23455223.226 7 123257977.41207      1272.808 7        42.142                                    23455223.772 4  96045151.12104       991.798 4        27.413    23455224.088 6  96045146.13106       991.792 6        41.666
I02        33.000    37180972.796 7 145906118.33007        -3.801 7        43.333
E04        34.000    25615604.354 7 134610852.75207     -3003.054 7        43.154                                                                    25615609.039 7 100521075.03007     -2242.468 7        46.858    25615608.406 7 103143362.65607     -2300.950 7        47.680
R13        35.000    19440109.441 7 103809135.28907       790.739 7        47.126
R12        36.000    19734208.290 8 105416575.29808     -2647.041 8        51.502                                                                    19734211.249 8  81990667.91808     -2058.877 8        48.035
C42        37.000                                                                                                                                    26546567.778 6 138234942.31506      2621.869 6        39.730                                                                    26546578.567 6 112327259.08906      2130.522 6        41.816
C10        38.000                                                                                                                                    38562479.425 7 200804939.44507       -24.544 7        42.178    38562480.909 7 155275115.62307       -19.021 7        44.936    38562477.745 6 163170449.11906       -20.048 6        41.473
C19        39.000                                                                                                                                    26185391.121 6 136353975.76206     -4073.271 6        41.328                                                                    26185397.771 7 110798703.97707     -3309.937 7        42.019
C30        40.000                                                                                                                                    26071741.064 6 135762409.84806      1992.327 6        41.159                                                                    26071749.516 6 110318113.60306      1619.077 6        40.553
G05        41.000    23472621.096 7 123349328.18607     -3966.267 7        42.070                                    23472625.028 6  96116306.48606     -3090.590 6        37.853    23472625.496 6  96116315.49906     -3090.972 6        39.802
S44        42.000    40799576.688 6 214403228.90306      -503.499 6        36.461
C36        43.000                                                                                                                                    21652345.098 8 112749410.98808     -1581.581 8        50.483                                                                    21652351.790 8  91618145.22808     -1285.226 8        50.147
C05        44.000                                                                                                                                    39296947.237 6 204629430.46006      -565.347 6        39.039    39296948.808 7 158232449.37007      -437.301 7        42.354    39296948.942 6 166278252.82906      -459.660 6        39.559
R14        45.000    23649036.045 7 126062670.00907      3266.071 7        44.989                                                                    23649046.426 6  98048798.06706      2540.396 6        40.360
R11        47.000    24314646.186 6 129929893.59006     -4469.983 6        40.243                                                                    24314656.127 5 101056540.34605     -3476.636 5        35.629
C45        50.000                                                                                                                                    22353854.858 8 116402409.77008      1188.581 8        50.109                                                                    22353849.335 8  94586480.43908       965.817 8        49.839
S48        51.000    77065407.975 6 404981373.34206      -505.401 6        38.048
E06        52.000    23862129.449 8 125396304.03908     -2090.331 8        48.209                                                                    23862133.098 8  93640091.85408     -1561.022 8        50.058    23862132.427 8  96082876.68408     -1601.710 8        50.973
C09        53.000                                                                                                                                    41132517.583 5 214187644.59705     -1127.136 5        35.529    41132527.106 6 165623414.23906      -871.478 6        39.925    41132522.375 6 174044945.66406      -916.023 6        36.703
C60        54.000                                                                                                                                    40799576.762 6 212454126.45606      -498.870 6        40.157                                                                    40799569.041 6 172636312.85306      -405.558 6        38.306
E31        55.000    23317288.436 8 122533180.53908      -152.812 8        48.522                                                                    23317291.706 8  91502082.24408      -114.095 8        50.454    23317291.055 8  93889089.23408      -117.101 8        51.190
C26        56.000                                                                                                                                    26934709.007 6 140256089.18106      2511.201 6        37.943                                                                    26934713.409 6 113969585.31906      2040.245 6        37.380
C02        57.000                                                                                                                                    40869317.400 5 212817134.04005      -548.305 5        32.216    40869322.338 6 164563656.17406      -424.082 6        37.206    40869322.561 5 172931320.72605      -445.018 5        31.562
I03        58.000    94711958.564 6 295884592.47406       861.554 6        40.329
C21        59.000                                                                                                                                    23025589.458 8 119900239.48908       696.904 8        48.937                                                                    23025586.228 8  97428732.43308       566.245 8        49.073
C22        60.000                                                                                                                                    22352178.972 8 116393594.67308     -2540.179 8        51.047                                                                    22352175.450 8  94579292.04808     -2064.215 8        49.660
> 2025 01 02 09 15 10.0000000  0 52
E24         1.000    25846398.123 7 135823818.34407      2202.155 7        44.254                                                                    25846403.143 7 101426934.74607      1644.441 7        46.265    25846401.818 7 104072844.91507      1687.343 7        47.277
G15         2.000    20288504.969 8 106616770.67108       678.483 8        48.823                                    20288503.568 8  83077980.14708       528.686 8        48.878    20288504.157 7  83077975.14907       528.637 7        45.440
E15         3.000    28418399.171 5 149339655.87505     -1213.634 5        35.852                                                                    28418404.904 6 111519863.60506      -906.424 6        39.249    28418404.097 6 114429074.71206      -929.989 6        40.887
G19         4.000    24525318.016 6 128881457.37306      2886.701 6        40.062                                    24525324.150 4 100427111.52004      2249.361 4        25.248
S21         5.000    38353414.478 7 201548149.62907      -514.586 7        42.385
E05         6.000    23693710.553 7 124511250.71407      1675.164 7        44.110                                                                    23693714.387 7  92979155.02007      1250.926 7        47.310    23693713.609 8  95404697.70108      1283.529 8        48.258
S45         7.000    63379579.897 6 333062097.42216      -563.749 6        36.174
R02         8.000    19887849.215 8 106125310.70608     -3158.861 8        52.490                                                                    19887852.096 7  82541893.14907     -2456.950 7        47.350
R20         9.000    23811622.243 5 127331479.59105     -1924.254 5        31.351                                                                    23811632.198 6  99035614.78306     -1496.661 6        40.825
G24        10.000    22987989.318 7 120802668.97307      2681.010 7        42.336                                    22987992.996 6  94131956.27906      2089.095 6        37.803    22987994.056 6  94131961.27406      2089.009 6        38.216
G30        11.000    22861852.709 7 120139772.29407     -3200.873 7        43.314                                    22861855.579 6  93615378.06906     -2494.185 6        40.467    22861855.820 6  93615386.06606     -2494.169 6        40.045
S27        12.000    39064207.789 6 205283662.88606      -547.369 6        36.219
G13        13.000    19848198.649 8 104302947.54508     -1292.063 8        48.872                                    19848196.342 6  81274992.14506     -1006.803 6        40.741
S36        14.000    38122988.651 7 200338095.67807      -515.576 7        44.572
I09        15.000    40329699.789 6 158262132.82406     -1042.261 6        39.958
E09        16.000    23364557.192 8 122781555.13208      -854.865 8        48.736                                                                    23364559.572 8  91687511.42908      -638.341 8        50.629    23364558.879 8  94079357.25708      -654.998 8        51.424
R21        18.000    23395392.805 7 125193529.91107      1088.623 7        42.466                                                                    23395399.707 6  97372799.41906       846.591 6        39.874
R03        21.000    19627177.336 8 105065778.79908      1171.656 8        52.297                                                                    19627177.637 7  81717818.41107       911.301 7        47.617
I06        22.000    38032682.051 7 149248533.77207      -473.183 7        42.504
S28        23.000    40797623.850 5 214392805.53905      -524.392 5        35.257
S23        25.000    38055571.312 7 199983299.98707      -515.865 7        44.432
C07        27.000                                                                                                                                    38724672.829 6 201649502.38606      -408.515 6        41.244    38724671.890 7 155928172.46107      -315.776 7        44.260    38724669.163 6 163856714.85506      -331.801 6        41.483
R04        28.000    23105669.423 7 123729778.12507      3665.356 7        44.832                                                                    23105672.338 6  96234244.11706      2850.859 6        41.781
C40        29.000                                                                                                                                    38729383.464 7 201674046.83307      -464.716 7        43.338                                                                    38729385.694 7 163876683.40307      -377.533 7        43.399
G17        30.000    22887497.167 7 120274708.64407      1788.673 7        43.909                                    22887499.767 6  93720605.26106      1393.770 6        40.043    22887499.688 6  93720602.28106      1393.653 6        41.006
G14        31.000    20755616.955 7 109071493.50607     -1920.632 7        47.179                                    20755616.057 6  84990770.94906     -1496.594 6        38.604    20755616.066 7  84990756.94107     -1496.553 7        47.114
G23        32.000    23454013.620 6 123251620.74206      1269.837 6        41.559                                    23454014.238 4  96040197.87404       989.487 4        27.317    23454014.476 7  96040192.88607       989.474 7        42.011
I02        33.000    37180977.800 7 145906138.15707        -4.215 7        43.560
E04        34.000    25618462.197 7 134625870.12607     -3004.115 7        42.775                                                                    25618466.831 7 100532289.27907     -2243.253 7        46.757    25618465.980 7 103154869.44107     -2301.775 7        47.741
R13        35.000    19439370.892 7 103805189.61407       787.550 7        47.262
R12        36.000    19736687.407 8 105429816.49808     -2649.454 8        51.323                                                                    19736689.861 8  82000966.62508     -2060.695 8        48.195
C42        37.000                                                                                                                                    26544051.230 6 138221835.53306      2620.926 6        40.446                                                                    26544061.324 6 112316608.74006      2129.739 6        41.385
C10        38.000                                                                                                                                    38562503.387 7 200805064.29607       -25.266 7        42.110    38562504.876 7 155275212.16307       -19.570 7        45.061    38562501.680 6 163170550.58106       -20.487 6        41.595
C19        39.000                                                                                                                                    26189302.870 6 136374343.45006     -4073.610 6        41.349                                                                    26189309.054 6 110815254.34006     -3309.962 6        41.814
C30        40.000                                                                                                                                    26069828.460 6 135752450.84006      1991.395 6        40.996                                                                    26069836.983 6 110310021.10706      1618.222 6        40.706
G05        41.000    23476395.504 7 123369163.03907     -3967.441 7        42.373                                    23476399.529 6  96131762.17106     -3091.505 6        37.909    23476399.723 6  96131771.14706     -3091.575 6        40.563
S44        42.000    40800052.822 6 214405746.27906      -503.371 6        36.718
C36        43.000                                                                                                                                    21653864.526 8 112757323.08508     -1583.308 8        50.493                                                                    21653871.203 8  91624574.46108     -1286.462 8        50.230
C05        44.000                                                                                                                                    39297489.841 6 204632258.06306      -565.575 6        38.952    39297491.837 7 158234635.87107      -437.371 7        42.599    39297491.868 6 166280550.50806      -459.445 6        39.721
R14        45.000    23645973.039 7 126046342.34507      3265.156 7        45.085                                                                    23645982.150 6  98036098.76306      2539.552 6        39.568
R11        47.000    24318828.336 6 129952242.97606     -4469.685 6        40.138                                                                    24318839.092 5 101073923.20005     -3476.271 5        35.938
C45        50.000                                                                                                                                    22352714.487 8 116396471.04308      1186.880 8        49.993                                                                    22352708.871 8  94581654.75408       964.530 8        49.941
S48        51.000    77065898.802 6 404983899.49506      -505.308 6        38.291
E06        52.000    23864119.101 8 125406759.85308     -2091.961 8        48.112                                                                    23864122.779 8  93647899.74508     -1562.164 8        50.054    23864122.112 8  96090888.26608     -1602.923 8        51.135
C09        53.000                                                                                                                                    41133601.187 5 214193281.12205     -1127.414 5        35.762    41133609.650 6 165627772.72406      -871.683 6        40.424    41133604.780 6 174049525.78306      -916.156 6        36.612
C60        54.000                                                                                                                                    40800055.565 6 212456620.95906      -498.941 6        40.081                                                                    40800048.104 6 172638339.85106      -405.434 6        38.691
E31        55.000    23317434.749 8 122533949.90408      -154.977 8        48.383                                                                    23317438.136 8  91502656.77808      -115.743 8        50.419    23317437.458 8  93889678.75608      -118.736 8        51.268
C26        56.000                                                                                                                                    26932297.762 6 140243534.25406      2510.799 6        38.054                                                                    26932302.675 6 113959383.39106      2040.134 6        37.248
C02        57.000                                                                                                                                    40869844.067 5 212819874.80805      -547.986 5        31.909    40869848.702 6 164565775.50406      -424.066 6        37.403    40869848.952 5 172933547.85105      -445.562 5        31.819
I03        58.000    94710861.153 6 295880284.62806       861.501 6        40.374
C21        59.000                                                                                                                                    23024921.379 8 119896761.40408       694.265 8        49.028                                                                    23024918.311 8  97425906.21508       564.198 8        49.122
C22        60.000                                                                                                                                    22354619.258 8 116406301.65808     -2542.612 8        51.141                                                                    22354615.674 8  94589617.51408     -2065.980 8        49.769
> 2025 01 02 09 15 15.0000000  0 52
E24         1.000    25844303.214 7 135812810.29807      2201.204 7        44.044                                                                    25844308.437 7 101418714.48707      1643.682 7        46.435    25844307.099 7 104064410.20807      1686.589 7        47.030
G15         2.000    20287861.304 8 106613386.46108       675.378 8        48.966                                    20287859.565 8  83075343.10008       526.271 8        48.953    20287860.047 7  83075338.09807       526.260 7        45.228
E15         3.000    28419555.403 5 149345730.18905     -1215.825 5        35.862                                                                    28419560.728 6 111524399.60606      -907.804 6        39.402    28419559.805 6 114433729.04706      -931.617 6        40.496
G19         4.000    24522571.511 6 128867023.64506      2886.825 6        39.961                                    24522577.295 4 100415864.50604      2249.465 4        25.263
S21         5.000    38353900.588 7 201550723.04507      -514.476 7        42.169
E05         6.000    23692117.179 7 124502877.55507      1674.360 7        44.277                                                                    23692121.044 7  92972902.34407      1250.313 7        47.481    23692120.336 8  95398281.91308      1282.880 8        48.086
S45         7.000    63380067.572 6 333064916.69906      -563.624 6        36.578
R02         8.000    19890810.369 8 106141114.37908     -3162.371 8        52.318                                                                    19890813.459 7  82554184.88307     -2459.699 7        46.718
R20         9.000    23813425.319 4 127341111.29204     -1928.548 4        29.839                                                                    23813433.954 6  99043106.04106     -1499.643 6        40.977
G24        10.000    22985439.008 6 120789266.48406      2680.158 6        41.769                                    22985442.526 6  94121512.78706      2088.432 6        37.868    22985443.251 6  94121517.78906      2088.425 6        38.931
G30        11.000    22864898.479 7 120155778.79207     -3201.693 7        43.192                                    22864901.460 6  93627850.64706     -2494.818 6        40.403    22864901.803 6  93627858.63606     -2494.756 6        39.925
S27        12.000    39064727.329 6 205286400.31006      -547.247 6        36.654
G13        13.000    19849429.469 8 104309415.12408     -1294.767 8        48.971                                    19849427.080 6  81280031.81606     -1008.908 6        40.825
S36        14.000    38123478.929 7 200340673.93807      -515.556 7        44.698
I09        15.000    40331027.692 6 158267344.18306     -1042.183 6        39.916
E09        16.000    23365371.577 8 122785834.20008      -856.536 8        48.699                                                                    23365373.853 8  91690706.84208      -639.682 8        50.777    23365373.162 8  94082636.03008      -656.359 8        51.285
R21        18.000    23394376.893 7 125188096.51107      1084.963 7        42.536                                                                    23394384.244 6  97368573.40606       843.746 6        40.124
R03        21.000    19626084.215 8 105059930.23108      1167.939 8        52.185                                                                    19626084.799 8  81713269.53608       908.351 8        48.042
I06        22.000    38033284.834 7 149250900.25707      -473.205 7        42.584
S28        23.000    40798120.124 5 214395427.77305      -524.211 5        35.062
S23        25.000    38056064.027 7 199985879.20307      -515.758 7        44.163
C07        27.000                                                                                                                                    38725065.302 6 201651546.58406      -409.096 6        41.590    38725064.451 7 155929753.14807      -316.306 7        44.223    38725061.769 6 163858375.92406      -332.388 6        41.592
R04        28.000    23102248.152 7 123711453.63207      3664.542 7        44.799                                                                    23102250.365 7  96219991.73707      2850.173 7        42.063
C40        29.000                                                                                                                                    38729830.339 7 201676373.02207      -465.667 7        43.530                                                                    38729832.344 7 163878573.61207      -378.228 7        43.518
G17        30.000    22885796.598 7 120265770.67707      1786.749 7        43.752                                    22885798.919 6  93713640.61506      1392.275 6        40.012    22885798.400 6  93713637.62806      1392.294 6        40.589
G14        31.000    20757445.806 7 109081103.31007     -1923.155 7        47.260                                    20757444.772 6  84998259.10206     -1498.561 6        38.568    20757445.081 7  84998245.09407     -1498.592 7        47.138
G23        32.000    23452806.987 7 123245279.11607      1266.935 7        42.195                                    23452807.521 4  96035256.35004       987.222 4        27.341    23452807.748 6  96035251.34306       987.190 6        41.888
I02        33.000    37180983.609 7 145906159.33707        -4.194 7        43.608
E04        34.000    25621321.024 7 134640893.01507     -3004.877 7        43.081                                                                    25621325.661 7 100543507.65207     -2243.953 7        46.986    25621324.718 7 103166380.47807     -2302.610 7        47.566
R13        35.000    19438634.681 7 103801259.50607       784.686 7        47.677
R12        36.000    19739168.401 8 105443069.74308     -2651.672 8        51.660                                                                    19739171.022 8  82011274.70208     -2062.430 8        48.021
C42        37.000                                                                                                                                    26541534.869 6 138208733.25606      2620.090 6        40.856                                                                    26541545.306 6 112305962.04306      2129.098 6        41.385
C10        38.000                                                                                                                                    38562528.230 7 200805193.09707       -25.968 7        42.142    38562529.519 7 155275311.76407       -20.031 7        44.974    38562526.471 6 163170655.24206       -20.918 6        41.669
C19        39.000                                                                                                                                    26193214.365 6 136394712.63106     -4073.854 6        41.237                                                                    26193220.761 6 110831805.92406     -3310.152 6        41.866
C30        40.000                                                                                                                                    26067917.144 6 135742496.93506      1990.362 6        41.132                                                                    26067925.246 6 110301932.73206      1617.440 6        40.501
G05        41.000    23480171.019 7 123389003.14807     -3968.358 7        43.077                                    23480175.103 6  96147221.95606     -3092.220 6        38.069    23480174.992 6  96147230.94006     -3092.278 6        39.826
S44        42.000    40800533.517 6 214408263.79106      -503.191 6        36.699
C36        43.000                                                                                                                                    21655385.651 8 112765243.68408     -1584.834 8        50.671                                                                    21655392.225 8  91631010.59708     -1287.703 8        50.318
C05        44.000                                                                                                                                    39298033.604 6 204635085.86106      -565.452 6        39.087    39298034.858 7 158236822.52107      -437.272 7        42.419    39298035.027 6 166282848.33406      -459.270 6        39.973
R14        45.000    23642910.698 7 126030019.24507      3264.271 7        45.062                                                                    23642921.117 6  98023403.02006      2538.738 6        39.910
R11        47.000    24323011.359 6 129974590.87406     -4469.271 6        40.570                                                                    24323021.637 6 101091304.84806     -3475.925 6        36.083
C45        50.000                                                                                                                                    22351575.596 8 116390540.70408      1185.406 8        50.172                                                                    22351569.973 8  94576835.88108       963.270 8        49.970
S48        51.000    77066374.386 6 404986426.54206      -505.561 6        37.788
E06        52.000    23866110.340 8 125417223.93608     -2093.435 8        48.285                                                                    23866113.996 8  93655713.82908     -1563.340 8        50.188    23866113.349 8  96098906.19308     -1604.119 8        50.886
C09        53.000                                                                                                                                    41134684.491 6 214198917.99506     -1127.339 6        36.079    41134692.305 6 165632131.51506      -871.710 6        40.772    41134687.352 6 174054106.19606      -915.714 6        36.571
C60        54.000                                                                                                                                    40800534.901 6 212459115.58106      -498.789 6        40.198                                                                    40800527.051 6 172640366.94606      -405.239 6        38.372
E31        55.000    23317583.239 8 122534730.26808      -156.973 8        48.544                                                                    23317586.608 8  91503239.52208      -117.226 8        50.644    23317585.950 8  93890276.70208      -120.311 8        51.172
C26        56.000                                                                                                                                    26929886.166 6 140230981.04506      2510.508 6        38.862                                                                    26929891.915 6 113949182.84906      2040.228 6        37.584
C02        57.000                                                                                                                                    40870370.677 5 212822615.76905      -548.150 5        32.216    40870375.432 6 164567894.94706      -423.769 6        37.025    40870375.593 5 172935775.06005      -444.993 5        31.441
I03        58.000    94709763.109 6 295875976.80206       861.658 6        40.458
C21        59.000                                                                                                                                    23024256.210 8 119893296.67808       691.752 8        49.212                                                                    23024252.960 8  97423090.84008       562.207 8        49.185
C22        60.000                                                                                                                                    22357061.886 8 116419020.62108     -2544.804 8        51.015                                                                    22357058.241 8  94599952.70108     -2067.790 8        49.763
> 2025 01 02 09 15 20.0000000  0 53
E24         1.000    25842209.343 7 135801807.71407      2199.999 7        44.042                                                                    25842214.713 7 101410498.28507      1642.952 7        46.518    25842213.327 7 104055979.67307      1685.776 7        47.054
G15         2.000    20287220.372 8 106610018.09008       672.221 8        48.711                                    20287218.576 8  83072718.39408       523.808 8        48.967    20287218.851 7  83072713.39507       523.769 7        45.099
E15         3.000    28420713.042 6 149351816.08006     -1218.093 6        36.416                                                                    28420718.855 6 111528944.27006      -909.686 6        39.673    28420717.734 6 114438392.26006      -933.421 6        40.548
G19         4.000    24519824.887 6 128852590.04906      2886.818 6        40.005                                    24519830.498 4 100404617.60004      2249.451 4        25.068
S21         5.000    38354391.492 7 201553296.32807      -514.604 7        42.580
E05         6.000    23690524.491 7 124494508.85607      1673.519 7        43.973                                                                    23690528.632 7  92966652.99707      1249.696 7        47.627    23690527.776 8  95391869.54308      1282.190 8        48.051
S45         7.000    63380563.229 6 333067735.83906      -563.601 6        36.435
R02         8.000    19893775.154 8 106156935.30008     -3165.783 8        52.513                                                                    19893778.278 7  82566490.02107     -2462.261 7        46.643
R20         9.000    23815230.692 4 127350762.46804     -1932.115 4        29.763                                                                    23815238.706 6  99050612.50406     -1502.665 6        40.963
G24        10.000    22982889.561 7 120775868.28107      2679.404 7        42.334                                    22982892.883 6  94111072.64506      2087.846 6        37.834    22982893.924 6  94111077.66506      2087.744 6        39.090
G30        11.000    22867945.430 7 120171789.34507     -3202.431 7        43.257                                    22867948.187 6  93640326.37706     -2495.399 6        40.417    22867948.521 6  93640334.37106     -2495.413 6        40.098
S27        12.000    39065247.030 6 205289137.78606      -547.473 6        36.624
G13        13.000    19850662.779 8 104315896.59308     -1297.562 8        48.707                                    19850660.452 6  81285082.30606     -1011.083 6        40.794
S36        14.000    38123970.360 7 200343251.80207      -515.459 7        44.700
I09        15.000    40332355.882 6 158272555.26606     -1042.130 6        39.988
E09        16.000    23366187.624 8 122790122.31008      -858.383 8        48.567                                                                    23366189.834 8  91693908.99908      -641.048 8        50.954    23366189.183 8  94085921.71808      -657.696 8        51.244
R21        18.000    23393365.312 7 125182681.82207      1081.192 7        42.908                                                                    23393372.703 6  97364361.93206       840.872 6        40.107
R03        21.000    19624995.323 8 105054100.63008      1164.106 8        52.328                                                                    19624995.851 7  81708735.40707       905.404 7        47.500
I06        22.000    38033887.711 7 149253266.77007      -473.136 7        42.538
S28        23.000    40798625.144 5 214398049.93505      -524.172 5        35.052
S23        25.000    38056554.779 7 199988458.20907      -515.538 7        44.345
R01        26.000    23807519.380 3                     -5044.438 3        20.524
C07        27.000                                                                                                                                    38725459.214 6 201653594.46006      -409.762 6        41.428    38725457.739 7 155931336.67207      -316.851 7        44.129    38725455.005 6 163860039.96506      -332.906 6        41.282
R04        28.000    23098826.250 7 123693133.53307      3663.602 7        43.850                                                                    23098829.067 7  96205742.79907      2849.492 7        42.734
C40        29.000                                                                                                                                    38730278.016 7 201678703.88107      -466.484 7        43.227                                                                    38730279.925 7 163880467.64607      -379.118 7        43.158
G17        30.000    22884097.605 7 120256842.50407      1784.815 7        44.220                                    22884099.859 6  93706683.59006      1390.767 6        39.973    22884099.888 6  93706680.58806      1390.685 6        40.324
G14        31.000    20759276.902 7 109090725.99907     -1925.676 7        47.314                                    20759275.906 6  85005757.29206     -1500.526 6        38.601    20759276.198 7  85005743.29207     -1500.525 7        47.164
G23        32.000    23451602.960 6 123238952.13906      1264.063 6        41.607                                    23451603.609 4  96030326.23804       984.985 4        27.341    23451604.092 6  96030321.23606       984.982 6        41.785
I02        33.000    37180989.100 7 145906181.66207        -4.445 7        43.625
E04        34.000    25624181.107 7 134655921.03807     -3006.026 7        43.136                                                                    25624185.492 7 100554729.85307     -2244.698 7        47.205    25624184.633 7 103177895.43007     -2303.223 7        47.653
R13        35.000    19437902.143 7 103797344.65607       781.609 7        47.546
R12        36.000    19741651.457 8 105456334.61808     -2654.053 8        51.415                                                                    19741654.208 7  82021591.82107     -2064.220 7        47.901
C42        37.000                                                                                                                                    26539018.336 6 138195635.09306      2619.395 6        40.186                                                                    26539030.436 6 112295318.68706      2128.553 6        41.230
C10        38.000                                                                                                                                    38562553.367 7 200805325.42207       -26.694 7        42.199    38562554.763 7 155275414.09707       -20.646 7        44.995    38562551.957 6 163170762.77406       -21.629 6        41.185
C19        39.000                                                                                                                                    26197126.623 6 136415082.90506     -4074.001 6        40.892                                                                    26197132.711 6 110848358.39006     -3310.341 6        41.483
C30        40.000                                                                                                                                    26066006.507 6 135732547.75606      1989.441 6        40.984                                                                    26066014.597 6 110293848.20006      1616.652 6        40.133
G05        41.000    23483947.399 7 123408848.17507     -3969.359 7        43.645                                    23483951.545 6  96162685.56406     -3093.000 6        38.117    23483951.360 6  96162694.56706     -3093.049 6        38.685
S44        42.000    40801012.700 6 214410781.04506      -503.432 6        36.730
C36        43.000                                                                                                                                    21656908.302 8 112773172.39208     -1586.426 8        50.582                                                                    21656914.906 8  91637453.32208     -1289.083 8        49.961
C05        44.000                                                                                                                                    39298576.383 6 204637913.46406      -565.439 6        39.240    39298577.780 7 158239009.03107      -437.287 7        42.466    39298578.012 6 166285146.02306      -459.537 6        39.423
R14        45.000    23639848.878 7 126013700.56007      3263.353 7        45.252                                                                    23639859.623 6  98010710.66906      2538.164 6        40.005
R11        47.000    24327193.228 6 129996936.83106     -4468.918 6        41.261                                                                    24327202.448 6 101108685.04006     -3475.855 6        36.544
C45        50.000                                                                                                                                    22350438.398 8 116384618.36708      1183.851 8        50.171                                                                    22350432.647 8  94572023.50608       961.970 8        49.544
S48        51.000    77066865.317 6 404988953.75306      -505.296 6        38.156
E06        52.000    23868103.174 8 125427695.90308     -2095.065 8        48.254                                                                    23868106.743 8  93663533.78808     -1564.494 8        50.311    23868106.083 8  96106930.15208     -1605.281 8        50.836
C09        53.000                                                                                                                                    41135766.178 6 214204554.88006     -1127.280 6        36.325    41135774.617 6 165636490.32106      -871.729 6        40.772    41135769.770 6 174058686.62806      -915.935 6        36.465
C60        54.000                                                                                                                                    40801013.476 6 212461609.94006      -498.755 6        40.215                                                                    40801006.203 6 172642393.81906      -405.092 6        38.126
E31        55.000    23317733.748 8 122535521.23208      -159.135 8        48.445                                                                    23317737.102 8  91503830.18008      -118.830 8        50.713    23317736.443 8  93890882.76908      -121.971 8        51.107
C26        56.000                                                                                                                                    26927474.958 6 140218429.16806      2510.288 6        38.661                                                                    26927481.214 6 113938983.40006      2039.804 6        37.724
C02        57.000                                                                                                                                    40870896.768 5 212825356.41705      -547.849 5        32.186    40870901.443 6 164570014.19406      -423.744 6        37.278    40870901.554 5 172938002.07705      -445.356 5        31.140
I03        58.000    94708664.948 6 295871668.73506       861.633 6        40.377
C21        59.000                                                                                                                                    23023593.555 8 119889844.92208       689.189 8        49.410                                                                    23023590.037 8  97420286.00708       560.078 8        48.821
C22        60.000                                                                                                                                    22359506.437 8 116431751.16908     -2547.145 8        51.092                                                                    22359502.978 8  94610297.30408     -2069.772 8        49.416
> 2025 01 02 09 15 25.0000000  0 53
E24         1.000    25840116.514 7 135790810.38607      2198.831 7        44.351                                                                    25840121.895 7 101402286.02507      1642.030 7        46.522    25840120.663 7 104047553.17107      1684.793 7        47.126
G15         2.000    20286582.055 8 106606665.35008       668.896 8        48.463                                    20286580.574 8  83070105.87008       521.219 8        49.041    20286581.091 7  83070100.86507       521.299 7        45.470
E15         3.000    28421872.797 6 149357913.42006     -1220.790 6        36.469                                                                    28421879.177 6 111533497.47206      -911.571 6        40.057    28421878.105 6 114443064.23206      -935.200 6        40.641
G19         4.000    24517078.132 6 128838156.40906      2886.656 6        39.655                                    24517083.741 4 100393370.65804      2249.332 4        25.308
S21         5.000    38354881.385 7 201555869.53507      -514.775 7        42.478
E05         6.000    23688932.938 7 124486144.44907      1672.367 7        43.530                                                                    23688936.928 7  92960406.84707      1248.883 7        47.534    23688936.083 8  95385460.44808      1281.402 8        48.179
S45         7.000    63381050.023 6 333070554.78306      -563.807 6        36.246
R02         8.000    19896743.484 8 106172773.54108     -3169.409 8        52.847                                                                    19896746.950 7  82578808.62007     -2465.084 7        47.393
R20         9.000    23817039.775 4 127360433.08804     -1936.018 4        29.602                                                                    23817046.689 6  99058134.06306     -1505.877 6        40.982
G24        10.000    22980340.992 7 120762474.23407      2678.367 7        42.563                                    22980344.089 6  94100635.73806      2087.040 6        37.981    22980344.695 6  94100640.74706      2086.958 6        39.832
G30        11.000    22870992.682 7 120187803.78007     -3203.331 7        42.889                                    22870995.700 6  93652805.14006     -2496.097 6        40.465    22870996.182 6  93652813.14806     -2496.190 6        40.596
S27        12.000    39065765.134 6 205291875.09606      -547.575 6        36.548
G13        13.000    19851898.777 8 104322391.72008     -1300.433 8        48.790                                    19851896.431 6  81290143.44206     -1013.322 6        40.851
S36        14.000    38124460.123 7 200345829.15807      -515.393 7        44.597
I09        15.000    40333683.603 6 158277765.88306     -1042.247 6        40.026
E09        16.000    23367005.239 8 122794419.26208      -860.349 8        48.709                                                                    23367007.530 8  91697117.75908      -642.479 8        50.836    23367006.847 8  94089214.19008      -659.267 8        51.316
R21        18.000    23392357.473 7 125177285.70307      1077.374 7        43.321                                                                    23392363.696 6  97360164.88506       838.036 6        40.036
R03        21.000    19623910.324 8 105048290.06308      1160.245 8        52.522                                                                    19623910.441 8  81704216.06508       902.403 8        48.056
I06        22.000    38034490.904 7 149255633.16007      -473.279 7        42.626
S28        23.000    40799120.994 5 214400672.12305      -524.422 5        34.871
S23        25.000    38057046.358 7 199991037.03907      -515.989 7        44.360
R01        26.000    23812242.232 4                     -5045.506 4        24.165
C07        27.000                                                                                                                                    38725852.838 6 201655645.85006      -410.813 6        41.182    38725851.708 7 155932922.92107      -317.620 7        44.095    38725848.992 6 163861706.87306      -333.727 6        41.425
R04        28.000    23095405.025 7 123674817.74707      3662.697 7        44.761                                                                    23095408.937 7  96191497.19007      2848.793 7        42.682
C40        29.000                                                                                                                                    38730726.495 7 201681039.27007      -467.617 7        43.052                                                                    38730728.383 7 163882365.32507      -379.880 7        43.306
G17        30.000    22882400.686 7 120247923.98007      1782.682 7        44.140                                    22882402.681 6  93699734.08806      1389.104 6        39.973    22882402.813 6  93699731.08706      1389.220 6        41.287
G14        31.000    20761110.287 7 109100361.39507     -1928.447 7        47.005                                    20761109.499 6  85013265.39006     -1502.682 6        38.724    20761109.826 7  85013251.38307     -1502.672 7        47.540
G23        32.000    23450401.708 6 123232639.61506      1260.972 6        40.768                                    23450402.325 4  96025407.39204       982.579 4        27.605    23450402.411 6  96025402.40006       982.567 6        41.847
I02        33.000    37180995.110 7 145906204.88607        -4.697 7        43.727
E04        34.000    25627041.731 7 134670954.01007     -3007.156 7        43.128                                                                    25627046.238 7 100565955.74807     -2245.549 7        47.156    25627045.309 7 103189414.18107     -2304.150 7        47.718
R13        35.000    19437171.466 7 103793444.79307       778.352 7        47.088
R12        36.000    19744136.748 8 105469610.83908     -2656.458 8        50.972                                                                    19744139.215 7  82031917.77907     -2066.106 7        47.628
C42        37.000                                                                                                                                    26536503.059 6 138182540.91306      2618.330 6        39.625                                                                    26536516.145 7 112284678.55807      2127.663 7        42.002
C10        38.000                                                                                                                                    38562580.094 7 200805461.10507       -27.499 7        42.146    38562580.986 7 155275519.02307       -21.354 7        45.142    38562577.890 6 163170873.02606       -22.281 6        41.521
C19        39.000                                                                                                                                    26201038.741 6 136435454.07006     -4074.293 6        40.496                                                                    26201044.806 6 110864911.58606     -3310.647 6        41.507
C30        40.000                                                                                                                                    26064096.372 6 135722603.10206      1988.439 6        41.042                                                                    26064104.694 6 110285767.34806      1615.691 6        40.322
G05        41.000    23487724.566 7 123428697.90007     -3970.465 7        43.801                                    23487728.698 6  96178152.84506     -3093.867 6        38.252    23487728.918 6  96178161.84406     -3093.850 6        38.739
S44        42.000    40801490.743 6 214413297.80406      -503.134 6        36.597
C36        43.000                                                                                                                                    21658432.320 8 112781109.02108     -1588.224 8        50.569                                                                    21658439.053 8  91643902.47108     -1290.423 8        50.155
C05        44.000                                                                                                                                    39299119.193 6 204640740.74206      -565.539 6        38.889    39299120.639 7 158241195.26507      -437.188 7        42.536    39299120.970 6 166287443.40906      -459.436 6        39.550
R14        45.000    23636788.432 7 125997385.90407      3262.566 7        44.855                                                                    23636799.260 6  97998021.49706      2537.491 6        40.010
R11        47.000    24331374.723 6 130019280.70106     -4468.734 6        40.389                                                                    24331384.053 6 101126063.55306     -3475.431 6        36.072
C45        50.000                                                                                                                                    22349302.481 8 116378703.85008      1182.084 8        50.115                                                                    22349296.863 8  94567217.47808       960.544 8        49.703
S48        51.000    77067343.762 6 404991480.57706      -505.232 6        37.543
E06        52.000    23870097.481 8 125438175.55408     -2096.744 8        48.344                                                                    23870100.990 8  93671359.48708     -1565.752 8        50.311    23870100.371 8  96114960.00008     -1606.581 8        50.938
C09        53.000                                                                                                                                    41136848.713 6 214210191.54506     -1127.225 6        36.340    41136856.829 6 165640848.93706      -871.719 6        40.794    41136852.243 6 174063266.88006      -915.980 6        36.612
C60        54.000                                                                                                                                    40801492.919 6 212464103.84306      -498.865 6        40.191                                                                    40801485.136 6 172644420.33406      -405.299 6        38.246
E31        55.000    23317886.455 8 122536322.60808      -161.364 8        48.391                                                                    23317889.592 8  91504428.62308      -120.598 8        50.715    23317888.972 8  93891496.81808      -123.700 8        51.175
C26        56.000                                                                                                                                    26925065.246 6 140205878.44306      2509.982 6        38.468                                                                    26925070.741 6 113928784.87106      2039.692 6        37.493
C02        57.000                                                                                                                                    40871423.140 5 212828096.61905      -547.760 5        31.540    40871428.039 6 164572133.09306      -423.799 6        37.270    40871427.958 5 172940228.69505      -445.158 5        31.608
I03        58.000    94707567.387 6 295867360.27406       861.524 6        40.410
C21        59.000                                                                                                                                    23022932.950 8 119886405.97408       686.400 8        49.183                                                                    23022929.674 8  97417491.56608       557.922 8        49.025
C22        60.000                                                                                                                                    22361953.586 8 116444493.12008     -2549.594 8        51.030                                                                    22361949.932 8  94620651.16708     -2071.707 8        49.610
> 2025 01 02 09 15 30.0000000  0 52
E24         1.000    25838025.269 7 135779818.86707      2197.699 7        44.513                                                                    25838030.259 7 101394078.09907      1641.122 7        46.494    25838029.085 7 104039131.12707      1683.953 7        47.095
G15         2.000    20285947.460 8 106603328.79308       665.643 8        48.644                                    20285945.639 8  83067505.95108       518.683 8        49.119    20285946.023 7  83067500.94707       518.715 7        45.591
E15         3.000    28423035.534 6 149364022.70106     -1222.791 6        36.299                                                                    28423041.886 6 111538059.60106      -913.372 6        40.150    28423040.749 6 114447745.37306      -937.131 6        40.799
G19         4.000    24514331.326 6 128823723.30406      2886.584 6        39.661                                    24514337.221 4 100382124.13004      2249.283 4        25.278
S21         5.000    38355375.718 7 201558443.22907      -514.857 7        42.282
E05         6.000    23687342.241 7 124477784.86107      1671.362 7        43.913                                                                    23687346.097 7  92954164.30907      1248.081 7        47.523    23687345.320 8  95379055.05508      1280.651 8        48.067
S45         7.000    63381544.759 6 333073373.84906      -563.720 6        36.219
R02         8.000    19899715.079 8 106188629.63108     -3172.980 8        52.527                                                                    19899717.659 7  82591141.12307     -2467.899 7        46.622
R20         9.000    23818848.839 5 127370123.68205     -1940.179 5        30.536                                                                    23818858.564 6  99065671.22906     -1509.093 6        39.907
G24        10.000    22977792.946 7 120749084.81407      2677.339 7        42.235                                    22977796.208 6  94090202.43506      2086.236 6        38.141    22977796.734 6  94090207.44606      2086.310 6        39.279
G30        11.000    22874041.095 7 120203822.64307     -3204.231 7        43.073                                    22874044.104 6  93665287.34806     -2496.793 6        40.493    22874044.598 6  93665295.33706     -2496.865 6        40.553
S27        12.000    39066291.722 6 205294612.56906      -547.476 6        36.291
G13        13.000    19853137.611 8 104328901.04708     -1303.294 8        48.957                                    19853135.106 6  81295215.64106     -1015.553 6        40.951
S36        14.000    38124948.044 7 200348406.36407      -515.419 7        43.972
I09        15.000    40335010.933 6 158282976.46806     -1042.108 6        39.874
E09        16.000    23367824.768 8 122798725.59308      -862.214 8        48.615                                                                    23367827.022 8  91700333.52008      -643.904 8        50.838    23367826.326 8  94092513.83808      -660.662 8        51.153
R21        18.000    23391352.439 7 125171908.65307      1073.448 7        42.914                                                                    23391358.629 6  97355982.70806       834.997 6        40.193
R03        21.000    19622828.539 8 105042498.63208      1156.308 8        52.206                                                                    19622828.754 8  81699711.63508       899.299 8        48.125
I06        22.000    38035093.878 7 149257999.83807      -473.375 7        42.510
S28        23.000    40799621.265 5 214403294.61805      -524.601 5        34.648
S23        25.000    38057536.751 7 199993616.10307      -515.810 7        44.135
C07        27.000                                                                                                                                    38726247.472 6 201657701.26406      -411.511 6        40.908    38726246.350 7 155934512.27707      -318.255 7        43.949    38726243.854 6 163863377.06306      -334.289 6        41.585
R04        28.000    23091985.988 7 123656506.91007      3661.599 7        44.820                                                                    23091989.494 7  96177255.40007      2848.001 7        42.518
C40        29.000                                                                                                                                    38731176.117 7 201683379.66807      -468.512 7        43.073                                                                    38731177.886 7 163884267.12007      -380.945 7        43.422
G17        30.000    22880705.193 7 120239015.63307      1780.607 7        43.414                                    22880707.561 6  93692792.51306      1387.484 6        40.040    22880707.654 6  93692789.52506      1387.524 6        41.251
G14        31.000    20762946.541 7 109110010.00107     -1931.058 7        47.217                                    20762945.579 6  85020783.77906     -1504.720 6        38.766    20762945.689 7  85020769.77907     -1504.715 7        47.227
G23        32.000    23449203.524 6 123226342.12206      1257.962 6        40.708                                    23449203.912 4  96020500.25004       980.225 4        27.701    23449203.299 6  96020495.24406       980.231 6        41.211
I02        33.000    37181001.553 7 145906229.93007        -5.152 7        43.771
E04        34.000    25629903.401 7 134685992.42507     -3008.240 7        43.238                                                                    25629907.931 7 100577185.71707     -2246.440 7        47.091    25629907.075 7 103200937.11307     -2305.113 7        47.646
R13        35.000    19436443.765 7 103789560.53407       775.290 7        46.936
R12        36.000    19746624.165 8 105482899.06708     -2658.920 8        51.192                                                                    19746627.042 7  82042253.06707     -2068.048 7        47.519
C42        37.000                                                                                                                                    26533989.658 6 138169451.18006      2617.460 6        39.156                                                                    26534002.473 7 112274042.06307      2126.986 7        42.011
C10        38.000                                                                                                                                    38562606.531 6 200805600.63806       -28.363 6        41.828    38562607.631 7 155275626.92607       -21.966 7        45.011    38562604.792 6 163170986.42706       -23.115 6        41.580
C19        39.000                                                                                                                                    26204950.809 6 136455826.66806     -4074.840 6        40.446                                                                    26204957.251 6 110881465.94606     -3311.023 6        41.766
C30        40.000                                                                                                                                    26062188.059 6 135712663.55306      1987.284 6        40.794                                                                    26062196.015 6 110277690.63606      1614.689 6        40.272
G05        41.000    23491502.440 7 123448552.76407     -3971.434 7        42.732                                    23491506.821 6  96193624.13206     -3094.617 6        38.165    23491507.888 6  96193633.10806     -3094.554 6        38.432
S44        42.000    40801969.623 6 214415814.67606      -503.517 6        36.155
C36        43.000                                                                                                                                    21659958.186 8 112789054.08808     -1589.847 8        50.584                                                                    21659964.802 8  91650358.49908     -1291.906 8        50.220
C05        44.000                                                                                                                                    39299661.713 6 204643568.14506      -565.553 6        38.586    39299663.870 7 158243381.62907      -437.301 7        42.546    39299664.089 6 166289740.95506      -459.660 6        39.712
R14        45.000    23633728.823 7 125981076.00407      3261.536 7        44.834                                                                    23633739.121 6  97985336.00306      2536.803 6        39.565
R11        47.000    24335554.308 6 130041622.98106     -4468.343 6        39.799                                                                    24335565.352 5 101143440.89505     -3475.274 5        35.829
C45        50.000                                                                                                                                    22348168.310 8 116372797.68008      1180.321 8        50.037                                                                    22348162.533 8  94562418.25108       959.104 8        49.843
S48        51.000    77067830.901 6 404994007.67206      -505.374 6        37.970
E06        52.000    23872093.076 8 125448663.43508     -2098.475 8        48.189                                                                    23872096.786 8  93679191.32908     -1567.020 8        50.243    23872096.230 8  96122996.15808     -1607.907 8        50.796
C09        53.000                                                                                                                                    41137931.309 6 214215828.59906     -1127.524 6        36.030    41137939.543 6 165645207.83706      -871.719 6        40.794    41137934.602 6 174067847.45806      -916.453 6        36.730
C60        54.000                                                                                                                                    40801971.607 6 212466597.83406      -498.880 6        40.033                                                                    40801963.819 6 172646446.91206      -405.370 6        38.381
E31        55.000    23318041.093 8 122537134.94008      -163.625 8        48.468                                                                    23318044.169 8  91505035.23008      -122.170 8        50.684    23318043.576 8  93892119.25108      -125.345 8        51.045
C26        56.000                                                                                                                                    26922655.272 6 140193329.38706      2509.543 6        38.177                                                                    26922660.917 6 113918587.71606      2039.288 6        37.497
C02        57.000                                                                                                                                    40871948.695 5 212830836.92605      -547.781 5        31.728    40871954.420 6 164574252.04906      -423.852 6        37.043    40871954.210 5 172942455.42305      -445.255 5        31.570
I03        58.000    94706469.473 6 295863051.80706       861.739 6        40.393
C21        59.000                                                                                                                                    23022274.984 8 119882980.35508       683.748 8        49.020                                                                    23022271.811 8  97414707.97408       555.591 8        49.044
C22        60.000                                                                                                                                    22364402.882 8 116457246.98908     -2551.952 8        50.826                                                                    22364399.247 8  94631014.72608     -2073.701 8        49.685
> 2025 01 02 09 15 35.0000000  0 53
E24         1.000    25835934.427 7 135768832.65907      2196.572 7        44.209                                                                    25835939.610 7 101385874.13807      1640.302 7        46.459    25835938.469 7 104030713.15007      1683.094 7        47.130
G15         2.000    20285315.657 8 106600007.92108       662.573 8        48.560                                    20285313.691 8  83064918.25808       516.289 8        48.968    20285314.024 7  83064913.25807       516.216 7        45.565
E15         3.000    28424200.668 6 149370143.43906     -1225.412 6        36.113                                                                    28424206.645 6 111542630.23706      -915.006 6        40.474    28424205.507 6 114452435.27106      -938.811 6        40.970
G19         4.000    24511585.336 6 128809290.21906      2886.541 6        39.730                                    24511590.616 4 100370877.61104      2249.247 4        25.353
S21         5.000    38355861.838 7 201561016.89707      -514.862 7        42.360
E05         6.000    23685752.447 7 124469429.60507      1670.380 7        43.805                                                                    23685756.111 7  92947924.99907      1247.444 7        47.573    23685755.437 8  95372652.97808      1280.024 8        48.036
S45         7.000    63382039.048 6 333076192.65206      -563.948 6        36.514
R02         8.000    19902689.424 8 106204502.76008     -3176.479 8        52.299                                                                    19902692.291 7  82603486.87007     -2470.571 7        46.949
R20         9.000    23820665.155 5 127379833.82305     -1943.849 5        31.623                                                                    23820674.889 6  99073223.54506     -1512.048 6        40.684
G24        10.000    22975245.236 7 120735699.59107      2676.407 7        42.127                                    22975249.118 6  94079772.40606      2085.509 6        37.989    22975249.023 6  94079777.42606      2085.462 6        39.459
G30        11.000    22877090.268 7 120219845.37607     -3205.071 7        43.604                                    22877093.205 6  93677772.57706     -2497.456 6        40.265    22877093.292 6  93677780.57006     -2497.552 6        40.710
S27        12.000    39066811.190 6 205297349.62306      -547.460 6        36.544
G13        13.000    19854378.801 8 104335424.06608     -1306.065 8        48.886                                    19854376.379 6  81300298.51606     -1017.712 6        40.799
S36        14.000    38125439.637 7 200350984.10707      -515.704 7        44.369
I09        15.000    40336339.028 6 158288186.66806     -1041.964 6        39.925
E09        16.000    23368645.768 8 122803040.81708      -864.011 8        48.540                                                                    23368648.163 8  91703555.92608      -645.203 8        50.793    23368647.499 8  94095820.31208      -662.051 8        51.207
R21        18.000    23390350.622 7 125166550.17707      1069.812 7        42.343                                                                    23390357.852 6  97351814.96706       831.952 6        39.754
R03        21.000    19621749.979 8 105036726.29808      1152.500 8        52.472                                                                    19621750.296 8  81695222.04208       896.394 8        48.282
I06        22.000    38035696.766 7 149260366.44307      -473.387 7        42.597
S28        23.000    40800119.735 5 214405916.58205      -524.586 5        35.267
S23        25.000    38058026.783 7 199996194.93807      -515.712 7        44.318
R01        26.000    23821704.606 3                     -5045.364 3        22.895
C07        27.000                                                                                                                                    38726642.845 6 201659760.22306      -412.357 6        41.232    38726641.763 7 155936104.38507      -318.887 7        43.991    38726639.119 6 163865050.12506      -335.038 6        41.261
R04        28.000    23088567.965 7 123638200.32307      3660.768 7        43.513                                                                    23088570.264 7  96163016.94407      2847.336 7        42.341
C40        29.000                                                                                                                                    38731626.598 7 201685724.62907      -469.569 7        43.206                                                                    38731628.211 7 163886172.60007      -381.642 7        43.382
G17        30.000    22879011.857 7 120230117.00407      1778.628 7        43.890                                    22879014.309 6  93685858.51806      1385.944 6        39.880    22879013.833 6  93685855.52806      1385.915 6        40.880
G14        31.000    20764785.083 7 109119671.33407     -1933.592 7        47.090                                    20764784.104 6  85028312.08806     -1506.693 6        38.604    20764784.329 7  85028298.09607     -1506.831 7        47.546
G23        32.000    23448008.325 6 123220059.14306      1255.066 6        41.795                                    23448008.223 4  96015604.42804       977.967 4        27.473    23448008.854 6  96015599.41306       977.947 6        41.990
I02        33.000    37181008.028 7 145906255.57707        -5.485 7        43.879
E04        34.000    25632765.909 7 134701035.82707     -3009.287 7        43.145                                                                    25632770.645 7 100588419.40607     -2247.207 7        47.132    25632769.705 7 103212463.85207     -2305.780 7        47.637
R13        35.000    19435719.154 7 103785691.44607       772.225 7        47.097
R12        36.000    19749113.881 8 105496198.65308     -2661.166 8        50.846                                                                    19749116.937 8  82052597.18808     -2069.817 8        48.348
C42        37.000                                                                                                                                    26531477.406 6 138156365.45106      2616.618 6        39.940                                                                    26531489.275 6 112263408.82006      2126.184 6        41.461
C10        38.000                                                                                                                                    38562633.772 7 200805743.53407       -29.034 7        42.000    38562634.979 7 155275737.41607       -22.461 7        44.933    38562632.082 6 163171102.52906       -23.575 6        41.576
C19        39.000                                                                                                                                    26208863.321 6 136476200.17006     -4074.784 6        40.391                                                                    26208869.857 6 110898021.05306     -3311.217 6        41.518
C30        40.000                                                                                                                                    26060280.203 6 135702728.60306      1986.458 6        40.513                                                                    26060288.065 6 110269617.64706      1614.207 6        40.114
G05        41.000    23495281.962 7 123468412.38007     -3972.493 7        43.126                                    23495286.008 6  96209099.11406     -3095.439 6        38.093    23495287.436 6  96209108.09606     -3095.445 6        39.000
S44        42.000    40802449.057 6 214418331.11706      -503.411 6        36.431
C36        43.000                                                                                                                                    21661485.498 8 112797007.11508     -1591.502 8        50.616                                                                    21661492.105 8  91656820.98408     -1293.181 8        50.084
C05        44.000                                                                                                                                    39300204.738 6 204646395.20606      -565.555 6        38.892    39300206.721 7 158245567.71907      -437.305 7        42.322    39300206.792 6 166292038.17906      -459.431 6        39.562
R14        45.000    23630670.425 7 125964770.35807      3260.583 7        45.439                                                                    23630681.268 6  97972653.86106      2535.959 6        40.279
R11        47.000    24339735.679 6 130063963.16506     -4467.905 6        39.592                                                                    24339744.896 5 101160816.56805     -3474.988 5        34.905
C45        50.000                                                                                                                                    22347035.320 8 116366899.37008      1178.790 8        50.048                                                                    22347029.874 8  94557625.40708       957.857 8        49.669
S48        51.000    77068307.093 6 404996533.92006      -505.332 6        37.543
E06        52.000    23874090.333 7 125459159.04507     -2099.970 7        47.961                                                                    23874094.014 8  93687028.94308     -1568.130 8        50.226    23874093.505 8  96131038.23408     -1609.099 8        50.842
C09        53.000                                                                                                                                    41139013.276 5 214221465.49305     -1127.492 5        35.957    41139021.580 6 165649566.63506      -871.917 6        40.415    41139017.236 6 174072427.88106      -916.224 6        36.442
C60        54.000                                                                                                                                    40802450.674 6 212469091.38706      -498.853 6        40.145                                                                    40802442.662 6 172648473.14106      -405.099 6        38.147
E31        55.000    23318197.651 8 122537957.71508      -165.753 8        48.467                                                                    23318200.727 8  91505649.64608      -123.747 8        50.587    23318200.159 8  93892749.69808      -126.980 8        51.053
C26        56.000                                                                                                                                    26920245.784 6 140180781.54306      2509.324 6        38.012                                                                    26920251.476 6 113908391.55506      2038.958 6        37.667
C02        57.000                                                                                                                                    40872474.911 5 212833576.84205      -548.106 5        31.668    40872480.234 6 164576370.69506      -423.611 6        37.081    40872480.166 5 172944681.79905      -445.367 5        31.638
I03        58.000    94705371.375 6 295858742.99706       861.792 6        40.405
C21        59.000                                                                                                                                    23021619.841 8 119879567.57308       681.191 8        49.134                                                                    23021616.375 8  97411934.81408       553.544 8        48.974
C22        60.000                                                                                                                                    22366854.059 8 116470012.28608     -2554.303 8        50.641                                                                    22366850.718 8  94641387.56608     -2075.541 8        49.538
> 2025 01 02 09 15 40.0000000  0 53
E24         1.000    25833844.462 7 135757852.17207      2195.412 7        43.953                                                                    25833850.077 7 101377674.45407      1639.418 7        46.406    25833848.834 7 104022299.54807      1682.289 7        47.215
G15         2.000    20284686.528 8 106596703.15808       659.357 8        48.947                                    20284684.802 8  83062343.11608       513.784 8        49.106    20284685.008 7  83062338.11707       513.672 7        45.475
E15         3.000    28425368.062 6 149376276.04006     -1227.781 6        36.193                                                                    28425373.719 6 111547209.77306      -916.819 6        40.408    28425372.381 6 114457134.26406      -940.799 6        41.027
G19         4.000    24508839.045 6 128794857.60006      2886.474 6        39.766                                    24508844.217 4 100359631.46904      2249.192 4        25.759
S21         5.000    38356344.366 7 201563590.64507      -514.758 7        42.191
E05         6.000    23684163.226 7 124461079.06607      1669.512 7        43.738                                                                    23684167.093 7  92941689.21907      1246.696 7        47.524    23684166.281 8  95366254.52208      1279.299 8        48.149
S45         7.000    63382527.935 6 333079011.49706      -563.945 6        36.578
R02         8.000    19905667.262 8 106220393.65208     -3179.986 8        52.670                                                                    19905670.597 7  82615846.43107     -2473.267 7        46.735
R20         9.000    23822488.974 5 127389563.82405     -1947.940 5        32.731                                                                    23822494.592 6  99080791.30806     -1515.139 6        39.577
G24        10.000    22972699.372 7 120722318.93907      2675.198 7        42.057                                    22972702.891 6  94069345.93906      2084.570 6        38.114    22972703.263 6  94069350.93406      2084.908 6        39.697
G30        11.000    22880140.034 7 120235872.41407     -3205.938 7        43.994                                    22880143.062 6  93690261.15306     -2498.131 6        40.410    22880143.417 6  93690269.15106     -2498.061 6        40.002
S27        12.000    39067330.931 6 205300086.72206      -547.565 6        36.401
G13        13.000    19855622.984 8 104341961.18808     -1308.901 8        48.903                                    19855620.367 6  81305392.37406     -1019.921 6        40.963
S36        14.000    38125929.485 7 200353561.84607      -515.677 7        44.656
I09        15.000    40337666.916 6 158293396.74806     -1042.160 6        39.886
E09        16.000    23369468.668 8 122807365.33008      -865.920 8        48.495                                                                    23369471.103 8  91706785.27208      -646.612 8        50.780    23369470.452 8  94099133.89408      -663.413 8        51.247
R21        18.000    23389352.584 7 125161210.76007      1065.923 7        42.138                                                                    23389359.628 6  97347662.04606       829.041 6        39.249
R03        21.000    19620675.044 8 105030973.29708      1148.635 8        52.260                                                                    19620675.605 7  81690747.48807       893.340 7        47.821
I06        22.000    38036299.823 7 149262733.24807      -473.395 7        42.463
S28        23.000    40800618.911 5 214408538.64605      -524.307 5        35.129
S23        25.000    38058517.298 7 199998773.95607      -515.870 7        44.427
R01        26.000    23826418.233 3                     -5047.262 3        23.105
C07        27.000                                                                                                                                    38727039.615 6 201661823.13806      -413.097 6        41.027    38727037.927 7 155937699.53807      -319.299 7        44.126    38727035.290 6 163866726.39406      -335.603 6        41.290
R04        28.000    23085148.950 7 123619898.65507      3659.793 7        44.781                                                                    23085153.306 7  96148782.32107      2846.537 7        43.009
C40        29.000                                                                                                                                    38732077.946 7 201688074.51407      -470.346 7        42.950                                                                    38732079.487 7 163888082.08307      -382.381 7        43.365
G17        30.000    22877320.747 7 120221228.48007      1776.721 7        43.587                                    22877322.972 6  93678932.39406      1384.459 6        40.043    22877322.453 6  93678929.39406      1384.346 6        40.984
G14        31.000    20766626.028 7 109129345.78607     -1936.324 7        46.929                                    20766625.112 6  85035850.61506     -1508.822 6        38.697    20766625.401 7  85035836.61007     -1508.766 7        47.444
G23        32.000    23446815.387 6 123213791.10706      1252.079 6        41.852                                    23446815.418 4  96010720.24104       975.652 4        27.689    23446815.819 7  96010715.23107       975.594 7        42.097
I02        33.000    37181014.910 7 145906283.45407        -5.520 7        43.763
E04        34.000    25635629.702 7 134716084.60307     -3010.343 7        43.115                                                                    25635634.366 7 100599657.10307     -2248.019 7        47.099    25635633.530 7 103223994.70907     -2306.582 7        47.849
R13        35.000    19434997.672 7 103781837.65707       769.130 7        47.417
R12        36.000    19751605.715 8 105509510.06808     -2663.531 8        50.850                                                                    19751608.720 8  82062950.51308     -2071.670 8        48.220
C42        37.000                                                                                                                                    26528965.968 6 138143284.17406      2615.552 6        39.688                                                                    26528976.925 6 112252779.17906      2125.607 6        41.437
C10        38.000                                                                                                                                    38562661.823 6 200805890.20106       -29.736 6        41.793    38562663.202 7 155275850.84307       -22.965 7        45.117    38562660.253 6 163171221.72006       -24.240 6        41.390
C19        39.000                                                                                                                                    26212775.780 6 136496575.01206     -4075.314 6        40.110                                                                    26212782.620 6 110914577.22206     -3311.257 6        41.588
C30        40.000                                                                                                                                    26058373.496 6 135692798.66706      1985.407 6        40.231                                                                    26058381.362 6 110261548.73306      1613.410 6        40.038
G05        41.000    23499062.219 7 123488277.07407     -3973.523 7        42.986                                    23499066.256 6  96224578.04606     -3096.243 6        38.201    23499067.196 6  96224587.02506     -3096.201 6        39.468
S44        42.000    40802926.005 6 214420847.54706      -503.358 6        36.374
C36        43.000                                                                                                                                    21663014.434 8 112804968.47808     -1593.226 8        50.404                                                                    21663020.996 8  91663290.24908     -1294.563 8        50.088
C05        44.000                                                                                                                                    39300748.035 6 204649222.32906      -565.506 6        38.640    39300749.674 7 158247753.85207      -437.274 7        42.614    39300749.714 6 166294335.47306      -459.496 6        39.652
R14        45.000    23627612.607 7 125948469.13007      3259.690 7        45.621                                                                    23627621.793 6  97959975.12606      2535.219 6        39.129
R11        47.000    24343916.346 6 130086301.68106     -4467.530 6        39.420                                                                    24343924.530 5 101178190.94705     -3474.783 5        34.876
C45        50.000                                                                                                                                    22345904.174 8 116361009.32908      1177.068 8        50.025                                                                    22345898.756 8  94552839.28008       956.531 8        49.731
S48        51.000    77068794.196 6 404999060.45606      -505.414 6        37.580
E06        52.000    23876089.342 8 125469662.78308     -2101.636 8        48.047                                                                    23876092.772 8  93694872.63208     -1569.418 8        50.170    23876092.353 8  96139086.53508     -1610.267 8        50.898
C09        53.000                                                                                                                                    41140095.518 5 214227102.61205     -1127.736 5        35.819    41140104.213 6 165653925.60706      -871.749 6        40.060    41140099.647 6 174077008.50106      -916.192 6        36.408
C60        54.000                                                                                                                                    40802929.276 6 212471584.93606      -498.788 6        40.033                                                                    40802921.618 6 172650499.38006      -405.235 6        38.108
E31        55.000    23318356.092 8 122538791.34508      -167.946 8        48.461                                                                    23318359.359 8  91506272.16508      -125.360 8        50.573    23318358.704 8  93893388.45608      -128.607 8        51.117
C26        56.000                                                                                                                                    26917835.453 6 140168235.27206      2508.916 6        37.459                                                                    26917842.130 6 113898196.67406      2038.803 6        37.660
C02        57.000                                                                                                                                    40873001.458 5 212836316.67705      -547.909 5        31.457    40873006.696 6 164578489.31406      -423.893 6        37.293    40873006.575 5 172946908.12305      -444.944 5        31.608
I03        58.000    94704272.974 6 295854434.08006       861.795 6        40.455
C21        59.000                                                                                                                                    23020967.031 8 119876168.05008       678.417 8        48.896                                                                    23020963.542 8  97409172.42408       551.409 8        48.990
C22        60.000                                                                                                                                    22369307.902 8 116482789.38508     -2556.744 8        50.974                                                                    22369304.399 8  94651770.00808     -2077.500 8        49.539
> 2025 01 02 09 15 45.0000000  0 53
E24         1.000    25831756.362 7 135746876.75107      2194.752 7        44.476                                                                    25831761.451 7 101369478.54807      1638.939 7        46.482    25831760.280 7 104013889.83807      1681.723 7        47.172
G15         2.000    20284060.729 8 106593413.87208       656.540 8        48.853                                    20284058.869 8  83059780.03508       511.590 8        48.991    20284059.310 7  83059775.03807       511.585 7        45.514
E15         3.000    28426537.347 6 149382419.84606     -1229.635 6        37.248                                                                    28426542.749 6 111551797.66506      -918.305 6        40.534    28426541.298 6 114461841.83806      -942.129 6        40.918
G19         4.000    24506092.108 6 128780424.77406      2886.779 6        39.706                                    24506097.809 4 100348385.15304      2249.430 4        25.880
S21         5.000    38356835.896 6 201566163.88006      -514.235 6        41.998
E05         6.000    23682575.140 7 124452732.63807      1669.090 7        44.164                                                                    23682578.798 7  92935456.49807      1246.418 7        47.458    23682578.064 8  95359859.21008      1278.969 8        48.102
S45         7.000    63383017.390 6 333080229.79116      -563.381 6        36.106
R02         8.000    19908648.631 8 106236301.59408     -3183.049 8        52.237                                                                    19908651.559 7  82628219.27007     -2475.732 7        46.691
R20         9.000    23824311.449 5 127399312.96805     -1951.272 5        31.260                                                                    23824317.640 6  99088373.93606     -1517.971 6        39.477
G24        10.000    22970153.865 7 120708942.23007      2675.220 7        42.284                                    22970157.375 6  94058922.53706      2084.581 6        38.003    22970157.916 6  94058927.55106      2084.467 6        39.288
G30        11.000    22883190.467 7 120251903.11907     -3206.284 7        44.161                                    22883193.589 6  93702752.59206     -2498.399 6        40.460    22883193.735 6  93702760.58806     -2498.375 6        39.694
S27        12.000    39067851.549 6 205302823.38006      -547.076 6        36.548
G13        13.000    19856869.431 8 104348511.77208     -1311.255 8        48.592                                    19856866.907 6  81310496.72206     -1021.757 6        40.818
S36        14.000    38126423.215 7 200356138.96307      -515.273 7        44.643
I09        15.000    40338994.123 6 158298606.21406     -1041.720 6        40.062
E09        16.000    23370293.400 8 122811698.48708      -867.307 8        48.700                                                                    23370295.679 8  91710021.06908      -647.638 8        50.809    23370294.976 8  94102454.10908      -664.500 8        51.147
R21        18.000    23388358.315 7 125155889.60607      1062.595 7        42.751                                                                    23388365.549 6  97343523.33306       826.519 6        39.387
R03        21.000    19619603.518 8 105025238.83808      1145.241 8        52.243                                                                    19619604.385 8  81686287.35708       890.740 8        48.090
I06        22.000    38036903.022 7 149265099.78207      -473.096 7        42.707
S28        23.000    40801119.863 5 214411159.92705      -524.120 5        35.248
S23        25.000    38059008.219 7 200001352.33607      -515.371 7        44.441
R01        26.000    23831128.935 3                     -5046.413 3        23.143
C07        27.000                                                                                                                                    38727436.158 6 201663889.33506      -413.323 6        41.008    38727434.894 7 155939297.22907      -319.749 7        44.074    38727432.174 6 163868405.31106      -335.894 6        41.561
R04        28.000    23081733.114 7 123601601.13907      3659.293 7        45.553                                                                    23081736.096 7  96134550.89207      2846.083 7        42.362
C40        29.000                                                                                                                                    38732530.204 7 201690428.70507      -471.054 7        43.352                                                                    38732531.616 7 163889995.03807      -382.765 7        43.291
G17        30.000    22875630.744 7 120212349.46407      1775.001 7        43.568                                    22875633.396 6  93672013.67906      1383.124 6        40.012    22875633.653 6  93672010.67306      1383.254 6        40.965
G14        31.000    20768469.305 7 109139032.68907     -1938.487 7        46.907                                    20768468.426 6  85043398.84806     -1510.508 6        38.544    20768468.557 7  85043384.83607     -1510.458 7        47.571
G23        32.000    23445624.964 7 123207537.34907      1249.536 7        42.136                                    23445625.295 4  96005847.17304       973.660 4        27.485    23445625.073 6  96005842.18506       973.693 6        41.521
I02        33.000    37181022.355 7 145906311.89807        -5.598 7        43.651
E04        34.000    25638494.119 7 134731138.09207     -3011.058 7        42.952                                                                    25638498.880 7 100610898.32007     -2248.446 7        47.016    25638498.033 7 103235529.17907     -2307.101 7        47.804
R13        35.000    19434278.746 7 103777998.84807       766.529 7        47.198
R12        36.000    19754100.292 8 105522832.61808     -2665.398 8        51.133                                                                    19754102.840 8  82073312.49208     -2073.092 8        48.352
C42        37.000                                                                                                                                    26526453.616 6 138130206.64606      2615.292 6        39.619                                                                    26526465.473 6 112242152.59206      2125.223 6        41.473
C10        38.000                                                                                                                                    38562690.446 6 200806040.02506       -30.118 6        41.995    38562691.894 7 155275966.69207       -23.194 7        44.786    38562688.951 6 163171343.45306       -24.367 6        41.480
C19        39.000                                                                                                                                    26216688.540 6 136516950.50906     -4074.986 6        40.269                                                                    26216695.599 6 110931133.92906     -3311.308 6        41.542
C30        40.000                                                                                                                                    26056467.358 6 135682873.12006      1984.808 6        40.779                                                                    26056475.145 6 110253483.37406      1612.767 6        40.148
G05        41.000    23502843.042 7 123508146.26707     -3974.044 7        42.935                                    23502847.312 6  96240060.49106     -3096.645 6        38.018    23502847.825 6  96240069.48506     -3096.587 6        39.198
S44        42.000    40803405.640 6 214423363.28006      -502.726 6        36.631
C36        43.000                                                                                                                                    21664544.483 8 112812937.52908     -1594.387 8        50.393                                                                    21664551.445 8  91669765.74208     -1295.534 8        50.158
C05        44.000                                                                                                                                    39301290.886 6 204652048.86006      -565.078 6        39.117    39301292.337 7 158249939.52607      -436.957 7        42.263    39301292.372 6 166296632.26706      -459.178 6        39.210
R14        45.000    23624554.524 7 125932171.91407      3259.177 7        45.243                                                                    23624564.211 6  97947299.52806      2534.762 6        38.553
R11        47.000    24348096.720 6 130108637.88206     -4466.605 6        39.258                                                                    24348106.923 5 101195563.53905     -3473.874 5        35.390
C45        50.000                                                                                                                                    22344774.540 8 116355126.89508      1175.877 8        49.945                                                                    22344769.035 8  94548059.31308       955.552 8        49.760
S48        51.000    77069285.578 6 405001586.18706      -504.963 6        37.837
E06        52.000    23878089.577 8 125480173.97908     -2102.758 8        48.626                                                                    23878092.998 8  93702721.89408     -1570.260 8        50.244    23878092.500 8  96147140.56708     -1611.228 8        50.874
C09        53.000                                                                                                                                    41141179.167 5 214232739.31905     -1127.185 5        35.410    41141186.652 6 165658284.27606      -871.520 6        40.448    41141181.832 6 174081588.78606      -915.835 6        36.333
C60        54.000                                                                                                                                    40803408.044 6 212474077.82506      -498.451 6        39.910                                                                    40803400.417 6 172652525.05106      -404.896 6        38.207
E31        55.000    23318516.650 8 122539635.16408      -169.582 8        48.582                                                                    23318519.920 8  91506902.29608      -126.608 8        50.677    23318519.324 8  93894035.02508      -129.937 8        51.107
C26        56.000                                                                                                                                    26915426.914 6 140155689.95306      2509.202 6        37.622                                                                    26915433.140 6 113888002.51506      2039.025 6        37.414
C02        57.000                                                                                                                                    40873528.188 5 212839055.89405      -547.236 5        31.826    40873532.375 6 164580607.44706      -423.416 6        36.945    40873532.590 5 172949133.96905      -445.186 5        31.064
I03        58.000    94703174.800 6 295850124.63106       861.951 6        40.246
C21        59.000                                                                                                                                    23020316.408 8 119872781.13208       676.309 8        48.888                                                                    23020313.218 8  97406420.26608       549.562 8        48.968
C22        60.000                                                                                                                                    22371763.870 8 116495577.64308     -2558.568 8        51.047                                                                    22371760.271 8  94662161.49308     -2079.041 8        49.595
> 2025 01 02 09 15 50.0000000  0 53
E24         1.000    25829668.760 7 135735906.75307      2193.621 7        44.664                                                                    25829673.889 7 101361286.68807      1638.150 7        46.310    25829672.626 7 104005484.28407      1680.867 7        47.218
G15         2.000    20283437.822 8 106590140.42608       653.300 8        49.234                                    20283435.945 8  83057229.29808       509.066 8        48.910    20283436.202 7  83057224.29207       509.105 7        45.342
E15         3.000    28427708.256 6 149388575.16706     -1232.237 6        37.070                                                                    28427714.078 6 111556394.16906      -920.044 6        40.262    28427712.469 6 114466558.25206      -944.040 6        40.534
G19         4.000    24503345.749 6 128765992.09606      2886.760 6        39.808                                    24503351.410 4 100337138.94904      2249.419 4        25.714
S21         5.000    38357324.738 7 201568736.98107      -514.368 7        42.165
E05         6.000    23680987.875 7 124444390.63207      1668.169 7        44.184                                                                    23680991.332 7  92929227.09007      1245.724 7        47.388    23680990.580 8  95353467.30408      1278.143 8        48.137
S45         7.000    63383514.576 6 333083048.00006      -563.303 6        36.397
R02         8.000    19911632.994 8 106252226.81708     -3186.532 8        52.398                                                                    19911636.016 7  82640605.53107     -2478.406 7        46.803
R20         9.000    23826133.476 5 127409081.56905     -1955.628 5        30.551                                                                    23826143.971 6  99095971.77606     -1521.104 6        40.365
G24        10.000    22967609.181 7 120695569.77007      2674.302 7        42.521                                    22967612.633 6  94048502.45506      2083.870 6        37.887    22967613.087 6  94048507.46606      2083.855 6        39.384
G30        11.000    22886241.601 7 120267937.81107     -3207.161 7        44.161                                    22886244.886 6  93715247.13606     -2499.081 6        40.536    22886245.073 6  93715255.12906     -2499.108 6        40.098
S27        12.000    39068377.246 6 205305559.84006      -546.982 6        36.287
G13        13.000    19858118.516 8 104355076.15808     -1314.123 8        48.880                                    19858116.091 6  81315611.82306     -1023.991 6        40.744
S36        14.000    38126911.892 7 200358715.84007      -515.094 7        44.558
I09        15.000    40340321.780 6 158303815.35606     -1041.585 6        39.697
E09        16.000    23371119.653 8 122816040.62608      -869.156 8        48.653                                                                    23371122.001 8  91713263.58108      -649.026 8        50.736    23371121.274 8  94105781.20508      -665.930 8        51.243
R21        18.000    23387367.481 7 125150587.16707      1058.858 7        42.656                                                                    23387374.583 6  97339399.17806       823.455 6        39.580
R03        21.000    19618536.263 8 105019523.71108      1141.304 8        52.180                                                                    19618536.511 7  81681842.26107       887.646 7        47.943
I06        22.000    38037506.029 7 149267466.31707      -473.082 7        42.709
S28        23.000    40801617.617 5 214413781.07805      -524.160 5        35.014
S23        25.000    38059497.714 7 200003930.59707      -515.203 7        44.311
R01        26.000    23835850.038 3                     -5043.919 3        23.562
C07        27.000                                                                                                                                    38727834.305 6 201665959.13306      -414.091 6        41.614    38727832.384 7 155940897.72207      -320.132 7        44.126    38727829.689 6 163870087.20106      -336.591 6        41.561
R04        28.000    23078318.429 7 123583308.01407      3658.258 7        44.773                                                                    23078319.807 6  96120322.87906      2845.349 6        41.988
C40        29.000                                                                                                                                    38732983.179 7 201692787.51907      -472.032 7        43.797                                                                    38732984.602 7 163891911.78307      -383.595 7        43.437
G17        30.000    22873943.291 7 120203480.26207      1772.989 7        43.007                                    22873945.622 6  93665102.60806      1381.550 6        39.730    22873945.450 6  93665099.60606      1381.620 6        40.827
G14        31.000    20770315.043 7 109148732.37507     -1941.040 7        46.642                                    20770314.227 6  85050957.03706     -1512.496 6        38.417    20770314.290 7  85050943.03407     -1512.498 7        47.445
G23        32.000    23444438.143 6 123201298.25506      1246.479 6        41.201                                    23444438.062 4  96000985.54804       971.279 4        27.353    23444437.973 6  96000980.53506       971.358 6        41.604
I02        33.000    37181029.604 7 145906341.06107        -5.988 7        43.657
E04        34.000    25641359.742 7 134746196.60307     -3012.061 7        42.891                                                                    25641364.460 7 100622143.29507     -2249.228 7        46.897    25641363.374 7 103247067.50407     -2307.913 7        47.609
R13        35.000    19433562.664 7 103774175.15707       763.351 7        46.995
R12        36.000    19756596.180 8 105536166.66408     -2667.776 8        51.080                                                                    19756598.702 7  82083683.42207     -2074.956 7        47.992
C42        37.000                                                                                                                                    26523943.082 6 138117133.27306      2614.296 6        40.076                                                                    26523955.089 6 112231529.39306      2124.550 6        41.709
C10        38.000                                                                                                                                    38562719.930 7 200806193.32507       -30.976 7        42.063    38562721.182 7 155276085.24507       -23.805 7        44.793    38562718.448 6 163171468.04206       -24.977 6        41.614
C19        39.000                                                                                                                                    26220601.927 6 136537326.98306     -4075.325 6        40.410                                                                    26220608.775 6 110947691.44406     -3311.584 6        41.831
C30        40.000                                                                                                                                    26054562.194 6 135672952.28006      1983.946 6        41.335                                                                    26054569.823 6 110245421.86106      1612.108 6        40.079
G05        41.000    23506625.301 7 123528020.20007     -3975.052 7        42.946                                    23506629.218 6  96255546.63006     -3097.437 6        37.883    23506629.441 6  96255555.62606     -3097.612 6        39.595
S44        42.000    40803884.984 6 214425878.72906      -502.840 6        36.503
C36        43.000                                                                                                                                    21666076.532 8 112820914.60408     -1596.037 8        50.601                                                                    21666083.289 8  91676247.77508     -1296.910 8        50.241
C05        44.000                                                                                                                                    39301833.763 6 204654875.16406      -565.035 6        39.123    39301834.999 7 158252125.03507      -436.948 7        42.516    39301835.173 6 166298928.89506      -459.118 6        39.535
R14        45.000    23621498.094 7 125915878.98807      3258.338 7        45.061                                                                    23621507.833 6  97934627.24206      2534.005 6        38.150
R11        47.000    24352275.378 6 130130972.05906     -4466.389 6        38.862                                                                    24352285.377 5 101212934.56105     -3474.035 5        35.648
C45        50.000                                                                                                                                    22343646.613 8 116349252.41108      1174.248 8        50.139                                                                    22343640.900 8  94543285.83808       954.176 8        49.863
S48        51.000    77069768.589 6 405004112.27906      -504.761 6        37.777
E06        52.000    23880091.269 8 125490693.00208     -2104.361 8        48.440                                                                    23880094.745 8  93710576.99808     -1571.448 8        50.167    23880094.182 8  96155200.58408     -1612.432 8        50.892
C09        53.000                                                                                                                                    41142261.081 5 214238375.99505     -1127.144 5        35.033    41142269.507 6 165662642.88106      -871.503 6        40.179    41142264.373 6 174086169.04106      -916.000 6        36.314
C60        54.000                                                                                                                                    40803886.561 6 212476570.38106      -498.408 6        40.255                                                                    40803879.050 6 172654550.49706      -404.909 6        38.408
E31        55.000    23318679.409 8 122540489.51208      -171.791 8        48.506                                                                    23318682.533 8  91507540.29408      -128.273 8        50.433    23318681.832 8  93894689.66408      -131.603 8        51.138
C26        56.000                                                                                                                                    26913018.305 6 140143145.94606      2508.950 6        37.002                                                                    26913024.312 6 113877809.48106      2038.649 6        37.800
C02        57.000                                                                                                                                    40874053.331 5 212841794.82905      -547.957 5        32.108    40874058.730 6 164582725.33406      -423.285 6        36.949    40874058.251 5 172951359.56405      -445.276 5        30.966
I03        58.000    94702076.753 6 295845814.84806       862.199 6        40.410
C21        59.000                                                                                                                                    23019668.331 8 119869407.16808       673.698 8        49.073                                                                    23019665.270 8  97403678.65108       547.409 8        49.134
C22        60.000                                                                                                                                    22374221.659 8 116508377.39408     -2560.957 8        51.007                                                                    22374218.344 8  94672562.34208     -2081.015 8        49.596
> 2025 01 02 09 15 55.0000000  0 53
E24         1.000    25827582.048 7 135724942.28607      2192.373 7        44.149                                                                    25827587.415 7 101353098.96307      1637.183 7        46.371    25827586.165 7 103997082.95507      1679.875 7        47.075
G15         2.000    20282817.920 8 106586882.89908       650.059 8        49.049                                    20282816.058 8  83054690.96308       506.540 8        48.856    20282816.445 7  83054685.96307       506.470 7        45.050
E15         3.000    28428881.928 6 149394742.16506     -1234.806 6        36.450                                                                    28428887.730 6 111560999.38206      -921.825 6        40.110    28428886.016 6 114471283.59206      -945.813 6        40.460
G19         4.000    24500599.253 6 128751559.71106      2886.394 6        39.685                                    24500604.797 4 100325892.97804      2249.127 4        25.414
S21         5.000    38357817.354 7 201571309.94707      -514.321 7        42.421
E05         6.000    23679401.073 7 124436053.19207      1667.250 7        44.059                                                                    23679404.762 7  92923001.09107      1244.965 7        47.430    23679403.987 8  95347078.88008      1277.440 8        48.007
S45         7.000    63384001.732 6 333085866.22406      -563.432 6        36.571
R02         8.000    19914620.713 8 106268169.50708     -3190.204 8        52.521                                                                    19914623.998 7  82653005.39307     -2481.221 7        46.745
R20         9.000    23827965.300 5 127418869.91005     -1959.789 5        30.483                                                                    23827973.873 6  99103584.88506     -1524.036 6        39.817
G24        10.000    22965065.574 6 120682201.74006      2673.272 6        41.826                                    22965068.745 6  94038085.81906      2083.068 6        37.754    22965068.868 6  94038090.83406      2083.071 6        39.342
G30        11.000    22889293.492 7 120283976.59607     -3208.014 7        43.998                                    22889296.974 6  93727744.87006     -2499.747 6        40.491    22889297.483 6  93727752.87406     -2499.828 6        39.955
S27        12.000    39068896.093 6 205308296.56706      -547.364 6        36.246
G13        13.000    19859370.441 8 104361654.47108     -1316.947 8        48.878                                    19859367.922 6  81320737.78206     -1026.191 6        40.689
S36        14.000    38127402.795 7 200361291.52807      -514.730 7        44.569
I09        15.000    40341649.644 6 158309024.23006     -1041.727 6        39.489
E09        16.000    23371947.713 8 122820391.87108      -871.005 8        48.582                                                                    23371950.029 8  91716512.88108      -650.427 8        50.720    23371949.273 8  94109115.27208      -667.399 8        51.061
R21        18.000    23386380.167 7 125145303.68507      1054.922 7        42.140                                                                    23386387.709 6  97335289.75506       820.583 6        39.601
R03        21.000    19617472.221 8 105013827.63408      1137.442 8        52.253                                                                    19617472.337 7  81677411.98007       884.713 7        47.663
I06        22.000    38038109.359 7 149269832.92107      -473.288 7        42.792
S28        23.000    40802113.167 5 214416402.38105      -524.142 5        34.733
S23        25.000    38059987.643 7 200006508.91307      -515.679 7        44.220
R01        26.000    23840576.677 3                     -5046.892 3        22.400
C07        27.000                                                                                                                                    38728233.140 6 201668032.70906      -415.021 6        41.561    38728230.389 7 155942501.11007      -320.807 7        43.911    38728227.670 6 163871772.11806      -337.062 6        41.621
R04        28.000    23074901.997 7 123565019.63007      3657.403 7        44.414                                                                    23074904.831 7  96106098.59607      2844.571 7        42.292
C40        29.000                                                                                                                                    38733436.941 7 201695151.07007      -473.103 7        43.628                                                                    38733438.432 7 163893832.35707      -384.341 7        43.566
G17        30.000    22872257.421 7 120194621.03407      1771.084 7        43.113                                    22872259.651 6  93658199.31006      1380.063 6        39.462    22872259.185 6  93658196.32506      1380.052 6        40.334
G14        31.000    20772163.435 7 109158444.96007     -1943.676 7        46.758                                    20772162.483 6  85058525.27706     -1514.548 6        38.390    20772162.459 7  85058511.28107     -1514.551 7        47.002
G23        32.000    23443253.232 6 123195073.90906      1243.531 6        41.447                                    23443253.699 4  95996135.40304       968.978 4        27.461    23443254.133 6  95996130.39906       969.062 6        41.816
I02        33.000    37181037.273 7 145906371.81407        -5.920 7        43.587
E04        34.000    25644226.244 7 134761260.29407     -3013.142 7        42.648                                                                    25644230.901 7 100633392.13607     -2250.047 7        46.874    25644229.781 7 103258609.79807     -2308.836 7        47.357
R13        35.000    19432849.142 7 103770366.74007       760.246 7        47.103
R12        36.000    19759094.054 8 105549512.29808     -2670.157 8        50.978                                                                    19759096.967 7  82094063.34807     -2076.759 7        47.668
C42        37.000                                                                                                                                    26521433.647 6 138104064.11906      2613.534 6        40.002                                                                    26521445.437 6 112220909.63206      2123.721 6        41.797
C10        38.000                                                                                                                                    38562750.405 6 200806350.21006       -31.637 6        41.800    38562751.410 7 155276206.56907       -24.399 7        44.758    38562748.752 6 163171595.54206       -25.713 6        41.690
C19        39.000                                                                                                                                    26224515.193 6 136557704.53806     -4075.519 6        40.389                                                                    26224522.221 7 110964249.83007     -3311.620 7        42.237
C30        40.000                                                                                                                                    26052658.015 6 135663036.32606      1982.829 6        41.604                                                                    26052665.570 6 110237364.28106      1611.331 6        40.029
G05        41.000    23510408.024 7 123547898.96907     -3976.164 7        42.885                                    23510412.179 6  96271036.54206     -3098.299 6        38.003    23510412.463 6  96271045.53806     -3098.370 6        39.856
S44        42.000    40804363.810 6 214428393.95706      -502.915 6        36.673
C36        43.000                                                                                                                                    21667610.055 8 112828899.80508     -1597.690 8        50.602                                                                    21667616.744 8  91682736.40408     -1298.208 8        50.322
C05        44.000                                                                                                                                    39302376.108 6 204657701.35206      -565.243 6        38.883    39302377.944 7 158254310.42907      -436.854 7        42.337    39302378.028 6 166301225.42306      -459.237 6        39.829
R14        45.000    23618442.176 7 125899590.68607      3257.336 7        44.909                                                                    23618453.081 6  97921958.56106      2533.500 6        38.817
R11        47.000    24356454.669 6 130153304.34506     -4466.158 6        39.114                                                                    24356464.172 5 101230304.08805     -3473.615 5        35.633
C45        50.000                                                                                                                                    22342519.990 8 116343386.00208      1172.556 8        50.097                                                                    22342514.327 8  94538518.90008       952.874 8        49.998
S48        51.000    77070258.545 6 405006637.79206      -504.987 6        37.951
E06        52.000    23882094.209 8 125501219.95208     -2106.035 8        48.260                                                                    23882097.957 8  93718438.01408     -1572.706 8        50.207    23882097.398 8  96163266.67308     -1613.711 8        50.819
C09        53.000                                                                                                                                    41143342.724 5 214244012.72705     -1127.292 5        34.595    41143352.064 6 165667001.57506      -871.706 6        40.288    41143346.942 6 174090749.34106      -916.000 6        36.552
C60        54.000                                                                                                                                    40804365.405 6 212479062.74006      -498.380 6        40.348                                                                    40804357.572 6 172656575.75106      -404.841 6        38.586
E31        55.000    23318843.926 8 122541354.51608      -173.995 8        48.347                                                                    23318847.097 8  91508186.24008      -129.902 8        50.585    23318846.464 8  93895352.46408      -133.348 8        50.978
C26        56.000                                                                                                                                    26910609.038 6 140130603.34306      2508.465 6        37.353                                                                    26910615.553 6 113867617.55506      2038.500 6        37.766
C02        57.000                                                                                                                                    40874578.827 5 212844533.48905      -547.732 5        31.645    40874584.611 6 164584843.02206      -423.368 6        36.991    40874584.279 5 172953584.92905      -445.022 5        32.108
I03        58.000    94700978.624 6 295841504.87106       862.167 6        40.167
C21        59.000                                                                                                                                    23019022.896 8 119866046.27808       670.958 8        49.011                                                                    23019019.840 8  97400947.64608       545.290 8        49.184
C22        60.000                                                                                                                                    22376681.957 8 116521188.75408     -2563.333 8        50.815                                                                    22376678.633 8  94682972.60108     -2082.828 8        49.719
> 2025 01 02 09 16  0.0000000  0 53
E24         1.000    25825496.567 7 135713983.04107      2191.193 7        44.451                                                                    25825502.005 7 101344915.13707      1636.272 7        46.449    25825500.599 7 103988685.63007      1678.983 7        46.956
G15         2.000    20282200.652 8 106583640.95508       646.701 8        48.896                                    20282199.139 8  83052164.77308       503.926 8        48.904    20282199.414 7  83052159.76607       503.913 7        44.787
E15         3.000    28430057.539 6 149400920.42906     -1236.839 6        37.508                                                                    28430063.185 6 111565613.01606      -923.734 6        40.079    28430061.755 6 114476017.58406      -947.779 6        40.222
G19         4.000    24497852.665 6 128737127.26106      2886.425 6        39.447                                    24497858.281 4 100314646.94304      2249.151 4        25.293
S21         5.000    38358308.334 7 201573882.28407      -514.604 7        42.493
E05         6.000    23677815.290 7 124427719.98607      1666.097 7        43.964                                                                    23677819.000 7  92916778.25107      1244.098 7        47.491    23677818.293 7  95340693.70107      1276.559 7        47.999
S45         7.000    63384496.661 6 333088683.96006      -563.733 6        36.310
R02         8.000    19917611.528 8 106284129.14708     -3193.842 8        52.202                                                                    19917614.587 7  82665418.40307     -2484.000 7        47.178
R20         9.000    23829799.803 5 127428677.34805     -1963.297 5        30.800                                                                    23829807.678 6  99111212.93906     -1527.303 6        40.889
G24        10.000    22962521.685 6 120668837.75706      2672.275 6        41.189                                    22962525.634 6  94027672.33706      2082.292 6        37.766    22962526.146 6  94027677.37106      2082.234 6        39.159
G30        11.000    22892346.326 7 120300019.12707     -3209.025 7        43.452                                    22892349.777 6  93740245.52706     -2500.533 6        40.372    22892350.192 6  93740253.52706     -2500.535 6        39.751
S27        12.000    39069413.039 6 205311032.75006      -547.076 6        36.582
G13        13.000    19860624.769 8 104368246.35808     -1319.871 8        48.973                                    19860622.310 6  81325874.31406     -1028.472 6        40.670
S36        14.000    38127890.909 7 200363866.36407      -514.745 7        44.584
I09        15.000    40342976.869 6 158314232.58506     -1041.639 6        39.523
E09        16.000    23372777.222 8 122824751.87808      -873.060 8        48.604                                                                    23372779.709 8  91719768.72908      -651.917 8        50.673    23372778.918 8  94112456.05608      -668.940 8        51.071
R21        18.000    23385395.775 7 125140038.62407      1050.995 7        42.974                                                                    23385403.756 6  97331194.66506       817.566 6        39.096
R03        21.000    19616411.715 8 105008150.55608      1133.333 8        52.121                                                                    19616412.073 7  81672996.48607       881.459 7        47.438
I06        22.000    38038712.054 7 149272199.32107      -473.343 7        42.629
S28        23.000    40802613.112 5 214419023.42205      -524.139 5        35.014
S23        25.000    38060476.271 7 200009086.85207      -515.633 7        44.250
R01        26.000    23845294.355 3                     -5046.001 3        22.305
C07        27.000                                                                                                                                    38728631.137 6 201670109.65306      -415.951 6        41.263    38728629.024 7 155944107.13407      -321.609 7        44.125    38728626.847 6 163873459.81806      -338.088 6        41.809
R04        28.000    23071487.026 7 123546735.57607      3656.311 7        44.521                                                                    23071489.984 6  96091877.63306      2843.724 6        41.514
C40        29.000                                                                                                                                    38733891.755 7 201697519.02807      -474.148 7        43.911                                                                    38733893.212 7 163895756.53107      -385.345 7        43.500
G17        30.000    22870573.675 7 120185771.42007      1768.856 7        43.376                                    22870575.499 6  93651303.51006      1378.327 6        39.381    22870575.801 6  93651300.51106      1378.291 6        40.529
G14        31.000    20774014.300 7 109168170.07307     -1946.403 7        46.819                                    20774013.122 6  85066103.28706     -1516.677 6        38.387    20774013.388 7  85066089.28307     -1516.653 7        47.017
G23        32.000    23442071.946 6 123188863.99606      1240.380 6        41.294                                    23442071.912 4  95991296.50704       966.530 4        27.437    23442072.030 6  95991291.51506       966.469 6        41.616
I02        33.000    37181045.089 7 145906403.45307        -6.539 7        43.198
E04        34.000    25647093.822 7 134776328.81707     -3014.415 7        42.246                                                                    25647098.364 7 100644644.57807     -2251.009 7        46.759    25647097.270 7 103270155.78107     -2309.693 7        47.185
R13        35.000    19432139.458 7 103766573.31907       757.089 7        47.505
R12        36.000    19761594.641 8 105562869.13908     -2672.592 8        51.378                                                                    19761597.261 7  82104452.01007     -2078.742 7        47.525
C42        37.000                                                                                                                                    26518925.149 6 138090998.89506      2612.630 6        40.443                                                                    26518936.497 7 112210293.05707      2122.861 7        42.127
C10        38.000                                                                                                                                    38562780.984 6 200806510.35706       -32.351 6        41.781    38562782.282 7 155276330.41007       -25.088 7        44.910    38562779.359 6 163171725.66606       -26.454 6        41.905
C19        39.000                                                                                                                                    26228428.499 6 136578082.84506     -4075.854 6        40.222                                                                    26228435.815 7 110980808.82507     -3312.041 7        42.370
C30        40.000                                                                                                                                    26050754.613 6 135653124.88806      1981.768 6        41.256                                                                    26050762.163 6 110229310.39706      1610.116 6        40.219
G05        41.000    23514191.751 7 123567782.19307     -3977.219 7        42.423                                    23514195.946 6  96286529.91806     -3099.126 6        37.955    23514196.236 6  96286538.91306     -3099.122 6        39.724
S44        42.000    40804839.935 6 214430908.61406      -503.109 6        36.624
C36        43.000                                                                                                                                    21669145.210 8 112836892.79508     -1599.541 8        50.546                                                                    21669151.733 8  91689231.37008     -1299.793 8        50.414
C05        44.000                                                                                                                                    39302918.860 6 204660527.05306      -565.037 6        38.811    39302920.508 7 158256495.47607      -436.980 7        42.396    39302920.561 6 166303521.55506      -459.277 6        39.832
R14        45.000    23615387.837 7 125883306.14807      3256.290 7        45.649                                                                    23615398.519 6  97909292.82706      2532.714 6        39.694
R11        47.000    24360634.440 6 130175634.37806     -4465.907 6        39.288                                                                    24360643.843 5 101247671.85805     -3473.560 5        35.833
C45        50.000                                                                                                                                    22341394.790 8 116337527.32008      1170.864 8        50.012                                                                    22341389.208 8  94533758.25608       951.399 8        50.080
S48        51.000    77070743.291 6 405009163.13606      -505.183 6        37.860
E06        52.000    23884099.015 8 125511754.49408     -2107.789 8        48.619                                                                    23884102.641 8  93726304.70108     -1574.033 8        50.176    23884101.993 8  96171338.58208     -1615.083 8        50.653
C09        53.000                                                                                                                                    41144425.356 5 214249649.17505     -1127.436 5        34.471    41144434.221 6 165671360.02506      -871.873 6        40.169    41144429.573 6 174095329.39406      -915.919 6        36.454
C60        54.000                                                                                                                                    40804843.842 6 212481554.53406      -498.442 6        40.243                                                                    40804836.045 6 172658600.56306      -405.205 6        38.477
E31        55.000    23319010.335 8 122542229.81108      -176.215 8        48.385                                                                    23319013.737 8  91508839.88108      -131.641 8        50.524    23319013.034 8  93896023.15108      -135.053 8        50.957
C26        56.000                                                                                                                                    26908201.239 6 140118061.80806      2507.986 6        37.319                                                                    26908207.016 6 113857426.51406      2037.976 6        38.249
C02        57.000                                                                                                                                    40875105.141 5 212847271.64505      -547.608 5        31.608    40875109.977 6 164586960.31806      -423.423 6        37.051    40875110.782 5 172955809.86805      -444.796 5        31.419
I03        58.000    94699880.113 6 295837194.41006       862.087 6        40.288
C21        59.000                                                                                                                                    23018380.082 8 119862698.12908       668.194 8        48.968                                                                    23018376.812 8  97398227.00408       542.960 8        49.264
C22        60.000                                                                                                                                    22379144.470 8 116534011.33908     -2565.799 8        51.133                                                                    22379141.106 8  94693392.00108     -2084.940 8        49.902
> 2025 01 02 09 16  5.0000000  0 53
E24         1.000    25823412.233 7 135703029.54207      2190.341 7        44.548                                                                    25823417.693 7 101336735.59707      1635.633 7        46.539    25823416.311 7 103980292.71207      1678.340 7        47.189
G15         2.000    20281586.862 8 106580415.17808       643.839 8        48.915                                    20281585.288 8  83049651.17708       501.692 8        48.816    20281585.540 7  83049646.18107       501.675 7        44.721
E15         3.000    28431235.618 6 149407110.57106     -1239.124 6        37.550                                                                    28431241.227 6 111570235.50506      -925.317 6        40.274    28431240.086 6 114480760.66406      -949.359 6        40.472
G19         4.000    24495106.596 6 128722695.34906      2886.640 6        39.270                                    24495111.990 4 100303401.32904      2249.324 4        24.752
S21         5.000    38358797.328 7 201576454.84307      -514.278 7        42.574
E05         6.000    23676230.515 7 124419391.56807      1665.524 7        44.092                                                                    23676234.157 7  92910558.97307      1243.696 7        47.586    23676233.399 8  95334312.18408      1276.196 8        48.152
S45         7.000    63384987.613 6 333091501.83806      -563.317 6        36.586
R02         8.000    19920605.602 8 106300106.43608     -3196.839 8        52.534                                                                    19920608.875 7  82677845.18107     -2486.439 7        47.192
R20         9.000    23831640.367 5 127438504.74705     -1967.003 5        31.042                                                                    23831646.055 6  99118856.47006     -1530.079 6        40.660
G24        10.000    22959979.697 6 120655478.40706      2671.691 6        41.774                                    22959983.423 6  94017262.47306      2081.836 6        37.686    22959983.837 6  94017267.46506      2081.791 6        38.249
G30        11.000    22895400.240 7 120316065.98007     -3209.608 7        43.187                                    22895403.404 6  93752749.54506     -2500.988 6        40.136    22895403.585 6  93752757.53706     -2500.935 6        39.601
S27        12.000    39069934.681 6 205313768.91006      -547.177 6        36.790
G13        13.000    19861881.759 8 104374852.34708     -1322.322 8        48.938                                    19861879.395 6  81331021.83506     -1030.378 6        40.605
S36        14.000    38128383.802 7 200366440.96407      -514.478 7        44.820
I09        15.000    40344303.125 6 158319440.85606     -1041.504 6        39.273
E09        16.000    23373608.727 8 122829121.20608      -874.536 8        48.574                                                                    23373611.169 8  91723031.53108      -653.028 8        50.840    23373610.410 8  94115803.97408      -670.085 8        51.149
R21        18.000    23384416.787 7 125134792.68807      1047.496 7        43.109                                                                    23384422.558 6  97327114.44006       814.737 6        39.625
R03        21.000    19615354.980 8 105002493.00508      1129.931 8        52.422                                                                    19615355.298 7  81668596.16307       878.808 7        47.588
I06        22.000    38039315.040 7 149274565.93907      -473.152 7        42.512
S28        23.000    40803111.483 5 214421644.15805      -523.715 5        35.400
S23        25.000    38060967.045 7 200011665.02007      -515.365 7        44.391
R01        26.000    23850019.380 3                     -5047.443 3        20.905
C07        27.000                                                                                                                                    38729029.849 6 201672190.58606      -416.271 6        41.256    38729028.905 7 155945716.22307      -321.886 7        43.930    38729026.429 6 163875150.72206      -338.301 6        41.502
R04        28.000    23068074.425 7 123528456.41007      3655.683 7        44.456                                                                    23068076.836 6  96077660.50806      2843.336 6        41.845
C40        29.000                                                                                                                                    38734347.285 7 201699891.92607      -474.793 7        43.960                                                                    38734348.820 7 163897684.70907      -385.810 7        43.244
G17        30.000    22868891.557 7 120176931.99707      1767.244 7        43.750                                    22868893.351 6  93644415.64906      1377.073 6        39.345    22868893.566 6  93644412.65006      1377.147 6        40.467
G14        31.000    20775867.351 7 109177908.27907     -1948.622 7        46.680                                    20775866.256 6  85073691.49806     -1518.405 6        38.297    20775866.660 7  85073677.49507     -1518.441 7        47.148
G23        32.000    23440892.915 6 123182669.08206      1237.809 6        41.461                                    23440893.129 4  95986469.30804       964.518 4        27.461    23440893.484 6  95986464.29706       964.535 6        41.967
I02        33.000    37181053.200 7 145906436.47507        -6.400 7        43.295
E04        34.000    25649962.369 7 134791402.70907     -3014.959 7        42.434                                                                    25649966.902 7 100655901.02507     -2251.442 7        46.984    25649965.857 7 103281705.87407     -2310.184 7        47.290
R13        35.000    19431431.666 7 103762795.40707       754.322 7        47.293
R12        36.000    19764097.852 8 105576237.78008     -2674.546 8        51.326                                                                    19764100.314 7  82114849.83607     -2080.193 7        47.854
C42        37.000                                                                                                                                    26516416.951 6 138077938.15706      2612.097 6        40.186                                                                    26516428.228 6 112199680.10406      2122.531 6        41.800
C10        38.000                                                                                                                                    38562812.324 6 200806674.29106       -32.879 6        41.585    38562813.764 7 155276457.16807       -25.381 7        44.826    38562810.764 6 163171858.87806       -26.749 6        41.454
C19        39.000                                                                                                                                    26232342.218 6 136598462.43606     -4075.788 6        40.236                                                                    26232349.604 7 110997368.85507     -3311.891 7        42.135
C30        40.000                                                                                                                                    26048852.523 6 135643218.53606      1981.100 6        41.487                                                                    26048860.067 6 110221260.62506      1609.725 6        39.934
G05        41.000    23517976.145 7 123587670.44307     -3977.845 7        42.607                                    23517980.539 6  96302027.21606     -3099.608 6        37.611    23517980.447 6  96302036.21106     -3099.681 6        39.228
S44        42.000    40805321.041 6 214433423.25706      -502.713 6        36.805
C36        43.000                                                                                                                                    21670681.754 8 112844894.12808     -1600.813 8        50.508                                                                    21670688.319 8  91695733.09408     -1300.754 8        50.086
C05        44.000                                                                                                                                    39303461.675 6 204663352.85506      -564.784 6        38.736    39303463.153 7 158258680.56607      -436.808 7        42.385    39303463.322 6 166305817.75506      -458.918 6        39.559
R14        45.000    23612334.372 7 125867026.46707      3255.760 7        45.688                                                                    23612344.283 6  97896630.85906      2532.204 6        40.210
R11        47.000    24364812.475 6 130197962.68206     -4465.089 6        38.580                                                                    24364822.314 5 101265038.29105     -3472.797 5        35.643
C45        50.000                                                                                                                                    22340271.326 8 116331676.91708      1169.558 8        49.945                                                                    22340265.705 8  94529004.33208       950.369 8        49.723
S48        51.000    77071224.938 6 405011689.05106      -504.856 6        38.078
E06        52.000    23886105.324 8 125522297.16708     -2109.035 8        48.567                                                                    23886108.911 8  93734177.46408     -1574.951 8        50.257    23886108.296 8  96179416.72008     -1616.012 8        50.792
C09        53.000                                                                                                                                    41145508.165 5 214255285.87305     -1127.321 5        33.904    41145516.340 6 165675718.65206      -871.478 6        40.222    41145512.010 6 174099909.68006      -915.914 6        36.268
C60        54.000                                                                                                                                    40805322.341 6 212484046.32306      -497.974 6        40.043                                                                    40805314.633 6 172660625.36406      -404.746 6        38.477
E31        55.000    23319178.852 8 122543115.98108      -177.984 8        48.438                                                                    23319182.320 8  91509501.63008      -132.940 8        50.631    23319181.667 8  93896702.16208      -136.382 8        51.120
C26        56.000                                                                                                                                    26905793.264 6 140105521.89906      2507.990 6        38.000                                                                    26905799.017 6 113847236.77406      2038.133 6        38.063
C02        57.000                                                                                                                                    40875631.545 5 212850009.76605      -547.506 5        31.321    40875635.979 6 164589077.60106      -423.160 6        36.919    40875636.425 5 172958034.83105      -444.693 5        31.638
I03        58.000    94698781.401 6 295832883.89006       862.355 6        40.322
C21        59.000                                                                                                                                    23017739.716 8 119859363.28508       665.887 8        48.873                                                                    23017736.415 8  97395517.16008       541.133 8        48.981
C22        60.000                                                                                                                                    22381609.502 8 116546845.73308     -2567.792 8        50.939                                                                    22381605.821 8  94703820.98908     -2086.519 8        49.558
> 2025 01 02 09 16 10.0000000  0 53
E24         1.000    25821328.881 7 135692080.80307      2189.094 7        44.631                                                                    25821334.176 7 101328559.61307      1634.655 7        46.618    25821332.885 7 103971903.44007      1677.323 7        47.169
G15         2.000    20280976.045 8 106577204.53008       640.446 8        49.129                                    20280974.308 8  83047149.37208       499.050 8        48.818    20280974.903 7  83047144.37407       498.939 7        44.895
E15         3.000    28432415.180 6 149413311.52706     -1241.379 6        37.183                                                                    28432421.319 6 111574866.08606      -926.980 6        40.362    28432420.434 6 114485512.05006      -951.227 6        40.641
G19         4.000    24492360.568 6 128708262.97806      2886.368 6        39.318                                    24492365.564 4 100292155.35404      2249.116 4        24.496
S21         5.000    38359286.510 7 201579026.48707      -514.431 7        42.320
E05         6.000    23674646.296 7 124411066.91407      1664.375 7        43.900                                                                    23674649.981 7  92904342.51807      1242.890 7        47.676    23674649.252 8  95327933.55808      1275.315 8        48.110
S45         7.000    63385474.783 6 333094318.79906      -563.413 6        36.469
R02         8.000    19923603.102 8 106316100.35108     -3200.639 8        52.499                                                                    19923605.835 7  82690284.86507     -2489.386 7        46.630
R20         9.000    23833481.503 5 127448350.97105     -1971.537 5        31.238                                                                    23833487.747 6  99126514.60406     -1533.252 6        40.586
G24        10.000    22957438.957 6 120642122.62906      2670.631 6        41.998                                    22957441.905 6  94006855.38606      2081.011 6        37.675    22957442.279 6  94006860.41706      2081.021 6        38.844
G30        11.000    22898454.305 7 120332116.09407     -3210.505 7        43.033                                    22898457.652 6  93765256.10406     -2501.687 6        40.021    22898457.536 6  93765264.09506     -2501.777 6        39.835
S27        12.000    39070459.462 6 205316504.15806      -546.958 6        36.401
G13        13.000    19863141.279 8 104381471.40708     -1325.302 8        48.959                                    19863138.966 6  81336179.54406     -1032.703 6        40.589
S36        14.000    38128871.312 7 200369015.08607      -514.984 7        44.536
I09        15.000    40345630.704 6 158324648.24106     -1041.432 6        39.709
E09        16.000    23374441.711 8 122833498.83408      -876.552 8        48.473                                                                    23374444.178 8  91726300.54108      -654.574 8        50.945    23374443.429 8  94119158.26108      -671.647 8        51.181
R21        18.000    23383440.309 7 125129564.76707      1043.532 7        43.278                                                                    23383446.725 6  97323048.26306       811.594 6        40.265
R03        21.000    19614301.133 8 104996853.72308      1125.886 8        52.588                                                                    19614301.902 7  81664210.05507       875.672 7        47.849
I06        22.000    38039917.988 7 149276932.03607      -473.359 7        42.756
S28        23.000    40803610.038 5 214424264.62805      -524.324 5        35.286
S23        25.000    38061460.654 7 200014242.25807      -515.610 7        44.343
R01        26.000    23854733.803 3                     -5051.254 3        20.310
C07        27.000                                                                                                                                    38729430.105 6 201674274.45406      -417.321 6        40.851    38729429.119 7 155947327.59407      -322.652 7        43.867    38729426.572 6 163876844.04206      -339.102 6        41.333
R04        28.000    23064662.806 7 123510181.16207      3654.464 7        44.161                                                                    23064663.883 6  96063446.40706      2842.306 6        41.921
C40        29.000                                                                                                                                    38734803.510 7 201702268.78307      -476.016 7        43.702                                                                    38734805.239 7 163899616.09907      -386.758 7        43.122
G17        30.000    22867210.834 7 120168101.80707      1764.868 7        43.609                                    22867212.933 6  93637534.97806      1375.224 6        39.375    22867212.647 6  93637531.98606      1375.261 6        39.760
G14        31.000    20777722.482 7 109187658.55607     -1951.495 7        47.060                                    20777721.671 6  85081289.10806     -1520.645 6        38.246    20777721.905 7  85081275.10407     -1520.654 7        46.930
G23        32.000    23439716.881 6 123176488.14506      1234.550 6        41.483                                    23439716.941 4  95981652.98704       961.987 4        27.425    23439717.225 7  95981647.99607       961.983 7        42.095
I02        33.000    37181061.835 7 145906470.00907        -6.867 7        43.172
E04        34.000    25652832.029 7 134806480.93307     -3016.197 7        42.828                                                                    25652836.259 7 100667160.72207     -2252.448 7        47.210    25652835.221 7 103293259.30107     -2311.157 7        47.290
R13        35.000    19430726.858 7 103759031.88307       751.053 7        46.942
R12        36.000    19766602.094 8 105589617.13108     -2677.124 8        51.185                                                                    19766605.115 7  82125256.00807     -2082.235 7        47.644
C42        37.000                                                                                                                                    26513908.284 6 138064880.88706      2611.012 6        39.745                                                                    26513920.796 6 112189069.98206      2121.597 6        41.843
C10        38.000                                                                                                                                    38562844.717 6 200806841.03406       -33.842 6        41.566    38562845.559 7 155276586.12407       -26.166 7        44.888    38562842.754 6 163171994.37906       -27.549 6        41.364
C19        39.000                                                                                                                                    26236256.525 6 136618842.30106     -4076.216 6        40.250                                                                    26236263.330 7 111013929.11207     -3312.258 7        42.250
C30        40.000                                                                                                                                    26046951.396 7 135633316.27507      1979.868 7        42.055                                                                    26046958.518 6 110213214.16406      1608.913 6        39.994
G05        41.000    23521761.955 7 123607562.73607     -3979.018 7        42.931                                    23521765.844 6  96317527.66306     -3100.527 6        37.539    23521765.940 6  96317536.64306     -3100.561 6        39.234
S44        42.000    40805795.002 6 214435936.86806      -502.589 6        36.450
C36        43.000                                                                                                                                    21672219.518 8 112852902.76508     -1602.682 8        50.396                                                                    21672226.267 8  91702240.77408     -1302.220 8        50.100
C05        44.000                                                                                                                                    39304003.877 6 204666177.73306      -565.333 6        38.441    39304005.409 7 158260864.94707      -436.904 7        42.483    39304005.914 6 166308113.21006      -459.059 6        39.634
R14        45.000    23609280.624 7 125850750.37607      3254.581 7        45.433                                                                    23609290.816 6  97883971.68706      2531.364 6        40.091
R11        47.000    24368989.349 6 130220288.25206     -4464.873 6        38.177                                                                    24369000.219 5 101282402.61205     -3473.107 5        34.957
C45        50.000                                                                                                                                    22339149.238 8 116325833.78508      1167.716 8        49.858                                                                    22339143.623 8  94524256.32308       948.907 8        49.712
S48        51.000    77071712.037 6 405014213.85506      -505.184 6        37.792
E06        52.000    23888112.810 8 125532846.96908     -2110.825 8        48.277                                                                    23888116.487 8  93742055.54508     -1576.280 8        50.345    23888115.816 8  96187500.32108     -1617.385 8        50.811
C09        53.000                                                                                                                                    41146590.916 5 214260921.83305     -1127.334 5        34.290    41146598.705 6 165680076.73406      -871.659 6        40.052    41146594.512 6 174104489.34406      -915.874 6        36.049
C60        54.000                                                                                                                                    40805800.925 6 212486537.12406      -498.261 6        39.898                                                                    40805793.039 6 172662649.35006      -404.843 6        38.282
E31        55.000    23319349.576 8 122544011.98508      -180.336 8        48.333                                                                    23319352.795 8  91510170.72908      -134.689 8        50.802    23319352.183 8  93897388.71908      -138.226 8        51.043
C26        56.000                                                                                                                                    26903385.959 6 140092982.59906      2507.679 6        37.924                                                                    26903391.212 6 113837047.55806      2037.614 6        37.879
C02        57.000                                                                                                                                    40876156.769 5 212852746.91305      -547.716 5        31.321    40876161.761 6 164591194.11206      -423.273 6        36.888    40876161.975 5 172960259.00305      -445.402 5        31.419
I03        58.000    94697683.226 6 295828572.56906       862.116 6        40.329
C21        59.000                                                                                                                                    23017101.553 8 119856040.71908       663.087 8        48.860                                                                    23017098.362 8  97392817.31108       538.846 8        48.847
C22        60.000                                                                                                                                    22384076.059 8 116559690.90608     -2570.282 8        50.838                                                                    22384072.569 8  94714258.73808     -2088.567 8        49.484
> 2025 01 02 09 16 15.0000000  0 53
E24         1.000    25819246.353 7 135681138.05607      2188.058 7        44.620                                                                    25819251.819 7 101320388.10807      1633.968 7        46.684    25819250.469 7 103963518.76407      1676.584 7        47.111
G15         2.000    20280368.156 8 106574010.30208       637.310 8        48.903                                    20280366.476 8  83044660.36108       496.604 8        48.711    20280366.990 7  83044655.36907       496.551 7        45.013
E15         3.000    28433597.308 6 149419524.57606     -1243.463 6        37.244                                                                    28433603.473 6 111579505.70406      -928.717 6        40.358    28433602.671 6 114490272.70206      -952.876 6        40.894
G19         4.000    24489613.963 6 128693831.39506      2886.458 6        39.724                                    24489619.223 4 100280909.98304      2249.184 4        24.556
S21         5.000    38359776.376 7 201581598.43907      -514.227 7        42.394
E05         6.000    23673063.171 7 124402747.29407      1663.572 7        44.331                                                                    23673066.808 7  92898129.82407      1242.209 7        47.680    23673066.083 8  95321558.79108      1274.714 8        48.133
S45         7.000    63385970.539 6 333097136.23706      -563.550 6        36.163
R02         8.000    19926603.280 8 106332111.90708     -3203.983 8        52.055                                                                    19926606.416 7  82702738.30007     -2491.987 7        46.673
R20         9.000    23835324.187 5 127458217.18305     -1975.414 5        30.860                                                                    23835332.496 6  99134188.33206     -1536.147 6        40.920
G24        10.000    22954897.981 7 120628771.77307      2669.680 7        42.027                                    22954901.330 6  93996452.13506      2080.266 6        37.592    22954902.228 6  93996457.14906      2080.256 6        39.252
G30        11.000    22901509.677 7 120348170.76707     -3211.266 7        43.562                                    22901512.762 6  93777766.21806     -2502.279 6        39.823    22901513.147 6  93777774.20306     -2502.189 6        40.038
S27        12.000    39070979.941 6 205319239.95506      -547.238 6        36.423
G13        13.000    19864403.491 8 104388104.83108     -1327.993 8        48.910                                    19864401.252 6  81341348.44106     -1034.800 6        40.455
S36        14.000    38129363.933 7 200371590.40607      -514.909 7        44.364
I09        15.000    40346957.580 6 158329855.72406     -1041.490 6        39.396
E09        16.000    23375276.609 8 122837886.02008      -878.288 8        48.700                                                                    23375279.025 8  91729576.68608      -655.822 8        50.978    23375278.303 8  94122519.87408      -672.989 8        51.129
R21        18.000    23382465.956 7 125124356.24007      1039.861 7        42.463                                                                    23382473.330 6  97318997.14706       808.861 6        39.775
R03        21.000    19613251.628 8 104991233.94708      1122.061 8        52.472                                                                    19613251.999 7  81659839.12407       872.681 7        47.732
I06        22.000    38040520.949 7 149279298.54707      -473.281 7        42.561
S28        23.000    40804107.725 5 214426885.15405      -524.007 5        34.948
S23        25.000    38061950.422 7 200016819.91407      -515.532 7        44.122
R01        26.000    23859457.384 3                     -5051.449 3        19.642
C07        27.000                                                                                                                                    38729831.214 6 201676362.50106      -417.865 6        40.872    38729830.072 7 155948942.18707      -323.184 7        43.782    38729827.570 6 163878540.71706      -339.542 6        41.385
R04        28.000    23061249.071 7 123491910.93807      3653.679 7        43.913                                                                    23061252.263 7  96049236.25907      2841.692 7        42.061
C40        29.000                                                                                                                                    38735260.929 7 201704650.81907      -476.782 7        43.568                                                                    38735262.666 7 163901551.68407      -387.523 7        43.304
G17        30.000    22865532.707 7 120159282.09407      1763.023 7        43.799                                    22865534.473 6  93630662.47406      1373.784 6        39.132    22865534.374 6  93630659.48106      1373.651 6        39.441
G14        31.000    20779580.637 7 109197422.14307     -1953.946 7        46.911                                    20779579.635 6  85088897.09406     -1522.555 6        38.177    20779579.711 7  85088883.09207     -1522.561 7        47.038
G23        32.000    23438543.489 6 123170322.46706      1231.715 6        41.385                                    23438543.627 4  95976848.56304       959.775 4        27.365    23438543.802 6  95976843.55806       959.764 6        41.838
I02        33.000    37181070.743 7 145906505.30607        -7.027 7        42.978
E04        34.000    25655701.994 7 134821564.77307     -3017.257 7        43.606                                                                    25655706.727 7 100678424.60607     -2253.170 7        47.299    25655705.627 7 103304817.03107     -2311.898 7        47.326
R13        35.000    19430024.897 7 103755284.21907       748.090 7        47.494
R12        36.000    19769108.999 8 105603008.46108     -2679.375 8        51.255                                                                    19769112.007 8  82135671.47308     -2083.989 8        48.028
C42        37.000                                                                                                                                    26511401.313 6 138051828.35006      2610.201 6        39.378                                                                    26511413.985 6 112178463.68506      2121.022 6        41.623
C10        38.000                                                                                                                                    38562877.310 6 200807011.80606       -34.359 6        41.204    38562878.546 7 155276718.18707       -26.637 7        44.894    38562875.624 6 163172133.14806       -27.982 6        41.361
C19        39.000                                                                                                                                    26240170.743 6 136639223.66306     -4076.371 6        40.215                                                                    26240177.314 7 111030490.57507     -3312.277 7        42.273
C30        40.000                                                                                                                                    26045050.509 7 135623419.37007      1978.904 7        42.292                                                                    26045057.926 6 110205172.04706      1608.070 6        40.110
G05        41.000    23525548.227 7 123627460.30507     -3979.881 7        42.578                                    23525552.266 6  96333032.21506     -3101.192 6        37.520    23525552.948 6  96333041.19506     -3101.050 6        39.027
S44        42.000    40806277.414 6 214438450.77506      -502.601 6        36.654
C36        43.000                                                                                                                                    21673759.277 8 112860919.96308     -1604.171 8        50.398                                                                    21673765.883 8  91708755.39508     -1303.574 8        50.174
C05        44.000                                                                                                                                    39304546.455 6 204669002.89506      -564.800 6        38.544    39304548.058 7 158263049.59007      -436.918 7        42.332    39304548.326 6 166310408.90106      -459.017 6        39.814
R14        45.000    23606227.508 7 125834479.22007      3253.823 7        45.056                                                                    23606238.718 6  97871316.37006      2530.747 6        39.841
R11        47.000    24373167.118 6 130242612.36006     -4464.551 6        36.870                                                                    24373177.416 5 101299765.76005     -3472.368 5        34.995
C45        50.000                                                                                                                                    22338028.703 8 116319999.17708      1166.167 8        49.930                                                                    22338023.076 8  94519515.22108       947.623 8        49.769
S48        51.000    77072198.062 6 405016738.85606      -505.145 6        38.375
E06        52.000    23890122.053 8 125543405.14308     -2112.397 8        48.505                                                                    23890125.629 8  93749939.87808     -1577.380 8        50.341    23890125.016 8  96195590.33408     -1618.554 8        50.825
C09        53.000                                                                                                                                    41147673.684 5 214266558.31105     -1127.084 5        34.262    41147681.582 6 165684435.22306      -871.589 6        40.126    41147676.871 6 174109069.45106      -916.140 6        36.370
C60        54.000                                                                                                                                    40806279.098 6 212489028.15306      -498.139 6        39.970                                                                    40806271.364 6 172664673.52106      -404.751 6        38.405
E31        55.000    23319522.166 8 122544919.08408      -182.437 8        48.449                                                                    23319525.415 8  91510848.11508      -136.197 8        50.782    23319524.813 8  93898083.76808      -139.738 8        51.090
C26        56.000                                                                                                                                    26900977.462 6 140080445.17206      2507.486 6        38.018                                                                    26900983.295 6 113826859.84406      2037.515 6        37.947
C02        57.000                                                                                                                                    40876682.175 5 212855484.32505      -547.318 5        31.698    40876687.253 6 164593310.86806      -423.303 6        37.017    40876687.534 5 172962483.37205      -444.880 5        31.766
I03        58.000    94696584.741 6 295824261.37206       862.189 6        40.255
C21        59.000                                                                                                                                    23016466.232 8 119852731.70508       660.563 8        48.846                                                                    23016462.905 8  97390128.45608       536.735 8        48.991
C22        60.000                                                                                                                                    22386545.218 8 116572548.10308     -2572.537 8        50.653                                                                    22386541.730 8  94724706.23308     -2090.324 8        49.568
> 2025 01 02 09 16 20.0000000  0 52
E24         1.000    25817165.231 7 135670201.07607      2186.713 7        44.524                                                                    25817170.563 7 101312220.90407      1632.977 7        46.759    25817169.255 7 103955138.49707      1675.635 7        47.170
G15         2.000    20279763.359 8 106570832.24108       634.008 8        48.855                                    20279761.703 8  83042183.94908       494.032 8        48.625    20279762.247 7  83042178.94707       493.967 7        45.153
E15         3.000    28434782.209 6 149425749.45706     -1246.181 6        36.510                                                                    28434787.873 6 111584154.13306      -930.670 6        40.076    28434787.346 6 114495042.38906      -954.885 6        41.168
G19         4.000    24486867.771 6 128679400.39606      2886.045 6        39.904                                    24486873.208 4 100269665.06504      2248.856 4        24.376
S21         5.000    38360262.844 7 201584170.22307      -514.373 7        42.313
E05         6.000    23671480.925 7 124394432.46407      1662.400 7        44.090                                                                    23671484.544 7  92891920.70007      1241.492 7        47.730    23671483.804 8  95315187.69408      1273.805 8        48.139
S45         7.000    63386459.452 6 333098253.88716      -563.457 6        36.401
R02         8.000    19929607.116 8 106348141.18808     -3207.622 8        51.911                                                                    19929610.380 7  82715205.49507     -2494.804 7        47.152
R20         9.000    23837175.475 5 127468103.15205     -1979.583 5        30.958                                                                    23837181.332 6  99141877.41106     -1539.447 6        41.237
G24        10.000    22952358.061 7 120615425.50807      2668.693 7        42.142                                    22952361.636 6  93986052.46506      2079.496 6        37.614    22952362.192 6  93986057.47906      2079.598 6        39.210
G30        11.000    22904565.738 7 120364229.69507     -3212.241 7        43.503                                    22904568.719 6  93790279.64606     -2503.042 6        39.844    22904569.122 6  93790287.63506     -2502.964 6        39.607
S27        12.000    39071497.128 6 205321975.82606      -547.099 6        36.745
G13        13.000    19865668.445 8 104394752.35108     -1330.870 8        48.985                                    19865666.229 6  81346528.32406     -1037.038 6        40.369
S36        14.000    38129853.473 7 200374165.19507      -515.085 7        44.685
I09        15.000    40348284.642 6 158335063.08306     -1041.566 6        39.387
E09        16.000    23376113.242 8 122842282.50808      -880.256 8        48.635                                                                    23376115.668 8  91732859.78508      -657.366 8        50.987    23376114.934 8  94125888.61408      -674.482 8        51.171
R21        18.000    23381495.518 6 125119166.69906      1035.974 6        41.945                                                                    23381503.438 6  97314960.81306       805.856 6        39.832
R03        21.000    19612205.333 8 104985633.94008      1118.065 8        52.779                                                                    19612205.758 7  81655483.55807       869.622 7        47.639
I06        22.000    38041124.219 7 149281665.24507      -473.300 7        42.536
S28        23.000    40804608.860 5 214429505.98405      -524.017 5        35.343
S23        25.000    38062440.360 7 200019397.67507      -515.463 7        44.524
C07        27.000                                                                                                                                    38730232.931 6 201678454.46706      -418.900 6        41.035    38730231.687 7 155950559.81507      -323.821 7        43.774    38730229.381 6 163880240.60606      -340.402 6        41.149
R04        28.000    23057838.027 7 123473645.76807      3652.545 7        44.635                                                                    23057841.010 6  96035029.98106      2840.876 6        41.299
C40        29.000                                                                                                                                    38735719.182 7 201707037.78307      -477.858 7        43.644                                                                    38735721.033 7 163903491.27907      -388.333 7        43.162
G17        30.000    22863856.219 7 120150472.55907      1760.916 7        44.056                                    22863857.977 6  93623797.89406      1372.141 6        39.189    22863858.603 6  93623794.90406      1371.975 6        40.246
G14        31.000    20781440.969 7 109207198.77907     -1956.656 7        46.702                                    20781440.053 6  85096515.24406     -1524.665 6        38.066    20781440.573 7  85096501.24107     -1524.651 7        47.174
G23        32.000    23437372.976 6 123164171.77906      1228.591 6        41.447                                    23437373.274 4  95972055.81104       957.347 4        27.389    23437372.947 6  95972050.81206       957.239 6        41.414
I02        33.000    37181080.053 7 145906541.91207        -7.569 7        42.885
E04        34.000    25658573.092 7 134836653.93707     -3018.451 7        43.431                                                                    25658578.078 7 100689692.47207     -2253.998 7        47.236    25658577.039 7 103316378.84607     -2312.770 7        47.293
R13        35.000    19429326.555 7 103751551.94607       744.927 7        47.358
R12        36.000    19771618.157 8 105616411.49608     -2681.811 8        51.210                                                                    19771620.836 7  82146096.05807     -2085.876 7        47.785
C42        37.000                                                                                                                                    26508896.050 6 138038780.29406      2609.146 6        39.363                                                                    26508908.037 6 112167861.04506      2120.279 6        41.304
C10        38.000                                                                                                                                    38562910.601 6 200807186.36006       -35.203 6        41.492    38562911.985 7 155276853.18407       -27.286 7        45.031    38562909.129 6 163172274.98806       -28.543 6        41.282
C19        39.000                                                                                                                                    26244084.995 6 136659606.25006     -4076.705 6        40.691                                                                    26244091.658 7 111047053.05907     -3312.643 7        42.210
C30        40.000                                                                                                                                    26043150.658 7 135613527.55807      1977.799 7        42.307                                                                    26043158.261 6 110197134.07006      1607.099 6        40.005
G05        41.000    23529335.263 7 123647362.87607     -3980.998 7        43.208                                    23529339.614 6  96348540.66606     -3102.067 6        37.622    23529340.352 6  96348549.65706     -3101.988 6        38.694
S44        42.000    40806754.791 6 214440964.62006      -502.782 6        36.715
C36        43.000                                                                                                                                    21675300.539 8 112868945.45008     -1605.973 8        50.610                                                                    21675307.104 8  91715276.75608     -1304.947 8        50.013
C05        44.000                                                                                                                                    39305089.069 6 204671828.13206      -565.085 6        38.937    39305090.627 7 158265234.25707      -436.912 7        42.353    39305090.707 6 166312704.65806      -459.231 6        39.477
R14        45.000    23603176.238 7 125818212.76307      3252.911 7        44.588                                                                    23603187.032 6  97858664.69706      2530.050 6        40.629
R11        47.000    24377344.805 6 130264934.71706     -4464.322 6        37.191                                                                    24377355.155 5 101317127.55305     -3472.182 5        34.029
C45        50.000                                                                                                                                    22336909.977 8 116314172.81908      1164.429 8        50.106                                                                    22336904.206 8  94514780.84208       946.227 8        49.628
S48        51.000    77072680.970 6 405019264.07106      -505.056 6        37.856
E06        52.000    23892132.646 8 125553971.42408     -2114.133 8        48.273                                                                    23892136.374 8  93757830.26808     -1578.683 8        50.409    23892135.738 8  96203686.56208     -1619.929 8        50.863
C09        53.000                                                                                                                                    41148755.783 5 214272195.05105     -1127.395 5        34.571    41148763.892 6 165688793.88006      -871.798 6        40.579    41148759.163 6 174113649.72806      -916.070 6        36.110
C60        54.000                                                                                                                                    40806757.141 6 212491519.14506      -498.308 6        40.138                                                                    40806749.729 6 172666697.67506      -404.672 6        38.102
E31        55.000    23319697.005 8 122545837.00908      -184.691 8        48.429                                                                    23319700.068 8  91511533.58108      -137.913 8        50.835    23319699.531 8  93898787.11808      -141.477 8        51.127
C26        56.000                                                                                                                                    26898569.487 6 140067909.36206      2506.981 6        38.450                                                                    26898575.804 6 113816673.44506      2037.141 6        37.766
C02        57.000                                                                                                                                    40877207.586 5 212858221.72305      -547.784 5        31.804    40877213.039 6 164595427.58806      -423.430 6        36.964    40877213.173 5 172964707.68905      -445.052 5        30.928
I03        58.000    94695486.056 6 295819950.08806       862.231 6        40.162
C21        59.000                                                                                                                                    23015833.274 8 119849435.98308       657.798 8        49.176                                                                    23015829.946 8  97387450.40608       534.560 8        48.861
C22        60.000                                                                                                                                    22389016.254 8 116585417.04408     -2574.965 8        50.679                                                                    22389013.031 8  94735163.29308     -2092.407 8        49.378
> 2025 01 02 09 16 25.0000000  0 52
E24         1.000    25815084.954 7 135659269.47407      2185.920 7        44.424                                                                    25815090.194 7 101304057.71007      1632.331 7        46.856    25815088.968 7 103946762.35707      1674.837 7        47.111
G15         2.000    20279161.757 8 106567669.92708       631.045 8        48.829                                    20279159.943 8  83039719.80808       491.722 8        48.786    20279160.398 7  83039714.81007       491.687 7        45.138
E15         3.000    28435968.385 6 149431985.77806     -1248.472 6        37.149                                                                    28435974.557 6 111588811.09406      -932.190 6        40.107    28435973.995 6 114499820.84806      -956.587 6        41.290
G19         4.000    24484121.562 6 128664969.61806      2886.368 6        39.979                                    24484126.966 4 100258420.31704      2249.108 4        24.617
S21         5.000    38360754.128 7 201586741.58307      -514.107 7        42.286
E05         6.000    23669899.467 7 124386122.01907      1661.734 7        44.065                                                                    23669903.085 7  92885714.85907      1240.857 7        47.776    23669902.370 8  95308819.96308      1273.208 8        48.169
S45         7.000    63386950.061 6 333101071.31206      -563.436 6        36.193
R02         8.000    19932614.809 8 106364187.61108     -3210.836 8        52.564                                                                    19932617.699 7  82727686.02907     -2497.341 7        46.773
R20         9.000    23839027.918 5 127478008.58305     -1983.395 5        30.370                                                                    23839033.692 6  99149581.63106     -1542.327 6        41.297
G24        10.000    22949819.074 6 120602083.48306      2668.096 6        41.919                                    22949822.725 6  93975656.09706      2079.036 6        37.735    22949823.316 6  93975661.09206      2079.080 6        39.291
G30        11.000    22907622.454 7 120380292.51307     -3212.856 7        43.458                                    22907625.386 6  93802796.10806     -2503.520 6        40.029    22907625.907 6  93802804.10006     -2503.558 6        39.619
S27        12.000    39072019.083 6 205324711.54106      -547.170 6        36.760
G13        13.000    19866936.325 8 104401413.60008     -1333.529 8        48.774                                    19866933.840 6  81351718.90506     -1039.114 6        40.520
S36        14.000    38130341.841 7 200376740.01907      -515.016 7        44.855
I09        15.000    40349611.637 6 158340270.03706     -1041.333 6        39.652
E09        16.000    23376951.694 8 122846687.92508      -881.828 8        48.642                                                                    23376953.957 8  91736149.53808      -658.567 8        51.098    23376953.256 8  94129264.18608      -675.705 8        51.161
R21        18.000    23380528.377 7 125113995.94807      1032.351 7        42.646                                                                    23380536.729 6  97310939.09506       802.925 6        40.329
R03        21.000    19611163.087 8 104980053.01208      1114.359 8        52.582                                                                    19611163.383 8  81651142.84808       866.703 8        48.048
I06        22.000    38041727.487 7 149284031.89807      -473.313 7        42.808
S28        23.000    40805109.780 5 214432126.47505      -524.134 5        35.043
S23        25.000    38062932.913 7 200021975.08907      -515.324 7        44.707
C07        27.000                                                                                                                                    38730635.243 6 201680549.96406      -419.291 6        41.068    38730634.422 7 155952180.17907      -324.223 7        43.731    38730631.823 6 163881943.35906      -340.749 6        41.449
R04        28.000    23054428.150 7 123455385.09307      3651.741 7        43.526                                                                    23054431.362 7  96020827.24607      2840.155 7        42.097
C40        29.000                                                                                                                                    38736178.286 7 201709429.28807      -478.589 7        43.913                                                                    38736180.207 7 163905434.57207      -388.918 7        43.259
G17        30.000    22862181.687 7 120141672.86907      1759.169 7        44.155                                    22862183.439 6  93616940.99406      1370.785 6        39.538    22862184.072 6  93616938.00806      1370.623 6        41.037
G14        31.000    20783303.814 7 109216988.07007     -1959.003 7        47.020                                    20783302.891 6  85104143.25706     -1526.497 6        38.231    20783303.069 7  85104129.25207     -1526.528 7        46.903
G23        32.000    23436205.488 7 123158035.69807      1225.938 7        42.030                                    23436205.639 4  95967274.45504       955.267 4        27.389    23436206.006 6  95967269.47706       955.211 6        41.137
I02        33.000    37181089.380 7 145906579.61607        -7.519 7        42.948
E04        34.000    25661445.362 7 134851748.05907     -3019.244 7        43.194                                                                    25661450.349 7 100700964.02707     -2254.605 7        47.469    25661449.472 7 103327944.44407     -2313.478 7        47.356
R13        35.000    19428630.119 7 103747834.78907       742.067 7        46.993
R12        36.000    19774129.339 8 105629825.84008     -2683.907 8        51.330                                                                    19774132.016 8  82156529.43708     -2087.473 8        48.083
C42        37.000                                                                                                                                    26506391.423 6 138025736.36806      2608.358 6        39.547                                                                    26506403.193 6 112157261.74506      2119.679 6        41.650
C10        38.000                                                                                                                                    38562945.209 6 200807364.25406       -35.774 6        41.859    38562946.235 7 155276990.73907       -27.702 7        44.998    38562943.182 6 163172419.55306       -29.061 6        41.490
C19        39.000                                                                                                                                    26247999.207 6 136679989.68706     -4076.612 6        40.999                                                                    26248006.200 7 111063616.21607     -3312.581 7        42.423
C30        40.000                                                                                                                                    26041252.329 7 135603640.48307      1977.017 7        42.527                                                                    26041259.622 6 110189099.91906      1606.704 6        40.033
G05        41.000    23533123.706 7 123667270.00907     -3981.748 7        43.266                                    23533127.830 6  96364052.67606     -3102.651 6        37.747    23533128.300 6  96364061.67006     -3102.502 6        39.468
S44        42.000    40807234.856 6 214443478.07406      -502.286 6        36.635
C36        43.000                                                                                                                                    21676843.426 8 112876978.86408     -1607.394 8        50.662                                                                    21676849.845 8  91721804.55408     -1306.042 8        50.128
C05        44.000                                                                                                                                    39305631.673 6 204674653.04006      -564.687 6        38.925    39305633.169 7 158267418.67207      -436.701 7        42.681    39305633.249 6 166315000.12306      -458.945 6        39.628
R14        45.000    23600125.867 7 125801950.57007      3252.053 7        44.918                                                                    23600135.770 6  97846016.34506      2529.373 6        40.365
R11        47.000    24381522.421 6 130287254.97506     -4463.770 6        37.214                                                                    24381531.500 5 101334487.73305     -3471.762 5        34.086
C45        50.000                                                                                                                                    22335792.277 8 116308354.36408      1163.060 8        50.184                                                                    22335786.804 8  94510052.86608       945.120 8        49.871
S48        51.000    77073167.080 6 405021788.95806      -504.758 6        37.992
E06        52.000    23894144.700 8 125564545.43408     -2115.479 8        48.428                                                                    23894148.535 8  93765726.42508     -1579.706 8        50.532    23894147.923 8  96211788.70708     -1620.935 8        50.905
C09        53.000                                                                                                                                    41149838.137 5 214277831.66505     -1127.265 5        34.609    41149846.405 6 165693152.44206      -871.599 6        40.520    41149841.786 6 174118229.93406      -916.044 6        36.363
C60        54.000                                                                                                                                    40807235.587 6 212494009.75306      -498.067 6        40.179                                                                    40807227.969 6 172668721.51506      -404.630 6        38.637
E31        55.000    23319873.613 8 122546765.39508      -186.636 8        48.615                                                                    23319876.752 8  91512226.85608      -139.358 8        50.926    23319876.166 8  93899498.48108      -143.031 8        51.015
C26        56.000                                                                                                                                    26896163.013 6 140055374.78806      2506.791 6        38.483                                                                    26896168.604 6 113806488.05406      2037.130 6        38.012
C02        57.000                                                                                                                                    40877734.250 5 212860958.71205      -547.283 5        31.864    40877738.723 6 164597543.96606      -423.192 6        36.775    40877739.067 5 172966931.70405      -444.808 5        31.426
I03        58.000    94694386.898 6 295815638.44306       862.493 6        40.296
C21        59.000                                                                                                                                    23015202.814 8 119846153.19708       655.401 8        49.219                                                                    23015199.511 8  97384782.86008       532.601 8        49.008
C22        60.000                                                                                                                                    22391489.846 8 116598297.34608     -2577.058 8        51.103                                                                    22391486.602 8  94745629.57808     -2094.055 8        49.539
> 2025 01 02 09 16 30.0000000  0 52
E24         1.000    25813005.683 7 135648343.39307      2184.540 7        44.339                                                                    25813010.916 7 101295898.64807      1631.357 7        46.911    25813009.830 7 103938390.43507      1673.960 7        47.166
G15         2.000    20278563.118 8 106564523.53808       627.656 8        48.879                                    20278561.206 8  83037268.07308       489.083 8        49.015    20278561.459 7  83037263.07207       489.065 7        44.969
E15         3.000    28437157.730 6 149438233.62306     -1250.827 6        36.707                                                                    28437163.502 6 111593476.65406      -933.929 6        40.408    28437162.857 6 114504608.11806      -958.339 6        41.292
G19         4.000    24481375.483 6 128650539.16606      2886.079 6        40.119                                    24481380.866 4 100247175.83004      2248.891 4        25.068
S21         5.000    38361246.078 7 201589312.82407      -514.425 7        42.681
E05         6.000    23668318.919 7 124377816.14407      1660.722 7        44.116                                                                    23668322.544 7  92879512.42207      1240.169 7        47.980    23668321.797 8  95302455.72008      1272.538 8        48.232
S45         7.000    63387438.514 6 333103888.66606      -563.484 6        36.473
R02         8.000    19935625.221 8 106380251.33108     -3214.497 8        52.584                                                                    19935627.684 7  82740180.00507     -2500.122 7        46.559
R20         9.000    23840881.390 5 127487933.40605     -1986.990 5        31.057                                                                    23840889.726 6  99157300.97606     -1545.518 6        41.192
G24        10.000    22947281.095 6 120588745.84406      2667.003 6        41.640                                    22947284.664 6  93965263.15206      2078.182 6        37.985    22947284.512 6  93965268.17006      2078.252 6        39.345
G30        11.000    22910679.723 7 120396359.38407     -3213.923 7        42.863                                    22910682.857 6  93815315.72306     -2504.350 6        40.191    22910682.946 6  93815323.71806     -2504.392 6        39.904
S27        12.000    39072536.517 6 205327447.09706      -547.162 6        36.809
G13        13.000    19868206.355 8 104408088.71608     -1336.425 8        48.617                                    19868204.049 6  81356920.28806     -1041.370 6        40.732
S36        14.000    38130832.476 7 200379315.28407      -514.984 7        44.898
I09        15.000    40350938.536 6 158345476.69306     -1041.437 6        39.685
E09        16.000    23377791.818 8 122851102.42408      -883.849 8        48.830                                                                    23377794.035 8  91739446.07008      -659.996 8        51.188    23377793.281 8  94132646.71808      -677.212 8        51.212
R21        18.000    23379566.780 7 125108844.14607      1028.324 7        42.533                                                                    23379574.325 6  97306932.08006       799.917 6        40.055
R03        21.000    19610123.788 8 104974491.29808      1110.457 8        52.496                                                                    19610124.120 7  81646817.07507       863.661 7        47.568
I06        22.000    38042330.365 7 149286398.55407      -473.271 7        42.485
S28        23.000    40805605.280 5 214434746.85105      -524.109 5        35.424
S23        25.000    38063422.583 7 200024552.46307      -515.474 7        44.801
C07        27.000                                                                                                                                    38731038.484 6 201682649.16906      -420.144 6        40.899    38731037.343 7 155953803.40407      -324.980 7        43.918    38731035.052 6 163883649.12206      -341.403 6        41.397
R04        28.000    23051018.873 7 123437129.21207      3650.717 7        43.283                                                                    23051022.695 7  96006628.22707      2839.443 7        42.095
C40        29.000                                                                                                                                    38736638.591 7 201711825.49707      -479.747 7        44.214                                                                    38736640.441 7 163907381.69507      -389.889 7        43.194
G17        30.000    22860508.721 7 120132883.20607      1756.893 7        44.074                                    22860510.901 6  93610091.90106      1369.008 6        39.859    22860511.252 6  93610088.89906      1369.042 6        40.849
G14        31.000    20785169.267 7 109226790.16307     -1961.681 7        46.911                                    20785168.152 6  85111781.24706     -1528.580 6        38.378    20785168.139 7  85111767.23807     -1528.600 7        46.819
G23        32.000    23435040.619 6 123151914.44006      1222.724 6        41.552                                    23435040.750 4  95962504.63604       952.775 4        27.581    23435040.551 6  95962499.63906       952.865 6        40.717
I02        33.000    37181099.450 7 145906618.43307        -7.962 7        42.933
E04        34.000    25664318.641 7 134866847.29607     -3020.310 7        42.787                                                                    25664323.713 7 100712239.40507     -2255.384 7        47.441    25664322.890 7 103339513.96507     -2314.328 7        47.590
R13        35.000    19427936.228 7 103744132.93207       738.826 7        46.940
R12        36.000    19776642.632 8 105643251.66708     -2686.357 8        50.908                                                                    19776645.077 7  82166971.73807     -2089.349 7        47.605
C42        37.000                                                                                                                                    26503887.426 6 138012696.69206      2607.375 6        38.991                                                                    26503899.337 6 112146665.93306      2118.853 6        41.468
C10        38.000                                                                                                                                    38562980.052 6 200807545.73006       -36.610 6        41.876    38562980.942 7 155277131.08107       -28.317 7        45.093    38562978.135 6 163172567.02706       -29.747 6        41.297
C19        39.000                                                                                                                                    26251914.189 6 136700374.12906     -4077.018 6        41.333                                                                    26251920.685 7 111080180.19907     -3312.957 7        42.241
C30        40.000                                                                                                                                    26039354.529 7 135593758.29507      1976.059 7        42.595                                                                    26039361.970 6 110181069.78106      1605.548 6        39.760
G05        41.000    23536912.899 7 123687181.88007     -3982.930 7        42.741                                    23536917.065 6  96379568.37406     -3103.574 6        38.024    23536918.205 6  96379577.37006     -3103.640 6        39.820
S44        42.000    40807710.775 6 214445991.27106      -502.724 6        36.715
C36        43.000                                                                                                                                    21678387.485 8 112885020.33608     -1609.106 8        50.693                                                                    21678394.129 8  91728338.91808     -1307.565 8        50.030
C05        44.000                                                                                                                                    39306174.041 6 204677477.80906      -565.079 6        39.126    39306175.326 7 158269602.96707      -436.833 7        42.660    39306175.786 6 166317295.49406      -459.004 6        39.688
R14        45.000    23597075.534 7 125785692.75407      3251.074 7        44.591                                                                    23597086.419 6  97833371.38706      2528.642 6        40.501
R11        47.000    24385699.286 6 130309573.20606     -4463.448 6        36.571                                                                    24385708.163 5 101351846.32805     -3471.451 5        34.619
C45        50.000                                                                                                                                    22334676.386 8 116302543.94308      1161.241 8        50.103                                                                    22334670.989 8  94505331.44208       943.625 8        49.680
S48        51.000    77073651.326 6 405024313.66706      -504.755 6        37.943
E06        52.000    23896158.460 8 125575127.32708     -2117.208 8        48.462                                                                    23896162.199 8  93773628.46908     -1580.974 8        50.539    23896161.628 8  96219896.89408     -1622.243 8        50.896
C09        53.000                                                                                                                                    41150920.406 5 214283468.25705     -1127.201 5        34.519    41150929.164 6 165697511.04006      -871.763 6        40.470    41150924.327 6 174122810.15406      -916.181 6        36.204
C60        54.000                                                                                                                                    40807713.935 6 212496500.09506      -497.967 6        39.886                                                                    40807706.263 6 172670745.14706      -404.573 6        38.330
E31        55.000    23320052.194 8 122547704.38208      -188.920 8        48.625                                                                    23320055.425 8  91512928.05308      -141.065 8        51.003    23320054.811 8  93900217.96608      -144.743 8        51.155
C26        56.000                                                                                                                                    26893756.150 6 140042841.60106      2506.477 6        38.790                                                                    26893761.728 6 113796303.77306      2036.898 6        37.478
C02        57.000                                                                                                                                    40878259.437 5 212863695.46505      -547.702 5        31.653    40878264.354 6 164599660.15006      -423.236 6        37.369    40878264.394 5 172969155.48905      -444.806 5        31.049
I03        58.000    94693288.348 6 295811326.57206       862.227 6        40.138
C21        59.000                                                                                                                                    23014574.934 8 119842883.48308       652.571 8        49.231                                                                    23014571.643 8  97382125.95408       530.288 8        48.931
C22        60.000                                                                                                                                    22393965.916 8 116611189.17108     -2579.532 8        51.108                                                                    22393962.387 8  94756105.24208     -2096.130 8        49.424
> 2025 01 02 09 16 35.0000000  0 53
E24         1.000    25810927.537 7 135637422.51507      2183.564 7        44.337                                                                    25810932.669 7 101287743.46207      1630.601 7        46.738    25810931.597 7 103930022.50707      1673.222 7        47.194
G15         2.000    20277967.156 8 106561392.72608       624.487 8        48.960                                    20277965.430 8  83034828.48108       486.611 8        48.960    20277966.074 7  83034823.47907       486.668 7        45.347
E15         3.000    28438348.546 6 149444492.71606     -1253.108 6        37.040                                                                    28438354.939 6 111598150.66806      -935.611 6        40.501    28438353.918 6 114509404.06206      -960.133 6        41.337
G19         4.000    24478629.919 6 128636108.66306      2885.993 6        39.883                                    24478634.843 4 100235931.30104      2248.822 4        25.053
S21         5.000    38361732.671 7 201591883.80907      -514.436 7        42.470
E05         6.000    23666739.223 7 124369514.48607      1659.788 7        44.382                                                                    23666742.840 7  92873313.13507      1239.491 7        47.846    23666741.990 8  95296094.71708      1271.744 8        48.266
S45         7.000    63387934.033 6 333106705.50106      -563.422 6        36.707
R02         8.000    19938638.512 8 106396332.00208     -3217.896 8        52.706                                                                    19938641.391 7  82752687.18707     -2502.838 7        46.899
R20         9.000    23842740.380 5 127497877.44505     -1990.666 5        30.294                                                                    23842749.087 6  99165035.21906     -1548.383 6        40.741
G24        10.000    22944743.910 7 120575412.27807      2666.239 7        42.112                                    22944747.371 6  93954873.37106      2077.586 6        37.909    22944747.623 6  93954878.39206      2077.494 6        39.886
G30        11.000    22913737.773 7 120412429.91307     -3214.543 7        42.760                                    22913741.009 6  93827838.18806     -2504.833 6        40.067    22913741.519 6  93827846.17606     -2504.816 6        39.985
S27        12.000    39073058.673 6 205330181.94206      -546.945 6        36.620
G13        13.000    19869479.311 8 104414777.32708     -1339.127 8        48.821                                    19869476.874 6  81362132.19306     -1043.473 6        40.691
S36        14.000    38131319.355 7 200381890.06807      -514.661 7        44.528
I09        15.000    40352265.405 6 158350682.79406     -1041.214 6        39.802
E09        16.000    23378633.365 8 122855525.63208      -885.622 8        48.855                                                                    23378635.711 8  91742749.11508      -661.342 8        51.063    23378635.031 8  94136035.92608      -678.540 8        51.249
R21        18.000    23378607.963 7 125103710.84807      1024.792 7        42.284                                                                    23378615.013 6  97302939.47906       797.099 6        39.057
R03        21.000    19609088.104 8 104968948.45308      1106.564 8        52.347                                                                    19609088.395 7  81642505.98807       860.597 7        47.675
I06        22.000    38042933.600 7 149288765.00407      -473.363 7        42.650
S28        23.000    40806105.422 5 214437366.75005      -523.920 5        35.248
S23        25.000    38063913.030 7 200027129.38507      -515.380 7        44.533
R01        26.000    23878358.713 3                     -5044.858 3        18.716
C07        27.000                                                                                                                                    38731442.167 6 201684751.68606      -420.931 6        40.741    38731441.133 7 155955429.18707      -325.503 7        43.873    38731438.777 6 163885357.57106      -341.896 6        41.623
R04        28.000    23047610.802 7 123418877.63407      3649.810 7        44.003                                                                    23047613.455 6  95992432.54506      2838.713 6        41.292
C40        29.000                                                                                                                                    38737099.554 7 201714226.02107      -480.595 7        44.081                                                                    38737101.541 7 163909332.31107      -390.375 7        43.422
G17        30.000    22858838.490 7 120124103.17307      1754.962 7        43.888                                    22858840.155 6  93603250.31806      1367.501 6        39.661    22858840.177 6  93603247.32606      1367.568 6        40.825
G14        31.000    20787036.801 7 109236604.67407     -1964.233 7        46.970                                    20787035.779 6  85119428.91606     -1530.573 6        38.312    20787036.090 7  85119414.91207     -1530.508 7        46.919
G23        32.000    23433878.233 6 123145807.57606      1219.979 6        41.077                                    23433878.602 4  95957746.04304       950.630 4        27.772    23433878.780 6  95957741.04906       950.375 6        41.356
I02        33.000    37181109.610 7 145906658.35807        -7.983 7        42.688
E04        34.000    25667193.206 7 134881951.26607     -3021.361 7        43.244                                                                    25667197.965 7 100723518.31907     -2256.160 7        47.347    25667197.157 7 103351087.11707     -2315.097 7        47.609
R13        35.000    19427245.995 7 103740445.83207       735.874 7        47.280
R12        36.000    19779157.993 8 105656688.49008     -2688.562 8        50.951                                                                    19779160.908 8  82177422.60008     -2091.111 8        48.020
C42        37.000                                                                                                                                    26501384.009 6 137999660.96506      2606.686 6        39.039                                                                    26501396.120 6 112136073.31306      2118.243 6        41.940
C10        38.000                                                                                                                                    38563015.080 6 200807730.35206       -37.213 6        41.478    38563016.465 7 155277273.85107       -28.830 7        45.207    38563013.518 6 163172717.06406       -30.196 6        41.478
C19        39.000                                                                                                                                    26255828.773 6 136720759.16306     -4077.070 6        41.139                                                                    26255835.479 7 111096744.66307     -3312.828 7        42.428
C30        40.000                                                                                                                                    26037457.812 7 135583880.67207      1974.903 7        42.044                                                                    26037465.355 6 110173043.28806      1605.069 6        39.838
G05        41.000    23540702.800 7 123707098.02807     -3983.699 7        42.544                                    23540707.109 6  96395087.40106     -3104.173 6        37.811    23540707.470 6  96395096.39306     -3104.154 6        39.733
S44        42.000    40808189.833 6 214448503.85406      -502.633 6        36.877
C36        43.000                                                                                                                                    21679933.036 8 112893069.48608     -1610.642 8        50.552                                                                    21679939.878 8  91734879.50108     -1308.629 8        50.237
C05        44.000                                                                                                                                    39306716.596 6 204680302.01206      -565.058 6        38.498    39306717.837 7 158271786.83907      -436.764 7        42.629    39306718.292 6 166319590.40606      -458.838 6        39.793
R14        45.000    23594025.637 7 125769438.94707      3250.262 7        44.102                                                                    23594036.296 6  97820729.58006      2528.044 6        39.994
R11        47.000    24389875.103 6 130331889.05106     -4462.999 6        36.079                                                                    24389884.566 5 101369203.05805     -3471.172 5        35.262
C45        50.000                                                                                                                                    22333562.053 8 116296741.19308      1159.674 8        49.928                                                                    22333556.584 8  94500616.23308       942.482 8        49.896
S48        51.000    77074131.802 6 405026838.06806      -504.923 6        37.652
E06        52.000    23898173.550 8 125585716.74108     -2118.738 8        48.563                                                                    23898177.293 8  93781536.13108     -1582.096 8        50.453    23898176.716 8  96228010.84708     -1623.425 8        50.902
C09        53.000                                                                                                                                    41152002.306 5 214289104.59005     -1127.174 5        34.814    41152011.236 6 165701869.37006      -871.687 6        40.527    41152006.529 6 174127390.09606      -916.000 6        36.476
C60        54.000                                                                                                                                    40808191.795 6 212498989.83106      -498.009 6        40.062                                                                    40808184.338 6 172672768.28206      -404.547 6        38.195
E31        55.000    23320232.797 8 122548653.58308      -190.881 8        48.677                                                                    23320236.039 8  91513636.88208      -142.549 8        50.946    23320235.490 8  93900945.28808      -146.289 8        51.132
C26        56.000                                                                                                                                    26891349.132 6 140030309.42406      2506.072 6        38.363                                                                    26891354.990 6 113786120.35406      2036.502 6        37.750
C02        57.000                                                                                                                                    40878784.701 5 212866431.52005      -547.073 5        32.090    40878790.015 6 164601775.86006      -422.891 6        37.183    40878790.064 5 172971378.74205      -443.871 5        31.479
I03        58.000    94692189.184 6 295807014.16106       862.465 6        40.427
C21        59.000                                                                                                                                    23013949.414 8 119839626.49308       650.029 8        49.038                                                                    23013946.178 8  97379479.36708       528.394 8        49.166
C22        60.000                                                                                                                                    22396443.566 8 116624092.13008     -2581.810 8        50.843                                                                    22396440.190 8  94766589.92708     -2097.730 8        49.667
> 2025 01 02 09 16 40.0000000  0 53
E24         1.000    25808850.446 7 135626507.28307      2182.502 7        44.096                                                                    25808855.711 7 101279592.50207      1629.829 7        46.910    25808854.494 7 103921658.91207      1672.382 7        47.266
G15         2.000    20277374.379 8 106558277.99008       621.353 8        49.070                                    20277372.703 8  83032401.41308       484.173 8        48.839    20277373.233 7  83032396.40807       484.209 7        45.129
E15         3.000    28439541.839 6 149450763.50406     -1255.278 6        36.892                                                                    28439548.242 6 111602833.38006      -937.349 6        40.772    28439547.295 6 114514208.94906      -961.866 6        41.430
G19         4.000    24475883.368 6 128621678.64006      2886.053 6        39.375                                    24475888.806 4 100224687.13604      2248.863 4        24.902
S21         5.000    38362220.105 7 201594454.94507      -514.181 7        42.318
E05         6.000    23665160.296 7 124361217.50907      1658.947 7        44.260                                                                    23665163.887 7  92867117.34707      1238.826 7        47.904    23665163.229 8  95289737.29208      1271.203 8        48.382
S45         7.000    63388426.009 6 333109522.35306      -563.369 6        36.541
R02         8.000    19941655.131 8 106412429.98808     -3221.339 8        52.579                                                                    19941658.336 7  82765207.81707     -2505.513 7        46.773
R20         9.000    23844604.599 5 127507841.18005     -1994.608 5        30.732                                                                    23844612.690 6  99172784.75806     -1551.442 6        41.044
G24        10.000    22942207.584 6 120562083.22006      2665.139 6        41.862                                    22942210.888 6  93944487.11406      2076.727 6        37.800    22942211.174 6  93944492.11706      2077.017 6        39.610
G30        11.000    22916796.885 7 120428504.57207     -3215.291 7        43.860                                    22916799.881 6  93840363.87006     -2505.421 6        39.832    22916800.345 6  93840371.86106     -2505.382 6        40.100
S27        12.000    39073578.897 6 205332916.89006      -547.027 6        36.473
G13        13.000    19870754.885 8 104421479.95108     -1341.871 8        48.811                                    19870752.333 6  81367355.01706     -1045.614 6        40.546
S36        14.000    38131810.733 7 200384464.69207      -514.985 7        44.560
I09        15.000    40353591.706 6 158355888.67006     -1041.062 6        39.916
E09        16.000    23379476.901 8 122859958.04108      -887.449 8        48.839                                                                    23379479.188 8  91746059.03008      -662.663 8        51.217    23379478.476 8  94139432.18808      -679.929 8        51.427
R21        18.000    23377651.564 6 125098596.59006      1020.868 6        41.750                                                                    23377659.547 6  97298961.68206       794.145 6        39.438
R03        21.000    19608056.259 8 104963424.99508      1102.782 8        52.126                                                                    19608056.922 7  81638209.95807       857.744 7        47.542
I06        22.000    38043536.525 7 149291131.57507      -473.272 7        42.506
S28        23.000    40806605.685 5 214439986.78005      -523.798 5        35.076
S23        25.000    38064405.638 7 200029706.30207      -515.336 7        44.567
R01        26.000    23883084.588 3                     -5045.477 3        20.048
C07        27.000                                                                                                                                    38731846.495 6 201686858.04106      -421.694 6        40.946    38731845.401 7 155957057.93707      -326.024 7        44.096    38731843.394 6 163887069.14306      -342.551 6        41.573
R04        28.000    23044203.925 7 123400630.97507      3648.856 7        43.418                                                                    23044205.623 6  95978240.67706      2838.003 6        41.132
C40        29.000                                                                                                                                    38737561.445 7 201716631.37707      -481.526 7        44.202                                                                    38737563.372 7 163911286.84607      -391.186 7        43.329
G17        30.000    22857168.980 7 120115333.29907      1752.973 7        43.437                                    22857171.283 6  93596416.65206      1365.955 6        39.411    22857171.081 6  93596413.65806      1365.876 6        40.687
G14        31.000    20788906.645 7 109246432.10507     -1966.812 7        46.997                                    20788905.879 6  85127086.64906     -1532.580 6        38.165    20788906.292 7  85127072.64207     -1532.557 7        46.989
G23        32.000    23432719.292 6 123139715.64806      1216.870 6        40.996                                    23432719.281 4  95952999.07604       948.208 4        27.449    23432719.532 6  95952994.07406       948.254 6        40.822
I02        33.000    37181119.872 7 145906699.56407        -8.383 7        42.660
E04        34.000    25670068.281 7 134897060.44707     -3022.267 7        43.128                                                                    25670073.212 7 100734801.13507     -2256.988 7        47.390    25670072.288 7 103362664.26507     -2315.759 7        47.748
R13        35.000    19426558.777 7 103736774.18807       732.810 7        46.909
R12        36.000    19781675.662 8 105670136.95608     -2690.835 8        51.097                                                                    19781678.278 7  82187882.51707     -2092.834 7        47.664
C42        37.000                                                                                                                                    26498882.026 6 137986629.63606      2606.068 6        39.279                                                                    26498893.619 7 112125484.28007      2117.441 7        42.099
C10        38.000                                                                                                                                    38563051.335 6 200807918.63806       -37.919 6        41.657    38563052.520 7 155277419.46407       -29.406 7        45.225    38563049.674 6 163172870.04906       -30.800 6        41.604
C19        39.000                                                                                                                                    26259743.805 6 136741145.30506     -4077.285 6        40.987                                                                    26259750.393 7 111113310.02107     -3313.145 7        42.328
C30        40.000                                                                                                                                    26035561.605 6 135574008.06506      1974.033 6        41.926                                                                    26035569.311 6 110165020.89606      1604.177 6        39.946
G05        41.000    23544493.773 7 123727018.92707     -3984.609 7        43.393                                    23544497.945 6  96410610.13606     -3104.881 6        37.671    23544498.030 6  96410619.13306     -3105.043 6        39.198
S44        42.000    40808670.202 6 214451016.29806      -502.362 6        36.760
C36        43.000                                                                                                                                    21681480.511 8 112901126.81208     -1612.280 8        50.619                                                                    21681487.198 8  91741426.74008     -1310.032 8        50.201
C05        44.000                                                                                                                                    39307258.485 6 204683126.16806      -564.863 6        38.817    39307260.209 7 158273970.67407      -436.603 7        42.573    39307260.289 6 166321885.28106      -458.861 6        39.820
R14        45.000    23590977.511 7 125753189.73907      3249.344 7        44.966                                                                    23590988.484 6  97808091.35006      2527.244 6        40.148
R11        47.000    24394050.554 5 130354202.99205     -4462.800 5        35.362                                                                    24394061.623 5 101386558.35805     -3470.981 5        35.262
C45        50.000                                                                                                                                    22332449.297 8 116290946.59808      1158.153 8        49.781                                                                    22332443.786 8  94495907.65608       941.153 8        49.873
S48        51.000    77074620.796 6 405029362.73206      -504.889 6        37.955
E06        52.000    23900190.268 8 125596314.15208     -2120.321 8        48.438                                                                    23900193.908 8  93789449.76608     -1583.291 8        50.582    23900193.360 8  96236130.92508     -1624.596 8        51.028
C09        53.000                                                                                                                                    41153085.670 5 214294741.02705     -1127.250 5        34.876    41153093.653 6 165706227.83306      -871.734 6        40.136    41153088.928 6 174131970.14206      -915.865 6        36.370
C60        54.000                                                                                                                                    40808670.142 6 212501479.43206      -497.841 6        39.913                                                                    40808662.242 6 172674791.30706      -404.503 6        38.327
E31        55.000    23320415.461 8 122549613.52008      -193.013 8        48.673                                                                    23320418.672 8  91514353.72108      -144.079 8        50.966    23320418.116 8  93901680.82908      -147.892 8        51.311
C26        56.000                                                                                                                                    26888942.284 6 140017778.76306      2505.830 6        38.643                                                                    26888948.949 6 113775938.11706      2036.473 6        37.611
C02        57.000                                                                                                                                    40879310.743 5                      -547.123 5        31.562    40879315.569 6 164603891.53006      -423.263 6        37.055    40879315.064 5 172973602.01205      -444.412 5        31.374
I03        58.000    94691090.466 6 295802701.60506       862.631 6        40.360
C21        59.000                                                                                                                                    23013326.607 8 119836382.71808       647.433 8        49.097                                                                    23013323.256 8  97376843.53208       526.178 8        49.142
C22        60.000                                                                                                                                    22398923.734 8 116637006.70608     -2584.098 8        50.767                                                                    22398920.342 8  94777084.06308     -2099.676 8        49.625
> 2025 01 02 09 16 45.0000000  0 53
E24         1.000    25806774.782 7 135615597.79907      2181.251 7        44.615                                                                    25806779.723 7 101271445.83107      1628.819 7        46.652    25806778.509 7 103913299.71407      1671.417 7        47.188
G15         2.000    20276784.944 8 106555179.43408       618.002 8        49.147                                    20276783.065 8  83029986.95008       481.560 8        48.851    20276783.269 7  83029981.94507       481.659 7        45.205
E15         3.000    28440737.335 6 149457046.08706     -1257.802 6        37.036                                                                    28440743.578 6 111607524.93606      -939.330 6        40.334    28440742.968 6 114519022.88006      -963.745 6        41.371
G19         4.000    24473137.549 6 128607249.17806      2885.887 6        39.249                                    24473143.047 4 100213443.40204      2248.744 4        24.857
S21         5.000    38362709.653 7 201597026.08307      -514.297 7        42.518
E05         6.000    23663582.403 7 124352925.31907      1657.894 7        44.453                                                                    23663585.961 7  92860925.13407      1238.041 7        47.676    23663585.241 8  95283383.54208      1270.319 8        48.295
S45         7.000    63388914.744 6 333112339.25006      -563.436 6        36.609
R02         8.000    19944675.150 8 106428545.50908     -3224.892 8        52.250                                                                    19944678.202 7  82777742.09607     -2508.250 7        46.509
R20         9.000    23846471.701 5 127517824.44705     -1998.949 5        30.966                                                                    23846479.090 6  99180549.58806     -1554.553 6        40.949
G24        10.000    22939671.914 6 120548758.73606      2664.325 6        41.309                                    22939675.330 6  93934104.41806      2076.091 6        37.766    22939675.398 6  93934109.41606      2076.114 6        39.105
G30        11.000    22919856.601 7 120444583.44407     -3216.191 7        43.746                                    22919859.539 6  93852892.84406     -2506.122 6        39.853    22919859.876 6  93852900.84806     -2506.225 6        39.529
S27        12.000    39074097.203 6 205335651.89206      -547.190 6        36.287
G13        13.000    19872032.922 8 104428196.65208     -1344.831 8        48.915                                    19872030.497 6  81372588.80706     -1047.923 6        40.565
S36        14.000    38132303.197 7 200387039.78207      -515.253 7        44.346
I09        15.000    40354918.440 6 158361094.41406     -1041.107 6        40.007
E09        16.000    23380321.980 8 122864399.72308      -889.338 8        48.971                                                                    23380324.456 8  91749375.86808      -664.122 8        50.985    23380323.715 8  94142835.55408      -681.456 8        51.256
R21        18.000    23376700.188 7 125093501.39307      1017.025 7        42.095                                                                    23376707.376 6  97294998.70606       791.075 6        39.273
R03        21.000    19607028.531 8 104957921.18108      1098.729 8        52.371                                                                    19607029.213 7  81633929.22807       854.581 7        47.753
I06        22.000    38044139.675 7 149293498.33307      -473.392 7        42.756
S28        23.000    40807099.334 5 214442606.81705      -524.143 5        35.067
S23        25.000    38064893.630 7 200032283.37007      -515.378 7        44.445
R01        26.000    23887808.852 3                     -5049.369 3        18.896
C07        27.000                                                                                                                                    38732252.391 6 201688968.25606      -422.421 6        41.182    38732250.906 7 155958689.70107      -326.755 7        43.731    38732248.525 6 163888783.85706      -343.399 6        41.478
R04        28.000    23040796.763 7 123382389.23907      3647.755 7        44.268                                                                    23040799.842 6  95964052.67606      2837.147 6        41.819
C40        29.000                                                                                                                                    38738024.423 7 201719041.62207      -482.694 7        44.150                                                                    38738026.177 7 163913245.36707      -392.231 7        43.327
G17        30.000    22855502.378 7 120106573.67707      1750.791 7        43.109                                    22855504.347 6  93589590.97606      1364.255 6        39.408    22855505.067 6  93589587.98306      1364.280 6        40.937
G14        31.000    20790779.476 7 109256272.49307     -1969.468 7        46.717                                    20790778.469 6  85134754.48106     -1534.651 6        38.192    20790778.879 7  85134740.48007     -1534.650 7        46.689
G23        32.000    23431562.769 6 123133638.71506      1213.866 6        41.785                                    23431562.798 4  95948263.80504       945.867 4        27.449    23431563.520 6  95948258.79306       945.864 6        41.113
I02        33.000    37181131.069 7 145906742.22507        -8.646 7        42.736
E04        34.000    25672944.637 7 134912174.93507     -3023.560 7        43.462                                                                    25672949.414 7 100746087.89407     -2257.775 7        47.315    25672948.337 7 103374245.46607     -2316.665 7        47.597
R13        35.000    19425873.892 7 103733117.93607       729.631 7        47.001
R12        36.000    19784195.523 8 105683596.94608     -2693.234 8        51.036                                                                    19784197.958 7  82198351.38807     -2094.754 7        47.591
C42        37.000                                                                                                                                    26496380.647 6 137973602.83106      2604.844 6        39.300                                                                    26496391.994 7 112114898.90107      2116.655 7        42.167
C10        38.000                                                                                                                                    38563088.029 6 200808110.70406       -38.896 6        41.352    38563089.561 7 155277567.98107       -30.120 7        44.954    38563086.504 6 163173026.12006       -31.572 6        41.518
C19        39.000                                                                                                                                    26263659.006 6 136761532.60206     -4077.580 6        41.099                                                                    26263665.686 7 111129876.31807     -3313.351 7        42.364
C30        40.000                                                                                                                                    26033666.210 6 135564140.58306      1972.916 6        41.659                                                                    26033674.594 6 110157002.65806      1603.301 6        39.892
G05        41.000    23548285.611 7 123746944.78507     -3985.724 7        43.202                                    23548289.720 6  96426136.73806     -3105.750 6        37.664    23548290.447 6  96426145.71906     -3105.780 6        39.649
S44        42.000    40809151.214 6 214453528.68606      -502.574 6        36.639
C36        43.000                                                                                                                                    21683029.544 8 112909192.38008     -1613.982 8        50.671                                                                    21683036.114 8  91747980.67808     -1311.475 8        50.143
C05        44.000                                                                                                                                    39307801.483 6 204685950.35306      -565.029 6        38.949    39307802.384 7 158276154.53907      -436.773 7        42.624    39307802.826 6 166324180.17406      -459.028 6        39.883
R14        45.000    23587930.853 7 125736945.30307      3248.472 7        44.709                                                                    23587940.701 6  97795456.81206      2526.606 6        38.958
R11        47.000    24398226.328 5 130376515.12705     -4462.327 5        34.914                                                                    24398236.493 5 101403912.17705     -3470.719 5        35.567
C45        50.000                                                                                                                                    22331338.304 8 116285160.24608      1156.383 8        49.930                                                                    22331332.508 8  94491205.78408       939.647 8        49.825
S48        51.000    77075098.893 6 405031887.33306      -505.128 6        37.807
E06        52.000    23902208.568 8 125606919.62408     -2121.985 8        48.801                                                                    23902212.109 8  93797369.42308     -1584.573 8        50.325    23902211.577 8  96244257.18508     -1625.892 8        50.947
C09        53.000                                                                                                                                    41154168.630 5 214300377.70605     -1127.669 5        34.757    41154176.242 6 165710586.43406      -871.823 6        40.229    41154171.624 6 174136550.38906      -916.260 6        36.465
C60        54.000                                                                                                                                    40809148.279 6 212503968.99506      -498.039 6        39.958                                                                    40809140.353 6 172676814.30806      -404.723 6        38.426
E31        55.000    23320600.482 8 122550584.24008      -195.318 8        48.802                                                                    23320603.391 8  91515078.61708      -145.813 8        50.782    23320602.836 8  93902424.63308      -149.655 8        51.187
C26        56.000                                                                                                                                    26886536.329 6 140005249.68006      2505.368 6        38.192                                                                    26886543.110 6 113765757.20306      2036.059 6        37.429
C02        57.000                                                                                                                                    40879835.327 5 212871903.51515      -547.028 5        31.675    40879840.578 6 164606007.14906      -423.133 6        36.945    40879840.842 5 172975825.19005      -444.840 5        31.751
I03        58.000    94689991.517 6 295798388.96006       862.468 6        40.329
C21        59.000                                                                                                                                    23012706.178 8 119833152.22908       644.657 8        48.777                                                                    23012702.808 8  97374218.49008       523.869 8        49.071
C22        60.000                                                                                                                                    22401406.065 8 116649932.96208     -2586.503 8        50.671                                                                    22401402.756 8  94787587.70208     -2101.742 8        49.568
> 2025 01 02 09 16 50.0000000  0 53
E24         1.000    25804699.950 7 135604694.06207      2179.870 7        44.861                                                                    25804704.836 7 101263303.44807      1627.787 7        46.738    25804703.570 7 103904944.92107      1670.285 7        47.354
G15         2.000    20276198.188 8 106552097.05108       614.504 8        49.074                                    20276196.500 8  83027585.09408       478.835 8        48.855    20276196.937 7  83027580.08607       478.931 7        44.966
E15         3.000    28441934.997 6 149463340.45306     -1260.430 6        36.650                                                                    28441941.331 6 111612225.24306      -941.279 6        40.424    28441940.640 6 114523845.81106      -965.909 6        41.695
G19         4.000    24470391.727 6 128592820.32706      2885.440 6        39.213                                    24470397.439 4 100202200.16104      2248.382 4        24.541
S21         5.000    38363202.704 7 201599597.30607      -514.715 7        42.461
E05         6.000    23662005.239 7 124344637.90007      1656.673 7        44.296                                                                    23662008.925 7  92854736.48107      1237.151 7        47.753    23662008.214 8  95277033.44608      1269.384 8        48.412
S45         7.000    63389409.516 6 333115156.32206      -563.753 6        36.820
R02         8.000    19947698.377 8 106444678.36308     -3228.648 8        52.445                                                                    19947701.751 7  82790289.86207     -2511.225 7        46.868
R20         9.000    23848340.473 5 127527827.39505     -2002.915 5        30.068                                                                    23848350.315 6  99188329.69006     -1557.966 6        40.598
G24        10.000    22937137.186 6 120535438.89306      2663.090 6        41.094                                    22937140.609 6  93923725.33706      2075.133 6        37.800    22937140.351 6  93923730.34906      2075.238 6        39.745
G30        11.000    22922917.159 7 120460666.57007     -3217.366 7        43.014                                    22922920.074 6  93865425.13006     -2507.032 6        39.844    22922920.421 6  93865433.12106     -2507.069 6        39.991
S27        12.000    39074618.115 6 205338387.23506      -547.515 6        36.522
G13        13.000    19873313.743 8 104434927.41208     -1347.891 8        48.684                                    19873311.317 6  81377833.55206     -1050.302 6        40.586
S36        14.000    38132792.268 7 200389615.79607      -515.523 7        44.581
I09        15.000    40356244.838 6 158366300.01706     -1041.410 6        40.033
E09        16.000    23381169.001 8 122868850.68308      -891.445 8        48.871                                                                    23381171.414 8  91752699.63708      -665.706 8        51.055    23381170.694 8  94146246.03108      -683.051 8        51.362
R21        18.000    23375751.632 7 125088425.35807      1012.995 7        42.717                                                                    23375758.592 6  97291050.63406       787.829 6        39.372
R03        21.000    19606003.980 8 104952436.72208      1094.653 8        52.681                                                                    19606003.981 7  81629663.53607       851.424 7        47.741
I06        22.000    38044742.608 7 149295865.26407      -473.654 7        42.620
S28        23.000    40807596.445 5 214445227.11205      -524.530 5        34.919
S23        25.000    38065381.721 7 200034860.59007      -515.686 7        44.102
R01        26.000    23892534.655 3                     -5051.332 3        20.738
C07        27.000                                                                                                                                    38732658.906 6 201691082.36706      -423.487 6        41.516    38732656.829 7 155960324.45307      -327.563 7        43.674    38732654.577 6 163890501.73406      -344.054 6        41.666
R04        28.000    23037391.223 7 123364152.54107      3646.532 7        44.220                                                                    23037394.852 7  95949868.56407      2836.190 7        42.057
C40        29.000                                                                                                                                    38738488.022 7 201721456.74007      -483.818 7        44.226                                                                    38738490.052 7 163915207.85607      -393.117 7        43.249
G17        30.000    22853837.566 7 120097824.28307      1748.521 7        43.642                                    22853839.450 6  93582773.26806      1362.481 6        39.646    22853839.805 6  93582770.27506      1362.559 6        40.703
G14        31.000    20792654.428 7 109266125.85107     -1972.315 7        46.751                                    20792653.506 6  85142432.41506     -1536.868 6        38.204    20792653.911 7  85142418.41407     -1536.926 7        46.826
G23        32.000    23430409.481 6 123127576.78406      1210.570 6        41.971                                    23430409.240 4  95943540.21404       943.302 4        27.569    23430409.835 6  95943535.22306       943.284 6        41.602
I02        33.000    37181141.994 7 145906786.13807        -9.174 7        42.535
E04        34.000    25675821.727 7 134927294.67407     -3024.812 7        42.997                                                                    25675826.620 7 100757378.59107     -2258.844 7        47.350    25675825.451 7 103385830.70707     -2317.675 7        47.579
R13        35.000    19425192.451 7 103729477.15407       726.322 7        47.144
R12        36.000    19786717.518 8 105697068.52908     -2695.776 8        50.841                                                                    19786719.819 7  82208829.29507     -2096.697 7        47.497
C42        37.000                                                                                                                                    26493879.952 6 137960580.50406      2603.582 6        39.751                                                                    26493891.060 7 112104317.17207      2115.792 7        42.087
C10        38.000                                                                                                                                    38563125.090 6 200808306.49606       -39.880 6        41.390    38563127.026 7 155277719.37807       -30.725 7        45.025    38563123.959 6 163173185.22906       -32.404 6        41.499
C19        39.000                                                                                                                                    26267574.472 6 136781921.04906     -4078.037 6        40.963                                                                    26267581.176 7 111146443.55207     -3313.691 7        42.559
C30        40.000                                                                                                                                    26031772.584 6 135554278.24806      1971.584 6        41.919                                                                    26031780.914 6 110148988.60206      1602.303 6        40.255
G05        41.000    23552077.876 7 123766875.51607     -3987.015 7        42.931                                    23552082.568 6  96441667.12606     -3106.756 6        37.694    23552083.290 6  96441676.11506     -3106.730 6        40.145
S44        42.000    40809624.535 6 214456041.01806      -502.668 6        36.582
C36        43.000                                                                                                                                    21684579.937 8 112917266.17208     -1615.911 8        50.714                                                                    21684586.555 8  91754541.29208     -1312.957 8        50.191
C05        44.000                                                                                                                                    39308343.775 6 204688774.56806      -565.189 6        38.763    39308344.653 7 158278338.42407      -437.052 7        42.417    39308345.109 6 166326475.10206      -459.107 6        39.907
R14        45.000    23584884.090 7 125720705.46607      3247.181 7        45.324                                                                    23584892.974 6  97782825.84206      2525.488 6        39.093
R11        47.000    24402399.675 5 130398825.45005     -4462.256 5        34.462                                                                    24402410.370 5 101421264.64105     -3470.578 5        34.929
C45        50.000                                                                                                                                    22330228.655 8 116279382.11708      1154.465 8        50.086                                                                    22330222.954 8  94486510.59808       938.137 8        49.844
S48        51.000    77075584.587 6 405034412.04106      -505.445 6        37.807
E06        52.000    23904228.113 8 125617533.16708     -2123.900 8        48.634                                                                    23904231.795 8  93805295.11008     -1586.030 8        50.421    23904231.266 8  96252389.63008     -1627.398 8        51.047
C09        53.000                                                                                                                                    41155250.825 5 214306014.57905     -1127.664 5        34.562    41155258.987 6 165714945.23206      -872.033 6        40.405    41155254.032 6 174141130.81706      -916.310 6        36.401
C60        54.000                                                                                                                                    40809626.094 6 212506458.48706      -498.202 6        39.925                                                                    40809618.615 6 172678837.23306      -404.730 6        38.357
E31        55.000    23320787.142 8 122551565.74608      -197.678 8        48.789                                                                    23320790.146 8  91515811.56708      -147.583 8        50.828    23320789.590 8  93903176.70408      -151.474 8        51.264
C26        56.000                                                                                                                                    26884130.229 6 139992722.21606      2505.042 6        38.105                                                                    26884137.055 6 113755577.57606      2035.547 6        37.478
C02        57.000                                                                                                                                    40880360.908 5 212874639.42305      -547.422 5        31.668    40880366.200 6 164608122.68606      -423.245 6        37.180    40880366.329 5 172978048.29005      -444.639 5        31.449
I03        58.000    94688892.604 6 295794076.18406       862.318 6        40.133
C21        59.000                                                                                                                                    23012088.095 8 119829935.02608       641.856 8        49.020                                                                    23012085.058 8  97371604.25508       521.581 8        49.110
C22        60.000                                                                                                                                    22403890.755 8 116662870.89108     -2589.066 8        50.878                                                                    22403887.348 8  94798100.82508     -2103.787 8        49.594
> 2025 01 02 09 16 55.0000000  0 52
E24         1.000    25802625.768 7 135593796.03707      2178.889 7        44.855                                                                    25802631.003 7 101255165.32807      1627.181 7        46.788    25802629.777 7 103896594.50607      1669.577 7        47.352
G15         2.000    20275614.521 8 106549030.79808       611.632 8        49.317                                    20275613.016 8  83025195.80508       476.594 8        48.946    20275613.304 7  83025190.80607       476.627 7        44.855
E15         3.000    28443135.600 6 149469646.52706     -1262.492 6        36.514                                                                    28443141.405 6 111616934.34706      -942.697 6        40.315    28443140.642 6 114528677.75106      -967.219 6        41.590
G19         4.000    24467646.304 6 128578392.00606      2885.627 6        39.261                                    24467651.881 4 100190957.32104      2248.538 4        24.632
S21         5.000    38363691.152 7 201602168.60207      -514.214 7        42.396
E05         6.000    23660429.157 7 124336355.22007      1656.029 7        43.837                                                                    23660432.783 7  92848551.36807      1236.694 7        47.718    23660432.054 8  95270686.98308      1268.934 8        48.250
S45         7.000    63389900.464 6 333116373.53716      -563.270 6        36.764
R02         8.000    19950725.226 8 106460828.74708     -3231.787 8        52.789                                                                    19950728.478 7  82802851.25107     -2513.592 7        47.095
R20         9.000    23850217.928 5 127537849.97905     -2006.441 5        32.449                                                                    23850224.342 6  99196125.06106     -1560.700 6        40.448
G24        10.000    22934603.139 6 120522123.61906      2662.539 6        41.905                                    22934606.773 6  93913349.81706      2074.701 6        37.909    22934607.435 6  93913354.83806      2074.702 6        40.043
G30        11.000    22925978.091 7 120476753.84907     -3217.875 7        42.954                                    22925981.468 6  93877960.64506     -2507.431 6        39.985    22925981.966 6  93877968.63806     -2507.474 6        39.979
S27        12.000    39075144.157 6 205341122.61906      -547.021 6        36.526
G13        13.000    19874597.099 8 104441672.18408     -1350.422 8        48.705                                    19874594.816 6  81383089.21606     -1052.276 6        40.677
S36        14.000    38133281.159 7 200392191.68107      -515.234 7        44.530
I09        15.000    40357571.996 6 158371505.42306     -1040.977 6        40.129
E09        16.000    23382017.979 8 122873310.88308      -893.013 8        48.649                                                                    23382020.121 8  91756030.30508      -666.802 8        50.942    23382019.418 8  94149663.58408      -684.202 8        51.227
R21        18.000    23374806.878 7 125083368.50707      1009.475 7        43.390                                                                    23374813.449 6  97287117.51006       785.112 6        40.076
R03        21.000    19604983.024 8 104946971.89308      1091.069 8        52.247                                                                    19604983.297 7  81625413.12807       848.576 7        47.070
I06        22.000    38045345.781 7 149298232.34907      -473.357 7        42.673
S28        23.000    40808098.451 5 214447847.32005      -524.050 5        34.833
S23        25.000    38065875.558 7 200037437.81107      -515.411 7        44.537
C07        27.000                                                                                                                                    38733065.661 6 201693200.31906      -423.975 6        41.433    38733063.524 7 155961962.18707      -327.893 7        44.026    38733061.212 6 163892222.77406      -344.432 6        41.471
R04        28.000    23033986.862 7 123345920.77007      3645.850 7        44.650                                                                    23033989.490 6  95935688.28706      2835.556 6        41.464
C40        29.000                                                                                                                                    38738952.706 7 201723876.69407      -484.456 7        43.960                                                                    38738954.798 7 163917174.28807      -393.564 7        43.327
G17        30.000    22852174.979 7 120089085.11007      1746.874 7        43.564                                    22852176.592 6  93575963.53006      1361.198 6        40.148    22852177.014 6  93575960.53406      1361.213 6        40.996
G14        31.000    20794531.613 7 109275992.10307     -1974.507 7        46.632                                    20794531.015 6  85150120.40406     -1538.575 6        38.240    20794531.607 7  85150106.39507     -1538.618 7        46.766
G23        32.000    23429258.129 7 123121529.83507      1207.895 7        42.142                                    23429258.504 4  95938828.31404       941.226 4        27.605    23429259.116 6  95938823.30406       941.151 6        41.604
I02        33.000    37181153.275 7 145906831.42407        -9.226 7        42.330
E04        34.000    25678699.954 7 134942419.67307     -3025.490 7        42.955                                                                    25678704.749 7 100768673.21007     -2259.290 7        47.206    25678703.589 7 103397419.96607     -2318.132 7        47.289
R13        35.000    19424513.243 7 103725851.72407       723.550 7        47.304
R12        36.000    19789241.608 8 105710551.68108     -2697.795 8        50.624                                                                    19789243.921 7  82219316.19507     -2098.229 7        47.346
C42        37.000                                                                                                                                    26491379.551 6 137947562.63906      2603.074 6        39.393                                                                    26491390.986 6 112093739.08906      2115.281 6        41.912
C10        38.000                                                                                                                                    38563164.037 6 200808505.94906       -40.233 6        41.518    38563165.397 7 155277873.63207       -31.188 7        45.052    38563162.262 6 163173347.33106       -32.677 6        41.592
C19        39.000                                                                                                                                    26271490.090 6 136802310.57106     -4078.031 6        40.772                                                                    26271497.007 7 111163011.68307     -3313.692 7        42.662
C30        40.000                                                                                                                                    26029880.202 6 135544420.98706      1970.930 6        41.509                                                                    26029887.946 6 110140978.70406      1601.392 6        40.195
G05        41.000    23555871.549 7 123786811.08507     -3987.550 7        42.305                                    23555876.288 6  96457201.29006     -3107.174 6        37.856    23555876.727 6  96457210.26706     -3107.129 6        39.532
S44        42.000    40810101.671 6 214458553.22906      -502.283 6        36.548
C36        43.000                                                                                                                                    21686132.082 8 112925348.13808     -1617.203 8        50.639                                                                    21686138.642 8  91761108.58108     -1314.129 8        50.272
C05        44.000                                                                                                                                    39308885.369 6 204691598.75806      -564.760 6        38.955    39308887.030 7 158280522.29107      -436.789 7        42.576    39308887.593 6 166328770.02406      -458.797 6        39.859
R14        45.000    23581838.958 7 125704470.22207      3246.624 7        46.069                                                                    23581847.627 6  97770198.46606      2525.171 6        39.345
R11        47.000    24406574.696 5 130421133.88805     -4461.540 5        34.524                                                                    24406586.045 5 101438615.59105     -3469.868 5        34.924
C45        50.000                                                                                                                                    22329120.716 8 116273612.18508      1153.138 8        50.093                                                                    22329114.855 8  94481822.08408       937.088 8        49.953
S48        51.000    77076062.988 6 405036937.07306      -505.052 6        37.100
E06        52.000    23906249.308 8 125628154.73508     -2125.115 8        48.419                                                                    23906253.031 8  93813226.78808     -1586.917 8        50.379    23906252.470 8  96260528.22108     -1628.307 8        50.883
C09        53.000                                                                                                                                    41156332.150 5 214311651.62405     -1127.551 5        34.329    41156341.887 6 165719304.12006      -871.579 6        40.710    41156336.671 6 174145711.37606      -916.068 6        36.480
C60        54.000                                                                                                                                    40810104.379 6 212508947.87206      -498.101 6        39.907                                                                    40810096.479 6 172680860.11906      -404.599 6        38.480
E31        55.000    23320975.757 8 122552557.98608      -199.508 8        48.357                                                                    23320978.990 8  91516552.53008      -149.008 8        50.770    23320978.441 8  93903936.99408      -152.875 8        51.157
C26        56.000                                                                                                                                    26881724.737 6 139980196.28706      2504.966 6        37.633                                                                    26881731.507 6 113745399.22506      2035.626 6        37.641
C02        57.000                                                                                                                                    40880887.012 5 212877375.17805      -547.269 5        31.728    40880891.696 6 164610238.14306      -423.020 6        37.070    40880891.655 5 172980271.36305      -444.347 5        31.396
I03        58.000    94687793.448 6 295789763.29406       862.683 6        40.157
C21        59.000                                                                                                                                    23011473.058 8 119826731.08308       639.445 8        48.946                                                                    23011469.784 8  97369000.81208       519.582 8        49.058
C22        60.000                                                                                                                                    22406377.766 8 116675820.44308     -2591.087 8        50.723                                                                    22406374.149 8  94808623.40508     -2105.397 8        49.575
