     3.04           OBSERVATION DATA    M                   RINEX VERSION / TYPE
ssrcrin-15.6.1x                         20250102 213000 UTC PGM / RUN BY / DATE 
(00000000023479385599111004) Septentrio proprietary         COMMENT             
rref                                                        MARKER NAME         
01                                                          MARKER NUMBER       
geodetic                                                    MARKER TYPE         
NFB                 CLIMERS@TUW                             OBSERVER / AGENCY   
3297213             SEPT ASTERX SB3 PROB4.14.4              REC # / TYPE / VERS 
Unknown             Unknown                                 ANT # / TYPE        
  4127832.1465  1207193.3523  4695247.6757                  APPROX POSITION XYZ 
        0.0000        0.0000        0.0000                  ANTENNA: DELTA H/E/N
G   23 X1  C1C L1C D1C S1C C1W S1W C2W L2W D2W S2W C2L L2L  SYS / # / OBS TYPES 
       D2L S2L C5Q L5Q D5Q S5Q C1L L1L D1L S1L              SYS / # / OBS TYPES 
E   21 X1  C1C L1C D1C S1C C6C L6C D6C S6C C5Q L5Q D5Q S5Q  SYS / # / OBS TYPES 
       C7Q L7Q D7Q S7Q C8Q L8Q D8Q S8Q                      SYS / # / OBS TYPES 
S    9 X1  C1C L1C D1C S1C C5I L5I D5I S5I                  SYS / # / OBS TYPES 
R   17 X1  C1C L1C D1C S1C C2P L2P D2P S2P C2C L2C D2C S2C  SYS / # / OBS TYPES 
       C3Q L3Q D3Q S3Q                                      SYS / # / OBS TYPES 
C   25 X1  C1P L1P D1P S1P C5P L5P D5P S5P C2I L2I D2I S2I  SYS / # / OBS TYPES 
       C7I L7I D7I S7I C6I L6I D6I S6I C7D L7D D7D S7D      SYS / # / OBS TYPES 
J   17 X1  C1C L1C D1C S1C C2L L2L D2L S2L C5Q L5Q D5Q S5Q  SYS / # / OBS TYPES 
       C1L L1L D1L S1L                                      SYS / # / OBS TYPES 
I    5 X1  C5A L5A D5A S5A                                  SYS / # / OBS TYPES 
SEPTENTRIO RECEIVERS OUTPUT ALIGNED CARRIER PHASES.         COMMENT             
NO FURTHER PHASE SHIFT APPLIED IN THE RINEX ENCODER.        COMMENT             
G L1C                                                       SYS / PHASE SHIFT   
G L2W                                                       SYS / PHASE SHIFT   
G L2L  0.00000                                              SYS / PHASE SHIFT   
G L5Q  0.00000                                              SYS / PHASE SHIFT   
G L1L  0.00000                                              SYS / PHASE SHIFT   
E L1C  0.00000                                              SYS / PHASE SHIFT   
E L6C  0.00000                                              SYS / PHASE SHIFT   
E L5Q  0.00000                                              SYS / PHASE SHIFT   
E L7Q  0.00000                                              SYS / PHASE SHIFT   
E L8Q  0.00000                                              SYS / PHASE SHIFT   
S L1C                                                       SYS / PHASE SHIFT   
S L5I                                                       SYS / PHASE SHIFT   
R L1C                                                       SYS / PHASE SHIFT   
R L2P  0.00000                                              SYS / PHASE SHIFT   
R L2C                                                       SYS / PHASE SHIFT   
R L3Q  0.00000                                              SYS / PHASE SHIFT   
C L1P  0.00000                                              SYS / PHASE SHIFT   
C L5P  0.00000                                              SYS / PHASE SHIFT   
C L2I                                                       SYS / PHASE SHIFT   
C L7I                                                       SYS / PHASE SHIFT   
C L6I                                                       SYS / PHASE SHIFT   
C L7D                                                       SYS / PHASE SHIFT   
J L1C                                                       SYS / PHASE SHIFT   
J L2L  0.00000                                              SYS / PHASE SHIFT   
J L5Q  0.00000                                              SYS / PHASE SHIFT   
J L1L  0.00000                                              SYS / PHASE SHIFT   
I L5A                                                       SYS / PHASE SHIFT   
  2025     1     2    21    30    0.0000000     GPS         TIME OF FIRST OBS   
 C1C    0.000 C2C    0.000 C2P    0.000                     GLONASS COD/PHS/BIS 
DBHZ                                                        SIGNAL STRENGTH UNIT
    18                                                      LEAP SECONDS        
 24 R01  1 R02 -4 R03  5 R04  6 R05  1 R06 -4 R07  5 R08  6 GLONASS SLOT / FRQ #
    R09 -2 R10 -7 R11  0 R12 -1 R13 -2 R14 -7 R15  0 R16 -1 GLONASS SLOT / FRQ #
    R17  4 R18 -3 R19  3 R20  2 R21  4 R22 -3 R23  3 R24  2 GLONASS SLOT / FRQ #
                                                            END OF HEADER       
> 2025 01 02 21 30  0.0000000  0 55
G23         1.000    23397034.482 6 122952321.40606     -3611.718 6        40.596                                    23397030.239 4  95807025.48204     -2814.338 4        25.850    23397030.788 6  95807023.47506     -2814.275 6        40.532
C37         2.000                                                                                                                                    26348938.145 6 137205819.89806     -2510.128 6        40.350                                                                    26348941.618 6 111490986.70306     -2039.738 6        40.646
G16         3.000    25162641.735 6 132230753.78206     -4120.373 6        37.924                                    25162638.766 3 103037029.08903     -3210.668 3        18.090
G21         4.000    21478363.869 7 112869622.73107      1253.019 7        44.265                                    21478359.244 5  87950359.76305       976.381 5        33.587
S21         5.000    38498203.666 6 202309125.07206      -385.865 6        41.712
E13         6.000    28017452.662 6 147232729.14306      2016.704 6        37.493                                                                    28017455.714 6 109946537.80906      1506.034 6        39.724    28017454.529 6 112814704.39706      1545.053 6        39.811
G10         7.000    21031007.422 8 110518757.78708     -1609.968 8        50.441                                    21031005.537 8  86118529.17708     -1254.520 8        51.848    21031005.456 7  86118523.18007     -1254.497 7        46.430
E15         8.000    24057288.749 7 126422014.02207       778.672 7        47.701                                                                    24057289.305 8  94406117.52808       581.503 8        50.573    24057288.783 8  96868873.67408       596.678 8        51.057
E36         9.000    27844717.483 6 146325150.93906     -2779.047 6        38.156                                                                    27844718.961 6 109268919.83706     -2075.327 6        41.001    27844718.427 6 112119401.28306     -2129.489 6        41.759
G27        10.000    20910438.255 8 109885245.53808     -2513.155 8        49.555                                    20910436.096 8  85624937.06208     -1958.301 8        51.303    20910436.559 7  85624939.07207     -1958.371 7        45.661
G14        11.000    25141885.759 6 132121509.99006      2208.113 6        37.369                                    25141881.569 3 102951820.39203      1720.612 3        20.310    25141882.792 6 102951824.41206      1720.425 6        37.860
G32        12.000    23128405.884 7 121540610.64907      2172.203 7        44.935                                    23128404.174 7  94706967.38807      1692.624 7        42.028    23128404.503 7  94706940.38607      1692.682 7        42.095
S36        14.000    38266770.427 7 201093756.16307      -384.648 7        43.932
C13        15.000                                                                                                                                    39467249.668 6 205516384.93506     -1412.321 6        39.213    39467251.826 6 158918338.72506     -1091.953 6        41.437    39467250.213 6 166998919.37806     -1147.590 6        39.856
E27        18.000    25376876.300 7 133356403.75507     -1278.704 7        44.632                                                                    25376876.124 7  99584331.77207      -954.830 7        47.450    25376875.693 8 102182181.12208      -979.721 8        48.132
E05        20.000    24276994.997 7 127576489.95807      1104.629 7        43.553                                                                    24276995.552 7  95268161.23707       824.867 7        46.176    24276995.194 7  97753419.90207       846.408 7        47.109
R11        21.000    22932678.323 7 122545289.17407     -3871.934 7        45.595                                                                    22932677.576 6  95313003.60006     -3011.693 6        40.546
I06        22.000    38581776.247 6 151403404.19706      -191.834 6        40.953
E03        23.000    27277438.248 6 143343905.40206      2666.757 6        38.880                                                                    27277439.594 7 107042550.65107      1991.442 7        44.131    27277438.883 7 109834962.21207      2043.351 7        44.281
R22        24.000    23507173.881 7 125482901.77307      3032.051 7        44.257                                                                    23507173.403 6  97597819.95106      2358.084 6        40.441
S23        25.000    38224075.308 7 200868855.95707      -384.247 7        44.188
S45        26.000    63476024.276 6 333569828.30206      -427.885 6        37.316
G02        27.000    23283320.350 7 122354709.85407      2111.402 7        43.852                                    23283314.621 4  95341319.09604      1645.249 4        29.962
S27        28.000    39200324.144 5 205999139.46705      -353.366 5        35.929
C38        29.000                                                                                                                                    41625099.814 4 216752943.27704     -1536.917 4        26.024
E21        30.000    27437340.901 6 144184209.33906      1334.673 6        39.069                                                                    27437341.705 7 107670032.00507       996.769 7        42.986    27437341.128 7 110478811.89507      1022.767 7        43.228
C43        31.000                                                                                                                                    21874149.380 8 113904541.33008     -1460.108 8        51.059                                                                    21874147.697 8  92556812.61608     -1186.522 8        49.749
C42        32.000                                                                                                                                    22485042.530 8 117085539.31308      -229.322 8        49.757                                                                    22485049.874 8  95141633.78008      -186.466 8        50.229
C28        33.000                                                                                                                                    23056215.432 7 120059766.18107      1816.226 7        47.534                                                                    23056214.119 7  97558394.03607      1475.803 7        47.088
R13        34.000    24167776.010 5 129054574.74005      2258.775 5        35.919
E34        35.000    23961288.922 7 125917629.58307     -1508.248 7        47.827                                                                    23961288.856 8  94029509.41108     -1126.248 8        50.184    23961288.759 8  96482441.93608     -1155.605 8        51.126
C14        36.000                                                                                                                                    22687089.251 7 118137634.39807      1490.427 7        47.915    22687085.210 8  91351499.32808      1152.507 8        51.130    22687083.513 8  95996482.62908      1211.015 8        48.909
R21        37.000    19875315.060 8 106356880.47808      1100.503 8        51.793                                                                    19875314.105 7  82722039.09007       855.906 7        46.060
R06        38.000    21501097.269 6 114733994.00306      3548.835 6        40.400
R05        39.000    20139775.316 8 107658665.73908     -1011.085 8        50.774                                                                    20139774.648 7  83734527.21607      -786.356 7        47.551
C27        40.000                                                                                                                                    26913352.934 6 140144887.31406      2639.226 6        37.550                                                                    26913353.800 6 113879207.41506      2144.478 6        37.119
R04        41.000    23046938.651 7 123415337.53807     -4164.755 7        44.916                                                                    23046936.743 6  95989713.84706     -3239.310 6        39.234
S44        42.000    40534186.291 6 213008775.08306      -405.925 6        37.161
G08        43.000    20329830.698 8 106834074.70708      -132.402 8        50.134                                    20329828.658 8  83247371.93108      -103.171 8        51.053    20329829.394 7  83247369.92707      -103.088 7        46.165
C05        44.000                                                                                                                                    39238369.266 6 204324516.22306      -332.003 6        38.598    39238364.340 7 157996700.43007      -256.748 7        43.515    39238365.820 6 166030509.23706      -269.799 6        40.074
C11        45.000                                                                                                                                    23034859.505 7 119948696.53207     -2397.484 7        46.164    23034855.518 8  92752000.71008     -1853.875 8        50.060    23034854.474 7  97468180.48307     -1948.194 7        47.707
E09        46.000    27270556.994 6 143307765.75806     -1505.495 6        40.060                                                                    27270556.444 6 107015551.44506     -1124.176 6        41.428    27270556.286 7 109807258.42307     -1153.490 7        42.663
C33        47.000                                                                                                                                    24088176.971 7 125433477.16607      2687.697 7        46.164                                                                    24088189.130 7 101925030.63107      2183.866 7        46.767
C21        48.000                                                                                                                                    25060073.439 7 130494406.14207     -2943.081 7        43.020                                                                    25060068.322 7 106037381.58207     -2391.643 7        44.710
E06        49.000    28483046.022 6 149679427.27206     -2390.582 6        36.011                                                                    28483047.422 6 111773599.99306     -1785.347 6        40.076    28483047.058 6 114689430.64706     -1831.925 6        39.901
S48        51.000    77248214.764 6 405942142.26006      -414.874 6        37.267
C08        52.000                                                                                                                                    40134066.365 5 208988717.24505     -1582.115 5        35.690    40134060.304 6 161603362.27806     -1223.110 6        40.675    40134059.821 6 169820469.54106     -1285.446 6        38.159
C34        53.000                                                                                                                                    24900049.410 7 129661361.75707     -3204.853 7        43.716                                                                    24900049.505 7 105360591.71807     -2604.413 7        43.039
C60        54.000                                                                                                                                    40534187.443 6 211072351.10006      -402.341 6        39.787                                                                    40534171.159 6 171513544.03106      -326.948 6        39.838
R12        55.000    22432493.714 7 119830346.81607      -418.825 7        47.178                                                                    22432494.617 7  93201382.10907      -325.772 7        43.259
I09        56.000    37799340.037 7 148332756.78807       203.979 7        44.158
C02        57.000                                                                                                                                    40591501.454 5 211370642.97905      -355.786 5        33.521    40591494.664 6 163445181.98606      -275.204 6        40.162    40591498.549 6 171755964.02506      -289.332 6        36.272
I03        58.000    79269441.954 6 235285069.92906      1099.392 6        40.727
E30        59.000    26704398.399 7 140332770.53807     -3314.164 7        42.207                                                                    26704399.029 7 104794068.76307     -2474.875 7        44.579    26704398.473 7 107527810.71007     -2539.380 7        45.216
R20        60.000    20536856.357 6 109820010.60006     -2311.465 6        36.945                                                                    20536859.170 7  85415632.74007     -1797.799 7        46.608
> 2025 01 02 21 30  5.0000000  0 55
G23         1.000    23400471.300 6 122970381.74506     -3612.333 6        41.478                                    23400466.958 4  95821098.47004     -2814.806 4        25.985    23400467.379 6  95821096.46806     -2814.872 6        40.787
C37         2.000                                                                                                                                    26351348.135 6 137218373.27506     -2511.233 6        40.057                                                                    26351352.421 6 111501187.33506     -2040.552 6        40.720
G16         3.000    25166561.769 6 132251354.35406     -4119.755 6        37.637                                    25166559.033 3 103053081.46303     -3210.198 3        18.448
G21         4.000    21477172.556 7 112863360.18507      1251.874 7        44.113                                    21477167.526 5  87945479.85905       975.483 5        33.748
S21         5.000    38498569.709 6 202311052.57006      -385.375 6        41.766
E13         6.000    28015533.967 6 147222645.17806      2016.644 6        37.248                                                                    28015536.813 6 109939007.57706      1506.036 6        40.048    28015535.745 6 112806977.72106      1545.328 6        39.640
G10         7.000    21032540.232 8 110526812.49108     -1612.160 8        50.461                                    21032538.297 8  86124805.56908     -1256.229 8        51.855    21032538.066 7  86124799.56707     -1256.132 7        46.218
E15         8.000    24056547.887 7 126418121.70707       778.113 7        47.903                                                                    24056548.607 8  94403210.93108       581.035 8        50.660    24056548.079 8  96865891.25508       596.205 8        50.956
E36         9.000    27847361.486 6 146339045.70306     -2778.804 6        38.036                                                                    27847363.075 6 109279295.80806     -2075.250 6        41.151    27847362.382 6 112130047.91506     -2129.312 6        41.635
G27        10.000    20912830.516 8 109897816.27808     -2515.320 8        49.964                                    20912828.244 8  85634732.44508     -1959.990 8        51.320    20912828.732 7  85634734.44507     -1959.974 7        45.836
G14        11.000    25139785.685 6 132110474.32106      2205.984 6        38.156                                    25139781.757 3 102943221.18703      1718.945 3        20.048    25139782.707 6 102943225.16806      1719.284 6        37.248
G32        12.000    23126339.348 7 121529752.87107      2170.768 7        45.263                                    23126338.137 7  94698506.78707      1691.506 7        42.309    23126338.424 7  94698479.78707      1691.513 7        42.512
S36        14.000    38267138.446 7 201095680.09107      -384.550 7        43.890
C13        15.000                                                                                                                                    39468605.747 6 205523444.78606     -1411.867 6        39.694    39468607.686 6 158923797.86706     -1091.761 6        41.261    39468606.149 6 167004656.08906     -1147.060 6        39.697
E27        18.000    25378093.807 7 133362801.82007     -1280.677 7        44.755                                                                    25378093.672 7  99589109.55307      -956.403 7        47.608    25378093.243 8 102187083.53908      -981.308 8        48.013
E05        20.000    24275944.883 7 127570971.07807      1102.861 7        43.949                                                                    24275945.355 7  95264040.00007       823.552 7        46.345    24275944.934 7  97749191.15707       844.986 7        46.943
R11        21.000    22936302.763 7 122564653.02407     -3873.535 7        46.212                                                                    22936301.672 6  95328064.36206     -3012.847 6        41.661
I06        22.000    38582020.607 6 151404362.80206      -191.812 6        40.944
E03        23.000    27274900.717 6 143330571.02006      2666.818 6        38.739                                                                    27274902.167 7 107032593.17807      1991.404 7        44.196    27274901.396 7 109824744.97007      2043.462 7        44.185
R22        24.000    23504333.307 7 125467740.57007      3032.338 7        43.926                                                                    23504333.924 6  97586027.97206      2358.379 6        41.015
S23        25.000    38224441.905 7 200870776.45007      -383.996 7        44.086
S45        26.000    63476387.685 6 333571967.91706      -427.761 6        37.573
G02        27.000    23281311.432 7 122344153.79807      2110.973 7        44.321                                    23281305.848 4  95333093.60104      1644.913 4        29.991
S27        28.000    39200660.558 5 206000905.69705      -353.260 5        35.890
C38        29.000                                                                                                                                    41626575.517 4 216760628.79904     -1537.017 4        25.158                                                                    41626573.532 4 176135812.27914     -1248.951 4        24.316
E21        30.000    27436071.907 6 144177539.50806      1333.056 6        39.189                                                                    27436072.610 7 107665051.29707       995.377 7        43.082    27436071.933 7 110473701.25107      1021.449 7        43.206
C43        31.000                                                                                                                                    21875551.931 8 113911845.13308     -1461.546 8        51.193                                                                    21875550.274 8  92562747.55708     -1187.547 8        49.733
C42        32.000                                                                                                                                    22485264.186 8 117086692.24908      -231.958 8        50.048                                                                    22485271.270 8  95142570.63708      -188.419 8        50.228
C28        33.000                                                                                                                                    23054471.478 7 120050686.54007      1815.540 7        47.736                                                                    23054470.486 7  97551016.09607      1475.269 7        47.109
R13        34.000    24165661.388 6 129043287.06206      2256.160 6        36.125
E34        35.000    23962724.070 7 125925171.61407     -1508.751 7        47.839                                                                    23962724.096 8  94035141.45308     -1126.661 8        50.262    23962723.953 8  96488220.89908     -1156.021 8        51.034
C14        36.000                                                                                                                                    22685658.709 7 118130187.32107      1488.251 7        47.987    22685654.828 8  91345740.78108      1150.848 8        50.992    22685653.386 8  95990431.28208      1209.406 8        49.002
R21        37.000    19874287.810 8 106351381.81908      1098.901 8        51.817                                                                    19874286.445 7  82717762.35207       854.661 7        45.731
R06        38.000    21497773.097 6 114716254.23506      3546.910 6        40.918
R05        39.000    20140722.941 8 107663731.89708     -1015.403 8        50.130                                                                    20140722.303 7  83738467.56607      -789.788 7        46.830
C27        40.000                                                                                                                                    26910819.134 6 140131689.04306      2639.844 6        38.270                                                                    26910819.415 6 113868482.73106      2145.480 6        37.323
R04        41.000    23050827.509 7 123436165.28307     -4166.580 7        44.497                                                                    23050826.060 6  96005913.21806     -3240.903 6        39.354
S44        42.000    40534571.508 6 213010803.87706      -405.553 6        37.251
G08        43.000    20329957.943 8 106834742.68608      -134.976 8        50.411                                    20329955.768 8  83247892.43508      -105.178 8        51.046    20329956.544 7  83247890.43607      -105.153 7        45.970
C05        44.000                                                                                                                                    39238688.066 6 204326175.12206      -331.618 6        38.751    39238683.046 7 157997983.20807      -256.480 7        43.520    39238684.271 6 166031857.23506      -269.399 6        40.100
C11        45.000                                                                                                                                    23037161.400 7 119960686.03807     -2398.496 7        46.120    23037158.472 8  92761271.75408     -1854.652 8        50.202    23037156.899 7  97477922.93407     -1948.881 7        47.727
E09        46.000    27271990.107 6 143315297.35206     -1507.303 6        40.336                                                                    27271989.726 6 107021175.70406     -1125.664 6        41.459    27271989.555 7 109813029.40807     -1155.044 7        42.563
C33        47.000                                                                                                                                    24085597.498 7 125420041.33507      2686.554 7        46.233                                                                    24085609.061 7 101914112.92007      2183.043 7        46.949
C21        48.000                                                                                                                                    25062899.972 7 130509125.34007     -2944.683 7        43.627                                                                    25062894.876 7 106049342.14907     -2392.762 7        44.634
E06        49.000    28485321.503 5 149691384.26905     -2392.269 5        35.843                                                                    28485322.853 6 111782528.89606     -1786.355 6        39.712    28485322.351 6 114698592.47106     -1832.829 6        39.315
S48        51.000    77248585.269 6 405944215.87306      -414.709 6        37.289
C08        52.000                                                                                                                                    40135585.780 5 208996625.29005     -1581.435 5        35.338    40135578.831 6 161609477.27706     -1222.822 6        40.563    40135578.572 6 169826895.48906     -1285.073 6        38.027
C34        53.000                                                                                                                                    24903127.208 7 129677387.21107     -3205.446 7        43.204                                                                    24903126.931 7 105373613.70307     -2604.560 7        42.980
C60        54.000                                                                                                                                    40534573.567 6 211074361.44706      -401.998 6        39.925                                                                    40534557.167 6 171515177.63006      -326.629 6        39.745
R12        55.000    22432888.172 7 119832451.25207      -422.924 7        47.374                                                                    22432888.131 7  93203018.88807      -328.925 7        43.198
I09        56.000    37799079.892 7 148331736.41107       204.042 7        44.051
C02        57.000                                                                                                                                    40591842.925 5 211372421.79105      -355.586 5        33.707    40591836.394 6 163446557.49306      -275.010 6        39.931    40591840.186 6 171757409.47906      -288.958 6        36.378
I03        58.000    79268041.080 6 235279572.59706      1099.526 6        40.632
E30        59.000    26707552.208 7 140349342.31207     -3314.628 7        42.394                                                                    26707552.485 7 104806443.79707     -2475.251 7        44.587    26707551.946 7 107540508.57907     -2539.843 7        45.062
R20        60.000    20539019.659 6 109831571.61506     -2313.064 6        37.962                                                                    20539021.300 7  85424624.63307     -1799.055 7        46.620
> 2025 01 02 21 30 10.0000000  0 55
G23         1.000    23403908.788 6 122988446.13306     -3613.364 6        41.783                                    23403904.634 4  95835174.62204     -2815.613 4        26.072    23403904.978 6  95835172.62606     -2815.476 6        41.082
C37         2.000                                                                                                                                    26353760.485 6 137230933.08506     -2512.669 6        40.296                                                                    26353764.371 6 111511393.23406     -2041.730 6        40.648
G16         3.000    25170481.462 6 132271952.54706     -4119.479 6        37.403                                    25170478.911 3 103069131.98303     -3209.974 3        18.298
G21         4.000    21475982.048 7 112857104.13807      1250.534 7        44.321                                    21475976.987 5  87940605.02205       974.440 5        33.563
S21         5.000    38498937.048 6 202312979.42406      -385.364 6        41.859
E13         6.000    28013614.863 6 147212561.26506      2016.641 6        37.233                                                                    28013617.840 6 109931477.37706      1506.048 6        39.919    28013616.933 6 112799251.09106      1545.422 6        39.685
G10         7.000    21034075.169 8 110534878.68508     -1614.404 8        50.400                                    21034073.253 8  86131090.91608     -1257.975 8        51.707    21034073.207 7  86131084.91207     -1257.938 7        46.054
E15         8.000    24055808.204 7 126414233.10607       777.316 7        47.506                                                                    24055808.600 8  94400307.11008       580.443 8        50.617    24055808.113 8  96862911.67808       595.640 8        51.127
E36         9.000    27850005.278 6 146352940.15606     -2778.966 6        37.444                                                                    27850007.079 6 109289671.54806     -2075.168 6        41.123    27850006.327 6 112140694.31606     -2129.163 6        41.578
G27        10.000    20915224.853 8 109910398.71008     -2517.677 8        49.572                                    20915222.601 8  85644536.93708     -1961.825 8        51.182    20915222.759 7  85644538.93207     -1961.815 7        45.684
G14        11.000    25137687.278 6 132099448.08306      2204.228 6        38.189                                    25137683.623 3 102934629.30803      1717.574 3        19.940    25137683.912 6 102934633.32606      1717.557 6        37.043
G32        12.000    23124274.713 7 121518903.60907      2169.103 7        44.504                                    23124273.718 7  94690052.81907      1690.211 7        42.207    23124273.625 7  94690025.83907      1690.095 7        42.383
S36        14.000    38267503.765 7 201097602.94907      -384.617 7        44.006
C13        15.000                                                                                                                                    39469961.342 6 205530503.53506     -1411.577 6        40.007    39469963.513 6 158929256.14106     -1091.515 6        41.330    39469961.520 6 167010391.91406     -1147.102 6        39.486
E27        18.000    25379313.547 7 133369210.89107     -1282.904 7        44.238                                                                    25379313.191 7  99593895.54607      -958.027 7        47.509    25379312.815 8 102191994.38708      -983.056 8        48.178
E05        20.000    24274896.745 7 127565461.81507      1100.853 7        43.795                                                                    24274896.978 7  95259925.94707       822.080 7        46.264    24274896.505 7  97744969.77507       843.512 7        47.039
R11        21.000    22939927.785 7 122584025.78007     -3875.545 7        45.761                                                                    22939927.840 7  95343132.04407     -3014.202 7        42.089
I06        22.000    38582264.516 6 151405320.67106      -191.472 6        40.915
E03        23.000    27272363.542 6 143317237.22406      2666.690 6        39.120                                                                    27272364.676 7 107022636.13607      1991.400 7        44.042    27272363.997 7 109814528.18907      2043.264 7        44.360
R22        24.000    23501492.104 7 125452578.85807      3032.378 7        43.573                                                                    23501492.505 6  97574235.54406      2358.657 6        41.094
S23        25.000    38224807.460 7 200872695.99107      -383.888 7        44.196
S45        26.000    63476748.849 6 333574106.68506      -427.665 6        37.546
G02        27.000    23279303.525 7 122333600.57907      2110.342 7        44.298                                    23279297.687 4  95324870.31504      1644.420 4        29.782
S27        28.000    39200996.958 6 206002670.40906      -352.864 6        36.117
C38        29.000                                                                                                                                    41628053.163 4 216768312.41504     -1536.567 4        25.910                                                                    41628049.568 4 176142055.72104     -1248.532 4        24.030
E21        30.000    27434804.622 6 144170878.74206      1331.224 6        39.504                                                                    27434805.115 7 107660077.34107       994.064 7        42.946    27434804.527 7 110468597.55007      1019.946 7        43.031
C43        31.000                                                                                                                                    21876955.959 8 113919157.14308     -1463.236 8        51.154                                                                    21876954.506 8  92568689.16708     -1189.010 8        49.735
C42        32.000                                                                                                                                    22485488.118 8 117087858.88608      -234.694 8        49.986                                                                    22485495.330 8  95143518.62008      -190.670 8        50.259
C28        33.000                                                                                                                                    23052728.723 7 120041611.08207      1814.661 7        47.737                                                                    23052727.659 7  97543641.54107      1474.620 7        47.169
R13        34.000    24163550.142 6 129032014.16706      2252.995 6        36.786
E34        35.000    23964160.119 7 125932717.22407     -1509.513 7        47.468                                                                    23964159.997 8  94040776.16508     -1127.267 8        50.136    23964159.844 8  96494002.60508     -1156.656 8        51.089
C14        36.000                                                                                                                                    22684230.545 7 118122751.80007      1485.940 7        47.867    22684226.845 8  91339991.16708      1149.019 8        51.043    22684225.541 8  95984389.31008      1207.462 8        48.925
R21        37.000    19873262.070 8 106345891.82508      1097.147 8        51.706                                                                    19873260.557 7  82713492.36407       853.297 7        46.188
R06        38.000    21494450.999 6 114698524.73906      3544.788 6        40.169
R05        39.000    20141674.390 8 107668820.27108     -1019.922 8        50.471                                                                    20141674.047 7  83742425.18907      -793.311 7        46.925
C27        40.000                                                                                                                                    26908283.701 6 140118489.13906      2640.125 6        38.042                                                                    26908284.193 6 113857756.72406      2145.345 6        37.206
R04        41.000    23054718.437 7 123457002.87807     -4168.646 7        44.047                                                                    23054717.778 6  96022120.21606     -3242.056 6        39.240
S44        42.000    40534957.181 6 213012832.02306      -405.541 6        37.501
G08        43.000    20330087.531 8 106835424.69808      -137.845 8        49.964                                    20330085.539 8  83248423.87008      -107.412 8        50.939    20330086.318 7  83248421.87607      -107.418 7        46.170
C05        44.000                                                                                                                                    39239005.913 6 204327833.33506      -331.580 6        38.685    39239001.073 7 157999265.43907      -256.408 7        43.401    39239002.789 6 166033204.66906      -269.425 6        40.250
C11        45.000                                                                                                                                    23039464.922 7 119972681.40207     -2399.622 7        46.074    23039462.445 8  92770547.33608     -1855.579 8        50.431    23039460.556 7  97487670.15207     -1949.966 7        47.764
E09        46.000    27273425.391 6 143322839.57806     -1509.628 6        40.417                                                                    27273424.926 6 107026807.88706     -1127.311 6        41.495    27273424.901 7 109818808.51307     -1156.675 7        42.713
C33        47.000                                                                                                                                    24083018.953 7 125406611.81907      2685.239 7        47.111                                                                    24083030.114 7 101903200.34207      2182.082 7        46.894
C21        48.000                                                                                                                                    25065728.129 7 130523852.42607     -2946.255 7        44.098                                                                    25065722.981 7 106061309.10407     -2394.017 7        44.432
E06        49.000    28487598.150 6 149703348.91806     -2393.758 6        36.049                                                                    28487599.598 6 111791463.53506     -1787.713 6        39.691    28487599.270 6 114707760.18306     -1834.168 6        39.595
S48        51.000    77248961.663 6 405946288.72406      -414.485 6        37.388
C08        52.000                                                                                                                                    40137103.360 5 209004531.74205     -1580.806 5        34.881    40137097.402 6 161615591.06106     -1222.715 6        40.369    40137096.825 6 169833320.10406     -1284.708 6        38.057
C34        53.000                                                                                                                                    24906204.947 7 129693415.73507     -3205.960 7        42.512                                                                    24906205.010 7 105386638.18207     -2605.059 7        43.029
C60        54.000                                                                                                                                    40534959.258 6 211076371.16306      -401.925 6        39.823                                                                    40534943.274 6 171516810.68606      -326.592 6        39.691
R12        55.000    22433285.410 7 119834576.64507      -427.281 7        46.537                                                                    22433285.997 7  93204671.98207      -332.191 7        43.327
I09        56.000    37798820.093 7 148330716.66207       203.959 7        44.158
C02        57.000                                                                                                                                    40592183.958 5 211374200.01205      -355.641 5        34.000    40592177.905 6 163447932.53106      -274.995 6        40.038    40592181.661 6 171758854.40506      -288.794 6        36.155
I03        58.000    79266640.267 6 235274074.88106      1099.594 6        40.717
E30        59.000    26710706.516 7 140365917.19807     -3315.400 7        42.391                                                                    26710706.524 7 104818821.13907     -2475.791 7        44.488    26710706.059 7 107553208.80007     -2540.241 7        45.062
R20        60.000    20541182.421 6 109843141.15006     -2314.813 6        37.584                                                                    20541184.465 7  85433623.16707     -1800.380 7        46.526
> 2025 01 02 21 30 15.0000000  0 55
G23         1.000    23407346.749 6 123006514.84406     -3614.193 6        41.855                                    23407343.102 4  95849254.13704     -2816.256 4        26.503    23407343.039 6  95849252.13506     -2816.163 6        41.042
C37         2.000                                                                                                                                    26356173.081 6 137243499.67206     -2513.896 6        40.000                                                                    26356177.617 6 111521604.61106     -2042.876 6        40.632
G16         3.000    25174400.784 6 132292548.62006     -4119.025 6        36.892                                    25174398.109 3 103085180.86903     -3209.623 3        19.015
G21         4.000    21474792.789 7 112850854.90307      1249.217 7        44.367                                    21474787.777 5  87935735.49505       973.411 5        33.629
S21         5.000    38499300.869 6 202314905.85806      -385.068 6        41.502
E13         6.000    28011695.945 6 147202477.70906      2016.710 6        37.006                                                                    28011698.552 6 109923947.46006      1505.929 6        39.817    28011698.126 6 112791524.73506      1545.267 6        39.550
G10         7.000    21035612.284 8 110542956.65108     -1616.774 8        50.432                                    21035610.436 8  86137385.43508     -1259.825 8        51.824    21035610.194 7  86137379.43807     -1259.838 7        46.105
E15         8.000    24055068.867 7 126410348.50607       776.541 7        47.460                                                                    24055069.417 8  94397406.26908       579.893 8        50.539    24055068.893 8  96859935.17308       595.003 8        51.128
E36         9.000    27852649.696 6 146366834.61306     -2778.934 6        37.202                                                                    27852651.244 6 109300047.26006     -2075.088 6        41.242    27852650.239 6 112151340.71206     -2129.192 6        41.449
G27        10.000    20917621.293 8 109922993.13608     -2520.035 8        49.792                                    20917619.243 8  85654350.77508     -1963.665 8        51.246    20917619.381 7  85654352.77307     -1963.641 7        45.494
G14        11.000    25135591.013 6 132088431.59906      2202.317 6        37.826                                    25135587.487 3 102926045.04403      1716.089 3        19.761    25135588.133 6 102926049.05806      1716.217 6        37.210
G32        12.000    23122211.738 7 121508063.14907      2167.238 7        44.265                                    23122210.923 7  94681605.71807      1688.753 7        42.131    23122211.097 7  94681578.72707      1688.862 7        42.366
S36        14.000    38267870.929 7 201099525.50307      -384.631 7        43.727
C13        15.000                                                                                                                                    39471317.120 6 205537561.36106     -1411.640 6        40.114    39471319.078 6 158934713.68706     -1091.367 6        41.523    39471316.929 6 167016126.97006     -1147.054 6        39.739
E27        18.000    25380535.042 7 133375631.24107     -1285.125 7        44.208                                                                    25380535.007 7  99598689.96707      -959.714 7        47.381    25380534.495 8 102196913.87708      -984.721 8        48.132
E05        20.000    24273850.021 7 127559962.48707      1098.857 7        43.591                                                                    24273850.451 7  95255819.30807       820.599 7        46.268    24273850.019 7  97740756.00607       842.001 7        46.971
R11        21.000    22943554.034 7 122603407.71507     -3877.387 7        45.592                                                                    22943553.596 6  95358206.88306     -3015.688 6        41.657
I06        22.000    38582508.208 6 151406278.10706      -191.528 6        40.772
E03        23.000    27269826.566 6 143303904.34606      2666.455 6        39.504                                                                    27269827.491 7 107012679.78107      1991.177 7        44.006    27269826.976 7 109804312.09107      2043.217 7        44.528
R22        24.000    23498651.890 7 125437416.93607      3032.289 7        43.280                                                                    23498652.357 6  97562442.93206      2358.330 6        40.567
S23        25.000    38225173.507 7 200874615.01107      -383.659 7        44.065
S45        26.000    63477113.313 6 333574544.91616      -427.532 6        37.323
G02        27.000    23277295.905 7 122323050.52007      2109.688 7        44.179                                    23277290.152 4  95316649.49504      1643.911 4        29.981
S27        28.000    39201332.723 5 206004434.88505      -352.977 5        35.890
C38        29.000                                                                                                                                    41629527.737 4 216775994.39004     -1536.179 4        25.308                                                                    41629523.523 4 176148298.05004     -1248.138 4        24.782
E21        30.000    27433538.591 6 144164227.35106      1329.247 6        39.129                                                                    27433539.390 7 107655110.38107       992.741 7        42.722    27433538.793 7 110463501.01407      1018.624 7        43.191
C43        31.000                                                                                                                                    21878361.804 8 113926477.65908     -1464.946 8        51.232                                                                    21878360.307 8  92574637.69108     -1190.405 8        49.616
C42        32.000                                                                                                                                    22485714.751 8 117089039.50708      -237.543 8        50.200                                                                    22485722.030 8  95144477.98508      -193.025 8        50.236
C28        33.000                                                                                                                                    23050986.905 7 120032540.12007      1813.757 7        47.940                                                                    23050985.693 7  97536270.65507      1473.749 7        47.082
R13        34.000    24161442.057 6 129020756.58506      2250.009 6        36.896
E34        35.000    23965596.707 7 125940266.70507     -1510.277 7        47.339                                                                    23965596.627 8  94046413.76208     -1127.817 8        50.056    23965596.469 8  96499787.27208     -1157.211 8        51.107
C14        36.000                                                                                                                                    22682804.774 7 118115328.12007      1483.566 7        47.774    22682801.062 8  91334250.70808      1147.184 8        51.015    22682799.922 8  95978356.96808      1205.520 8        48.988
R21        37.000    19872237.738 8 106340411.02108      1095.305 8        52.132                                                                    19872236.325 7  82709229.53007       851.865 7        46.564
R06        38.000    21491129.093 6 114680806.00806      3542.760 6        40.498
R05        39.000    20142630.784 8 107673931.39608     -1024.447 8        50.203                                                                    20142630.368 7  83746400.51407      -796.828 7        47.204
C27        40.000                                                                                                                                    26905747.517 6 140105287.85506      2640.490 6        37.675                                                                    26905748.944 6 113847029.58906      2145.625 6        37.225
R04        41.000    23058611.537 7 123477850.69507     -4170.558 7        43.685                                                                    23058611.260 6  96038335.20206     -3243.654 6        39.069
S44        42.000    40535344.419 6 213014859.83006      -405.504 6        37.304
G08        43.000    20330219.986 8 106836121.00708      -140.712 8        50.006                                    20330218.033 8  83248966.45508      -109.647 8        51.053    20330218.925 7  83248964.45907      -109.656 7        46.078
C05        44.000                                                                                                                                    39239324.619 6 204329491.11706      -331.384 6        38.652    39239319.622 7 158000547.36507      -256.410 7        43.414    39239321.294 6 166034551.77606      -269.377 6        39.982
C11        45.000                                                                                                                                    23041769.728 7 119984682.92307     -2400.904 7        46.048    23041766.945 8  92779827.67208     -1856.506 8        50.412    23041765.431 7  97497422.37607     -1950.992 7        47.742
E09        46.000    27274862.538 6 143330392.69806     -1511.753 6        40.558                                                                    27274862.234 6 107032448.20406     -1128.883 6        41.449    27274862.324 7 109824595.96707     -1158.240 7        42.804
C33        47.000                                                                                                                                    24080440.727 7 125393188.92907      2683.941 7        46.980                                                                    24080452.158 7 101892293.15907      2180.932 7        46.838
C21        48.000                                                                                                                                    25068557.856 7 130538587.68707     -2947.918 7        44.507                                                                    25068552.583 7 106073282.73207     -2395.355 7        44.324
E06        49.000    28489876.368 5 149715321.60805     -2395.349 5        35.443                                                                    28489878.014 6 111800404.15906     -1788.701 6        39.655    28489877.697 6 114716934.05606     -1835.262 6        39.757
S48        51.000    77249335.518 6 405948361.12106      -414.361 6        37.157
C08        52.000                                                                                                                                    40138620.624 5 209012436.93105     -1580.675 5        34.524    40138615.085 6 161621703.85806     -1222.458 6        40.353    40138614.927 6 169839743.76006     -1284.830 6        37.671
C34        53.000                                                                                                                                    24909283.251 7 129709447.60907     -3206.727 7        42.652                                                                    24909283.876 7 105399665.40407     -2605.728 7        43.166
C60        54.000                                                                                                                                    40535345.155 6 211078380.53306      -401.930 6        39.880                                                                    40535329.014 6 171518443.46406      -326.632 6        39.574
R12        55.000    22433686.717 7 119836723.37007      -431.450 7        47.513                                                                    22433687.619 7  93206341.66107      -335.541 7        43.731
I09        56.000    37798560.401 7 148329697.75307       203.712 7        43.856
C02        57.000                                                                                                                                    40592524.941 5 211375977.91105      -355.561 5        33.563    40592519.202 6 163449307.29906      -274.884 6        39.988    40592522.922 6 171760299.09006      -288.792 6        36.287
I03        58.000    79265239.233 6 235268577.03306      1099.510 6        40.849
E30        59.000    26713861.164 7 140382495.44607     -3315.979 7        42.027                                                                    26713861.315 7 104831200.99707     -2476.235 7        44.364    26713860.849 7 107565911.60807     -2540.697 7        45.097
R20        60.000    20543348.152 6 109854719.64006     -2316.632 6        36.957                                                                    20543349.589 7  85442628.65207     -1801.756 7        46.495
> 2025 01 02 21 30 20.0000000  0 55
G23         1.000    23410785.685 6 123024587.97906     -3615.235 6        41.876                                    23410782.383 4  95863337.09404     -2817.067 4        26.431    23410782.186 6  95863335.09706     -2817.065 6        40.477
C37         2.000                                                                                                                                    26358587.952 6 137256073.06306     -2515.394 6        40.369                                                                    26358592.317 6 111531821.49606     -2043.752 6        40.717
G16         3.000    25178319.562 6 132313142.66506     -4118.751 6        36.514                                    25178317.048 3 103101228.15403     -3209.413 3        18.687
G21         4.000    21473604.803 7 112844612.56707      1247.695 7        44.224                                    21473599.931 5  87930871.34105       972.230 5        33.719
S21         5.000    38499667.506 6 202316831.88406      -385.259 6        41.554
E13         6.000    28009777.667 6 147192394.60006      2016.587 6        37.864                                                                    28009779.509 6 109916417.88106      1505.760 6        39.483    28009779.270 6 112783798.73106      1545.242 6        39.646
G10         7.000    21037151.801 8 110551046.49008     -1619.197 8        50.558                                    21037149.877 8  86143689.20708     -1261.713 8        51.878    21037149.941 7  86143683.21007     -1261.749 7        46.049
E15         8.000    24054330.355 7 126406468.01507       775.593 7        47.635                                                                    24054330.955 8  94394508.49908       579.206 8        50.560    24054330.483 8  96856961.80408       594.314 8        51.095
E36         9.000    27855293.172 6 146380729.14706     -2778.945 6        37.474                                                                    27855295.269 6 109310423.05806     -2075.245 6        41.106    27855294.225 6 112161987.17606     -2129.341 6        41.163
G27        10.000    20920020.437 8 109935599.64608     -2522.558 8        49.786                                    20920018.175 8  85664174.02808     -1965.629 8        51.324    20920018.550 7  85664176.02607     -1965.583 7        45.254
G14        11.000    25133496.437 6 132077425.01206      2200.268 6        37.304                                    25133493.140 3 102917468.49803      1714.507 3        19.761    25133493.519 6 102917472.50406      1714.354 6        37.641
G32        12.000    23120150.829 7 121497231.63807      2165.338 7        45.041                                    23120149.823 7  94673165.58907      1687.275 7        42.197    23120150.088 7  94673138.59007      1687.329 7        42.154
S36        14.000    38268232.576 7 201101447.54507      -384.321 7        43.803
C13        15.000                                                                                                                                    39472672.335 6 205544618.32206     -1411.445 6        40.129    39472674.093 6 158940170.58906     -1091.376 6        41.328    39472671.921 6 167021861.30806     -1146.649 6        39.453
E27        18.000    25381758.749 7 133382063.00307     -1287.610 7        44.563                                                                    25381758.930 7  99603492.89407      -961.510 7        47.293    25381758.470 8 102201842.10308      -986.547 8        48.130
E05        20.000    24272805.481 7 127554473.19507      1096.828 7        43.901                                                                    24272805.843 7  95251720.16307       819.024 7        46.218    24272805.413 7  97736549.92807       840.383 7        46.936
R11        21.000    22947183.060 7 122622798.94207     -3879.350 7        44.879                                                                    22947182.548 6  95373288.92306     -3017.080 6        41.468
I06        22.000    38582752.289 6 151407235.15506      -191.350 6        40.872
E03        23.000    27267289.632 6 143290572.47206      2666.298 6        40.062                                                                    27267290.353 7 107002724.18207      1990.936 7        43.930    27267289.995 7 109794096.77907      2042.951 7        44.330
R22        24.000    23495812.062 7 125422254.85807      3032.327 7        43.958                                                                    23495812.222 6  97550650.26206      2358.465 6        41.428
S23        25.000    38225535.601 7 200876533.62907      -383.695 7        44.083
S45        26.000    63477475.318 6 333576682.80906      -427.632 6        37.592
G02        27.000    23275288.797 7 122312503.70507      2109.076 7        43.953                                    23275283.203 5  95308431.19205      1643.431 5        30.023
S27        28.000    39201667.370 6 206006199.20706      -352.927 6        36.034
C38        29.000                                                                                                                                    41631002.780 4 216783674.90704     -1536.832 4        25.098                                                                    41630999.816 4                     -1247.901 4        24.737
E21        30.000    27432274.285 6 144157585.43806      1327.375 6        38.691                                                                    27432275.358 7 107650150.50407       991.213 7        42.643    27432274.957 7 110458411.74707      1016.986 7        43.041
C43        31.000                                                                                                                                    21879769.341 8 113933806.78308     -1466.754 8        51.409                                                                    21879767.808 8  92580593.17608     -1191.601 8        49.610
C42        32.000                                                                                                                                    22485944.162 8 117090234.21908      -240.411 8        50.326                                                                    22485951.494 8  95145448.76108      -195.123 8        50.215
C28        33.000                                                                                                                                    23049245.741 8 120023473.73908      1812.781 8        48.072                                                                    23049244.634 7  97528903.45507      1473.238 7        47.120
R13        34.000    24159337.024 6 129009514.25406      2246.684 6        36.881
E34        35.000    23967034.099 7 125947820.15107     -1511.143 7        47.658                                                                    23967033.996 8  94052054.31908     -1128.445 8        50.027    23967033.815 8  96505574.97708     -1157.936 8        51.108
C14        36.000                                                                                                                                    22681381.750 8 118107916.37608      1481.174 8        48.062    22681377.568 8  91328519.47508      1145.292 8        50.816    22681376.555 8  95972334.29608      1203.742 8        48.832
R21        37.000    19871215.308 8 106334939.36608      1093.328 8        52.143                                                                    19871213.882 7  82704973.78707       850.331 7        46.099
R06        38.000    21487811.365 6 114663098.12406      3540.353 6        40.589
R05        39.000    20143591.441 8 107679065.24508     -1029.168 8        50.526                                                                    20143590.852 7  83750393.51307      -800.494 7        47.293
C27        40.000                                                                                                                                    26903212.550 6 140092085.27806      2640.706 6        37.516                                                                    26903213.618 6 113836301.39006      2145.794 6        36.945
R04        41.000    23062507.197 7 123498708.71607     -4172.778 7        44.045                                                                    23062505.663 6  96054558.10506     -3245.229 6        38.468
S44        42.000    40535728.804 6 213016887.36306      -405.433 6        37.236
G08        43.000    20330355.409 8 106836831.72808      -143.707 8        50.164                                    20330353.273 8  83249520.26208      -111.982 8        51.077    20330354.133 7  83249518.26107      -111.947 7        45.985
C05        44.000                                                                                                                                    39239642.565 6 204331148.62006      -331.463 6        38.883    39239638.158 7 158001829.04107      -256.360 7        43.391    39239639.562 6 166035898.59106      -269.079 6        40.074
C11        45.000                                                                                                                                    23044075.571 7 119996690.70207     -2402.268 7        46.263    23044072.620 8  92789112.84908     -1857.594 8        50.286    23044071.534 7  97507179.65007     -1951.840 7        47.747
E09        46.000    27276301.923 6 143337956.80506     -1513.995 6        40.837                                                                    27276301.682 6 107038096.72306     -1130.471 6        41.387    27276301.616 7 109830391.84207     -1160.068 7        42.800
C33        47.000                                                                                                                                    24077863.841 7 125379772.78907      2682.508 7        47.019                                                                    24077875.597 7 101881391.42207      2179.990 7        46.812
C21        48.000                                                                                                                                    25071389.017 7 130553331.22207     -2949.599 7        44.727                                                                    25071383.866 7 106085263.03207     -2396.404 7        44.223
E06        49.000    28492156.073 5 149727302.35805     -2396.951 5        35.476                                                                    28492157.801 6 111809350.83106     -1789.972 6        39.535    28492157.676 6 114726114.11706     -1836.714 6        39.691
S48        51.000    77249705.017 6 405950433.31106      -414.374 6        37.588
C08        52.000                                                                                                                                    40140137.462 5 209020341.02505     -1580.570 5        34.600    40140133.140 6 161627815.78206     -1222.147 6        40.157    40140132.715 6 169846166.44906     -1284.354 6        37.497
C34        53.000                                                                                                                                    24912362.876 7 129725482.93107     -3207.471 7        43.302                                                                    24912363.486 7 105412695.38707     -2606.120 7        43.469
C60        54.000                                                                                                                                    40535730.953 6 211080389.62706      -401.779 6        39.715                                                                    40535714.892 6 171520076.00406      -326.358 6        39.673
R12        55.000    22434093.218 7 119838891.50307      -435.790 7        46.629                                                                    22434093.918 7  93208027.97707      -338.911 7        43.082
I09        56.000    37798301.044 7 148328679.78207       203.441 7        43.913
C02        57.000                                                                                                                                    40592866.135 5 211377755.51505      -355.540 5        33.683    40592860.431 6 163450681.87406      -274.888 6        40.064    40592864.281 6 171761743.54406      -288.881 6        36.181
I03        58.000    79263837.934 6 235263079.07706      1099.594 6        40.684
E30        59.000    26717016.188 6 140399077.18306     -3316.787 6        41.962                                                                    26717016.778 7 104843583.44707     -2476.815 7        44.442    26717016.266 7 107578617.08707     -2541.416 7        45.019
R20        60.000    20545514.991 6 109866307.04806     -2318.588 6        36.866                                                                    20545516.810 7  85451641.07607     -1803.227 7        46.484
> 2025 01 02 21 30 25.0000000  0 55
G23         1.000    23414225.581 6 123042664.94206     -3615.806 6        41.721                                    23414222.224 4  95877423.04804     -2817.514 4        26.084    23414222.204 6  95877421.05406     -2817.583 6        40.403
C37         2.000                                                                                                                                    26361004.386 6 137268652.73706     -2516.774 6        40.091                                                                    26361008.111 6 111542043.52906     -2045.104 6        40.839
G16         3.000    25182238.079 6 132333734.11406     -4118.192 6        36.715                                    25182235.423 3 103117273.42603     -3208.968 3        18.269
G21         4.000    21472418.137 7 112838376.52807      1246.448 7        44.311                                    21472413.279 5  87926012.09005       971.257 5        33.671
S21         5.000    38500036.245 6 202318757.08006      -384.998 6        41.938
E13         6.000    28007858.539 6 147182311.44206      2016.309 6        37.096                                                                    28007860.831 6 109908888.22906      1505.828 6        39.661    28007860.526 6 112776072.66006      1545.113 6        39.498
G10         7.000    21038693.617 8 110559147.64808     -1621.525 8        50.398                                    21038691.469 8  86150001.79508     -1263.525 8        51.758    21038691.475 7  86149995.79307     -1263.536 7        46.153
E15         8.000    24053592.574 7 126402591.08007       774.837 7        47.742                                                                    24053593.219 8  94391613.38808       578.569 8        50.591    24053592.733 8  96853991.16508       593.710 8        50.972
E36         9.000    27857937.039 6 146394623.24106     -2779.184 6        37.803                                                                    27857939.324 6 109320798.51006     -2075.213 6        41.249    27857938.304 6 112172633.30406     -2129.365 6        41.008
G27        10.000    20922421.629 8 109948217.68108     -2524.922 8        49.760                                    20922419.284 8  85674006.26108     -1967.473 8        51.184    20922419.780 7  85674008.25707     -1967.344 7        45.258
G14        11.000    25131403.357 6 132066427.73506      2198.225 6        38.093                                    25131400.296 3 102908899.19003      1712.903 3        19.940    25131400.969 6 102908903.19006      1712.913 6        38.195
G32        12.000    23118091.658 7 121486408.51307      2163.598 7        45.582                                    23118090.296 7  94664731.99007      1685.920 7        42.336    23118090.214 7  94664704.98807      1685.937 7        42.186
S36        14.000    38268600.059 7 201103368.58607      -384.342 7        43.945
C13        15.000                                                                                                                                    39474027.309 6 205551674.06306     -1411.183 6        40.322    39474029.011 6 158945626.53106     -1091.255 6        41.504    39474026.959 6 167027594.70406     -1146.781 6        39.553
E27        18.000    25382984.856 7 133388505.57207     -1289.803 7        44.572                                                                    25382984.909 7  99608303.90507      -963.183 7        47.481    25382984.442 7 102206778.62107      -988.312 7        47.994
E05        20.000    24271762.494 7 127548993.40507      1094.751 7        43.619                                                                    24271763.100 7  95247628.10507       817.552 7        46.307    24271762.726 7  97732351.11907       838.893 7        46.834
R11        21.000    22950814.214 7 122642198.82907     -3881.104 7        45.953                                                                    22950812.336 6  95388377.74306     -3018.636 6        40.567
I06        22.000    38582996.424 6 151408191.40406      -191.357 6        40.903
E03        23.000    27264752.620 6 143277241.08006      2666.123 6        40.200                                                                    27264753.487 7 106992768.91307      1990.951 7        43.818    27264753.181 7 109783881.81307      2042.830 7        44.146
R22        24.000    23492972.151 7 125407092.13807      3032.335 7        44.500                                                                    23492971.357 6  97538857.01706      2358.538 6        41.967
S23        25.000    38225900.723 7 200878451.28707      -383.593 7        44.196
S45        26.000    63477835.923 6 333578819.76106      -427.613 6        37.527
G02        27.000    23273282.289 7 122301959.57507      2108.292 7        43.822                                    23273276.696 4  95300214.98904      1642.828 4        29.867
S27        28.000    39202000.417 5 206007962.80905      -352.825 5        35.924
C38        29.000                                                                                                                                    41632475.369 4                     -1536.005 4        24.406                                                                    41632473.963 4                     -1247.476 4        24.015
E21        30.000    27431012.395 6 144150952.43706      1325.406 6        38.652                                                                    27431013.140 7 107645197.28207       989.865 7        42.853    27431012.605 7 110453329.31607      1015.620 7        43.029
C43        31.000                                                                                                                                    21881178.468 8 113941143.96808     -1468.461 8        51.550                                                                    21881176.842 8  92586555.27008     -1193.342 8        49.666
C42        32.000                                                                                                                                    22486176.077 8 117091442.49408      -243.229 8        50.200                                                                    22486183.528 8  95146430.60508      -197.718 8        50.244
C28        33.000                                                                                                                                    23047505.127 8 120014411.42408      1811.774 8        48.122                                                                    23047504.279 7  97521539.61107      1472.184 7        47.121
R13        34.000    24157233.926 6 128998286.87506      2243.428 6        36.843
E34        35.000    23968472.235 7 125955377.00707     -1511.903 7        47.840                                                                    23968471.949 8  94057697.43208     -1129.046 8        50.146    23968471.840 8  96511365.29708     -1158.541 8        51.031
C14        36.000                                                                                                                                    22679961.380 8 118100516.04908      1478.681 8        48.449    22679956.526 8  91322797.07408      1143.415 8        51.249    22679955.406 8  95966320.95108      1201.539 8        48.890
R21        37.000    19870194.343 8 106329476.29908      1091.527 8        52.051                                                                    19870192.999 7  82700724.73607       848.949 7        46.479
R06        38.000    21484495.061 6 114645400.55706      3538.301 6        40.837
R05        39.000    20144556.230 8 107684221.51108     -1033.613 8        50.717                                                                    20144555.397 7  83754403.93007      -803.945 7        47.720
C27        40.000                                                                                                                                    26900677.316 6 140078880.87506      2640.945 6        38.345                                                                    26900677.549 6 113825571.73306      2145.888 6        36.707
R04        41.000    23066404.151 7 123519576.44307     -4174.750 7        44.035                                                                    23066402.263 6  96070788.53106     -3247.001 6        38.508
S44        42.000    40536114.222 6 213018914.09406      -405.531 6        37.539
G08        43.000    20330493.404 8 106837556.30608      -146.457 8        50.029                                    20330491.156 8  83250084.87008      -114.121 8        50.871    20330491.952 7  83250082.87307      -114.128 7        45.908
C05        44.000                                                                                                                                    39239960.860 6 204332805.23606      -331.465 6        38.946    39239956.086 7 158003110.04507      -256.397 7        43.490    39239957.709 6 166037244.76506      -269.370 6        40.129
C11        45.000                                                                                                                                    23046382.805 7 120008704.18407     -2403.425 7        46.626    23046379.781 8  92798402.42508     -1858.498 8        50.395    23046378.662 7  97516941.61707     -1953.108 7        47.913
E09        46.000    27277743.062 6 143345531.36306     -1516.182 6        40.775                                                                    27277742.900 6 107043753.05006     -1132.146 6        41.435    27277742.908 7 109836195.72607     -1161.696 7        42.804
C33        47.000                                                                                                                                    24075288.735 7 125366362.85007      2681.191 7        47.218                                                                    24075300.300 7 101870494.78607      2178.595 7        46.745
C21        48.000                                                                                                                                    25074222.122 7 130568082.45707     -2951.250 7        44.789                                                                    25074216.714 7 106097249.66007     -2398.184 7        44.309
E06        49.000    28494437.494 5 149739290.64905     -2398.484 5        35.076                                                                    28494439.013 6 111818303.11106     -1791.292 6        39.871    28494438.907 6 114735299.93806     -1838.030 6        40.017
S48        51.000    77250075.567 6 405952504.67806      -414.449 6        37.353
C08        52.000                                                                                                                                    40141655.357 5 209028243.39705     -1580.482 5        34.529    40141650.800 6 161633926.39806     -1222.183 6        40.010    40141650.120 6 169852587.79706     -1284.368 6        37.289
C34        53.000                                                                                                                                    24915443.525 7 129741521.17307     -3208.075 7        43.850                                                                    24915443.698 7 105425727.80007     -2606.925 7        43.670
C60        54.000                                                                                                                                    40536116.863 6 211082397.92006      -401.662 6        40.050                                                                    40536100.695 6 171521707.94006      -326.448 6        39.802
R12        55.000    22434503.479 7 119841080.46007      -440.107 7        47.296                                                                    22434503.787 7  93209730.50107      -342.312 7        43.871
I09        56.000    37798041.760 7 148327662.33907       203.370 7        43.962
C02        57.000                                                                                                                                    40593207.646 5 211379532.32305      -355.411 5        33.503    40593202.054 6 163452055.82406      -274.946 6        40.110    40593205.712 6 171763187.37606      -288.930 6        36.340
I03        58.000    79262436.984 6 235257580.65606      1099.627 6        40.763
E30        59.000    26720172.233 6 140415661.79706     -3317.407 6        41.919                                                                    26720172.827 7 104855968.05107     -2477.208 7        44.647    26720172.293 7 107591324.77007     -2541.897 7        44.945
R20        60.000    20547682.719 6 109877902.76906     -2320.347 6        37.546                                                                    20547684.923 7  85460659.97507     -1804.626 7        46.678
> 2025 01 02 21 30 30.0000000  0 55
G23         1.000    23417666.871 6 123060746.81906     -3616.938 6        41.354                                    23417662.909 4  95891512.81504     -2818.394 4        25.970    23417662.954 6  95891510.82006     -2818.510 6        40.272
C37         2.000                                                                                                                                    26363421.171 6 137281239.70206     -2518.203 6        40.300                                                                    26363425.330 6 111552271.46906     -2046.314 6        40.706
G16         3.000    25186157.071 6 132354324.02906     -4117.830 6        36.749                                    25186153.352 2 103133317.49102     -3208.696 2        17.358
G21         4.000    21471232.815 7 112832147.87707      1244.946 7        44.363                                    21471227.995 5  87921158.60105       970.081 5        33.653
S21         5.000    38500405.060 6 202320682.14706      -384.892 6        41.993
E13         6.000    28005940.343 6 147172229.20206      2016.273 6        37.198                                                                    28005942.517 6 109901359.31806      1505.626 6        39.715    28005941.778 6 112768347.33506      1544.890 6        39.513
G10         7.000    21040237.416 8 110567261.16108     -1623.989 8        50.631                                    21040235.413 8  86156324.01308     -1265.448 8        51.693    21040235.143 7  86156318.01507     -1265.458 7        45.735
E15         8.000    24052855.515 7 126398718.75707       773.958 7        47.718                                                                    24052856.315 8  94388721.71508       577.941 8        50.607    24052855.792 8  96851024.06208       593.006 8        50.942
E36         9.000    27860581.279 6 146408517.89406     -2778.998 6        37.815                                                                    27860583.403 6 109331174.40206     -2075.251 6        41.442    27860582.664 6 112183279.85806     -2129.354 6        40.923
G27        10.000    20924825.176 8 109960848.29908     -2527.390 8        50.016                                    20924822.786 8  85683848.29808     -1969.397 8        51.095    20924823.496 7  85683850.29007     -1969.395 7        45.502
G14        11.000    25129313.244 6 132055440.87206      2196.235 6        38.432                                    25129309.732 3 102900338.00603      1711.356 3        20.048    25129309.829 6 102900341.97706      1711.353 6        37.966
G32        12.000    23116033.395 7 121475594.84107      2161.749 7        45.348                                    23116032.536 7  94656305.75807      1684.477 7        42.360    23116032.384 7  94656278.76107      1684.491 7        42.110
S36        14.000    38268966.347 7 201105289.51107      -384.274 7        44.039
C13        15.000                                                                                                                                    39475382.757 6 205558729.40306     -1410.961 6        40.260    39475383.939 6 158951082.17506     -1091.079 6        41.313    39475381.890 6 167033327.74706     -1146.661 6        39.510
E27        18.000    25384213.209 7 133394960.03807     -1292.204 7        44.525                                                                    25384213.120 7  99613123.80007      -964.952 7        47.423    25384212.687 7 102211724.24207      -990.096 7        47.886
E05        20.000    24270721.752 7 127543524.12407      1092.737 7        43.427                                                                    24270722.343 7  95243543.91707       815.991 7        46.341    24270721.883 7  97728160.38807       837.320 7        46.805
R11        21.000    22954446.273 7 122661608.47407     -3882.863 7        45.561                                                                    22954445.741 6  95403474.10306     -3020.124 6        41.731
I06        22.000    38583239.554 6 151409147.65506      -191.340 6        40.925
E03        23.000    27262216.124 6 143263911.20706      2665.680 6        40.219                                                                    27262216.893 7 106982814.80007      1990.655 7        43.818    27262216.554 7 109773668.02507      2042.585 7        43.945
R22        24.000    23490131.329 7 125391929.78207      3032.371 7        45.067                                                                    23490131.931 7  97527064.09907      2358.607 7        42.025
S23        25.000    38226266.327 7 200880369.17507      -383.608 7        44.175
S45        26.000    63478193.845 6 333580957.01706      -427.734 6        37.422
G02        27.000    23271276.305 7 122291419.18507      2107.600 7        43.666                                    23271270.932 4  95292001.69704      1642.282 4        29.915
S27        28.000    39202338.208 6 206009725.99206      -352.704 6        36.049
C38        29.000                                                                                                                                    41633950.231 3                     -1535.065 3        22.571                                                                    41633948.216 4                     -1247.546 4        24.722
E21        30.000    27429752.561 6 144144329.40806      1323.542 6        38.577                                                                    27429752.863 7 107640251.53407       988.346 7        42.887    27429752.296 7 110448254.54107      1014.124 7        42.806
C43        31.000                                                                                                                                    21882589.140 8 113948490.24808     -1470.197 8        51.368                                                                    21882587.594 8  92592524.70908     -1194.699 8        49.504
C42        32.000                                                                                                                                    22486410.728 8 117092665.33908      -246.062 8        50.032                                                                    22486418.332 8  95147424.25808      -200.016 8        50.117
C28        33.000                                                                                                                                    23045765.597 7 120005354.21607      1810.877 7        47.955                                                                    23045764.927 7  97514179.87607      1471.523 7        46.987
R13        34.000    24155134.204 5 128987075.28405      2240.640 5        35.814
E34        35.000    23969910.979 7 125962938.32307     -1512.787 7        47.736                                                                    23969910.792 8  94063343.86708     -1129.649 8        50.141    23969910.691 8  96517159.03108     -1159.123 8        50.883
C14        36.000                                                                                                                                    22678542.688 8 118093128.16908      1476.307 8        48.321    22678538.086 8  91317084.30108      1141.529 8        50.957    22678536.572 8  95960317.68408      1199.600 8        48.757
R21        37.000    19869175.034 8 106324022.84808      1089.674 8        51.894                                                                    19869173.728 7  82696483.17507       847.493 7        46.137
R06        38.000    21481181.008 6 114627714.34606      3536.033 6        40.608
R05        39.000    20145525.020 8 107689400.80708     -1038.263 8        51.176                                                                    20145524.374 7  83758432.27007      -807.560 7        47.078
C27        40.000                                                                                                                                    26898140.997 6 140065675.71206      2640.982 6        38.318                                                                    26898141.754 6 113814841.42206      2145.906 6        36.526
R04        41.000    23070303.536 7 123540454.83407     -4176.866 7        44.464                                                                    23070300.937 6  96087027.27806     -3248.531 6        38.513
S44        42.000    40536498.567 6 213020941.07006      -405.341 6        37.100
G08        43.000    20330633.787 8 106838295.81508      -149.476 8        50.160                                    20330631.886 8  83250661.11108      -116.475 8        50.846    20330632.833 7  83250659.11107      -116.460 7        45.539
C05        44.000                                                                                                                                    39240279.333 6 204334462.04606      -331.450 6        38.628    39240274.300 7 158004391.20307      -256.313 7        43.173    39240276.039 6 166038591.04406      -269.207 6        39.991
C11        45.000                                                                                                                                    23048691.754 7 120020724.37107     -2404.738 7        46.497    23048688.265 8  92807697.19408     -1859.485 8        50.334    23048687.023 7  97526708.98407     -1954.087 7        47.790
E09        46.000    27279186.920 6 143353117.39706     -1518.424 6        40.467                                                                    27279186.424 6 107049417.95006     -1133.846 6        41.366    27279186.484 7 109842008.40007     -1163.449 7        42.711
C33        47.000                                                                                                                                    24072714.954 7 125352960.15907      2679.747 7        47.375                                                                    24072726.485 7 101859603.98907      2177.506 7        46.707
C21        48.000                                                                                                                                    25077056.414 7 130582842.44407     -2952.999 7        44.272                                                                    25077051.426 7 106109243.34607     -2399.518 7        44.313
E06        49.000    28496720.311 5 149751287.47605     -2400.366 5        35.200                                                                    28496721.830 6 111827261.76206     -1792.468 6        39.652    28496721.851 6 114744492.28006     -1839.107 6        39.634
S48        51.000    77250447.177 6 405954575.90106      -414.424 6        37.206
C08        52.000                                                                                                                                    40143173.646 5 209036145.07905     -1580.288 5        34.790    40143168.128 6 161640036.46806     -1222.092 6        39.670    40143167.487 6 169859008.50506     -1284.018 6        36.957
C34        53.000                                                                                                                                    24918524.378 7 129757563.35507     -3208.968 7        43.793                                                                    24918524.405 7 105438763.36307     -2607.510 7        43.649
C60        54.000                                                                                                                                    40536502.697 6 211084406.49006      -401.851 6        39.862                                                                    40536486.399 6 171523340.04606      -326.555 6        39.715
R12        55.000    22434917.251 7 119843291.36207      -444.424 7        47.370                                                                    22434917.523 7  93211450.08507      -345.548 7        42.883
I09        56.000    37797782.596 7 148326646.19807       203.058 7        43.782
C02        57.000                                                                                                                                    40593549.426 5 211381309.40105      -355.568 5        33.742    40593542.975 6 163453429.96606      -274.851 6        39.856    40593546.731 6 171764631.38006      -288.707 6        36.389
I03        58.000    79261035.558 6 235252082.51006      1099.648 6        40.646
E30        59.000    26723329.204 7 140432250.36507     -3318.171 7        42.305                                                                    26723329.423 7 104868355.62107     -2477.885 7        44.632    26723329.115 7 107604035.49607     -2542.552 7        44.775
R20        60.000    20549854.243 6 109889507.93006     -2321.872 6        38.129                                                                    20549855.314 7  85469686.20507     -1805.977 7        46.938
> 2025 01 02 21 30 35.0000000  0 55
G23         1.000    23421108.482 6 123078833.21606     -3617.698 6        41.011                                    23421104.596 4  95905606.12204     -2818.979 4        25.850    23421105.525 6  95905604.13106     -2819.091 6        40.794
C37         2.000                                                                                                                                    26365839.847 6 137293833.64206     -2519.521 6        40.193                                                                    26365843.742 6 111562505.06906     -2047.297 6        40.753
G16         3.000    25190075.149 6 132374912.02906     -4117.383 6        36.628                                    25190070.949 2 103149360.09302     -3208.342 2        17.698
G21         4.000    21470049.038 7 112825926.28507      1243.580 7        44.138                                    21470044.034 5  87916310.61005       969.024 5        33.653
S21         5.000    38500768.263 6 202322606.89906      -385.154 6        41.783
E13         6.000    28004022.468 6 147162147.58706      2016.284 6        37.660                                                                    28004024.070 6 109893830.84606      1505.464 6        39.994    28004023.522 6 112760622.47306      1544.901 6        39.967
G10         7.000    21041783.431 8 110575386.69608     -1626.371 8        50.680                                    21041781.646 8  86162655.59808     -1267.302 8        51.636    21041781.423 7  86162649.60307     -1267.347 7        45.782
E15         8.000    24052119.443 7 126394850.70507       773.074 7        47.827                                                                    24052120.231 8  94385833.24308       577.294 8        50.549    24052119.815 8  96848060.23508       592.346 8        51.025
E36         9.000    27863224.992 6 146422412.80106     -2778.716 6        37.720                                                                    27863227.678 6 109341550.47406     -2075.147 6        41.688    27863226.847 6 112193926.62006     -2129.352 6        41.297
G27        10.000    20927230.927 8 109973491.15008     -2529.837 8        49.939                                    20927228.630 8  85693699.87108     -1971.302 8        51.146    20927229.094 7  85693701.86707     -1971.253 7        45.291
G14        11.000    25127223.779 6 132044464.04006      2194.026 6        37.138                                    25127220.853 3 102891784.63303      1709.624 3        20.095    25127221.865 6 102891788.60606      1709.874 6        37.913
G32        12.000    23113977.131 7 121464790.30007      2159.904 7        45.201                                    23113976.381 7  94647886.63907      1683.040 7        42.263    23113976.351 6  94647859.63806      1683.009 6        41.905
S36        14.000    38269331.840 7 201107210.69707      -384.307 7        43.879
C13        15.000                                                                                                                                    39476737.523 6 205565784.13206     -1410.828 6        40.195    39476739.057 6 158956537.34506     -1091.044 6        41.602    39476736.879 6 167039060.28706     -1146.432 6        39.643
E27        18.000    25385443.616 7 133401426.03307     -1294.452 7        44.608                                                                    25385443.553 7  99617952.30407      -966.639 7        47.400    25385443.092 7 102216678.71707      -991.906 7        47.993
E05        20.000    24269682.986 7 127538065.08407      1090.662 7        43.107                                                                    24269683.499 7  95239467.35907       814.558 7        46.224    24269683.081 7  97723977.48807       835.773 7        46.971
R11        21.000    22958080.238 7 122681027.54607     -3884.793 7        45.664                                                                    22958079.160 6  95418577.83706     -3021.607 6        40.508
I06        22.000    38583483.420 6 151410103.63006      -191.157 6        40.913
E03        23.000    27259679.781 6 143250582.53306      2665.485 6        40.355                                                                    27259680.455 7 106972861.58207      1990.561 7        43.712    27259680.152 7 109763455.15607      2042.409 7        43.928
R22        24.000    23487291.886 7 125376767.49107      3032.433 7        44.758                                                                    23487289.785 6  97515271.22306      2358.505 6        40.882
S23        25.000    38226631.659 7 200882286.80707      -383.591 7        44.116
S45        26.000    63478558.349 6 333583093.78406      -427.463 6        37.490
G02        27.000    23269271.627 7 122280882.15907      2107.023 7        43.827                                    23269265.807 4  95283791.03604      1641.835 4        29.924
S27        28.000    39202675.905 6 206011488.82906      -352.734 6        36.306
C38        29.000                                                                                                                                    41635423.179 3                     -1535.725 3        22.457                                                                    41635422.036 4                     -1248.085 4        24.105
E21        30.000    27428493.779 6 144137716.05806      1321.593 6        38.823                                                                    27428494.403 7 107635312.97307       986.965 7        42.882    27428493.890 7 110443187.16107      1012.681 7        43.141
C43        31.000                                                                                                                                    21884001.567 8 113955845.29508     -1471.947 8        51.179                                                                    21884000.113 8  92598501.28608     -1196.084 8        49.621
C42        32.000                                                                                                                                    22486648.516 8 117093902.41608      -248.901 8        50.155                                                                    22486655.878 8  95148429.48708      -202.293 8        50.233
C28        33.000                                                                                                                                    23044027.431 7 119996301.76607      1809.931 7        47.901                                                                    23044026.519 7  97506824.03207      1470.691 7        47.071
R13        34.000    24153036.460 6 128975879.24106      2237.529 6        36.072
E34        35.000    23971350.657 7 125970503.77507     -1513.660 7        47.677                                                                    23971350.491 8  94068993.38908     -1130.256 8        50.098    23971350.336 8  96522955.93208     -1159.803 8        51.054
C14        36.000                                                                                                                                    22677125.374 7 118085752.36207      1473.810 7        47.940    22677121.248 8  91311380.86108      1139.661 8        50.888    22677120.109 8  95954324.24408      1197.566 8        48.873
R21        37.000    19868157.655 8 106318578.80708      1087.759 8        51.702                                                                    19868156.283 7  82692248.92107       846.071 7        46.067
R06        38.000    21477867.959 6 114610039.20206      3533.784 6        40.675
R05        39.000    20146498.394 8 107694603.14308     -1042.824 8        51.104                                                                    20146497.177 7  83762478.52707      -811.079 7        47.395
C27        40.000                                                                                                                                    26895604.426 6 140052469.42206      2641.346 6        38.168                                                                    26895605.715 6 113804110.24406      2146.191 6        36.575
R04        41.000    23074205.463 7 123561343.63107     -4178.870 7        45.717                                                                    23074202.312 6  96103274.14506     -3250.259 6        38.396
S44        42.000    40536885.595 6 213022967.96206      -405.532 6        37.611
G08        43.000    20330777.519 8 106839049.89808      -152.372 8        50.219                                    20330775.390 8  83251248.70808      -118.732 8        50.948    20330776.289 7  83251246.71707      -118.737 7        45.481
C05        44.000                                                                                                                                    39240597.413 6 204336118.69806      -331.212 6        38.667    39240592.568 7 158005672.23307      -256.309 7        43.374    39240594.021 6 166039937.22206      -269.429 6        40.079
C11        45.000                                                                                                                                    23051001.092 7 120032750.96907     -2405.984 7        46.192    23050997.949 8  92816996.92908     -1860.578 8        50.392    23050996.528 7  97536481.58807     -1955.191 7        47.841
E09        46.000    27280632.571 6 143360714.57506     -1520.693 6        40.305                                                                    27280632.095 6 107055091.18106     -1135.552 6        41.364    27280632.226 7 109847829.61907     -1165.120 7        42.912
C33        47.000                                                                                                                                    24070142.355 7 125339564.40507      2678.375 7        47.074                                                                    24070154.089 7 101848718.85607      2176.329 7        46.855
C21        48.000                                                                                                                                    25079892.428 7 130597610.82807     -2954.600 7        43.765                                                                    25079887.721 7 106121243.86507     -2400.901 7        44.579
E06        49.000    28499004.971 5 149763292.52605     -2401.800 5        35.357                                                                    28499006.533 6 111836226.53606     -1793.712 6        39.877    28499006.426 6 114753690.93406     -1840.456 6        40.207
S48        51.000    77250816.680 6 405956646.87506      -414.212 6        37.289
C08        52.000                                                                                                                                    40144690.870 5 209044045.74605     -1580.090 5        35.062    40144685.160 6 161646145.78506     -1221.799 6        39.640    40144684.867 6 169865428.47306     -1283.920 6        36.991
C34        53.000                                                                                                                                    24921605.907 7 129773609.13307     -3209.610 7        43.814                                                                    24921605.751 7 105451801.88107     -2607.976 7        43.869
C60        54.000                                                                                                                                    40536888.093 6 211086414.95806      -401.814 6        39.787                                                                    40536871.956 6 171524972.10406      -326.484 6        39.787
R12        55.000    22435334.526 7 119845523.79507      -448.818 7        47.027                                                                    22435335.069 7  93213186.42207      -349.177 7        42.563
I09        56.000    37797524.368 7 148325631.11907       202.789 7        43.702
C02        57.000                                                                                                                                    40593890.798 5 211383086.34705      -355.385 5        33.838    40593884.692 6 163454804.03406      -274.757 6        39.970    40593888.180 6 171766075.31306      -288.949 6        36.159
I03        58.000    79259634.595 6 235246584.42506      1099.574 6        40.465
E30        59.000    26726486.601 7 140448842.53307     -3318.914 7        42.409                                                                    26726486.712 7 104880745.87307     -2478.336 7        44.460    26726486.490 7 107616748.97807     -2543.128 7        45.059
R20        60.000    20552025.152 6 109901122.13506     -2323.756 6        37.713                                                                    20552027.193 7  85478719.49207     -1807.471 7        46.607
> 2025 01 02 21 30 40.0000000  0 54
G23         1.000    23424550.908 6 123096924.17006     -3618.839 6        40.751                                    23424547.379 4  95919702.96204     -2819.880 4        26.204    23424547.846 6  95919700.95206     -2819.851 6        41.480
C37         2.000                                                                                                                                    26368259.643 6 137306434.51206     -2521.092 6        39.237                                                                    26368263.614 6 111572744.28806     -2048.401 6        40.849
G16         3.000    25193991.808 6 132395498.16706     -4117.194 6        37.059                                    25193988.193 2 103165401.23002     -3208.191 2        17.094
G21         4.000    21468866.329 7 112819711.74107      1241.990 7        43.615                                    21468861.464 5  87911468.10605       967.782 5        33.665
S21         5.000    38501137.708 7 202324531.23507      -384.954 7        42.169
E13         6.000    28002103.950 6 147152066.58706      2016.006 6        37.331                                                                    28002105.840 6 109886302.83306      1505.489 6        39.700    28002105.127 6 112752898.07406      1544.750 6        40.219
G10         7.000    21043332.157 8 110583524.22408     -1628.899 8        50.280                                    21043330.174 8  86168996.52908     -1269.273 8        51.841    21043330.216 7  86168990.52607     -1269.184 7        45.770
E15         8.000    24051384.258 7 126390986.91007       772.223 7        47.809                                                                    24051384.994 8  94382947.94508       576.599 8        50.483    24051384.565 8  96845099.66608       591.647 8        51.201
E36         9.000    27865869.354 6 146436307.98906     -2779.240 6        37.478                                                                    27865871.766 6 109351926.74906     -2075.496 6        41.585    27865871.105 6 112204573.58306     -2129.603 6        41.418
G27        10.000    20929638.888 8 109986146.20608     -2532.341 8        49.873                                    20929636.814 8  85703560.95108     -1973.253 8        51.216    20929637.227 7  85703562.95207     -1973.265 7        45.506
G14        11.000    25125137.002 6 132033497.29006      2192.146 6        36.609                                    25125134.046 3 102883239.11903      1708.164 3        19.970    25125134.540 6 102883243.12306      1708.153 6        38.363
G32        12.000    23111922.748 7 121453994.88107      2157.986 7        44.503                                    23111921.952 7  94639474.62207      1681.544 7        42.095    23111922.264 7  94639447.63207      1681.480 7        42.047
S36        14.000    38269696.885 7 201109131.55407      -384.334 7        43.983
C13        15.000                                                                                                                                    39478092.118 6 205572838.26906     -1410.991 6        40.033    39478093.654 6 158961992.04606     -1091.020 6        41.614    39478091.685 6 167044792.31906     -1146.311 6        39.649
E27        18.000    25386676.441 7 133407903.56607     -1296.781 7        44.789                                                                    25386676.280 7  99622789.42007      -968.421 7        47.347    25386675.782 8 102221642.01708      -993.697 8        48.142
E05        20.000    24268646.298 7 127532616.24007      1088.506 7        43.263                                                                    24268646.660 7  95235398.42707       812.887 7        46.318    24268646.202 7  97719802.40507       834.044 7        47.154
R11        21.000    22961715.450 7 122700455.94907     -3886.765 7        44.542                                                                    22961714.591 6  95433688.78706     -3023.151 6        40.367
I06        22.000    38583726.907 6 151411059.35406      -191.259 6        40.958
E03        23.000    27257143.856 6 143237255.07106      2665.093 6        40.479                                                                    27257144.384 7 106962909.27007      1990.152 7        43.575    27257143.948 7 109753243.20407      2042.164 7        44.051
R22        24.000    23484450.723 7 125361605.23307      3032.289 7        44.597                                                                    23484449.958 6  97503478.36706      2358.353 6        40.815
S23        25.000    38226996.941 7 200884204.26207      -383.617 7        44.269
S45        26.000    63478919.965 6 333585230.08206      -427.382 6        37.611
G02        27.000    23267267.304 7 122270348.54407      2106.115 7        43.270                                    23267261.291 5  95275583.02705      1641.135 5        30.008
S27        28.000    39203010.445 6 206013251.88606      -352.798 6        36.079
E21        30.000    27427237.082 6 144131112.35806      1319.594 6        39.240                                                                    27427237.676 7 107630381.64207       985.425 7        42.980    27427237.241 7 110438127.17207      1011.154 7        43.325
C43        31.000                                                                                                                                    21885415.762 8 113963209.08608     -1473.795 8        51.302                                                                    21885414.211 8  92604484.95108     -1197.380 8        49.818
C42        32.000                                                                                                                                    22486888.958 8 117095153.74308      -251.892 8        50.296                                                                    22486896.194 8  95149446.27808      -204.511 8        50.266
C28        33.000                                                                                                                                    23042290.054 8 119987254.09208      1808.860 8        48.031                                                                    23042289.031 7  97499472.03707      1469.990 7        47.181
R13        34.000    24150944.273 6 128964698.86806      2234.177 6        36.843
E34        35.000    23972791.056 7 125978073.32707     -1514.571 7        47.867                                                                    23972790.875 8  94074645.98008     -1130.970 8        50.033    23972790.790 8  96528755.97908     -1160.511 8        51.101
C14        36.000                                                                                                                                    22675710.686 7 118078388.72207      1471.363 7        47.912    22675707.509 8  91305686.83008      1137.780 8        51.004    22675705.970 8  95948340.66308      1195.838 8        48.994
R21        37.000    19867142.265 8 106313144.27008      1085.808 8        51.916                                                                    19867141.133 7  82688022.06307       844.551 7        46.454
R06        38.000    21474558.102 6 114592375.08806      3531.507 6        40.543
R05        39.000    20147475.316 8 107699828.21108     -1047.547 8        51.012                                                                    20147474.864 7  83766542.47607      -814.698 7        47.317
C27        40.000                                                                                                                                    26893068.498 6 140039262.04306      2641.365 6        37.856                                                                    26893069.528 6 113793378.08706      2146.641 6        36.900
R04        41.000    23078108.250 7 123582242.78407     -4181.100 7        45.941                                                                    23078106.243 6  96119529.02606     -3251.945 6        38.814
S44        42.000    40537272.573 6 213024994.73506      -405.540 6        37.327
G08        43.000    20330923.781 8 106839818.57408      -155.413 8        50.162                                    20330921.666 8  83251847.67808      -121.100 8        51.021    20330922.690 7  83251845.68107      -121.082 7        45.998
C05        44.000                                                                                                                                    39240915.493 6 204337775.20006      -331.555 6        38.742    39240910.536 7 158006953.13707      -256.329 7        43.443    39240911.975 6 166041283.23706      -269.123 6        40.234
C11        45.000                                                                                                                                    23053311.660 7 120044783.97807     -2407.422 7        46.208    23053308.688 8  92826301.60408     -1861.545 8        50.586    23053307.275 7  97546259.36407     -1956.007 7        47.980
E09        46.000    27282080.545 6 143368322.87106     -1522.970 6        40.176                                                                    27282079.995 6 107060772.71106     -1137.268 6        41.254    27282080.097 7 109853659.36207     -1166.928 7        43.024
C33        47.000                                                                                                                                    24067570.811 7 125326175.58207      2676.816 7        46.730                                                                    24067582.979 7 101837839.32807      2175.287 7        46.966
C21        48.000                                                                                                                                    25082730.276 7 130612387.58707     -2956.427 7        44.020                                                                    25082725.462 7 106133251.16607     -2402.113 7        44.798
E06        49.000    28501291.054 5 149775305.78705     -2403.857 5        35.862                                                                    28501292.639 6 111845197.47406     -1794.986 6        39.622    28501292.267 6 114762895.88806     -1841.792 6        40.260
S48        51.000    77251188.598 6 405958717.53106      -414.316 6        37.282
C08        52.000                                                                                                                                    40146208.737 5 209051945.41305     -1580.110 5        35.605    40146202.112 6 161652254.31606     -1221.879 6        39.607    40146201.871 6 169871847.60306     -1283.728 6        36.798
C34        53.000                                                                                                                                    24924688.205 7 129789658.51507     -3210.362 7        43.562                                                                    24924687.802 7 105464843.30907     -2608.644 7        43.896
C60        54.000                                                                                                                                    40537273.918 6 211088423.29306      -401.795 6        40.010                                                                    40537257.575 6 171526604.02706      -326.263 6        39.913
R12        55.000    22435756.851 7 119847777.79907      -453.153 7        47.258                                                                    22435757.341 7  93214939.53407      -352.402 7        43.242
I09        56.000    37797265.791 7 148324617.06307       202.592 7        43.962
C02        57.000                                                                                                                                    40594231.581 5 211384863.27805      -355.539 5        33.844    40594225.484 6 163456178.06006      -274.796 6        40.067    40594229.530 6 171767519.20006      -288.757 6        36.393
I03        58.000    79258233.953 6 235241086.36606      1099.362 6        40.539
E30        59.000    26729644.639 7 140465438.29007     -3319.649 7        42.301                                                                    26729644.827 7 104893138.80507     -2479.021 7        44.625    26729644.445 7 107629465.19507     -2543.598 7        45.017
R20        60.000    20554197.692 6 109912745.38706     -2325.948 6        37.108                                                                    20554200.719 7  85487759.79007     -1808.946 7        46.769
> 2025 01 02 21 30 45.0000000  0 54
G23         1.000    23427994.494 6 123115019.66406     -3619.568 6        41.170                                    23427991.123 4  95933803.34204     -2820.435 4        26.299    23427991.009 6  95933801.33706     -2820.325 6        41.294
C37         2.000                                                                                                                                    26370680.048 6 137319042.33506     -2522.136 6        40.303                                                                    26370684.779 6 111582989.18606     -2049.466 6        40.830
G16         3.000    25197908.887 6 132416082.42506     -4116.723 6        37.524                                    25197905.245 2 103181440.90502     -3207.839 2        17.283
G21         4.000    21467684.733 7 112813504.31707      1240.838 7        43.945                                    21467680.227 5  87906631.15805       966.884 5        33.641
S21         5.000    38501500.996 6 202326455.38206      -384.595 6        41.943
E13         6.000    28000185.555 6 147141986.24506      2015.990 6        37.527                                                                    28000187.223 6 109878775.31906      1505.601 6        39.886    28000186.752 6 112745174.18906      1544.803 6        39.859
G10         7.000    21044882.798 8 110591673.76408     -1630.980 8        50.617                                    21044880.982 8  86175346.81708     -1270.893 8        51.860    21044881.088 7  86175340.82407     -1271.016 7        45.801
E15         8.000    24050649.926 8 126387127.42308       771.534 8        48.001                                                                    24050650.549 8  94380065.86208       576.117 8        50.590    24050650.104 8  96842142.40208       591.150 8        51.045
E36         9.000    27868513.639 6 146450203.45706     -2779.181 6        37.569                                                                    27868515.959 6 109362303.22806     -2075.324 6        41.700    27868515.278 6 112215220.75006     -2129.415 6        41.266
G27        10.000    20932049.594 8 109998813.52608     -2534.596 8        50.036                                    20932047.340 8  85713431.58908     -1975.009 8        51.254    20932047.776 7  85713433.59407     -1975.024 7        45.297
G14        11.000    25123052.243 6 132022540.67706      2190.420 6        36.533                                    25123048.843 3 102874701.49903      1706.812 3        19.701    25123048.527 6 102874705.49706      1706.791 6        37.301
G32        12.000    23109870.341 7 121443208.66507      2156.358 7        44.733                                    23109869.330 7  94631069.78507      1680.278 7        42.049    23109869.717 7  94631042.79107      1680.285 7        42.182
S36        14.000    38270062.279 7 201111051.81207      -384.001 7        44.006
C13        15.000                                                                                                                                    39479446.293 6 205579891.78606     -1410.472 6        39.538    39479447.986 6 158967446.27306     -1090.824 6        41.952    39479446.139 6 167050523.89106     -1146.208 6        39.955
E27        18.000    25387911.189 7 133414392.65307     -1298.980 7        44.795                                                                    25387911.052 7  99627635.17007      -969.967 7        47.395    25387910.616 7 102226614.17907      -995.290 7        47.964
E05        20.000    24267611.164 7 127527177.65507      1086.730 7        43.598                                                                    24267611.687 7  95231337.14907       811.573 7        46.236    24267611.218 7  97715635.18307       832.745 7        46.978
R11        21.000    22965353.130 7 122719893.71907     -3888.478 7        45.251                                                                    22965352.893 6  95448807.07506     -3024.291 6        40.880
I06        22.000    38583970.323 6 151412014.84406      -191.145 6        40.911
E03        23.000    27254607.636 6 143223928.85606      2665.258 6        40.215                                                                    27254608.384 7 106952957.88407      1990.201 7        43.655    27254608.026 7 109743032.22007      2042.135 7        43.831
R22        24.000    23481609.467 7 125346443.10107      3032.429 7        44.661                                                                    23481610.099 6  97491685.61606      2358.672 6        41.189
S23        25.000    38227362.688 7 200886121.59907      -383.379 7        44.203
S45        26.000    63479279.009 6 333587366.16206      -427.079 6        37.418
G02        27.000    23265263.158 7 122259818.39307      2105.747 7        44.035                                    23265257.338 4  95267377.71504      1640.839 4        29.934
S27        28.000    39203343.388 6 206015014.79006      -352.507 6        36.087
E21        30.000    27425982.657 6 144124518.35306      1317.820 6        39.258                                                                    27425982.743 7 107625457.53907       984.207 7        42.982    27425982.444 7 110433074.62807      1009.800 7        43.134
C43        31.000                                                                                                                                    21886831.670 8 113970581.67408     -1475.352 8        51.209                                                                    21886830.061 8  92610475.78308     -1198.805 8        49.746
C42        32.000                                                                                                                                    22487131.889 8 117096419.35208      -254.466 8        50.134                                                                    22487139.242 8  95150474.68608      -206.727 8        50.339
C28        33.000                                                                                                                                    23040553.596 8 119978211.22908      1808.136 8        48.054                                                                    23040552.437 7  97492123.96907      1469.354 7        47.221
R13        34.000    24148853.424 5 128953534.07005      2231.366 5        35.719
E34        35.000    23974232.313 7 125985647.03607     -1515.109 7        47.983                                                                    23974232.133 8  94080301.67008     -1131.390 8        50.106    23974232.063 8  96534559.21608     -1160.931 8        51.012
C14        36.000                                                                                                                                    22674299.304 7 118071037.26007      1469.145 7        47.891    22674295.589 8  91300002.21008      1136.026 8        50.745    22674294.301 8  95942366.99508      1193.808 8        48.984
R21        37.000    19866128.245 8 106307719.07508      1084.161 8        51.907                                                                    19866127.159 7  82683802.47807       843.225 7        46.219
R06        38.000    21471250.425 6 114574722.09806      3529.598 6        41.104
R05        39.000    20148457.505 8 107705076.43908     -1051.867 8        51.613                                                                    20148456.188 7  83770624.41907      -818.189 7        46.794
C27        40.000                                                                                                                                    26890531.860 6 140026053.57306      2641.817 6        37.947                                                                    26890533.092 6 113782645.13806      2146.794 6        36.809
R04        41.000    23082012.326 7 123603152.34907     -4182.860 7        45.467                                                                    23082010.484 6  96135792.02906     -3253.322 6        38.559
S44        42.000    40537654.705 6 213027021.46006      -405.252 6        37.285
G08        43.000    20331072.790 8 106840601.85008      -158.003 8        50.251                                    20331070.714 8  83252458.02608      -123.119 8        51.032    20331071.863 7  83252456.03007      -123.139 7        45.761
C05        44.000                                                                                                                                    39241233.367 6 204339431.57006      -331.083 6        38.739    39241228.625 7 158008233.96107      -256.158 7        43.640    39241230.189 6 166042629.17906      -269.063 6        40.095
C11        45.000                                                                                                                                    23055623.533 7 120056823.40307     -2408.441 7        46.085    23055620.567 8  92835611.25708     -1862.366 8        50.454    23055619.285 7  97556042.38407     -1957.005 7        47.880
E09        46.000    27283530.297 6 143375942.35706     -1525.020 6        40.164                                                                    27283530.028 6 107066462.58006     -1138.709 6        41.409    27283530.129 7 109859497.67307     -1168.435 7        42.815
C33        47.000                                                                                                                                    24065001.442 7 125312793.73207      2675.751 7        47.206                                                                    24065013.139 7 101826965.48507      2174.274 7        47.004
C21        48.000                                                                                                                                    25085569.820 7 130627172.74407     -2957.826 7        44.056                                                                    25085564.714 7 106145265.32107     -2403.396 7        44.628
E06        49.000    28503578.973 5 149787327.27005     -2405.159 5        35.943                                                                    28503580.202 6 111854174.51806     -1795.950 6        39.381    28503579.802 6 114772107.13006     -1842.790 6        39.700
S48        51.000    77251561.800 6 405960787.84006      -414.096 6        37.361
C08        52.000                                                                                                                                    40147726.138 6 209059844.14306     -1579.563 6        36.276    40147719.204 6 161658362.12806     -1221.397 6        39.486    40147718.825 6 169878265.96906     -1283.484 6        37.096
C34        53.000                                                                                                                                    24927770.760 7 129805711.54407     -3210.899 7        43.084                                                                    24927770.711 7 105477887.70507     -2609.186 7        43.960
C60        54.000                                                                                                                                    40537659.573 6 211090431.59806      -401.552 6        39.733                                                                    40537643.298 6 171528235.95406      -326.302 6        39.772
R12        55.000    22436182.213 7 119850053.41407      -457.241 7        46.943                                                                    22436183.627 7  93216709.46407      -355.639 7        43.655
I09        56.000    37797007.553 7 148323604.05707       202.604 7        43.845
C02        57.000                                                                                                                                    40594572.980 5 211386640.17205      -355.621 5        33.731    40594566.758 6 163457552.06806      -274.804 6        39.982    40594570.733 6 171768963.05306      -288.792 6        36.764
I03        58.000    79256832.650 6 235235588.36606      1099.604 6        40.589
E30        59.000    26732803.309 7 140482037.66707     -3320.188 7        42.258                                                                    26732803.688 7 104905534.43307     -2479.346 7        44.515    26732803.154 7 107642184.19407     -2544.096 7        44.978
R20        60.000    20556373.685 6 109924377.84606     -2327.429 6        37.607                                                                    20556375.846 7  85496807.27607     -1810.208 7        46.402
> 2025 01 02 21 30 50.0000000  0 54
G23         1.000    23431438.761 6 123133118.96506     -3620.404 6        41.349                                    23431435.328 4  95947906.69004     -2821.097 4        26.204    23431434.704 6  95947904.69706     -2821.193 6        41.037
C37         2.000                                                                                                                                    26373103.291 6 137331656.38506     -2523.624 6        40.827                                                                    26373107.060 6 111593239.15406     -2050.796 6        40.543
G16         3.000    25201824.922 6 132436663.93006     -4116.263 6        37.943                                    25201821.564 2 103197478.42402     -3207.518 2        17.811
G21         4.000    21466505.268 7 112807303.28007      1239.522 7        44.126                                    21466500.211 5  87901799.18305       965.859 5        33.778
S21         5.000    38501869.851 6 202328378.41206      -384.496 6        41.883
E13         6.000    27998267.070 6 147131905.83706      2015.862 6        37.406                                                                    27998268.864 6 109871247.74106      1505.421 6        39.447    27998268.457 6 112737450.24706      1544.664 6        40.029
G10         7.000    21046435.933 8 110599834.59308     -1633.428 8        50.505                                    21046433.936 8  86181705.91008     -1272.800 8        51.914    21046434.057 7  86181699.90407     -1272.805 7        46.405
E15         8.000    24049916.120 7 126383271.50107       770.757 7        47.725                                                                    24049916.774 8  94377186.43908       575.530 8        50.501    24049916.337 8  96839187.86208       590.552 8        51.101
E36         9.000    27871158.060 6 146464098.44706     -2778.910 6        37.112                                                                    27871160.106 6 109372679.34906     -2075.167 6        41.602    27871159.224 6 112225867.56706     -2129.384 6        41.156
G27        10.000    20934462.249 8 110011492.33808     -2537.075 8        49.630                                    20934460.058 8  85723311.18208     -1976.940 8        51.288    20934460.342 7  85723313.18807     -1976.966 7        45.448
G14        11.000    25120969.724 6 132011593.46706      2188.371 6        37.671                                    25120965.675 3 102866171.21803      1705.225 3        19.881    25120965.541 6 102866175.21406      1705.287 6        37.577
G32        12.000    23107819.572 7 121432430.89307      2154.697 7        45.083                                    23107818.389 7  94622671.53207      1678.984 7        42.229    23107818.744 7  94622644.54007      1678.908 7        42.370
S36        14.000    38270428.997 7 201112970.58907      -383.742 7        43.740
C13        15.000                                                                                                                                    39480800.747 6 205586943.91506     -1410.432 6        39.550    39480802.230 6 158972899.42906     -1090.642 6        41.888    39480800.422 6 167056254.31206     -1146.044 6        39.871
E27        18.000    25389148.056 7 133420892.57107     -1301.190 7        44.900                                                                    25389147.948 7  99632489.00107      -971.591 7        47.334    25389147.548 8 102231594.63408      -997.060 8        48.060
E05        20.000    24266578.318 7 127521748.59307      1084.711 7        43.566                                                                    24266578.600 7  95227282.98907       809.962 7        46.257    24266578.212 7  97711475.26007       831.137 7        46.869
R11        21.000    22968992.382 7 122739340.07807     -3890.176 7        45.293                                                                    22968992.847 6  95463931.99306     -3025.736 6        41.850
I06        22.000    38584213.815 6 151412969.52206      -190.973 6        40.851
E03        23.000    27252071.682 6 143210603.15706      2664.971 6        40.002                                                                    27252072.560 7 106943006.88507      1990.020 7        43.509    27252072.200 7 109732821.62607      2042.041 7        43.748
R22        24.000    23478769.041 7 125331280.32907      3032.476 7        44.641                                                                    23478769.647 6  97479892.39506      2358.619 6        40.830
S23        25.000    38227726.138 7 200888037.98407      -383.216 7        44.179
S45        26.000    63479640.880 6 333587901.25916      -426.956 6        37.251
G02        27.000    23263260.219 7 122249290.94607      2105.137 7        44.471                                    23263254.055 5  95259174.51405      1640.368 5        30.030
S27        28.000    39203682.655 6 206016776.44606      -352.199 6        36.030
E21        30.000    27424729.465 6 144117933.31506      1316.112 6        39.360                                                                    27424729.677 7 107620540.13507       982.724 7        42.853    27424729.345 7 110428028.93907      1008.303 7        43.071
C43        31.000                                                                                                                                    21888248.940 8 113977962.33608     -1477.019 8        51.276                                                                    21888247.414 8  92616473.17408     -1200.203 8        49.661
C42        32.000                                                                                                                                    22487377.319 8 117097698.50608      -257.235 8        50.146                                                                    22487384.888 8  95151514.10208      -209.038 8        50.292
C28        33.000                                                                                                                                    23038817.764 8 119969172.45808      1807.200 8        48.284                                                                    23038816.543 7  97484779.22907      1468.584 7        47.111
R13        34.000    24146765.955 6 128942384.18906      2228.117 6        36.473
E34        35.000    23975674.230 7 125993224.15807     -1515.849 7        47.890                                                                    23975673.993 8  94085959.91108     -1131.944 8        50.053    23975673.921 8  96540365.05808     -1161.514 8        51.175
C14        36.000                                                                                                                                    22672890.352 8 118063697.23808      1466.747 8        48.160    22672885.751 8  91294326.44908      1134.214 8        50.834    22672884.761 8  95936402.62808      1191.903 8        48.912
R21        37.000    19865115.871 8 106302302.52208      1082.373 8        51.776                                                                    19865114.479 7  82679589.60907       841.832 7        46.142
R06        38.000    21467943.877 6 114557079.37906      3527.503 6        40.288
R05        39.000    20149443.539 8 107710346.59708     -1056.385 8        51.322                                                                    20149442.706 7  83774723.42807      -821.572 7        47.137
C27        40.000                                                                                                                                    26887995.015 6 140012843.31606      2642.113 6        37.864                                                                    26887996.041 6 113771910.71306      2146.765 6        37.172
R04        41.000    23085918.245 7 123624071.42007     -4184.811 7        45.332                                                                    23085916.688 6  96152062.44706     -3254.893 6        38.396
S44        42.000    40538043.034 6 213029047.39706      -405.153 6        37.081
G08        43.000    20331224.241 8 106841399.02908      -160.968 8        50.336                                    20331222.418 8  83253079.20508      -125.431 8        51.141    20331223.296 7  83253077.20807      -125.394 7        45.965
C05        44.000                                                                                                                                    39241551.693 6 204341087.10106      -331.158 6        38.796    39241546.709 7 158009514.12707      -256.090 7        43.367    39241548.099 6 166043974.43706      -269.094 6        40.236
C11        45.000                                                                                                                                    23057936.712 7 120068868.49407     -2409.652 7        46.565    23057933.375 8  92844925.28908     -1863.314 8        50.194    23057932.445 7  97565830.01607     -1958.134 7        47.735
E09        46.000    27284982.295 6 143383572.24706     -1527.102 6        39.643                                                                    27284981.858 6 107072160.23406     -1140.363 6        41.330    27284981.883 7 109865343.95007     -1170.080 7        42.844
C33        47.000                                                                                                                                    24062432.596 7 125299418.14207      2674.334 7        47.120                                                                    24062444.419 7 101816096.73007      2173.079 7        46.839
C21        48.000                                                                                                                                    25088410.709 7 130641965.56807     -2959.448 7        44.301                                                                    25088405.375 7 106157285.70507     -2404.802 7        44.453
E06        49.000    28505868.402 5 149799356.25705     -2406.731 5        35.952                                                                    28505869.317 6 111863157.19706     -1797.308 6        39.360    28505868.889 6 114781324.13606     -1844.080 6        39.622
S48        51.000    77251931.286 6 405962857.47306      -413.974 6        37.195
C08        52.000                                                                                                                                    40149242.879 6 209067741.11906     -1579.283 6        36.605    40149235.732 6 161664468.57606     -1221.226 6        39.258    40149235.390 6 169884682.93206     -1283.432 6        36.922
C34        53.000                                                                                                                                    24930853.830 7 129821767.46207     -3211.629 7        43.048                                                                    24930854.136 7 105490934.44207     -2609.771 7        43.953
C60        54.000                                                                                                                                    40538045.205 6 211092439.11006      -401.488 6        39.832                                                                    40538028.792 6 171529867.22606      -326.337 6        39.862
R12        55.000    22436612.621 7 119852349.85907      -461.492 7        47.179                                                                    22436613.492 7  93218495.57807      -358.924 7        43.875
I09        56.000    37796749.632 7 148322591.61007       202.301 7        43.704
C02        57.000                                                                                                                                    40594914.460 5 211388416.21105      -354.961 5        33.844    40594908.063 6 163458925.44006      -274.718 6        40.060    40594911.631 6 171770406.26706      -288.830 6        36.435
I03        58.000    79255431.127 6 235230089.88106      1099.548 6        40.374
E30        59.000    26735962.371 7 140498639.90807     -3320.878 7        42.182                                                                    26735962.874 7 104917932.20907     -2479.870 7        44.507    26735962.592 7 107654905.38907     -2544.573 7        45.070
R20        60.000    20558551.547 6 109936018.72006     -2328.907 6        37.769                                                                    20558552.719 7  85505861.26507     -1811.611 7        46.010
> 2025 01 02 21 30 55.0000000  0 54
G23         1.000    23434883.846 6 123151222.70506     -3620.833 6        41.383                                    23434880.181 4  95962013.50204     -2821.432 4        26.096    23434879.537 6  95962011.50006     -2821.354 6        40.405
C37         2.000                                                                                                                                    26375526.814 6 137344277.29806     -2524.537 6        40.331                                                                    26375530.834 6 111603494.68206     -2051.396 6        40.331
G16         3.000    25205740.983 6 132457243.45706     -4115.419 6        38.465                                    25205737.650 2 103213514.41302     -3206.811 2        17.924
G21         4.000    21465326.730 7 112801109.24807      1238.505 7        44.411                                    21465321.527 5  87896972.66605       965.072 5        33.742
S21         5.000    38502235.031 6 202330301.18006      -384.207 6        41.862
E13         6.000    27996349.039 6 147121825.97706      2016.356 6        37.127                                                                    27996350.733 6 109863720.60006      1505.496 6        39.360    27996350.425 6 112729726.72506      1544.872 6        40.029
G10         7.000    21047991.101 8 110608007.34908     -1635.444 8        50.814                                    21047989.166 8  86188074.28708     -1274.373 8        51.851    21047989.163 7  86188068.28707     -1274.310 7        46.141
E15         8.000    24049183.211 7 126379419.78907       770.250 7        47.933                                                                    24049183.855 8  94374310.15808       575.215 8        50.580    24049183.377 8  96836236.55208       590.195 8        51.123
E36         9.000    27873801.969 6 146477993.64406     -2778.824 6        36.805                                                                    27873804.401 6 109383055.62906     -2074.991 6        41.847    27873803.249 6 112236514.52206     -2129.045 6        41.075
G27        10.000    20936877.043 8 110024183.29408     -2539.081 8        50.024                                    20936875.101 8  85733200.23608     -1978.505 8        51.237    20936875.549 7  85733202.23207     -1978.496 7        45.941
G14        11.000    25118888.003 6 132000656.32606      2186.788 6        39.036                                    25118884.345 3 102857648.78103      1703.987 3        20.238    25118884.806 6 102857652.77206      1704.020 6        37.720
G32        12.000    23105770.425 7 121421662.24307      2153.168 7        45.377                                    23105769.160 7  94614280.38207      1677.794 7        42.154    23105769.261 6  94614253.38206      1677.782 6        41.981
S36        14.000    38270790.926 7 201114889.36907      -383.378 7        43.810
C13        15.000                                                                                                                                    39482154.637 6 205593995.39406     -1409.905 6        39.357    39482156.296 6 158978352.08306     -1090.272 6        41.585    39482154.727 6 167061984.22806     -1145.651 6        39.679
E27        18.000    25390386.899 7 133427403.94307     -1303.036 7        44.796                                                                    25390387.104 7  99637351.39507      -973.065 7        47.395    25390386.623 8 102236583.87508      -998.527 8        48.085
E05        20.000    24265546.924 7 127516329.70607      1083.119 7        43.338                                                                    24265547.435 7  95223236.42307       808.817 7        46.366    24265547.021 7  97707323.13107       829.897 7        47.005
R11        21.000    22972633.256 7 122758795.69107     -3891.702 7        45.491                                                                    22972632.735 6  95479064.12506     -3026.840 6        41.619
I06        22.000    38584456.467 6 151413923.90306      -190.476 6        40.953
E03        23.000    27249536.067 6 143197278.63306      2665.002 6        39.931                                                                    27249537.013 7 106933056.75907      1990.227 7        43.608    27249536.603 7 109722611.93607      2042.098 7        43.932
R22        24.000    23475928.714 7 125316117.55907      3032.828 7        44.641                                                                    23475928.551 6  97468099.14606      2358.842 6        40.265
S23        25.000    38228091.125 7 200889954.04507      -382.800 7        44.087
S45        26.000    63480006.127 6 333590036.11206      -426.509 6        37.501
G02        27.000    23261257.135 7 122238766.84207      2104.808 7        44.140                                    23261251.403 5  95250973.90905      1640.112 5        30.113
S27        28.000    39204018.044 5 206018538.07005      -351.847 5        35.738
E21        30.000    27423478.148 6 144111357.88706      1314.451 6        39.357                                                                    27423478.576 7 107615629.92007       981.614 7        42.940    27423478.043 7 110422990.63507      1007.119 7        43.230
C43        31.000                                                                                                                                    21889668.096 8 113985351.70008     -1478.385 8        50.943                                                                    21889666.480 8  92622477.64508     -1201.316 8        49.504
C42        32.000                                                                                                                                    22487625.787 8 117098991.83808      -259.751 8        49.588                                                                    22487633.248 8  95152565.04708      -211.035 8        50.129
C28        33.000                                                                                                                                    23037082.848 8 119960138.42808      1806.727 8        48.016                                                                    23037081.704 7  97477438.35407      1468.064 7        47.035
R13        34.000    24144680.498 6 128931249.91306      2225.542 6        36.820
E34        35.000    23977116.640 8 126000805.34308     -1516.312 8        48.128                                                                    23977116.700 8  94091621.18708     -1132.293 8        50.137    23977116.566 8  96546174.01908     -1161.821 8        51.125
C14        36.000                                                                                                                                    22671483.664 8 118056369.27208      1464.722 8        48.011    22671478.674 8  91288660.00808      1132.621 8        50.870    22671477.469 8  95930448.07608      1190.218 8        48.862
R21        37.000    19864105.652 8 106296895.36508      1080.838 8        51.849                                                                    19864104.397 7  82675384.03607       840.696 7        46.398
R06        38.000    21464638.920 6 114539447.88806      3525.513 6        40.470
R05        39.000    20150433.778 8 107715639.74308     -1060.541 8        50.937                                                                    20150432.836 7  83778840.31707      -824.887 7        47.316
C27        40.000                                                                                                                                    26885458.092 6 139999631.90406      2642.714 6        37.002                                                                    26885459.106 6 113761175.34106      2147.522 6        36.919
R04        41.000    23089826.550 7 123645000.73607     -4186.477 7        45.312                                                                    23089825.551 6  96168340.79006     -3256.109 6        38.637
S44        42.000    40538426.753 6 213031073.17306      -404.723 6        37.319
G08        43.000    20331378.940 8 106842210.73708      -163.401 8        50.285                                    20331376.877 8  83253711.70408      -127.326 8        51.048    20331377.738 7  83253709.71007      -127.336 7        46.059
C05        44.000                                                                                                                                    39241869.643 6 204342742.41206      -330.727 6        38.670    39241864.440 7 158010794.10907      -255.664 7        43.431    39241866.036 6 166045319.53106      -268.794 6        40.112
C11        45.000                                                                                                                                    23060251.750 7 120080919.98507     -2410.602 7        46.182    23060247.912 8  92854244.25008     -1864.005 8        50.279    23060246.796 7  97575622.83507     -1958.811 7        47.743
E09        46.000    27286436.625 6 143391213.21506     -1528.983 6        39.468                                                                    27286435.945 6 107077866.15006     -1141.771 6        41.466    27286435.945 7 109871198.71907     -1171.478 7        42.902
C33        47.000                                                                                                                                    24059865.123 7 125286049.45907      2673.370 7        46.812                                                                    24059877.061 7 101805233.58207      2172.358 7        46.739
C21        48.000                                                                                                                                    25091253.189 7 130656766.69307     -2960.649 7        43.729                                                                    25091247.760 7 106169312.84507     -2405.868 7        44.229
E06        49.000    28508158.643 6 149811393.40606     -2407.756 6        36.465                                                                    28508159.868 6 111872145.96606     -1797.953 6        40.014    28508159.637 6 114790547.40106     -1845.041 6        40.172
S48        51.000    77252303.589 6 405964926.66906      -413.632 6        36.957
C08        52.000                                                                                                                                    40150759.080 6 209075637.01306     -1578.672 6        36.110    40150752.154 6 161670574.18406     -1220.751 6        39.306    40150751.580 6 169891098.99106     -1282.835 6        37.115
C34        53.000                                                                                                                                    24933937.662 7 129837826.90707     -3211.950 7        42.910                                                                    24933938.101 7 105503984.05807     -2609.905 7        43.829
C60        54.000                                                                                                                                    40538430.771 6 211094446.47006      -401.054 6        39.474                                                                    40538414.295 6 171531498.36106      -325.852 6        39.832
R12        55.000    22437046.363 7 119854667.79407      -465.344 7        47.089                                                                    22437047.522 7  93220298.40607      -361.976 7        43.736
I09        56.000    37796491.629 7 148321580.16207       202.351 7        43.645
C02        57.000                                                                                                                                    40595255.618 5 211390192.22305      -355.133 5        33.527    40595248.890 6 163460298.73406      -274.456 6        39.895    40595252.749 6 171771849.38806      -288.222 6        36.189
I03        58.000    79254030.141 6 235224591.39006      1099.843 6        40.772
E30        59.000    26739122.690 7 140515245.66507     -3321.167 7        42.343                                                                    26739122.833 7 104930332.60907     -2480.084 7        44.445    26739122.662 7 107667629.27207     -2544.747 7        45.254
R20        60.000    20560729.660 6 109947668.61506     -2330.479 6        37.800                                                                    20560731.597 7  85514922.29607     -1812.635 7        46.318
> 2025 01 02 21 31  0.0000000  0 54
G23         1.000    23438329.461 6 123169330.47706     -3621.896 6        41.425                                    23438325.754 4  95976123.45504     -2822.255 4        25.865    23438325.577 6  95976121.46106     -2822.296 6        40.186
C37         2.000                                                                                                                                    26377951.295 6 137356904.65906     -2526.197 6        39.724                                                                    26377955.713 6 111613755.43306     -2052.717 6        40.617
G16         3.000    25209656.993 6 132477820.57606     -4115.250 6        38.712                                    25209653.535 2 103229548.51902     -3206.678 2        17.472
G21         4.000    21464149.041 7 112794921.81907      1236.710 7        45.073                                    21464144.099 5  87892151.29605       963.664 5        33.635
S21         5.000    38502598.958 6 202332223.31106      -384.475 6        41.795
E13         6.000    27994431.477 6 147111746.25806      2016.150 6        37.070                                                                    27994432.976 6 109856193.53806      1505.434 6        39.889    27994432.264 6 112722003.32106      1544.738 6        40.291
G10         7.000    21049548.386 8 110616191.60608     -1638.055 8        50.828                                    21049546.579 8  86194451.62908     -1276.408 8        51.777    21049546.423 7  86194445.63607     -1276.434 7        46.061
E15         8.000    24048450.935 7 126375571.86407       769.102 7        47.841                                                                    24048451.621 8  94371436.71508       574.380 8        50.631    24048451.139 8  96833288.14508       589.359 8        51.179
E36         9.000    27876446.008 6 146491888.56906     -2778.839 6        37.229                                                                    27876448.397 6 109393431.73306     -2075.320 6        41.890    27876447.003 6 112247161.31306     -2129.509 6        40.858
G27        10.000    20939294.555 8 110036885.96708     -2541.770 8        49.693                                    20939292.357 8  85743098.42308     -1980.603 8        51.128    20939292.614 7  85743100.42707     -1980.645 7        45.753
G14        11.000    25116808.453 6 131989728.79206      2184.513 6        39.045                                    25116804.777 3 102849133.83903      1702.211 3        20.143    25116805.290 6 102849137.84006      1702.211 6        37.728
G32        12.000    23103722.914 7 121410902.32007      2151.033 7        45.154                                    23103721.479 6  94605896.02606      1676.123 6        41.897    23103721.758 6  94605869.02706      1676.042 6        41.454
S36        14.000    38271158.256 7 201116807.41407      -383.500 7        43.960
C13        15.000                                                                                                                                    39483508.568 6 205601045.71106     -1410.057 6        39.174    39483510.210 6 158983803.83906     -1090.311 6        41.564    39483508.538 6 167067713.17706     -1145.584 6        39.871
E27        18.000    25391628.344 7 133433926.35907     -1305.670 7        44.859                                                                    25391628.264 7  99642222.04007      -975.016 7        47.528    25391627.775 8 102241581.57408     -1000.456 8        48.164
E05        20.000    24264517.490 7 127510920.59007      1080.789 7        43.340                                                                    24264518.167 7  95219197.15107       807.079 7        46.402    24264517.677 7  97703178.48507       828.058 7        46.948
R11        21.000    22976276.133 7 122778260.05007     -3893.796 7        46.000                                                                    22976274.788 6  95494203.06206     -3028.471 6        41.051
I06        22.000    38584699.921 6 151414877.68206      -190.807 6        41.113
E03        23.000    27247000.552 6 143183954.87806      2664.681 6        39.604                                                                    27247001.680 7 106923107.22007      1989.812 7        43.716    27247001.141 7 109712402.83607      2041.617 7        44.027
R22        24.000    23473088.862 7 125300954.38507      3032.710 7        44.764                                                                    23473088.478 6  97456305.57106      2358.783 6        40.508
S23        25.000    38228455.942 7 200891869.30807      -383.070 7        44.187
S45        26.000    63480362.761 6 333592170.24506      -426.935 6        37.471
G02        27.000    23259254.837 7 122228245.68607      2103.899 7        44.318                                    23259249.279 4  95242775.60904      1639.399 4        29.953
S27        28.000    39204349.552 5 206020298.98705      -352.330 5        35.862
E21        30.000    27422228.439 6 144104791.67806      1312.214 6        39.378                                                                    27422229.029 7 107610726.58207       979.920 7        42.952    27422228.666 7 110417959.38307      1005.438 7        43.160
C43        31.000                                                                                                                                    21891088.753 8 113992749.36508     -1480.397 8        50.873                                                                    21891087.106 8  92628488.85208     -1202.939 8        49.583
C42        32.000                                                                                                                                    22487876.873 8 117100298.94608      -262.832 8        49.445                                                                    22487884.248 8  95153627.17608      -213.542 8        50.270
C28        33.000                                                                                                                                    23035348.479 7 119951108.72907      1805.466 7        47.969                                                                    23035347.586 7  97470100.97807      1467.161 7        47.205
R13        34.000    24142598.136 6 128920130.65506      2222.262 6        36.658
E34        35.000    23978559.932 8 126008390.16708     -1517.435 8        48.027                                                                    23978560.007 8  94097285.18208     -1133.106 8        50.113    23978559.917 8  96551985.77108     -1162.662 8        51.141
C14        36.000                                                                                                                                    22670078.609 7 118049052.98007      1462.077 7        47.951    22670073.601 8  91283002.59608      1130.513 8        51.089    22670072.459 8  95924502.98608      1188.111 8        48.984
R21        37.000    19863096.708 8 106291497.11808      1078.670 8        51.812                                                                    19863095.753 7  82671185.40107       838.932 7        46.587
R06        38.000    21461336.892 6 114521826.98506      3522.941 6        41.182
R05        39.000    20151427.839 8 107720955.19008     -1065.367 8        50.846                                                                    20151426.931 7  83782974.56407      -828.664 7        46.581
C27        40.000                                                                                                                                    26882920.298 6 139986418.94606      2642.708 6        37.372                                                                    26882921.705 6 113750438.72206      2147.427 6        36.941
R04        41.000    23093736.036 7 123665939.83107     -4188.965 7        44.500                                                                    23093735.124 6  96184626.74506     -3257.984 6        38.526
S44        42.000    40538814.076 6 213033098.38306      -405.180 6        37.335
G08        43.000    20331535.995 8 106843036.55708      -166.644 8        50.338                                    20331534.036 8  83254355.20308      -129.855 8        50.992    20331534.817 7  83254353.21107      -129.868 7        46.004
C05        44.000                                                                                                                                    39242187.495 6 204344397.08906      -330.849 6        38.742    39242182.279 7 158012073.62407      -255.972 7        43.475    39242183.620 6 166046664.08806      -268.815 6        40.069
C11        45.000                                                                                                                                    23062566.749 7 120092977.37707     -2412.171 7        45.910    23062563.664 8  92863567.79308     -1865.194 8        50.380    23062562.188 7  97585420.44907     -1959.964 7        47.774
E09        46.000    27287892.532 6 143398864.81506     -1531.439 6        39.204                                                                    27287891.996 6 107083580.01906     -1143.655 6        41.669    27287892.068 7 109877061.65607     -1173.558 7        42.993
C33        47.000                                                                                                                                    24057299.002 7 125272687.28107      2671.727 7        46.257                                                                    24057311.018 7 101794375.71307      2171.139 7        46.858
C21        48.000                                                                                                                                    25094096.835 7 130671575.69907     -2962.659 7        43.941                                                                    25094091.822 7 106181346.36207     -2407.342 7        44.466
E06        49.000    28510450.302 6 149823438.25506     -2409.715 6        36.023                                                                    28510452.047 6 111881140.51906     -1799.574 6        39.685    28510451.521 6 114799776.57306     -1846.505 6        39.985
S48        51.000    77252675.391 6 405966994.85606      -413.626 6        36.854
C08        52.000                                                                                                                                    40152274.708 5 209083531.40205     -1578.849 5        35.924    40152268.289 6 161676678.63006     -1220.844 6        39.438    40152267.747 6 169897513.82306     -1282.730 6        37.081
C34        53.000                                                                                                                                    24937022.350 7 129853889.48007     -3212.784 7        43.126                                                                    24937022.723 7 105517036.21107     -2610.678 7        44.023
C60        54.000                                                                                                                                    40538816.158 6 211096453.25706      -401.352 6        39.456                                                                    40538799.740 6 171533129.04806      -325.994 6        39.513
R12        55.000    22437483.815 7 119857006.80207      -469.951 7        46.626                                                                    22437484.539 7  93222117.63407      -365.577 7        42.637
I09        56.000    37796234.226 7 148320569.41007       202.042 7        43.608
C02        57.000                                                                                                                                    40595596.387 5 211391967.60705      -354.865 5        33.371    40595590.156 6 163461671.61006      -274.555 6        39.982    40595593.710 6 171773292.07406      -288.456 6        36.174
I03        58.000    79252628.741 6 235219092.58606      1099.752 6        40.539
E30        59.000    26742283.293 7 140531854.48307     -3322.159 7        42.163                                                                    26742283.431 7 104942735.29107     -2480.842 7        44.588    26742283.143 7 107680355.51107     -2545.629 7        45.245
R20        60.000    20562909.201 6 109959327.13106     -2332.697 6        37.342                                                                    20562911.816 7  85523990.02007     -1814.315 7        46.222
> 2025 01 02 21 31  5.0000000  0 54
G23         1.000    23441776.161 6 123187442.07806     -3622.989 6        41.097                                    23441772.069 4  95990236.39604     -2823.113 4        25.624    23441772.650 6  95990234.41206     -2823.123 6        40.138
C37         2.000                                                                                                                                    26380377.660 6 137369538.25706     -2527.526 6        40.114                                                                    26380381.911 6 111624021.25306     -2053.809 6        40.565
G16         3.000    25213572.341 6 132498395.11606     -4114.804 6        38.658                                    25213568.834 3 103245580.63303     -3206.341 3        18.060
G21         4.000    21462972.899 7 112788740.81507      1235.315 7        45.171                                    21462967.933 5  87887334.93305       962.581 5        33.671
S21         5.000    38502966.942 6 202334144.70406      -384.456 6        41.886
E13         6.000    27992512.674 6 147101666.51606      2016.073 6        37.535                                                                    27992515.080 6 109848666.48106      1505.111 6        39.934    27992514.305 6 112714279.90606      1544.448 6        40.172
G10         7.000    21051107.988 8 110624387.18008     -1640.448 8        50.662                                    21051106.142 8  86200837.79008     -1278.272 8        51.764    21051105.985 7  86200831.79807     -1278.294 7        46.036
E15         8.000    24047719.277 7 126371727.57407       768.281 7        47.892                                                                    24047720.068 8  94368565.97908       573.705 8        50.568    24047719.594 8  96830342.52308       588.626 8        51.208
E36         9.000    27879090.226 6 146505783.14506     -2778.986 6        37.482                                                                    27879092.406 6 109403807.52306     -2075.253 6        41.702    27879091.035 6 112257807.78106     -2129.547 6        40.808
G27        10.000    20941713.812 8 110049600.21208     -2544.270 8        49.289                                    20941711.809 8  85753005.62208     -1982.547 8        51.095    20941711.996 7  85753007.62107     -1982.630 7        45.428
G14        11.000    25114730.138 6 131978810.78506      2182.414 6        38.375                                    25114727.247 3 102840626.29103      1700.574 3        20.405    25114727.672 6 102840630.29306      1700.686 6        37.592
G32        12.000    23101676.794 7 121400150.95407      2149.174 7        44.593                                    23101675.403 6  94597518.33906      1674.681 6        41.778    23101675.706 6  94597491.33806      1674.674 6        41.647
S36        14.000    38271521.495 7 201118724.56507      -383.582 7        44.107
C13        15.000                                                                                                                                    39484861.862 6 205608094.75806     -1409.853 6        39.315    39484864.140 6 158989254.62206     -1090.217 6        41.538    39484862.272 6 167073441.12006     -1145.595 6        39.901
E27        18.000    25392871.453 7 133440459.65107     -1307.992 7        44.700                                                                    25392871.497 7  99647100.79607      -976.693 7        47.299    25392871.044 8 102246587.60008     -1002.172 8        48.081
E05        20.000    24263490.265 7 127505521.07607      1078.834 7        43.209                                                                    24263490.689 7  95215165.05007       805.515 7        46.347    24263490.143 7  97699041.20207       826.530 7        46.959
R11        21.000    22979920.188 7 122797733.01507     -3895.680 7        44.922                                                                    22979918.901 6  95509348.71406     -3029.957 6        40.825
I06        22.000    38584942.773 6 151415830.70206      -190.719 6        40.934
E03        23.000    27244464.954 6 143170631.73106      2664.335 6        39.174                                                                    27244466.325 7 106913158.13607      1989.531 7        43.611    27244465.843 7 109702194.21407      2041.485 7        44.108
R22        24.000    23470248.241 7 125285790.65407      3032.530 7        44.635                                                                    23470247.944 6  97444511.55506      2358.748 6        40.949
S23        25.000    38228821.148 7 200893783.68207      -383.083 7        44.065
S45        26.000    63480725.181 6 333594303.53906      -426.658 6        37.508
G02        27.000    23257253.471 7 122217727.31307      2103.184 7        43.585                                    23257247.655 4  95234579.47604      1638.842 4        29.839
S27        28.000    39204683.538 6 206022058.95606      -352.277 6        36.125
E21        30.000    27420980.553 6 144098234.52106      1310.284 6        39.649                                                                    27420981.262 7 107605829.99807       978.468 7        42.815    27420980.827 7 110412935.06507      1003.997 7        43.293
C43        31.000                                                                                                                                    21892510.898 8 114000155.16708     -1482.236 8        50.923                                                                    21892509.261 8  92634506.66408     -1204.377 8        49.557
C42        32.000                                                                                                                                    22488130.684 8 117101619.65308      -265.723 8        49.753                                                                    22488137.925 8  95154700.35908      -215.925 8        50.191
C28        33.000                                                                                                                                    23033615.132 7 119942083.19007      1804.460 7        47.944                                                                    23033614.359 7  97462766.99107      1466.248 7        47.132
R13        34.000    24140518.558 6 128909026.53706      2219.107 6        36.030
E34        35.000    23980004.102 7 126015978.46807     -1518.223 7        47.852                                                                    23980004.019 8  94102951.76808     -1133.776 8        50.033    23980003.887 8  96557800.18108     -1163.326 8        51.164
C14        36.000                                                                                                                                    22668675.302 8 118041748.21908      1459.585 8        48.167    22668670.806 8  91277354.08808      1128.640 8        51.270    22668669.604 8  95918567.26408      1186.027 8        48.972
R21        37.000    19862089.906 8 106286107.56308      1076.734 8        52.159                                                                    19862088.488 7  82666993.53607       837.438 7        46.435
R06        38.000    21458037.319 6 114504216.54606      3520.812 6        40.844
R05        39.000    20152426.202 8 107726292.77608     -1069.964 8        50.598                                                                    20152425.656 7  83787126.02407      -832.165 7        47.279
C27        40.000                                                                                                                                    26880382.767 6 139973204.21606      2643.021 6        36.590                                                                    26880383.723 6 113739700.68706      2147.613 6        36.715
R04        41.000    23097647.519 7 123686888.56407     -4190.946 7        44.160                                                                    23097647.062 6  96200920.23406     -3259.565 6        38.291
S44        42.000    40539199.235 6 213035122.83606      -404.785 6        37.422
G08        43.000    20331695.689 8 106843876.35108      -169.568 8        50.330                                    20331693.852 8  83255009.58808      -132.131 8        50.939    20331694.482 7  83255007.59207      -132.144 7        45.943
C05        44.000                                                                                                                                    39242504.927 6 204346050.99806      -330.887 6        38.694    39242499.827 7 158013352.53007      -255.866 7        43.462    39242501.266 6 166048008.02306      -268.800 6        40.107
C11        45.000                                                                                                                                    23064883.018 7 120105040.53507     -2413.433 7        45.782    23064880.204 8  92872895.78808     -1866.269 8        50.225    23064878.750 7  97595222.74807     -1961.149 7        47.615
E09        46.000    27289350.308 6 143406526.91206     -1533.737 6        39.012                                                                    27289350.064 6 107089301.70206     -1145.342 6        41.576    27289350.105 7 109882932.59507     -1175.197 7        42.933
C33        47.000                                                                                                                                    24054734.486 7 125259331.44907      2670.232 7        46.363                                                                    24054746.255 7 101783523.01507      2169.884 7        46.824
C21        48.000                                                                                                                                    25096942.246 7 130686392.39207     -2964.376 7        44.346                                                                    25096937.247 7 106193386.15107     -2408.732 7        44.474
E06        49.000    28512743.994 5 149835490.62605     -2411.411 5        35.933                                                                    28512745.486 6 111890140.62906     -1800.727 6        39.607    28512745.028 6 114809011.49206     -1847.784 6        39.772
S48        51.000    77253047.559 6 405969062.19506      -413.706 6        37.444
C08        52.000                                                                                                                                    40153790.196 5 209091424.17605     -1578.655 5        35.757    40153784.250 6 161682781.80706     -1220.683 6        39.532    40153783.390 6 169903927.32806     -1282.606 6        37.142
C34        53.000                                                                                                                                    24940107.665 7 129869955.00807     -3213.670 7        43.340                                                                    24940108.018 7 105530090.76307     -2611.338 7        43.822
C60        54.000                                                                                                                                    40539201.223 6 211098459.33206      -401.404 6        39.745                                                                    40539184.885 6 171534759.13806      -326.161 6        39.859
R12        55.000    22437926.378 8 119859366.67908      -474.269 8        48.186                                                                    22437925.867 7  93223953.07507      -368.839 7        42.248
I09        56.000    37795976.680 7 148319559.21607       201.819 7        43.475
C02        57.000                                                                                                                                    40595937.058 5 211393742.30205      -355.018 5        33.335    40595930.683 6 163463043.91706      -274.678 6        40.231    40595934.354 6 171774734.16406      -288.420 6        36.401
I03        58.000    79251227.535 6 235213593.34406      1099.636 6        40.615
E30        59.000    26745444.187 7 140548466.22907     -3322.863 7        42.019                                                                    26745444.663 7 104955140.15807     -2481.407 7        44.516    26745444.282 7 107693083.97907     -2546.116 7        45.375
R20        60.000    20565091.488 6 109970994.07906     -2334.334 6        37.240                                                                    20565093.665 7  85533064.32407     -1815.642 7        46.807
> 2025 01 02 21 31 10.0000000  0 54
G23         1.000    23445223.495 6 123205557.79406     -3623.716 6        40.918                                    23445219.239 4  96004352.53804     -2823.677 4        25.609    23445220.035 6  96004350.53906     -2823.792 6        40.474
C37         2.000                                                                                                                                    26382805.270 6 137382178.33206     -2528.858 6        40.663                                                                    26382809.329 6 111634292.38006     -2054.888 6        40.663
G16         3.000    25217486.853 6 132518967.31306     -4114.438 6        38.721                                    25217483.641 3 103261610.90403     -3206.065 3        18.418
G21         4.000    21461797.921 7 112782566.48107      1233.964 7        44.280                                    21461792.983 5  87882523.76605       961.529 5        33.557
S21         5.000    38503331.589 6 202336065.34106      -384.253 6        41.878
E13         6.000    27990594.676 6 147091587.06006      2015.543 6        36.885                                                                    27990597.039 6 109841139.59906      1505.389 6        39.775    27990596.054 6 112706556.66206      1544.527 6        40.114
G10         7.000    21052669.875 8 110632594.34508     -1642.794 8        50.497                                    21052667.910 8  86207232.98408     -1280.100 8        51.793    21052668.251 7  86207226.98807     -1280.099 7        46.383
E15         8.000    24046988.398 7 126367887.16507       767.567 7        47.645                                                                    24046989.261 8  94365698.14308       573.169 8        50.453    24046988.824 8  96827399.86808       588.154 8        51.095
E36         9.000    27881734.427 6 146519677.58506     -2779.039 6        37.883                                                                    27881736.500 6 109414183.23106     -2075.272 6        41.723    27881735.229 6 112268454.15306     -2129.323 6        40.605
G27        10.000    20944135.784 8 110062326.23708     -2546.614 8        49.481                                    20944133.488 8  85762922.00708     -1984.373 8        51.098    20944133.504 7  85762924.00807     -1984.346 7        45.273
G14        11.000    25112654.655 6 131967902.49506      2180.610 6        38.012                                    25112651.399 3 102832126.34103      1699.171 3        20.190    25112652.160 6 102832130.37506      1698.902 6        37.369
G32        12.000    23099632.707 7 121389408.41807      2147.437 7        45.332                                    23099631.085 6  94589147.53506      1673.327 6        41.847    23099631.824 7  94589120.54407      1673.283 7        42.118
S36        14.000    38271889.049 7 201120641.09307      -383.278 7        44.006
C13        15.000                                                                                                                                    39486215.380 6 205615142.81606     -1409.656 6        39.345    39486217.472 6 158994704.61006     -1090.017 6        41.666    39486215.825 6 167079168.25506     -1145.475 6        39.823
E27        18.000    25394116.927 7 133447004.08807     -1310.228 7        44.557                                                                    25394116.850 7  99651987.87007      -978.312 7        47.286    25394116.351 8 102251602.16508     -1003.870 8        48.026
E05        20.000    24262464.647 7 127500131.43207      1076.750 7        43.500                                                                    24262465.001 7  95211140.32407       804.110 7        46.186    24262464.517 7  97694911.47907       825.096 7        46.917
R11        21.000    22983565.861 7 122817214.85007     -3897.345 7        46.075                                                                    22983565.125 7  95524501.23707     -3031.302 7        42.064
I06        22.000    38585185.337 6 151416783.16606      -190.543 6        40.872
E03        23.000    27241930.068 6 143157309.47506      2664.171 6        39.300                                                                    27241931.181 7 106903209.71207      1989.431 7        43.666    27241930.655 7 109691986.26007      2041.443 7        44.098
R22        24.000    23467406.971 7 125270626.57107      3032.719 7        44.373                                                                    23467406.977 6  97432717.31806      2358.773 6        41.042
S23        25.000    38229185.299 7 200895697.39007      -382.832 7        44.330
S45        26.000    63481089.896 6 333596436.14806      -426.686 6        37.452
G02        27.000    23255252.420 7 122207212.00007      2102.580 7        44.087                                    23255246.730 4  95226385.73004      1638.373 4        29.905
S27        28.000    39205021.110 6 206023818.11406      -352.095 6        36.155
E21        30.000    27419734.771 6 144091686.67706      1308.600 6        39.117                                                                    27419735.126 7 107600940.36507       977.169 7        42.567    27419734.812 7 110407917.88307      1002.536 7        43.067
C43        31.000                                                                                                                                    21893934.726 8 114007569.34108     -1483.862 8        50.945                                                                    21893933.102 8  92640531.30308     -1205.720 8        49.673
C42        32.000                                                                                                                                    22488387.192 8 117102954.23008      -268.513 8        49.990                                                                    22488394.209 8  95155784.82208      -218.167 8        50.275
C28        33.000                                                                                                                                    23031882.665 7 119933062.08807      1803.581 7        47.848                                                                    23031881.957 7  97455436.61907      1465.521 7        47.359
R13        34.000    24138439.893 6 128897937.59106      2215.975 6        36.242
E34        35.000    23981448.683 7 126023570.50007     -1518.974 7        47.695                                                                    23981448.756 8  94108621.14008     -1134.280 8        49.956    23981448.608 8  96563617.44908     -1163.868 8        51.070
C14        36.000                                                                                                                                    22667274.388 7 118034455.25307      1457.235 7        47.738    22667270.353 8  91271714.70508      1126.839 8        51.043    22667269.098 8  95912641.14508      1184.163 8        49.057
R21        37.000    19861083.933 8 106280727.07308      1074.977 8        51.653                                                                    19861082.572 7  82662808.70807       836.063 7        46.458
R06        38.000    21454739.114 6 114486617.01006      3518.702 6        40.968
R05        39.000    20153428.867 8 107731653.10508     -1074.512 8        50.828                                                                    20153428.743 7  83791295.16807      -835.698 7        47.585
C27        40.000                                                                                                                                    26877845.417 6 139959988.08606      2643.003 6        36.688                                                                    26877845.614 6 113728961.46106      2147.940 6        36.276
R04        41.000    23101562.430 7 123707847.21907     -4192.803 7        44.500                                                                    23101560.986 6  96217221.40106     -3261.104 6        38.862
S44        42.000    40539581.827 6 213037146.82506      -404.757 6        37.183
G08        43.000    20331858.352 8 106844730.36108      -172.437 8        50.395                                    20331856.364 8  83255675.05208      -134.368 8        51.018    20331857.208 7  83255673.05507      -134.359 7        46.264
C05        44.000                                                                                                                                    39242822.260 6 204347704.38306      -330.760 6        38.703    39242817.450 7 158014631.02807      -255.750 7        43.501    39242818.778 6 166049351.53106      -268.774 6        40.050
C11        45.000                                                                                                                                    23067200.675 7 120117109.68307     -2414.576 7        45.910    23067197.904 8  92882228.41908     -1867.110 8        50.173    23067196.471 7  97605029.92407     -1962.029 7        47.808
E09        46.000    27290810.988 6 143414199.69906     -1535.668 6        39.432                                                                    27290810.136 6 107095031.40006     -1146.934 6        41.628    27290810.018 7 109888811.76307     -1176.736 7        42.936
C33        47.000                                                                                                                                    24052171.264 7 125245982.21907      2669.052 7        46.981                                                                    24052182.646 7 101772675.70007      2168.729 7        47.081
C21        48.000                                                                                                                                    25099789.541 7 130701217.03007     -2965.904 7        44.161                                                                    25099784.226 7 106205432.39107     -2410.002 7        44.767
E06        49.000    28515038.713 5 149847550.78805     -2413.017 5        35.933                                                                    28515040.569 6 111899146.55706     -1801.919 6        39.589    28515040.137 6 114818252.35806     -1848.801 6        40.124
S48        51.000    77253415.771 6 405969528.92616      -413.389 6        37.327
C08        52.000                                                                                                                                    40155305.479 5 209099315.58705     -1578.392 5        35.733    40155299.688 6 161688883.93006     -1220.438 6        39.754    40155298.978 6 169910339.76706     -1282.573 6        37.508
C34        53.000                                                                                                                                    24943193.684 7 129886023.72607     -3214.182 7        43.327                                                                    24943193.659 7 105543147.92907     -2611.833 7        43.693
C60        54.000                                                                                                                                    40539586.337 6 211100464.92406      -401.397 6        39.760                                                                    40539570.062 6 171536388.85706      -325.977 6        39.886
R12        55.000    22438372.721 7 119861747.74307      -478.487 7        46.891                                                                    22438372.840 7  93225805.00907      -372.113 7        43.010
I09        56.000    37795719.116 7 148318549.79807       201.604 7        43.350
C02        57.000                                                                                                                                    40596278.497 5 211395516.57605      -355.228 5        33.886    40596271.452 6 163464415.88506      -274.562 6        40.112    40596275.212 6 171776175.88906      -288.316 6        36.646
I03        58.000    79249826.369 6 235208093.85906      1099.759 6        40.513
E30        59.000    26748605.804 6 140565081.11906     -3323.438 6        41.897                                                                    26748606.332 7 104967547.38207     -2481.857 7        44.402    26748606.058 7 107705814.86607     -2546.550 7        45.348
R20        60.000    20567274.888 6 109982669.82506     -2336.240 6        37.626                                                                    20567277.049 7  85542145.44207     -1817.073 7        46.987
> 2025 01 02 21 31 15.0000000  0 54
G23         1.000    23448671.458 6 123223678.06906     -3624.329 6        41.185                                    23448667.320 4  96018472.23104     -2824.150 4        25.774    23448668.056 6  96018470.22106     -2824.127 6        40.775
C37         2.000                                                                                                                                    26385233.912 6 137394825.42506     -2529.950 6        40.577                                                                    26385238.220 6 111644569.18006     -2055.779 6        40.732
G16         3.000    25221400.913 6 132539537.65706     -4113.645 6        38.556                                    25221398.162 3 103277639.73603     -3205.443 3        18.985
G21         4.000    21460623.594 7 112776399.34407      1232.885 7        44.247                                    21460619.365 5  87877718.20705       960.690 5        33.671
S21         5.000    38503694.269 6 202337985.62806      -383.888 6        41.702
E13         6.000    27988676.538 6 147081508.30006      2015.871 6        37.316                                                                    27988678.738 6 109833613.26906      1505.233 6        39.679    27988677.906 6 112698833.98406      1544.528 6        39.877
G10         7.000    21054233.851 8 110640813.56308     -1644.848 8        50.271                                    21054231.972 8  86213637.56908     -1281.700 8        51.798    21054232.048 7  86213631.57207     -1281.723 7        46.142
E15         8.000    24046258.383 7 126364051.14307       767.026 7        47.920                                                                    24046259.272 8  94362833.58008       572.758 8        50.477    24046258.842 8  96824460.58208       587.703 8        51.034
E36         9.000    27884378.505 6 146533572.36306     -2778.665 6        38.444                                                                    27884380.505 6 109424559.20706     -2074.993 6        41.807    27884379.554 6 112279100.81306     -2129.073 6        40.815
G27        10.000    20946559.893 8 110075064.56308     -2548.641 8        49.418                                    20946557.496 8  85772847.97508     -1985.954 8        51.120    20946557.665 7  85772849.97807     -1985.908 7        45.491
G14        11.000    25110581.077 6 131957004.48306      2178.747 6        37.516                                    25110577.676 3 102823634.40503      1697.716 3        20.333    25110577.898 6 102823638.43106      1697.644 6        38.195
G32        12.000    23097590.387 7 121378675.21607      2145.917 7        45.553                                    23097588.653 7  94580784.00607      1672.145 7        42.203    23097589.353 7  94580757.00007      1672.166 7        42.135
S36        14.000    38272253.643 7 201122557.96107      -383.143 7        44.188
C13        15.000                                                                                                                                    39487568.548 6 205622190.33606     -1409.287 6        39.592    39487570.686 6 159000154.20406     -1089.727 6        41.673    39487569.100 6 167084894.93806     -1145.224 6        39.961
E27        18.000    25395364.597 7 133453560.13807     -1312.221 7        44.640                                                                    25395364.461 7  99656883.62407      -979.879 7        47.339    25395363.937 7 102256625.63407     -1005.456 7        47.974
E05        20.000    24261441.025 7 127494752.16807      1075.000 7        43.865                                                                    24261441.242 7  95207123.34107       802.794 7        46.182    24261440.902 7  97690789.70407       823.743 7        46.992
R11        21.000    22987212.978 7 122836705.99807     -3898.983 7        44.953                                                                    22987212.329 7  95539660.99507     -3032.474 7        42.241
I06        22.000    38585427.973 6 151417735.48306      -190.399 6        40.934
E03        23.000    27239395.191 6 143143988.58406      2664.474 6        39.661                                                                    27239396.255 7 106893262.31307      1989.563 7        43.725    27239395.764 7 109681779.37507      2041.416 7        44.126
R22        24.000    23464565.915 7 125255462.71207      3032.961 7        44.230                                                                    23464567.385 6  97420923.22906      2358.987 6        41.201
S23        25.000    38229548.149 7 200897610.93707      -382.624 7        44.373
S45        26.000    63481445.895 6 333598568.65406      -426.256 6        37.705
G02        27.000    23253252.487 7 122196700.21307      2102.248 7        43.653                                    23253246.376 4  95218194.73304      1638.116 4        29.972
S27        28.000    39205354.237 6 206025577.37806      -351.756 6        36.181
E21        30.000    27418490.769 6 144085148.63006      1306.850 6        38.730                                                                    27418490.989 7 107596058.07007       975.877 7        42.616    27418490.450 7 110402908.21107      1001.359 7        43.027
C43        31.000                                                                                                                                    21895360.378 8 114014992.38308     -1485.243 8        51.089                                                                    21895358.601 8  92646563.13408     -1206.967 8        49.737
C42        32.000                                                                                                                                    22488645.996 8 117104303.15808      -271.045 8        49.941                                                                    22488653.263 8  95156880.93608      -220.242 8        50.278
C28        33.000                                                                                                                                    23030151.344 7 119924045.90607      1802.997 7        47.863                                                                    23030150.540 7  97448110.23707      1464.952 7        47.244
R13        34.000    24136368.389 6 128886864.47906      2213.513 6        36.646
E34        35.000    23982894.156 7 126031166.75807     -1519.443 7        47.725                                                                    23982894.275 8  94114293.67408     -1134.689 8        49.967    23982894.109 8  96569437.96208     -1164.264 8        50.988
C14        36.000                                                                                                                                    22665875.306 7 118027174.55107      1455.156 7        47.751    22665871.884 8  91266084.80908      1125.176 8        50.868    22665870.857 8  95906724.98908      1182.258 8        49.087
R21        37.000    19860080.302 8 106275356.14608      1073.510 8        51.930                                                                    19860079.366 7  82658631.34107       834.847 7        46.663
R06        38.000    21451442.882 6 114469028.70506      3516.776 6        40.803
R05        39.000    20154436.177 8 107737036.27208     -1078.766 8        50.717                                                                    20154435.285 7  83795482.06607      -838.953 7        47.675
C27        40.000                                                                                                                                    26875307.117 5 139946770.93105      2643.739 5        35.890                                                                    26875307.205 6 113718221.47906      2148.199 6        36.284
R04        41.000    23105479.025 7 123728815.99807     -4194.569 7        44.614                                                                    23105476.955 6  96233530.44106     -3262.488 6        39.384
S44        42.000    40539968.725 6 213039170.84206      -404.697 6        37.493
G08        43.000    20332023.853 8 106845599.09508      -175.018 8        50.234                                    20332021.680 8  83256351.99008      -136.380 8        50.969    20332022.523 7  83256349.99207      -136.408 7        46.135
C05        44.000                                                                                                                                    39243139.969 6 204349357.71506      -330.467 6        38.832    39243134.640 7 158015909.49607      -255.574 7        43.435    39243136.272 6 166050695.01006      -268.681 6        40.157
C11        45.000                                                                                                                                    23069520.034 7 120129185.34407     -2415.564 7        46.183    23069516.912 8  92891566.08708     -1867.877 8        50.180    23069515.455 7  97614842.40107     -1963.004 7        47.759
E09        46.000    27292273.230 6 143421883.72906     -1537.696 6        39.703                                                                    27292272.467 6 107100769.46906     -1148.285 6        41.206    27292272.102 7 109894699.52007     -1178.325 7        42.796
C33        47.000                                                                                                                                    24049608.833 7 125232640.11307      2667.861 7        46.991                                                                    24049620.445 7 101761834.14707      2167.824 7        47.069
C21        48.000                                                                                                                                    25102637.986 7 130716050.11507     -2967.256 7        43.780                                                                    25102632.743 7 106217485.48707     -2411.225 7        44.840
E06        49.000    28517335.798 5 149859619.19405     -2414.322 5        35.748                                                                    28517337.091 6 111908158.65206     -1802.925 6        39.447    28517336.736 6 114827499.55106     -1849.824 6        39.724
S48        51.000    77253789.245 6 405971595.34606      -412.883 6        37.607
C08        52.000                                                                                                                                    40156820.522 5 209107206.02705     -1577.848 5        35.529    40156815.111 6 161694985.34206     -1220.041 6        39.913    40156814.202 6 169916751.39406     -1282.064 6        37.369
C34        53.000                                                                                                                                    24946279.949 7 129902096.15507     -3214.755 7        43.517                                                                    24946280.190 7 105556208.09407     -2612.225 7        43.513
C60        54.000                                                                                                                                    40539971.384 6 211102470.53706      -400.976 6        39.718                                                                    40539955.176 6 171538018.57706      -325.929 6        39.688
R12        55.000    22438821.075 7 119864150.45007      -482.578 7        47.337                                                                    22438822.520 6  93227673.75606      -375.296 6        41.907
I09        56.000    37795462.456 7 148317541.51007       201.770 7        43.209
C02        57.000                                                                                                                                    40596618.596 5 211397290.83005      -354.677 5        33.653    40596612.252 6 163465787.86806      -274.386 6        40.105    40596615.865 6 171777617.63706      -288.382 6        36.628
I03        58.000    79248424.848 6 235202594.49706      1099.996 6        40.536
E30        59.000    26751768.435 7 140581699.65407     -3323.913 7        42.461                                                                    26751768.690 7 104979957.31607     -2482.103 7        44.330    26751768.434 7 107718548.54107     -2546.859 7        45.229
R20        60.000    20569461.454 6 109994354.79206     -2337.977 6        37.758                                                                    20569461.990 7  85551233.74907     -1818.237 7        47.203
> 2025 01 02 21 31 20.0000000  0 54
G23         1.000    23452120.202 6 123241801.87606     -3625.227 6        41.790                                    23452116.251 4  96032594.68204     -2824.853 4        26.132    23452117.056 6  96032592.68206     -2824.931 6        40.834
C37         2.000                                                                                                                                    26387663.729 6 137407478.49506     -2531.377 6        39.589                                                                    26387667.941 6 111654850.81006     -2056.893 6        40.553
G16         3.000    25225314.887 6 132560105.08406     -4113.366 6        38.120                                    25225312.227 3 103293666.28603     -3205.209 3        18.478
G21         4.000    21459451.869 7 112770238.35007      1231.391 7        43.807                                    21459446.977 5  87872917.43505       959.525 5        33.802
S21         5.000    38504059.104 6 202339904.93206      -383.968 6        41.664
E13         6.000    27986758.965 6 147071429.27406      2015.772 6        38.051                                                                    27986760.720 6 109826086.72206      1505.231 6        39.664    27986759.979 6 112691111.09706      1544.398 6        39.727
G10         7.000    21055800.107 8 110649043.82308     -1647.241 8        50.353                                    21055798.149 8  86220050.76108     -1283.565 8        51.906    21055797.855 7  86220044.76307     -1283.581 7        46.261
E15         8.000    24045529.168 7 126360218.48607       766.000 7        47.805                                                                    24045529.981 8  94359971.53108       572.023 8        50.531    24045529.478 8  96821523.86908       586.949 8        51.104
E36         9.000    27887022.412 6 146547466.48906     -2778.813 6        38.309                                                                    27887024.533 6 109434934.68606     -2075.216 6        41.628    27887023.945 6 112289746.96606     -2129.336 6        40.958
G27        10.000    20948985.981 8 110087814.16508     -2551.188 8        49.361                                    20948983.638 8  85782782.73108     -1987.938 8        51.157    20948983.946 7  85782784.73307     -1987.954 7        45.231
G14        11.000    25108508.739 6 131946115.75206      2176.627 6        37.456                                    25108505.611 3 102815149.69003      1696.071 3        20.238    25108505.679 6 102815153.70606      1696.019 6        38.186
G32        12.000    23095549.315 7 121367950.35107      2143.983 7        44.822                                    23095547.899 7  94572426.97107      1670.634 7        42.554    23095548.549 7  94572399.97007      1670.710 7        42.402
S36        14.000    38272617.526 7 201124474.26807      -383.068 7        44.163
C13        15.000                                                                                                                                    39488921.557 6 205629236.33306     -1409.108 6        39.658    39488924.017 6 159005602.61606     -1089.788 6        41.812    39488922.091 6 167090620.39806     -1145.187 6        39.580
E27        18.000    25396614.122 7 133460126.78107     -1314.495 7        44.754                                                                    25396613.958 7  99661787.28307      -981.629 7        47.284    25396613.481 7 102261657.22007     -1007.285 7        47.995
E05        20.000    24260419.073 7 127489382.24807      1072.975 7        43.920                                                                    24260419.336 7  95203113.34707       801.227 7        46.163    24260418.997 7  97686675.10607       822.037 7        47.083
R11        21.000    22990862.512 7 122856205.37407     -3900.838 7        45.762                                                                    22990861.442 6  95554827.18106     -3033.911 6        41.826
I06        22.000    38585670.699 6 151418686.83506      -190.320 6        40.927
E03        23.000    27236860.398 6 143130668.09606      2663.886 6        39.607                                                                    27236861.461 7 106883315.20007      1989.349 7        43.757    27236860.985 7 109671572.76307      2041.156 7        44.163
R22        24.000    23461725.211 7 125240298.05707      3032.746 7        44.033                                                                    23461726.019 6  97409128.51206      2358.933 6        40.849
S23        25.000    38229912.117 7 200899523.30507      -382.544 7        44.268
S45        26.000    63481808.691 6 333600699.97806      -426.095 6        37.883
G02        27.000    23251252.046 7 122186190.94407      2101.491 7        43.608                                    23251246.532 4  95210005.68904      1637.533 4        29.915
S27        28.000    39205689.608 6 206027335.37806      -351.502 6        36.155
E21        30.000    27417248.008 6 144078619.41906      1304.779 6        39.589                                                                    27417248.636 7 107591182.34307       974.364 7        42.607    27417248.019 7 110397905.29207       999.758 7        43.088
C43        31.000                                                                                                                                    21896787.339 8 114022423.30708     -1487.083 8        51.166                                                                    21896785.609 8  92652601.36408     -1208.436 8        49.503
C42        32.000                                                                                                                                    22488907.455 8 117105665.42508      -273.935 8        49.809                                                                    22488914.823 8  95157987.88108      -222.629 8        50.192
C28        33.000                                                                                                                                    23028420.728 8 119915033.64008      1801.915 8        48.030                                                                    23028419.829 7  97440787.03107      1464.146 7        47.083
R13        34.000    24134296.961 6 128875806.07206      2210.254 6        36.529
E34        35.000    23984340.577 8 126038766.21708     -1520.321 8        48.048                                                                    23984340.388 8  94119968.59908     -1135.381 8        49.984    23984340.258 8  96575260.92708     -1164.974 8        51.065
C14        36.000                                                                                                                                    22664479.814 8 118019905.14808      1452.614 8        48.028    22664475.888 8  91260463.64508      1123.200 8        50.708    22664474.751 8  95900817.99008      1180.364 8        48.877
R21        37.000    19859078.855 8 106269993.65308      1071.520 8        52.237                                                                    19859077.484 7  82654460.49907       833.390 7        46.496
R06        38.000    21448148.745 6 114451450.68006      3514.337 6        40.625
R05        39.000    20155447.353 8 107742441.40508     -1083.330 8        50.975                                                                    20155446.167 7  83799686.06407      -842.561 7        46.729
C27        40.000                                                                                                                                    26872768.769 6 139933551.84706      2643.811 6        38.225                                                                    26872768.664 6 113707479.86206      2148.231 6        36.197
R04        41.000    23109396.633 7 123749794.14107     -4196.732 7        44.507                                                                    23109394.002 6  96249846.75906     -3264.196 6        39.267
S44        42.000    40540353.199 6 213041193.84106      -404.606 6        37.422
G08        43.000    20332191.410 8 106846481.53408      -178.019 8        50.186                                    20332189.590 8  83257039.60408      -138.717 8        51.039    20332190.267 7  83257037.60507      -138.712 7        46.132
C05        44.000                                                                                                                                    39243457.302 6 204351010.00006      -330.538 6        38.661    39243452.023 7 158017187.14907      -255.586 7        43.255    39243453.686 6 166052037.61106      -268.489 6        40.110
C11        45.000                                                                                                                                    23071840.476 7 120141266.48107     -2416.954 7        46.508    23071837.500 8  92900907.98608     -1868.939 8        50.396    23071835.476 7  97624659.30607     -1964.044 7        47.558
E09        46.000    27293737.396 6 143429577.93806     -1539.980 6        39.805                                                                    27293736.641 6 107106515.15506     -1150.051 6        41.228    27293736.168 7 109900595.08707     -1180.039 7        42.889
C33        47.000                                                                                                                                    24047047.267 7 125219304.11707      2666.459 7        46.776                                                                    24047059.375 7 101750997.56207      2166.630 7        46.839
C21        48.000                                                                                                                                    25105487.798 7 130730890.58807     -2968.971 7        43.583                                                                    25105482.690 7 106229544.57807     -2412.616 7        44.614
E06        49.000    28519633.842 6 149871694.90106     -2416.131 6        36.200                                                                    28519634.990 6 111917176.20506     -1804.065 6        39.544    28519634.743 6 114836752.34006     -1851.159 6        40.174
S48        51.000    77254157.720 6 405973660.67706      -413.109 6        37.403
C08        52.000                                                                                                                                    40158334.870 5 209115094.58205     -1577.582 5        35.510    40158330.425 6 161701085.27106     -1220.065 6        40.088    40158329.187 6 169923161.48306     -1281.937 6        37.146
C34        53.000                                                                                                                                    24949367.158 7 129918171.26107     -3215.418 7        43.742                                                                    24949367.076 7 105569270.42107     -2612.731 7        43.022
C60        54.000                                                                                                                                    40540356.605 6 211104475.13806      -400.988 6        39.994                                                                    40540340.160 6 171539647.49706      -325.921 6        39.658
R12        55.000    22439275.682 7 119866573.79107      -486.846 7        47.536                                                                    22439275.894 6  93229558.59506      -378.757 6        41.805
I09        56.000    37795205.184 7 148316533.58507       201.442 7        43.046
C02        57.000                                                                                                                                    40596958.783 5 211399064.14805      -354.808 5        33.545    40596952.480 6 163467159.10806      -274.295 6        39.925    40596956.361 6 171779058.59906      -288.250 6        36.178
I03        58.000    79247023.184 6 235197094.50206      1099.895 6        40.529
E30        59.000    26754931.418 7 140598320.79607     -3324.666 7        42.912                                                                    26754931.609 7 104992369.20107     -2482.664 7        44.409    26754931.096 7 107731284.22407     -2547.452 7        45.150
R20        60.000    20571647.898 6 110006047.97906     -2339.567 6        38.003                                                                    20571648.476 7  85560328.46907     -1819.690 7        46.512
> 2025 01 02 21 31 25.0000000  0 54
G23         1.000    23455569.814 6 123259930.01006     -3626.138 6        41.659                                    23455565.916 4  96046720.50104     -2825.562 4        26.180    23455566.908 6  96046718.48806     -2825.531 6        41.094
C37         2.000                                                                                                                                    26390094.460 6 137420138.23106     -2532.577 6        39.796                                                                    26390099.118 6 111665137.89806     -2058.203 6        40.460
G16         3.000    25229228.298 6 132580670.36506     -4113.010 6        37.433                                    25229225.728 3 103309691.16503     -3204.932 3        18.209
G21         4.000    21458280.924 7 112764084.28407      1230.093 7        44.054                                    21458275.846 5  87868122.06205       958.515 5        33.796
S21         5.000    38504423.841 6 202341823.95706      -383.794 6        41.611
E13         6.000    27984840.985 6 147061350.73106      2015.552 6        37.652                                                                    27984842.916 6 109818560.53006      1505.191 6        39.736    27984842.223 6 112683388.58506      1544.371 6        39.715
G10         7.000    21057368.565 8 110657285.88508     -1649.617 8        50.281                                    21057366.557 8  86226473.14508     -1285.417 8        51.894    21057366.628 7  86226467.14607     -1285.420 7        46.513
E15         8.000    24044800.813 7 126356389.96307       765.248 7        47.908                                                                    24044801.397 8  94357112.57808       571.397 8        50.530    24044800.968 8  96818590.33308       586.340 8        51.080
E36         9.000    27889666.261 6 146561360.73206     -2779.004 6        38.402                                                                    27889668.534 6 109445310.24506     -2075.112 6        41.878    27889667.870 6 112300393.20106     -2129.347 6        41.356
G27        10.000    20951414.445 8 110100575.78408     -2553.645 8        49.731                                    20951412.064 8  85792726.84808     -1989.854 8        51.138    20951412.312 7  85792728.84707     -1989.879 7        45.509
G14        11.000    25106438.340 6 131935237.03806      2174.708 6        38.000                                    25106435.634 3 102806672.78503      1694.565 3        20.929    25106436.008 6 102806676.79406      1694.553 6        38.324
G32        12.000    23093509.957 7 121357234.59107      2142.241 7        44.674                                    23093508.951 7  94564077.03607      1669.279 7        42.698    23093509.262 7  94564050.03707      1669.284 7        42.679
S36        14.000    38272982.669 7 201126389.75007      -383.221 7        44.107
C13        15.000                                                                                                                                    39490274.782 6 205636281.54306     -1409.123 6        39.589    39490276.914 6 159011050.41706     -1089.507 6        41.719    39490275.205 6 167096345.18206     -1145.007 6        39.667
E27        18.000    25397865.816 7 133466704.78907     -1316.798 7        44.734                                                                    25397865.684 7  99666699.44207      -983.379 7        47.372    25397865.230 7 102266697.51307     -1009.015 7        47.937
E05        20.000    24259398.759 7 127484022.48007      1070.791 7        43.560                                                                    24259399.305 7  95199110.91707       799.696 7        46.204    24259399.026 7  97682568.26707       820.515 7        47.020
R11        21.000    22994512.797 7 122875713.73407     -3902.657 7        45.503                                                                    22994511.908 7  95570000.35907     -3035.362 7        42.038
I06        22.000    38585912.642 6 151419637.82706      -190.207 6        40.953
E03        23.000    27234325.642 6 143117348.75006      2663.764 6        39.592                                                                    27234326.840 7 106873368.94807      1989.209 7        43.788    27234326.407 7 109661367.05207      2041.045 7        44.181
R22        24.000    23458884.098 7 125225133.34907      3032.801 7        44.086                                                                    23458883.817 6  97397333.73906      2358.881 6        40.203
S23        25.000    38230275.571 7 200901435.37507      -382.474 7        44.324
S45        26.000    63482169.931 6 333601230.92116      -426.290 6        37.664
G02        27.000    23249253.096 7 122175684.93107      2100.798 7        43.881                                    23249247.230 5  95201819.18905      1636.985 5        30.113
S27        28.000    39206024.193 6 206029092.81806      -351.598 6        36.147
E21        30.000    27416007.723 6 144072099.75206      1302.988 6        39.264                                                                    27416007.986 7 107586313.76907       972.965 7        42.798    27416007.305 7 110392909.71407       998.234 7        43.037
C43        31.000                                                                                                                                    21898216.089 8 114029862.84608     -1488.812 8        50.891                                                                    21898214.313 8  92658646.59708     -1209.949 8        49.720
C42        32.000                                                                                                                                    22489171.716 8 117107041.78708      -276.738 8        49.494                                                                    22489179.115 8  95159106.29108      -225.068 8        50.238
C28        33.000                                                                                                                                    23026690.889 7 119906026.06307      1801.036 7        47.735                                                                    23026689.949 7  97433467.64307      1463.270 7        47.337
R13        34.000    24132229.105 5 128864763.27405      2206.998 5        35.462
E34        35.000    23985787.577 7 126046369.64607     -1521.056 7        47.805                                                                    23985787.271 8  94125646.49008     -1135.953 8        50.023    23985787.140 8  96581086.93708     -1165.555 8        51.022
C14        36.000                                                                                                                                    22663087.143 7 118012647.78807      1450.276 7        47.968    22663082.418 8  91254851.79608      1121.334 8        50.814    22663081.084 8  95894920.79608      1178.276 8        49.071
R21        37.000    19858078.449 8 106264640.50008      1069.622 8        52.117                                                                    19858076.576 7  82650296.93907       831.933 7        46.536
R06        38.000    21444856.363 6 114433883.77706      3512.198 6        41.097
R05        39.000    20156462.790 8 107747869.12408     -1087.884 8        50.484                                                                    20156461.650 7  83803907.63607      -846.120 7        47.053
C27        40.000                                                                                                                                    26870230.006 6 139920331.51406      2644.181 6        38.123                                                                    26870229.999 6 113696737.25206      2148.315 6        36.760
R04        41.000    23113315.309 7 123770782.27607     -4198.729 7        44.412                                                                    23113313.685 6  96266170.87206     -3265.712 6        39.444
S44        42.000    40540736.493 6 213043216.60306      -404.463 6        37.304
G08        43.000    20332362.131 8 106847378.44008      -180.875 8        50.083                                    20332360.263 8  83257738.49008      -140.943 8        51.026    20332361.288 7  83257736.48907      -140.922 7        46.236
C05        44.000                                                                                                                                    39243774.590 6 204352661.97406      -330.299 6        38.535    39243769.427 7 158018464.56707      -255.486 7        43.283    39243770.934 6 166053379.99306      -268.480 6        40.157
C11        45.000                                                                                                                                    23074162.122 7 120153353.87107     -2418.167 7        46.362    23074158.693 8  92910254.72908     -1869.928 8        50.489    23074156.790 7  97634481.29607     -1965.049 7        47.759
E09        46.000    27295203.264 6 143437283.13306     -1542.231 6        39.760                                                                    27295202.924 6 107112269.03506     -1151.721 6        41.251    27295202.490 7 109906499.06207     -1181.741 7        42.743
C33        47.000                                                                                                                                    24044487.878 7 125205975.00907      2665.091 7        46.782                                                                    24044499.545 7 101740166.57307      2165.402 7        47.048
C21        48.000                                                                                                                                    25108339.319 7 130745739.21607     -2970.606 7        42.990                                                                    25108334.061 7 106241610.31507     -2414.073 7        44.561
E06        49.000    28521933.135 6 149883778.58506     -2417.568 6        36.170                                                                    28521934.349 6 111926199.72806     -1805.355 6        39.601    28521934.208 6 114846011.26806     -1852.482 6        39.913
S48        51.000    77254529.307 6 405975725.42206      -412.884 6        37.599
C08        52.000                                                                                                                                    40159849.307 5 209122981.96805     -1577.396 5        35.295    40159844.863 6 161707184.29906     -1219.771 6        40.143    40159843.837 6 169929570.64006     -1282.092 6        37.422
C34        53.000                                                                                                                                    24952455.214 7 129934249.79707     -3215.998 7        43.615                                                                    24952454.753 7 105582335.56007     -2613.523 7        43.014
C60        54.000                                                                                                                                    40540741.473 6 211106479.52106      -400.855 6        39.492                                                                    40540725.068 6 171541276.21906      -325.864 6        39.850
R12        55.000    22439733.467 7 119869018.56307      -491.155 7        47.464                                                                    22439733.837 7  93231460.08107      -382.043 7        43.081
I09        56.000    37794948.753 7 148315526.62407       201.316 7        43.037
C02        57.000                                                                                                                                    40597299.758 5 211400837.25205      -354.626 5        33.503    40597293.133 6 163468530.19106      -274.239 6        39.955    40597296.880 6 171780499.36906      -288.036 6        36.420
I03        58.000    79245621.789 6 235191594.44506      1099.813 6        40.818
E30        59.000    26758094.755 7 140614945.32107     -3325.285 7        42.332                                                                    26758095.283 7 105004783.61607     -2483.190 7        44.658    26758094.512 7 107744022.49407     -2547.965 7        44.965
R20        60.000    20573834.735 6 110017750.12906     -2341.417 6        37.554                                                                    20573836.987 7  85569430.13607     -1820.991 7        46.270
> 2025 01 02 21 31 30.0000000  0 54
G23         1.000    23459020.079 6 123278061.89806     -3626.714 6        41.132                                    23459016.484 4  96060849.24304     -2826.016 4        26.240    23459017.141 6  96060847.23206     -2825.912 6        40.961
C37         2.000                                                                                                                                    26392527.294 6 137432804.18506     -2533.777 6        39.721                                                                    26392531.459 6 111675429.99906     -2058.971 6        40.415
G16         3.000    25233141.266 6 132601232.94906     -4112.171 6        37.013                                    25233138.801 3 103325713.95403     -3204.285 3        18.716
G21         4.000    21457110.846 7 112757936.63907      1228.923 7        44.182                                    21457106.016 5  87863331.69005       957.602 5        33.880
S21         5.000    38504789.785 6 202343741.99706      -383.476 6        41.666
E13         6.000    27982922.892 6 147051272.12706      2015.824 6        37.089                                                                    27982925.014 6 109811034.32806      1505.354 6        39.595    27982924.588 6 112675666.03106      1544.605 6        39.652
G10         7.000    21058939.054 8 110665539.20208     -1651.711 8        50.306                                    21058937.116 8  86232904.30008     -1287.046 8        52.029    21058936.903 7  86232898.30407     -1287.058 7        46.256
E15         8.000    24044072.953 7 126352565.04907       764.740 7        47.738                                                                    24044073.559 8  94354256.31208       571.064 8        50.576    24044073.097 8  96815659.55908       585.946 8        50.972
E36         9.000    27892310.417 6 146575254.53706     -2778.553 6        38.324                                                                    27892312.560 7 109455685.50107     -2074.944 7        42.044    27892311.947 6 112311039.10106     -2129.028 6        41.352
G27        10.000    20953844.961 8 110113348.89308     -2555.739 8        49.550                                    20953842.668 8  85802679.92208     -1991.483 8        51.249    20953843.159 7  85802681.92407     -1991.470 7        45.470
G14        11.000    25104370.412 6 131924367.84806      2173.036 6        38.114                                    25104367.356 3 102798203.30603      1693.266 3        20.738    25104367.281 6 102798207.29606      1693.120 6        37.822
G32        12.000    23091472.860 7 121346527.45107      2140.661 7        44.798                                    23091471.608 7  94555733.81407      1668.042 7        42.745    23091471.645 7  94555706.81307      1668.105 7        42.864
S36        14.000    38273347.330 7 201128303.93107      -382.557 7        44.068
C13        15.000                                                                                                                                    39491627.958 6 205643325.47906     -1408.582 6        39.859    39491629.717 6 159016497.24006     -1089.057 6        41.874    39491627.828 6 167102068.97106     -1144.606 6        39.700
E27        18.000    25399119.649 7 133473293.63207     -1318.716 7        44.563                                                                    25399119.556 7  99671619.67307      -984.773 7        47.384    25399119.063 7 102271746.10307     -1010.519 7        47.890
E05        20.000    24258381.263 7 127478672.31007      1069.230 7        43.545                                                                    24258381.296 7  95195115.66907       798.433 7        46.202    24258380.895 7  97678468.78907       819.235 7        47.001
R11        21.000    22998164.985 7 122895230.62307     -3904.106 7        45.214                                                                    22998164.544 6  95585180.13006     -3036.373 6        41.855
I06        22.000    38586155.100 6 151420588.06206      -189.951 6        41.125
E03        23.000    27231791.468 6 143104030.04806      2663.804 6        39.285                                                                    27231792.345 7 106863423.18307      1989.189 7        43.871    27231792.008 7 109651161.81607      2041.073 7        44.233
R22        24.000    23456043.360 7 125209968.06807      3033.125 7        44.724                                                                    23456043.703 6  97385538.55206      2359.217 6        40.272
S23        25.000    38230641.197 7 200903346.67507      -382.179 7        44.412
S45        26.000    63482528.636 6 333603360.89306      -425.580 6        37.573
G02        27.000    23247254.235 7 122165181.68807      2100.340 7        44.566                                    23247248.495 5  95193634.84705      1636.636 5        30.106
S27        28.000    39206357.691 6 206030849.83206      -351.269 6        36.200
E21        30.000    27414768.615 6 144065589.15506      1301.264 6        39.348                                                                    27414769.079 7 107581451.95807       971.624 7        42.772    27414768.645 7 110387921.06707       997.096 7        42.940
C43        31.000                                                                                                                                    21899646.337 8 114037310.49708     -1490.309 8        50.880                                                                    21899644.627 8  92664698.41308     -1211.005 8        49.544
C42        32.000                                                                                                                                    22489438.868 8 117108431.73608      -279.329 8        49.560                                                                    22489446.125 8  95160235.72908      -226.978 8        50.129
C28        33.000                                                                                                                                    23024962.102 7 119897022.67007      1800.407 7        47.821                                                                    23024960.927 7  97426151.63707      1462.885 7        47.136
R13        34.000    24130163.653 6 128853735.59006      2204.109 6        36.314
E34        35.000    23987235.120 7 126053976.54407     -1521.616 7        47.567                                                                    23987234.802 8  94131326.95708     -1136.297 8        50.124    23987234.693 8  96586915.58908     -1165.905 8        50.934
C14        36.000                                                                                                                                    22661695.742 7 118005401.97507      1448.054 7        47.768    22661690.902 8  91249248.87108      1119.729 8        50.794    22661689.665 8  95889032.97408      1176.620 8        48.905
R21        37.000    19857079.375 8 106259296.06508      1068.051 8        51.933                                                                    19857078.148 7  82646140.16607       830.753 7        46.594
R06        38.000    21441567.822 6 114416327.41606      3510.255 6        41.542
R05        39.000    20157481.674 8 107753319.14708     -1092.136 8        50.885                                                                    20157481.624 7  83808146.52707      -849.336 7        46.789
C27        40.000                                                                                                                                    26867689.844 6 139907109.46306      2644.887 6        36.616                                                                    26867691.132 6 113685993.25506      2149.060 6        36.756
R04        41.000    23117236.827 7 123791779.95507     -4200.413 7        44.095                                                                    23117234.181 6  96282502.41406     -3266.992 6        39.165
S44        42.000    40541120.637 6 213045238.63906      -404.333 6        37.301
G08        43.000    20332535.492 8 106848289.30508      -183.531 8        50.084                                    20332533.596 8  83258448.25808      -143.013 8        51.220    20332534.358 7  83258446.26207      -143.068 7        45.988
C05        44.000                                                                                                                                    39244091.177 6 204354313.16206      -330.158 6        38.595    39244086.568 7 158019741.37107      -255.221 7        43.249    39244088.039 6 166054721.71206      -268.138 6        40.000
C11        45.000                                                                                                                                    23076484.344 7 120165447.01407     -2419.139 7        46.351    23076480.770 8  92919605.90208     -1870.636 8        50.221    23076479.270 7  97644307.95207     -1965.765 7        47.585
E09        46.000    27296671.746 6 143444998.74506     -1544.219 6        39.997                                                                    27296671.102 6 107118030.68506     -1153.117 6        41.197    27296670.803 7 109912411.02707     -1183.119 7        42.548
C33        47.000                                                                                                                                    24041929.243 7 125192652.27807      2663.989 7        46.614                                                                    24041940.929 7 101729340.75607      2164.689 7        46.912
C21        48.000                                                                                                                                    25111192.025 7 130760595.47707     -2971.941 7        43.300                                                                    25111186.851 7 106253682.23107     -2414.957 7        44.293
E06        49.000    28524234.059 6 149895869.75106     -2419.098 6        36.034                                                                    28524235.301 6 111935228.82306     -1806.369 6        39.619    28524235.195 6 114855275.90006     -1853.483 6        39.967
S48        51.000    77254899.571 6 405977789.66606      -412.689 6        37.603
C08        52.000                                                                                                                                    40161364.015 5 209130867.62505     -1576.863 5        35.671    40161359.643 6 161713282.01006     -1219.406 6        40.207    40161358.194 6 169935978.39206     -1281.378 6        37.357
C34        53.000                                                                                                                                    24955543.640 7 129950331.26007     -3216.547 7        43.405                                                                    24955543.140 7 105595403.05607     -2613.679 7        43.024
C60        54.000                                                                                                                                    40541126.211 6 211108483.16406      -400.683 6        39.628                                                                    40541109.914 6 171542904.34506      -325.575 6        39.640
R12        55.000    22440194.281 7 119871484.16707      -495.160 7        47.501                                                                    22440195.467 7  93233377.78307      -385.083 7        43.405
I09        56.000    37794692.328 7 148314520.21307       201.255 7        42.741
C02        57.000                                                                                                                                    40597639.977 5 211402609.58205      -354.339 5        33.269    40597633.477 6 163469900.68006      -273.926 6        39.688    40597637.300 6 171781939.55306      -288.035 6        36.049
I03        58.000    79244219.871 6 235186093.92006      1100.200 6        40.696
E30        59.000    26761258.554 6 140631572.67606     -3325.716 6        41.921                                                                    26761259.366 7 105017200.13307     -2483.406 7        44.643    26761258.744 7 107756762.91807     -2548.220 7        44.867
R20        60.000    20576024.821 6 110029460.58506     -2342.640 6        37.180                                                                    20576026.817 7  85578538.29107     -1822.251 7        45.937
> 2025 01 02 21 31 35.0000000  0 54
G23         1.000    23462471.491 6 123296198.06706     -3627.605 6        41.247                                    23462467.964 4  96074981.32004     -2826.701 4        26.228    23462468.277 6  96074979.30306     -2826.485 6        40.930
C37         2.000                                                                                                                                    26394960.894 6 137445476.77706     -2534.860 6        39.694                                                                    26394965.305 6 111685727.51906     -2059.933 6        40.672
G16         3.000    25237054.298 6 132621793.33306     -4111.792 6        36.994                                    25237051.412 3 103341735.00603     -3203.974 3        18.478
G21         4.000    21455942.281 7 112751795.93407      1227.607 7        44.698                                    21455937.451 5  87858546.72805       956.578 5        34.043
S21         5.000    38505155.224 6 202345659.52006      -383.302 6        41.604
E13         6.000    27981005.145 6 147041194.03506      2015.782 6        38.054                                                                    27981007.276 6 109803508.48506      1505.194 6        39.670    27981006.673 6 112667943.84606      1544.551 6        39.775
G10         7.000    21060511.824 8 110673804.28908     -1654.075 8        50.427                                    21060509.906 8  86239344.62708     -1288.889 8        52.123    21060509.679 7  86239338.62707     -1288.945 7        46.283
E15         8.000    24043345.961 7 126348744.26207       763.893 7        47.755                                                                    24043346.454 8  94351403.12308       570.470 8        50.608    24043345.988 8  96812731.94008       585.347 8        51.120
E36         9.000    27894954.485 6 146589148.44906     -2778.547 6        37.989                                                                    27894956.375 6 109466060.81706     -2074.936 6        41.979    27894955.786 6 112321685.08206     -2128.895 6        41.466
G27        10.000    20956277.558 8 110126134.02208     -2558.084 8        49.665                                    20956275.575 8  85812642.35708     -1993.312 8        51.347    20956276.013 7  85812644.36207     -1993.407 7        45.002
G14        11.000    25102303.593 6 131913508.69506      2170.998 6        38.577                                    25102300.979 3 102789741.63603      1691.687 3        20.929    25102300.429 6 102789745.61706      1691.836 6        37.452
G32        12.000    23089437.113 7 121335829.41207      2138.910 7        44.594                                    23089435.906 7  94547397.68907      1666.684 7        42.667    23089436.314 7  94547370.69507      1666.637 7        42.599
S36        14.000    38273709.455 7 201130217.42807      -382.447 7        43.869
C13        15.000                                                                                                                                    39492980.701 6 205650368.58106     -1408.514 6        39.937    39492982.338 6 159021943.43006     -1089.146 6        41.659    39492980.416 6 167107792.08106     -1144.459 6        39.498
E27        18.000    25400375.320 7 133479893.82007     -1321.036 7        44.391                                                                    25400375.474 7  99676548.38807      -986.492 7        47.399    25400375.015 7 102276803.38807     -1012.215 7        47.918
E05        20.000    24257364.989 7 127473332.29507      1067.081 7        43.826                                                                    24257365.151 7  95191128.00007       796.752 7        46.298    24257364.687 7  97674377.09107       817.677 7        47.087
R11        21.000    23001819.539 7 122914756.44207     -3905.862 7        45.445                                                                    23001818.882 6  95600366.88506     -3038.043 6        41.604
I06        22.000    38586397.384 6 151421537.92906      -189.787 6        41.113
E03        23.000    27229256.870 6 143090712.47806      2663.513 6        38.751                                                                    27229258.032 7 106853478.25907      1989.071 7        43.738    27229257.738 7 109640957.46507      2040.905 7        44.090
R22        24.000    23453203.634 7 125194802.76307      3033.153 7        45.397                                                                    23453202.182 6  97373743.33906      2359.129 6        39.958
S23        25.000    38231003.291 7 200905257.57207      -381.954 7        44.226
S45        26.000    63482890.681 6 333605490.39506      -425.757 6        37.520
G02        27.000    23245256.196 7 122154681.72707      2099.841 7        44.650                                    23245250.498 5  95185453.05905      1636.239 5        30.241
S27        28.000    39206692.754 5 206032606.21105      -350.937 5        35.929
E21        30.000    27413531.329 6 144059088.14706      1299.310 6        39.348                                                                    27413531.862 7 107576597.29607       970.304 7        42.736    27413531.511 7 110382939.76407       995.614 7        42.895
C43        31.000                                                                                                                                    21901078.081 8 114044766.76608     -1491.960 8        50.767                                                                    21901076.522 8  92670757.24108     -1212.232 8        49.527
C42        32.000                                                                                                                                    22489708.471 8 117109835.76008      -282.107 8        49.470                                                                    22489715.712 8  95161376.61108      -229.075 8        50.144
C28        33.000                                                                                                                                    23023234.017 7 119888023.95707      1799.382 7        47.664                                                                    23023232.813 7  97418839.45207      1462.228 7        47.194
R13        34.000    24128102.647 6 128842723.50206      2201.042 6        37.505
E34        35.000    23988683.281 7 126061587.37807     -1522.428 7        47.479                                                                    23988683.092 8  94137010.37308     -1136.863 8        50.082    23988682.984 8  96592747.27408     -1166.526 8        50.977
C14        36.000                                                                                                                                    22660305.601 7 117998168.21207      1445.675 7        47.507    22660301.892 8  91243655.26308      1117.898 8        50.837    22660300.507 8  95883154.94708      1174.872 8        48.933
R21        37.000    19856082.062 8 106253960.94808      1066.229 8        52.026                                                                    19856081.213 7  82641990.62207       829.368 7        46.860
R06        38.000    21438279.240 6 114398782.21706      3508.136 6        40.870
R05        39.000    20158506.148 8 107758791.76208     -1096.653 8        51.408                                                                    20158505.407 7  83812403.01207      -852.929 7        47.083
C27        40.000                                                                                                                                    26865150.361 6 139893886.26406      2644.910 6        37.800                                                                    26865151.706 6 113675248.28506      2149.221 6        36.499
R04        41.000    23121160.056 7 123812787.62107     -4202.393 7        44.245                                                                    23121157.395 6  96298841.70206     -3268.422 6        38.150
S44        42.000    40541509.735 6 213047260.38306      -404.057 6        37.274
G08        43.000    20332711.683 8 106849214.63408      -186.343 8        50.506                                    20332709.666 8  83259169.29308      -145.202 8        51.221    20332710.282 7  83259167.30207      -145.186 7        45.616
C05        44.000                                                                                                                                    39244408.331 6 204355964.04106      -329.916 6        38.535    39244403.669 7 158021017.94707      -255.251 7        43.278    39244405.015 6 166056063.19106      -268.073 6        40.136
C11        45.000                                                                                                                                    23078807.678 7 120177546.38307     -2420.360 7        46.148    23078803.971 8  92928961.89808     -1871.571 8        50.091    23078802.895 7  97654139.67707     -1966.603 7        47.681
E09        46.000    27298141.817 6 143452725.28306     -1546.115 6        40.067                                                                    27298141.373 6 107123800.52606     -1154.817 6        41.211    27298141.117 7 109918331.36507     -1184.681 7        42.665
C33        47.000                                                                                                                                    24039372.148 7 125179336.43507      2662.613 7        46.778                                                                    24039383.891 7 101718520.54507      2163.699 7        46.900
C21        48.000                                                                                                                                    25114046.591 7 130775459.85507     -2973.522 7        43.725                                                                    25114041.354 7 106265760.75407     -2416.077 7        44.275
E06        49.000    28526535.910 5 149907968.88605     -2420.432 5        35.695                                                                    28526537.601 6 111944263.87606     -1807.481 6        39.414    28526537.705 6 114864546.66606     -1854.677 6        39.763
S48        51.000    77255271.722 6 405979853.10406      -412.507 6        37.285
C08        52.000                                                                                                                                    40162878.826 5 209138752.20205     -1576.867 5        35.690    40162873.224 6 161719378.83406     -1219.100 6        40.346    40162872.387 6 169942385.22206     -1280.968 6        37.482
C34        53.000                                                                                                                                    24958632.469 7 129966416.14907     -3217.197 7        42.573                                                                    24958631.952 7 105608473.34107     -2614.005 7        43.117
C60        54.000                                                                                                                                    40541510.820 6 211110486.55006      -400.516 6        39.625                                                                    40541494.541 6 171544532.25206      -325.348 6        39.547
R12        55.000    22440660.317 7 119873971.18607      -499.366 7        47.309                                                                    22440660.947 7  93235312.10607      -388.285 7        43.405
I09        56.000    37794436.033 7 148313514.73207       201.102 7        42.675
C02        57.000                                                                                                                                    40597979.400 5 211404381.76105      -354.302 5        33.371    40597973.821 6 163471271.04406      -273.854 6        39.922    40597977.747 6 171783379.58906      -287.790 6        36.416
I03        58.000    79242818.020 6 235180593.32506      1100.327 6        40.465
E30        59.000    26764423.463 7 140648203.38007     -3326.364 7        42.222                                                                    26764423.839 7 105029619.16707     -2484.014 7        44.530    26764423.691 7 107769505.91407     -2548.707 7        44.947
R20        60.000    20578216.312 6 110041180.06306     -2344.714 6        37.301                                                                    20578218.959 7  85587653.42107     -1823.643 7        46.381
> 2025 01 02 21 31 40.0000000  0 54
G23         1.000    23465923.666 6 123314338.27006     -3628.484 6        41.333                                    23465920.039 4  96089116.54204     -2827.396 4        26.263    23465920.626 6  96089114.54506     -2827.355 6        40.789
C37         2.000                                                                                                                                    26397396.074 6 137458155.84906     -2536.562 6        39.994                                                                    26397400.285 6 111696030.32606     -2061.229 6        40.577
G16         3.000    25240966.256 6 132642351.31306     -4111.197 6        37.077                                    25240963.626 3 103357754.18803     -3203.491 3        18.179
G21         4.000    21454775.194 7 112745661.96607      1226.133 7        44.364                                    21454770.174 5  87853767.01705       955.432 5        34.062
S21         5.000    38505521.593 6 202347576.63806      -383.311 6        41.776
E13         6.000    27979087.889 6 147031116.18506      2015.569 6        37.543                                                                    27979089.737 6 109795982.82406      1505.038 6        39.703    27979088.832 6 112660221.87006      1544.388 6        39.682
G10         7.000    21062086.852 8 110682080.92508     -1656.446 8        50.675                                    21062084.901 8  86245793.95408     -1290.737 8        52.133    21062084.898 7  86245787.95307     -1290.703 7        46.096
E15         8.000    24042619.514 7 126344927.36907       763.006 7        47.620                                                                    24042620.139 8  94348552.85708       569.740 8        50.660    24042619.655 8  96809807.31308       584.660 8        51.101
E36         9.000    27897598.109 6 146603042.24106     -2778.767 6        37.346                                                                    27897600.266 6 109476436.04206     -2075.074 6        41.745    27897599.457 6 112332330.97306     -2129.129 6        41.664
G27        10.000    20958712.969 8 110138930.92708     -2560.588 8        49.986                                    20958710.732 8  85822613.97008     -1995.263 8        51.361    20958711.234 7  85822615.96807     -1995.226 7        45.314
G14        11.000    25100239.373 6 131902659.39306      2168.835 6        38.556                                    25100236.302 3 102781287.63803      1690.017 3        20.810    25100237.027 6 102781291.63406      1690.217 6        37.221
G32        12.000    23087403.086 7 121325140.30607      2137.077 7        44.509                                    23087401.850 7  94539068.51907      1665.255 7        42.512    23087401.776 7  94539041.52707      1665.195 7        42.504
S36        14.000    38274073.052 7 201132129.94007      -382.543 7        44.047
C13        15.000                                                                                                                                    39494333.446 6 205657410.66506     -1408.341 6        40.262    39494334.859 6 159027388.81706     -1088.991 6        41.743    39494332.838 6 167113514.35106     -1144.360 6        39.312
E27        18.000    25401633.712 7 133486505.12407     -1323.348 7        44.512                                                                    25401633.590 7  99681485.40307      -988.235 7        47.494    25401633.091 7 102281869.19707     -1014.011 7        47.916
E05        20.000    24256350.373 7 127468002.18707      1065.034 7        44.026                                                                    24256350.941 7  95187147.73407       795.326 7        46.368    24256350.401 7  97670292.99507       816.056 7        46.993
R11        21.000    23005475.601 7 122934291.05407     -3907.809 7        46.122                                                                    23005474.601 7  95615560.46007     -3039.296 7        42.389
I06        22.000    38586638.700 6 151422487.27006      -189.886 6        41.063
E03        23.000    27226722.646 6 143077395.88006      2663.115 6        39.012                                                                    27226724.013 7 106843534.05407      1988.840 7        43.890    27226723.682 7 109630753.84707      2040.658 7        44.190
R22        24.000    23450362.123 7 125179637.14707      3033.344 7        44.173                                                                    23450360.698 6  97361947.89106      2359.045 6        39.303
S23        25.000    38231367.223 7 200907167.92407      -381.903 7        44.257
S45        26.000    63483248.107 6 333607619.40706      -425.818 6        37.444
G02        27.000    23243258.703 7 122144184.84907      2099.140 7        44.602                                    23243252.948 5  95177273.68005      1635.692 5        30.347
S27        28.000    39207023.869 5 206034362.57205      -351.063 5        35.905
E21        30.000    27412296.255 6 144052596.49106      1297.591 6        39.868                                                                    27412296.594 7 107571749.64807       968.648 7        42.857    27412296.154 7 110377965.64107       994.199 7        42.999
C43        31.000                                                                                                                                    21902511.566 8 114052231.44208     -1493.815 8        50.923                                                                    21902510.030 8  92676822.91708     -1213.851 8        49.465
C42        32.000                                                                                                                                    22489980.611 8 117111253.65308      -284.949 8        49.451                                                                    22489988.011 8  95162528.79208      -231.574 8        50.120
C28        33.000                                                                                                                                    23021506.523 8 119879029.72708      1798.426 8        48.002                                                                    23021505.622 7  97411530.92107      1461.333 7        47.076
R13        34.000    24126042.259 6 128831726.78106      2197.695 6        36.529
E34        35.000    23990132.258 7 126069201.95707     -1523.252 7        47.680                                                                    23990132.090 8  94142696.58708     -1137.558 8        50.183    23990132.043 8  96598581.82308     -1167.171 8        50.963
C14        36.000                                                                                                                                    22658918.598 8 117990946.27308      1443.190 8        48.005    22658914.913 8  91238070.81108      1115.963 8        50.950    22658913.588 8  95877286.54808      1172.651 8        48.818
R21        37.000    19855086.854 8 106248634.99608      1064.322 8        51.836                                                                    19855086.025 7  82637848.21307       827.824 7        47.264
R06        38.000    21434992.651 6 114381247.93806      3505.739 6        40.503
R05        39.000    20159534.032 8 107764286.82408     -1101.251 8        51.056                                                                    20159533.297 7  83816676.94807      -856.528 7        47.291
C27        40.000                                                                                                                                    26862610.419 6 139880661.55406      2644.956 6        36.643                                                                    26862612.195 6 113664502.18106      2149.268 6        36.450
R04        41.000    23125084.565 7 123833804.91107     -4204.445 7        44.615                                                                    23125083.277 6  96315188.48306     -3269.984 6        39.384
S44        42.000    40541893.110 6 213049281.68406      -404.097 6        37.433
G08        43.000    20332890.467 8 106850154.22308      -189.419 8        50.434                                    20332888.446 8  83259901.44308      -147.600 8        51.202    20332889.410 7  83259899.44607      -147.577 7        45.801
C05        44.000                                                                                                                                    39244725.834 6 204357614.39806      -329.923 6        38.580    39244720.385 7 158022294.11107      -255.233 7        43.409    39244721.874 6 166057404.27006      -268.257 6        39.874
C11        45.000                                                                                                                                    23081132.596 7 120189651.77307     -2421.718 7        46.357    23081128.847 8  92938322.54908     -1872.575 8        50.273    23081127.597 7  97663976.31607     -1967.806 7        47.617
E09        46.000    27299614.427 6 143460462.56406     -1548.564 6        40.253                                                                    27299613.702 6 107129578.35406     -1156.488 6        41.435    27299613.460 7 109924259.93407     -1186.553 7        42.838
C33        47.000                                                                                                                                    24036816.146 7 125166027.27207      2661.142 7        46.699                                                                    24036828.017 7 101707705.78007      2162.407 7        46.740
C21        48.000                                                                                                                                    25116903.254 7 130790332.15907     -2975.275 7        43.772                                                                    25116897.693 7 106277845.74107     -2417.625 7        44.268
E06        49.000    28528839.565 6 149920075.80506     -2421.803 6        36.159                                                                    28528841.486 6 111953304.73406     -1808.740 6        39.949    28528841.534 6 114873823.36706     -1855.853 6        40.219
S48        51.000    77255640.734 6 405981916.02706      -412.571 6        37.641
C08        52.000                                                                                                                                    40164393.527 6 209146635.33806     -1576.405 6        36.057    40164387.313 6 161725474.58506     -1218.926 6        40.455    40164386.026 6 169948790.94806     -1280.933 6        37.225
C34        53.000                                                                                                                                    24961721.425 7 129982504.23407     -3217.931 7        42.381                                                                    24961721.664 7 105621546.23507     -2614.863 7        43.170
C60        54.000                                                                                                                                    40541895.518 6 211112489.47106      -400.560 6        39.447                                                                    40541879.216 6 171546159.81506      -325.468 6        39.342
R12        55.000    22441130.007 7 119876479.34507      -503.731 7        47.005                                                                    22441130.367 7  93237262.90407      -391.782 7        43.818
I09        56.000    37794180.308 7 148312510.02207       200.842 7        42.804
C02        57.000                                                                                                                                    40598320.446 5 211406153.45205      -354.351 5        33.335    40598314.112 6 163472641.04506      -273.984 6        40.195    40598317.698 6 171784819.27406      -288.063 6        36.318
I03        58.000    79241416.486 6 235175092.50406      1100.264 6        40.548
E30        59.000    26767588.952 7 140664837.19207     -3327.009 7        42.698                                                                    26767589.011 7 105042040.51707     -2484.447 7        44.477    26767588.770 7 107782251.31107     -2549.250 7        44.846
R20        60.000    20580409.510 6 110052908.22106     -2346.380 6        37.414                                                                    20580412.292 7  85596775.31007     -1824.992 7        46.734
> 2025 01 02 21 31 45.0000000  0 54
G23         1.000    23469376.168 6 123332483.07206     -3629.297 6        41.414                                    23469372.949 4  96103255.35104     -2828.024 4        26.443    23469373.213 6  96103253.34706     -2828.139 6        40.794
C37         2.000                                                                                                                                    26399832.017 6 137470841.90006     -2537.913 6        40.274                                                                    26399836.404 6 111706338.79306     -2062.414 6        40.415
G16         3.000    25244877.944 6 132662907.34806     -4111.055 6        36.809                                    25244875.432 2 103373771.87602     -3203.418 2        17.434
G21         4.000    21453608.904 7 112739535.26607      1224.644 7        44.092                                    21453604.328 5  87848992.97305       954.269 5        33.946
S21         5.000    38505887.806 6 202349493.72506      -383.317 6        41.857
E13         6.000    27977170.262 6 147021039.14106      2015.320 6        37.422                                                                    27977172.079 6 109788457.77106      1504.999 6        39.574    27977171.341 6 112652500.50806      1544.214 6        39.715
G10         7.000    21063664.359 8 110690369.65708     -1658.854 8        50.522                                    21063662.195 8  86252252.70708     -1292.614 8        52.073    21063662.038 7  86252246.70807     -1292.620 7        46.006
E15         8.000    24041893.958 7 126341114.95907       762.045 7        47.529                                                                    24041894.693 8  94345705.92008       569.116 8        50.558    24041894.205 8  96806886.11208       583.927 8        51.062
E36         9.000    27900241.601 6 146616936.47106     -2778.961 6        36.801                                                                    27900244.195 6 109486811.60806     -2075.085 6        41.416    27900243.421 6 112342977.20406     -2129.344 6        41.673
G27        10.000    20961150.743 8 110151740.17408     -2563.164 8        49.436                                    20961148.240 8  85832595.20208     -1997.270 8        51.283    20961148.895 7  85832597.20207     -1997.302 7        45.342
G14        11.000    25098176.741 6 131891820.50506      2166.546 6        38.399                                    25098173.484 3 102772841.76103      1688.217 3        20.500    25098174.491 6 102772845.76706      1688.340 6        38.051
G32        12.000    23085370.692 7 121314460.71307      2135.019 7        44.950                                    23085369.529 7  94530746.76807      1663.651 7        42.461    23085369.599 7  94530719.75707      1663.677 7        42.222
S36        14.000    38274440.297 7 201134042.96707      -382.719 7        43.987
C13        15.000                                                                                                                                    39495685.252 6 205664452.31506     -1408.323 6        40.231    39495687.007 6 159032833.86006     -1088.911 6        41.635    39495685.025 6 167119236.27706     -1144.328 6        39.565
E27        18.000    25402894.060 7 133493128.10707     -1325.708 7        44.331                                                                    25402893.860 7  99686431.14507      -989.973 7        47.357    25402893.451 7 102286943.95207     -1015.794 7        47.951
E05        20.000    24255338.172 7 127462682.57707      1062.946 7        43.738                                                                    24255338.756 7  95183175.29807       793.798 7        46.316    24255338.139 7  97666216.93107       814.451 7        47.045
R11        21.000    23009132.943 7 122953834.86407     -3909.657 7        45.959                                                                    23009131.629 6  95630761.17406     -3040.735 6        41.466
I06        22.000    38586880.930 6 151423436.46906      -189.768 6        41.068
E03        23.000    27224188.998 6 143064080.79606      2662.830 6        38.844                                                                    27224190.174 7 106833590.98707      1988.488 7        43.757    27224189.833 7 109620551.39507      2040.394 7        44.122
R22        24.000    23447520.211 7 125164471.88607      3033.053 7        44.704                                                                    23447520.537 6  97350152.68706      2359.023 6        38.793
S23        25.000    38231730.453 7 200909078.37107      -381.987 7        44.105
S45        26.000    63483608.832 6 333609748.31206      -425.607 6        37.524
G02        27.000    23241261.492 7 122133691.63207      2098.322 7        44.459                                    23241256.154 5  95169097.15205      1635.058 5        30.460
S27        28.000    39207359.536 6 206036118.13206      -351.031 6        36.026
E21        30.000    27411062.696 6 144046114.77306      1295.382 6        39.712                                                                    27411063.308 7 107566909.40007       967.356 7        42.836    27411062.757 7 110372999.13607       992.514 7        43.101
C43        31.000                                                                                                                                    21903946.936 8 114059705.06408     -1495.612 8        51.140                                                                    21903945.252 8  92682895.84708     -1215.318 8        49.404
C42        32.000                                                                                                                                    22490255.857 8 117112685.97508      -287.882 8        49.693                                                                    22490263.082 8  95163692.66608      -233.983 8        50.044
C28        33.000                                                                                                                                    23019780.207 8 119870040.54208      1797.365 8        48.055                                                                    23019779.311 7  97404226.47007      1460.492 7        47.002
R13        34.000    24123985.171 5 128820746.00905      2194.720 5        35.867
E34        35.000    23991582.035 7 126076820.82707     -1524.161 7        47.613                                                                    23991581.908 8  94148386.00808     -1138.169 8        50.082    23991581.862 8  96604419.66008     -1167.811 8        50.973
C14        36.000                                                                                                                                    22657534.587 8 117983736.73808      1440.659 8        48.176    22657530.550 8  91232495.94108      1114.093 8        50.745    22657529.039 8  95871428.21908      1170.584 8        48.718
R21        37.000    19854093.784 8 106243318.65408      1062.358 8        52.085                                                                    19854092.384 7  82633713.29407       826.232 7        46.917
R06        38.000    21431708.941 6 114363725.10406      3503.430 6        40.482
R05        39.000    20160565.798 8 107769805.02508     -1105.910 8        50.749                                                                    20160565.653 7  83820968.89707      -860.197 7        47.170
C27        40.000                                                                                                                                    26860071.372 6 139867436.00806      2645.158 6        36.329                                                                    26860072.220 6 113653755.34006      2149.339 6        36.628
R04        41.000    23129010.466 7 123854832.50207     -4206.663 7        43.515                                                                    23129009.921 6  96331543.29706     -3271.731 6        39.748
S44        42.000    40542277.526 6 213051303.10606      -404.249 6        37.395
G08        43.000    20333072.113 8 106851108.62408      -192.335 8        50.274                                    20333070.052 8  83260645.13508      -149.873 8        51.166    20333071.012 7  83260643.13507      -149.870 7        45.967
C05        44.000                                                                                                                                    39245042.197 6 204359264.79906      -330.151 6        38.862    39245037.356 7 158023570.30207      -255.327 7        43.420    39245038.898 6 166058745.34006      -268.192 6        39.949
C11        45.000                                                                                                                                    23083458.856 7 120201763.71707     -2423.123 7        46.292    23083454.898 8  92947688.27908     -1873.640 8        50.272    23083453.475 7  97673818.26207     -1969.012 7        47.504
E09        46.000    27301088.628 6 143468211.08506     -1550.818 6        40.410                                                                    27301088.337 6 107135364.59006     -1158.011 6        41.347    27301088.019 7 109930197.12907     -1188.310 7        42.836
C33        47.000                                                                                                                                    24034261.528 7 125152725.36107      2659.661 7        46.515                                                                    24034273.620 7 101696896.88807      2161.214 7        46.814
C21        48.000                                                                                                                                    25119760.824 7 130805212.88407     -2976.864 7        43.640                                                                    25119755.619 7 106289937.55207     -2419.102 7        44.426
E06        49.000    28531145.353 5 149932191.05105     -2424.126 5        35.829                                                                    28531146.959 6 111962351.78206     -1809.952 6        39.240    28531146.828 6 114883106.42806     -1857.198 6        39.751
S48        51.000    77256008.985 6 405983978.86606      -412.414 6        37.433
C08        52.000                                                                                                                                    40165907.421 6 209154517.59506     -1576.335 6        36.144    40165900.980 6 161731569.64806     -1218.769 6        40.572    40165899.814 6 169955195.93306     -1281.010 6        37.115
C34        53.000                                                                                                                                    24964811.798 7 129998596.06107     -3218.722 7        42.845                                                                    24964812.186 7 105634622.16107     -2615.537 7        43.291
C60        54.000                                                                                                                                    40542279.948 6 211114492.49806      -400.708 6        39.643                                                                    40542263.776 6 171547787.44006      -325.396 6        39.568
R12        55.000    22441602.905 7 119879009.22507      -508.106 7        47.028                                                                    22441604.127 7  93239230.60007      -395.195 7        42.703
I09        56.000    37793924.665 7 148311506.52607       200.510 7        42.880
C02        57.000                                                                                                                                    40598661.465 5 211407925.24905      -354.489 5        33.988    40598654.241 6 163474011.12206      -274.060 6        40.131    40598658.064 5 171786258.99805      -288.061 5        35.986
I03        58.000    79240014.464 6 235169591.87506      1100.092 6        40.641
E30        59.000    26770754.867 7 140681474.67707     -3327.886 7        42.370                                                                    26770755.235 7 105054464.61407     -2485.147 7        44.423    26770754.684 7 107794999.50907     -2549.872 7        44.876
R20        60.000    20582605.663 6 110064645.64706     -2348.357 6        37.974                                                                    20582606.759 7  85605904.42907     -1826.543 7        46.295
> 2025 01 02 21 31 50.0000000  0 54
G23         1.000    23472829.592 6 123350632.11606     -3630.037 6        40.918                                    23472826.509 4  96117397.45504     -2828.596 4        26.048    23472826.582 6  96117395.46106     -2828.622 6        40.889
C37         2.000                                                                                                                                    26402269.755 6 137483534.60106     -2539.089 6        39.676                                                                    26402273.663 6 111716652.64006     -2063.297 6        40.374
G16         3.000    25248789.381 6 132683461.19506     -4110.245 6        36.544                                    25248786.622 2 103389787.83902     -3202.804 2        17.434
G21         4.000    21452444.385 7 112733415.50807      1223.402 7        44.208                                    21452439.753 5  87844224.33405       953.300 5        33.964
S21         5.000    38506253.240 7 202351410.39407      -383.110 7        42.034
E13         6.000    27975252.181 6 147010962.58406      2015.367 6        37.561                                                                    27975254.555 6 109780933.06906      1504.991 6        39.856    27975253.741 6 112644779.51106      1544.363 6        39.607
G10         7.000    21065243.556 8 110698670.13208     -1661.096 8        50.152                                    21065241.724 8  86258720.61008     -1294.360 8        52.063    21065241.826 7  86258714.61507     -1294.325 7        46.123
E15         8.000    24041169.384 7 126337306.65507       761.449 7        47.543                                                                    24041169.988 8  94342862.05908       568.602 8        50.553    24041169.505 8  96803968.06108       583.481 8        50.993
E36         9.000    27902886.129 6 146630830.76906     -2778.651 6        36.352                                                                    27902888.080 6 109497187.22406     -2075.014 6        40.989    27902887.424 6 112353623.48406     -2129.123 6        41.602
G27        10.000    20963590.170 8 110164561.37708     -2565.247 8        49.451                                    20963588.042 8  85842585.75008     -1998.892 8        51.270    20963588.351 7  85842587.75207     -1998.911 7        45.026
G14        11.000    25096115.813 6 131880991.65606      2164.886 6        38.159                                    25096112.723 3 102764403.71703      1686.932 3        20.738    25096113.147 6 102764407.72806      1686.963 6        38.462
G32        12.000    23083340.456 7 121303790.26607      2133.372 7        45.103                                    23083338.929 7  94522432.13707      1662.369 7        42.408    23083338.444 7  94522405.14107      1662.347 7        42.140
S36        14.000    38274803.823 7 201135956.25107      -382.638 7        44.032
C13        15.000                                                                                                                                    39497037.722 6 205671493.13806     -1407.937 6        40.191    39497038.944 6 159038278.27206     -1088.652 6        41.692    39497037.135 6 167124957.52906     -1144.111 6        39.541
E27        18.000    25404156.763 7 133499762.41307     -1327.778 7        44.296                                                                    25404156.385 7  99691385.33507      -991.569 7        47.376    25404155.941 7 102292027.38807     -1017.374 7        47.824
E05        20.000    24254327.830 7 127457373.11307      1060.965 7        43.515                                                                    24254328.456 7  95179210.43907       792.396 7        46.353    24254327.818 7  97662148.64307       813.065 7        46.807
R11        21.000    23012791.291 7 122973387.56507     -3911.231 7        45.589                                                                    23012790.908 6  95645968.83706     -3042.083 6        41.271
I06        22.000    38587122.398 6 151424385.27506      -189.494 6        41.004
E03        23.000    27221655.433 6 143050766.88606      2662.996 6        38.850                                                                    27221656.614 7 106823648.80207      1988.426 7        43.676    27221656.365 7 109610349.83907      2040.386 7        43.824
R22        24.000    23444678.974 7 125149306.55307      3033.193 7        44.212                                                                    23444678.866 6  97338357.45506      2359.401 6        39.366
S23        25.000    38232094.117 7 200910988.43607      -381.832 7        44.229
S45        26.000    63483965.574 6 333611876.86006      -425.634 6        37.463
G02        27.000    23239265.437 7 122123201.66007      2097.797 7        44.226                                    23239260.008 5  95160923.14805      1634.643 5        30.294
S27        28.000    39207693.038 6 206037873.25306      -350.564 6        36.136
E21        30.000    27409830.643 6 144039642.65706      1293.574 6        39.937                                                                    27409831.713 7 107562076.30907       965.998 7        43.009    27409831.002 7 110368039.96907       991.319 7        43.001
C43        31.000                                                                                                                                    21905383.760 8 114067187.29908     -1497.205 8        51.090                                                                    21905382.123 8  92688975.78108     -1216.592 8        49.484
C42        32.000                                                                                                                                    22490533.490 8 117114132.38308      -290.557 8        49.525                                                                    22490540.855 8  95164867.99608      -236.086 8        50.123
C28        33.000                                                                                                                                    23018054.549 7 119861056.05807      1796.502 7        47.951                                                                    23018053.908 7  97396925.84907      1459.863 7        47.132
R13        34.000    24121932.495 5 128809780.88105      2191.609 5        35.519
E34        35.000    23993032.656 7 126084443.65407     -1524.848 7        47.614                                                                    23993032.494 8  94154078.37908     -1138.624 8        50.058    23993032.443 8  96610260.52408     -1168.270 8        50.931
C14        36.000                                                                                                                                    22656152.093 8 117976539.24808      1438.395 8        48.069    22656148.098 8  91226930.38508      1112.402 8        50.693    22656146.830 8  95865579.67308      1168.814 8        48.858
R21        37.000    19853102.162 8 106238011.58808      1060.665 8        52.244                                                                    19853100.436 7  82629585.57407       825.009 7        47.047
R06        38.000    21428426.974 6 114346213.37306      3501.474 6        40.751
R05        39.000    20161602.458 8 107775345.85908     -1110.248 8        50.895                                                                    20161601.893 7  83825278.43007      -863.518 7        46.551
C27        40.000                                                                                                                                    26857531.511 6 139854209.26706      2645.832 6        36.983                                                                    26857532.084 6 113643007.52506      2149.802 6        36.658
R04        41.000    23132939.119 7 123875869.98807     -4208.213 7        43.651                                                                    23132937.687 6  96347905.79506     -3273.188 6        39.123
S44        42.000    40542663.190 6 213053324.26606      -404.104 6        37.331
G08        43.000    20333256.275 8 106852077.50408      -195.050 8        50.100                                    20333254.426 8  83261400.11008      -151.986 8        51.174    20333255.324 7  83261398.11107      -152.034 7        45.851
C05        44.000                                                                                                                                    39245359.136 6 204360914.88206      -329.868 6        38.889    39245354.416 7 158024846.24107      -254.934 7        43.386    39245355.847 6 166060086.18006      -268.045 6        40.040
C11        45.000                                                                                                                                    23085785.522 7 120213881.93407     -2424.141 7        46.165    23085782.126 8  92957058.84208     -1874.397 8        50.346    23085780.659 7  97683665.30907     -1969.808 7        47.628
E09        46.000    27302565.284 6 143475970.55106     -1552.880 6        40.367                                                                    27302565.007 6 107141159.00306     -1159.570 6        41.492    27302564.870 7 109936142.68007     -1189.695 7        42.777
C33        47.000                                                                                                                                    24031708.851 7 125139430.36307      2658.337 7        46.850                                                                    24031720.402 7 101686093.62307      2160.166 7        46.948
C21        48.000                                                                                                                                    25122620.115 7 130820101.72707     -2978.533 7        43.596                                                                    25122614.896 7 106302035.94707     -2420.227 7        44.683
E06        49.000    28533452.888 5 149944314.16905     -2425.038 5        35.710                                                                    28533453.979 6 111971404.74806     -1811.130 6        39.532    28533453.666 6 114892395.56106     -1858.234 6        39.805
S48        51.000    77256377.626 6 405986041.27606      -412.456 6        37.006
C08        52.000                                                                                                                                    40167420.509 6 209162398.72106     -1575.889 6        36.106    40167414.212 6 161737663.84506     -1218.461 6        40.501    40167413.428 6 169961600.01306     -1280.848 6        37.059
C34        53.000                                                                                                                                    24967903.072 7 130014691.30707     -3219.362 7        42.950                                                                    24967903.163 7 105647700.86607     -2615.889 7        43.287
C60        54.000                                                                                                                                    40542664.973 6 211116495.28806      -400.475 6        39.616                                                                    40542648.541 6 171549414.88006      -325.319 6        39.679
R12        55.000    22442080.954 7 119881560.47007      -512.193 7        47.022                                                                    22442081.736 7  93241214.90107      -398.390 7        43.477
I09        56.000    37793669.214 7 148310503.95407       200.516 7        42.900
C02        57.000                                                                                                                                    40599001.004 5 211409696.86405      -354.118 5        33.886    40598994.532 6 163475381.03706      -273.796 6        40.052    40598998.225 6 171787698.60806      -287.844 6        36.352
I03        58.000    79238612.703 6 235164091.13206      1100.368 6        40.546
E30        59.000    26773921.318 7 140698115.48007     -3328.281 7        42.019                                                                    26773922.011 7 105066891.17007     -2485.434 7        44.444    26773921.448 7 107807750.24407     -2550.270 7        44.755
R20        60.000    20584802.119 6 110076392.09006     -2349.895 6        37.066                                                                    20584803.715 7  85615040.55007     -1827.816 7        46.294
