     3.04           OBSERVATION DATA    M                   RINEX VERSION / TYPE
ssrcrin-15.6.1x                         20250102 021500 UTC PGM / RUN BY / DATE 
(00000000023479385599111004) Septentrio proprietary         COMMENT             
rref                                                        MARKER NAME         
01                                                          MARKER NUMBER       
geodetic                                                    MARKER TYPE         
NFB                 CLIMERS@TUW                             OBSERVER / AGENCY   
3297213             SEPT ASTERX SB3 PROB4.14.4              REC # / TYPE / VERS 
Unknown             Unknown                                 ANT # / TYPE        
  4127832.1585  1207193.1867  4695247.8565                  APPROX POSITION XYZ 
        0.0000        0.0000        0.0000                  ANTENNA: DELTA H/E/N
G   23 X1  C1C L1C D1C S1C C1W S1W C2W L2W D2W S2W C2L L2L  SYS / # / OBS TYPES 
       D2L S2L C5Q L5Q D5Q S5Q C1L L1L D1L S1L              SYS / # / OBS TYPES 
E   21 X1  C1C L1C D1C S1C C6C L6C D6C S6C C5Q L5Q D5Q S5Q  SYS / # / OBS TYPES 
       C7Q L7Q D7Q S7Q C8Q L8Q D8Q S8Q                      SYS / # / OBS TYPES 
S    9 X1  C1C L1C D1C S1C C5I L5I D5I S5I                  SYS / # / OBS TYPES 
R   17 X1  C1C L1C D1C S1C C2P L2P D2P S2P C2C L2C D2C S2C  SYS / # / OBS TYPES 
       C3Q L3Q D3Q S3Q                                      SYS / # / OBS TYPES 
C   25 X1  C1P L1P D1P S1P C5P L5P D5P S5P C2I L2I D2I S2I  SYS / # / OBS TYPES 
       C7I L7I D7I S7I C6I L6I D6I S6I C7D L7D D7D S7D      SYS / # / OBS TYPES 
J   17 X1  C1C L1C D1C S1C C2L L2L D2L S2L C5Q L5Q D5Q S5Q  SYS / # / OBS TYPES 
       C1L L1L D1L S1L                                      SYS / # / OBS TYPES 
I    5 X1  C5A L5A D5A S5A                                  SYS / # / OBS TYPES 
SEPTENTRIO RECEIVERS OUTPUT ALIGNED CARRIER PHASES.         COMMENT             
NO FURTHER PHASE SHIFT APPLIED IN THE RINEX ENCODER.        COMMENT             
G L1C                                                       SYS / PHASE SHIFT   
G L2W                                                       SYS / PHASE SHIFT   
G L2L  0.00000                                              SYS / PHASE SHIFT   
G L5Q  0.00000                                              SYS / PHASE SHIFT   
G L1L  0.00000                                              SYS / PHASE SHIFT   
E L1C  0.00000                                              SYS / PHASE SHIFT   
E L6C  0.00000                                              SYS / PHASE SHIFT   
E L5Q  0.00000                                              SYS / PHASE SHIFT   
E L7Q  0.00000                                              SYS / PHASE SHIFT   
E L8Q  0.00000                                              SYS / PHASE SHIFT   
S L1C                                                       SYS / PHASE SHIFT   
S L5I                                                       SYS / PHASE SHIFT   
R L1C                                                       SYS / PHASE SHIFT   
R L2P  0.00000                                              SYS / PHASE SHIFT   
R L2C                                                       SYS / PHASE SHIFT   
R L3Q  0.00000                                              SYS / PHASE SHIFT   
C L1P  0.00000                                              SYS / PHASE SHIFT   
C L5P  0.00000                                              SYS / PHASE SHIFT   
C L2I                                                       SYS / PHASE SHIFT   
C L7I                                                       SYS / PHASE SHIFT   
C L6I                                                       SYS / PHASE SHIFT   
C L7D                                                       SYS / PHASE SHIFT   
J L1C                                                       SYS / PHASE SHIFT   
J L2L  0.00000                                              SYS / PHASE SHIFT   
J L5Q  0.00000                                              SYS / PHASE SHIFT   
J L1L  0.00000                                              SYS / PHASE SHIFT   
I L5A                                                       SYS / PHASE SHIFT   
  2025     1     2     2    15    0.0000000     GPS         TIME OF FIRST OBS   
 C1C    0.000 C2C    0.000 C2P    0.000                     GLONASS COD/PHS/BIS 
DBHZ                                                        SIGNAL STRENGTH UNIT
    18                                                      LEAP SECONDS        
 24 R01  1 R02 -4 R03  5 R04  6 R05  1 R06 -4 R07  5 R08  6 GLONASS SLOT / FRQ #
    R09 -2 R10 -7 R11  0 R12 -1 R13 -2 R14 -7 R15  0 R16 -1 GLONASS SLOT / FRQ #
    R17  4 R18 -3 R19  3 R20  2 R21  4 R22 -3 R23  3 R24  2 GLONASS SLOT / FRQ #
                                                            END OF HEADER       
> 2025 01 02 02 15  0.0000000  0 55
G09         1.000    21493047.769 7 112946759.09507      2171.847 7        46.597                                    21493045.166 7  88010466.67807      1692.347 7        47.698    21493045.331 7  88010466.69007      1692.215 7        43.101
G06         2.000    22869075.775 7 120177821.50507      2473.332 7        42.387                                    22869074.327 6  93645060.03606      1927.272 6        41.275    22869074.716 6  93645068.04706      1927.278 6        41.783
E11         3.000    27460352.072 5 144305130.38105      2384.108 5        35.914                                                                    27460347.765 6 107760313.11206      1780.417 6        38.195    27460347.088 6 110571448.15206      1826.834 6        38.751
R15         4.000    23402322.345 7 125054917.89507     -1881.457 7        44.439                                                                    23402320.885 6  97264922.89106     -1463.433 6        39.360
S21         5.000    38423222.140 6 201915106.36206      -475.992 6        41.569
E10         6.000    25292900.259 7 132915095.41407      1648.151 7        44.480                                                                    25292898.727 7  99254775.47807      1230.709 7        47.608    25292898.647 8 101844029.99608      1262.849 8        48.525
G28         7.000    24062671.941 6 126450208.66606     -2879.085 6        39.955                                    24062668.301 4  98532612.67504     -2243.441 4        24.391    24062667.463 6  98532620.67106     -2243.329 6        39.922
G03         8.000    20225652.668 8 106286620.73008     -1625.116 8        49.852                                    20225650.270 8  82820785.22808     -1266.323 8        51.633    20225650.928 7  82820783.23307     -1266.316 7        45.669
G02         9.000    23167825.783 7 121747792.55407     -3633.728 7        44.339                                    23167818.793 5  94868403.49305     -2831.479 5        31.600
G31        10.000    22297923.119 7 117176388.92807     -1373.025 7        44.831                                    22297918.071 6  91306261.47106     -1069.893 6        41.726    22297918.647 6  91306266.47906     -1069.953 6        41.271
C30        11.000                                                                                                                                    23860740.943 7 124249151.40707     -3398.440 7        46.489                                                                    23860741.235 7 100962615.56107     -2761.296 7        46.051
S27        12.000    39054057.863 6 205230462.22606      -468.144 6        36.628
E02        13.000    28782903.908 5 151255195.27305      -938.904 5        33.665                                                                    28782902.863 6 112950296.88506      -701.120 6        38.634    28782902.631 6 115896824.99106      -719.355 6        40.105
S36        14.000    38190605.227 7 200693493.60107      -476.305 7        44.691
I09        15.000    37283100.298 7 146306895.74607      -563.441 7        42.743
G19        16.000    22335844.545 7 117375676.59707     -1180.249 7        44.361                                    22335838.024 5  91461550.06805      -919.673 5        32.263
S45        17.000    63384781.163 6 333090316.33606      -516.292 6        37.826
E12        19.000    24139056.383 7 126851606.97807       507.108 7        44.939                                                                    24139052.430 7  94726838.37207       378.699 7        47.852    24139052.376 8  97197972.70908       388.607 8        48.507
G17        20.000    23103617.963 7 121410355.21207     -2639.271 7        44.387                                    23103613.223 6  94605461.66106     -2056.575 6        39.538    23103613.169 6  94605460.65406     -2056.529 6        39.523
E26        21.000                                                                                                                                    28216691.665 4 110728810.36204     -2664.116 4        26.635    28216691.176 4 113617363.95804     -2733.852 4        26.826
I06        22.000    38071755.439 7 149401986.18907      -276.041 7        43.130
S28        23.000    40857997.819 5 214710241.02705      -470.512 5        35.124
R08        24.000    21645681.929 8 115911679.99808      2391.639 8        48.897                                                                    21645679.287 7  90153532.59807      1860.181 7        43.695
S23        25.000    38137109.981 7 200411862.90807      -472.048 7        45.053
C25        26.000                                                                                                                                    25409361.218 7 132313208.72307      -919.627 7        42.328                                                                    25409359.175 6 107515316.09406      -747.132 6        41.981
R16        27.000    22625559.661 7 120861691.72707      1474.179 7        45.381                                                                    22625559.439 7  94003539.48107      1146.558 7        42.438
R21        29.000    22787351.198 7 121939717.55907     -5018.188 7        44.048                                                                    22787350.268 6  94842003.82506     -3902.935 6        41.542
E19        30.000    23195120.297 7 121891212.75807       690.382 7        43.943                                                                    23195117.634 7  91022661.30807       515.594 7        45.236    23195117.844 7  93397162.26807       529.051 7        46.789
C23        31.000                                                                                                                                    25320310.460 7 131849505.40007      1522.454 7        42.819                                                                    25320302.134 7 107138489.78507      1237.303 7        44.588
R23        32.000    20631062.288 8 110362286.53208      1922.269 8        48.334
E29        33.000    23870618.162 7 125441029.25707     -1756.790 7        47.296                                                                    23870615.949 8  93673511.13308     -1311.852 8        50.104    23870615.968 8  96117162.41008     -1346.116 8        51.424
E04        34.000    27698573.081 6 145556998.65506      2411.770 6        39.306                                                                    27698572.042 6 108695166.89406      1801.098 6        40.877    27698571.234 6 111530689.14306      1847.972 6        41.161
C16        35.000                                                                                                                                    38754610.484 7 201805458.16007      -741.040 7        43.166    38754609.562 7 156048793.86707      -572.991 7        44.042    38754607.453 6 163983465.73406      -601.920 6        39.799
C32        36.000                                                                                                                                    22205053.206 8 115627598.03308     -1663.269 8        50.412                                                                    22205053.167 8  93956916.23408     -1351.409 8        50.601
I01        37.000   378390638.067 7 181745332.69707     -2679.690 7        42.489
E07        38.000    28035819.370 6 147329235.92106     -3309.635 6        36.904                                                                    28035819.625 6 110018621.37706     -2471.585 6        40.367    28035819.639 6 112888664.96206     -2536.006 6        41.557
C41        39.000                                                                                                                                    26104923.596 6 135935212.13206     -3278.063 6        41.056                                                                    26104929.161 7 110458522.51807     -2663.677 7        43.308
C39        40.000                                                                                                                                    39156710.478 7 203899298.04307     -1151.844 7        42.654                                                                    39156706.556 7 165684877.30107      -935.876 7        42.472
E33        41.000    24218283.649 7 127268026.92007     -2465.886 7        47.562                                                                    24218281.225 8  95037845.46908     -1841.442 8        49.270    24218280.980 8  97517089.51508     -1889.485 8        50.196
S44        42.000    40642198.862 6 213576368.14306      -554.267 6        38.000
R06        43.000    20973369.451 6 111917976.73306     -3308.223 6        39.862
C05        44.000                                                                                                                                    39113321.348 6 203673366.87406      -492.519 6        39.231    39113314.835 7 157493193.14207      -380.804 7        43.477    39113317.021 6 165501399.07006      -399.836 6        40.665
C29        45.000                                                                                                                                    22899031.518 8 119241289.79908      -544.902 8        48.435                                                                    22899029.029 8  96893313.80408      -442.569 8        48.361
G04        46.000    20221872.302 8 106266692.47708       546.780 8        48.614                                    20221868.612 6  82805201.48006       426.063 6        41.128    20221868.944 8  82805203.48308       426.067 8        48.102
R22        48.000    19609618.753 8 104677505.92608     -1977.357 8        52.892                                                                    19609616.317 8  81415836.15008     -1537.913 8        48.385
C20        49.000                                                                                                                                    22858629.742 8 119030909.82108      1231.902 8        50.221                                                                    22858623.824 8  96722348.50208      1001.177 8        49.088
C06        50.000                                                                                                                                    38262247.754 6 199241597.58106      -643.987 6        41.359    38262242.035 7 154066225.30907      -497.902 7        45.076    38262241.795 7 161900099.52007      -523.060 7        42.186
S48        51.000    77172910.181 6 405546365.16806      -469.715 6        38.003
G21        52.000    24942599.830 6 131074310.69106     -3787.786 6        37.055                                    24942595.776 3 102135846.05203     -2951.517 3        19.284
C09        53.000                                                                                                                                    38515802.874 7 200561908.63907      -130.409 7        42.487    38515798.451 7 155087180.37007      -100.782 7        46.848    38515796.587 7 162972958.83807      -105.699 7        42.563
C60        54.000                                                                                                                                    40642193.289 6 211634784.33606      -549.034 6        39.063                                                                    40642178.015 6 171970569.93206      -446.124 6        40.470
R09        55.000    24027820.297 5 128307234.85105      3370.552 5        35.000                                                                    24027820.391 5  99794507.12905      2621.798 5        32.240
C02        57.000                                                                                                                                    40593555.763 5 211381354.70505      -537.397 5        34.562    40593548.172 6 163453469.00206      -415.636 6        40.670    40593552.004 6 171764671.40606      -436.580 6        36.715
I03        58.000   102599542.122 6 326837415.42206       887.969 6        40.272
R07        59.000    19325382.957 8 103450352.96408      -426.917 8        51.929                                                                    19325380.929 7  80461439.22707      -332.076 7        47.229
> 2025 01 02 02 15  5.0000000  0 55
G09         1.000    21490982.044 7 112935904.22507      2169.866 7        46.513                                    21490979.536 7  88002008.34407      1690.807 7        47.573    21490979.735 7  88002008.33607      1690.768 7        43.075
G06         2.000    22866723.449 7 120165458.76607      2471.520 7        42.438                                    22866721.784 6  93635426.73506      1925.859 6        41.132    22866722.585 6  93635434.73306      1925.995 6        41.864
E11         3.000    27458083.447 5 144293209.78905      2383.702 5        35.567                                                                    27458079.364 6 107751411.38406      1780.003 6        38.231    27458078.834 6 110562314.21306      1826.274 6        39.168
R15         4.000    23404083.398 7 125064334.60407     -1885.507 7        43.911                                                                    23404082.901 6  97272247.00506     -1466.472 6        39.219
S21         5.000    38423672.782 6 201917485.93506      -476.081 6        41.635
E10         6.000    25291332.642 7 132906857.36807      1646.755 7        44.677                                                                    25291331.024 7  99248623.69907      1229.646 7        47.484    25291330.999 8 101837717.73008      1261.775 8        48.420
G28         7.000    24065411.737 6 126464609.58406     -2881.566 6        38.556                                    24065408.730 3  98543834.16403     -2245.377 3        23.962    24065408.377 6  98543842.16406     -2245.339 6        40.288
G03         8.000    20227199.698 8 106294750.37708     -1627.042 8        49.702                                    20227197.290 8  82827120.02008     -1267.824 8        51.517    20227197.764 7  82827118.01907     -1267.783 7        45.812
G02         9.000    23171283.824 7 121765964.67007     -3635.287 7        44.364                                    23171276.891 5  94882563.58105     -2832.692 5        31.623
G31        10.000    22299231.178 7 117183262.93107     -1376.679 7        44.718                                    22299226.150 6  91311617.83506     -1072.735 6        41.535    22299226.672 6  91311622.83406     -1072.792 6        40.694
C30        11.000                                                                                                                                    23864004.472 7 124266146.44407     -3399.864 7        46.729                                                                    23864004.912 7 100976425.42607     -2762.509 7        46.186
S27        12.000    39054504.546 6 205232802.72206      -468.337 6        36.352
E02        13.000    28783797.924 5 151259894.94105      -941.181 5        34.200                                                                    28783797.378 6 112953806.40106      -702.901 6        38.213    28783796.994 6 115900426.07606      -721.266 6        39.847
S36        14.000    38191059.387 7 200695873.27507      -476.126 7        44.667
I09        15.000    37283817.973 7 146309712.89407      -563.620 7        42.815
G19        16.000    22336969.142 7 117381586.10707     -1183.802 7        44.141                                    22336962.610 5  91466154.89205      -922.444 5        32.108
S45        17.000    63385226.568 6 333092896.98906      -516.149 6        37.750
E12        19.000    24138574.749 7 126849075.82507       505.066 7        44.837                                                                    24138570.790 7  94724948.21807       377.202 7        47.788    24138570.737 8  97196033.24508       387.041 8        48.481
G17        20.000    23106130.176 7 121423556.07507     -2641.285 7        44.214                                    23106125.260 6  94615748.04906     -2058.143 6        39.396    23106125.304 6  94615747.05906     -2058.189 6        39.444
E26        21.000                                                                                                                                    28220086.032 4 110742131.90904     -2664.726 4        26.287    28220085.610 4 113631032.90004     -2733.791 4        25.850
I06        22.000    38072106.950 7 149403365.73407      -276.125 7        43.037
S28        23.000    40858444.588 5 214712593.43305      -470.899 5        34.876
R08        24.000    21643449.035 8 115899725.33208      2389.908 8        49.109                                                                    21643446.879 7  90144234.51107      1858.844 7        43.657
S23        25.000    38137558.463 7 200414222.98707      -472.210 7        45.087
C25        26.000                                                                                                                                    25410246.111 7 132317813.19707      -922.529 7        42.299                                                                    25410243.268 6 107519057.60506      -749.299 6        41.928
R16        27.000    22624181.632 7 120854329.68807      1470.399 7        46.726                                                                    22624181.935 7  93997813.44407      1143.673 7        42.614
R21        29.000    22792040.980 7 121964810.14207     -5019.265 7        45.019                                                                    22792039.451 6  94861520.25906     -3903.873 6        41.356
E19        30.000    23194464.068 7 121887764.54507       688.615 7        44.158                                                                    23194461.480 7  91020086.34707       514.211 7        45.211    23194461.603 7  93394520.13507       527.559 7        46.796
C23        31.000                                                                                                                                    25318849.341 7 131841897.00607      1520.578 7        42.857                                                                    25318840.825 7 107132307.34507      1235.729 7        44.554
R23        32.000    20629267.213 8 110352683.83508      1918.536 8        48.712
E29        33.000    23872290.422 7 125449816.45607     -1758.422 7        47.313                                                                    23872288.073 8  93680073.00408     -1313.121 8        50.063    23872288.104 8  96123895.45408     -1347.357 8        51.448
E04        34.000    27696278.407 6 145544940.43906      2411.421 6        38.664                                                                    27696277.406 6 108686162.42006      1800.624 6        40.799    27696276.645 6 111521449.76506      1847.495 6        41.232
C16        35.000                                                                                                                                    38755322.042 7 201809164.46607      -741.830 7        43.035    38755321.288 7 156051659.81707      -573.654 7        44.011    38755319.231 6 163986477.42406      -602.632 6        39.979
C32        36.000                                                                                                                                    22206650.917 8 115635917.25008     -1664.681 8        50.545                                                                    22206650.823 8  93963676.28208     -1352.547 8        50.691
I01        37.000   378394052.301 7 181758731.06507     -2679.917 7        42.483
E07        38.000    28038968.170 6 147345783.93506     -3309.637 6        36.794                                                                    28038968.765 6 110030978.65506     -2471.583 6        40.510    28038968.358 6 112901344.60306     -2536.009 6        41.592
C41        39.000                                                                                                                                    26108070.939 6 135951602.48206     -3278.158 6        41.204                                                                    26108076.855 7 110471841.02507     -2663.725 7        43.429
C39        40.000                                                                                                                                    39157817.079 7 203905058.72307     -1152.693 7        42.629                                                                    39157812.860 7 165689558.32707      -936.507 7        42.557
E33        41.000    24220630.571 7 127280360.28607     -2467.658 7        47.596                                                                    24220628.122 8  95047055.45108     -1842.786 8        49.202    24220627.943 8  97526539.75508     -1890.831 8        50.222
S44        42.000    40642722.020 6 213579138.27906      -554.103 6        37.985
R06        43.000    20976468.646 6 111934519.75206     -3309.475 6        39.670
C05        44.000                                                                                                                                    39113793.815 6 203675828.40606      -492.569 6        39.432    39113787.584 7 157495096.55107      -380.815 7        43.545    39113789.757 6 165503399.28506      -400.063 6        40.694
C29        45.000                                                                                                                                    22899556.180 8 119244020.95508      -547.852 8        48.409                                                                    22899553.576 8  96895533.10108      -445.056 8        48.410
G04        46.000    20221353.197 8 106263964.73108       544.083 8        48.775                                    20221349.541 6  82803075.96806       423.962 6        41.018    20221349.648 7  82803077.96307       423.929 7        47.971
R22        48.000    19611472.920 8 104687402.85908     -1981.635 8        52.673                                                                    19611470.414 8  81423533.76208     -1541.311 8        48.315
C20        49.000                                                                                                                                    22857447.378 8 119024753.11008      1230.568 8        50.358                                                                    22857441.500 8  96717345.67708      1000.029 8        49.164
C06        50.000                                                                                                                                    38262866.126 6 199244818.49906      -644.782 6        41.478    38262860.850 7 154068715.92807      -498.605 7        45.186    38262860.287 7 161902716.78307      -523.760 7        42.157
S48        51.000    77173360.326 6 405548714.45006      -470.163 6        38.078
G21        52.000    24946203.480 6 131093249.81706     -3788.075 6        36.972                                    24946199.913 3 102150603.80503     -2951.743 3        19.254
C09        53.000                                                                                                                                    38515928.558 7 200562561.70907      -131.233 7        42.760    38515923.869 7 155087685.37707      -101.489 7        46.769    38515922.080 7 162973489.51107      -106.417 7        42.682
C60        54.000                                                                                                                                    40642720.609 6 211637529.30706      -549.026 6        39.039                                                                    40642705.130 6 171972800.44806      -446.104 6        40.439
R09        55.000    24024665.096 5 128290382.70705      3370.254 5        35.133                                                                    24024664.003 5  99781399.90105      2621.178 5        33.814
C02        57.000                                                                                                                                    40594071.900 5 211384041.57905      -537.328 5        34.643    40594064.363 6 163455546.64706      -415.578 6        40.455    40594067.868 6 171766854.69706      -436.818 6        36.964
I03        58.000   102598410.683 6 326832975.68606       887.822 6        40.322
R07        59.000    19325782.903 8 103452493.46008      -429.578 8        51.546                                                                    19325780.687 7  80463104.06107      -334.104 7        47.339
> 2025 01 02 02 15 10.0000000  0 55
G09         1.000    21488918.499 7 112925059.12007      2168.480 7        46.791                                    21488915.743 7  87993557.61607      1689.724 7        47.595    21488916.205 7  87993557.61207      1689.779 7        43.274
G06         2.000    22864372.535 7 120153104.38307      2470.521 7        42.959                                    22864370.819 6  93625799.94806      1925.085 6        41.185    22864371.518 7  93625807.95407      1925.092 7        42.447
E11         3.000    27455815.516 5 144281291.73005      2383.930 5        35.857                                                                    27455811.333 6 107742511.52006      1780.249 6        38.339    27455811.214 6 110553182.18106      1826.521 6        38.991
R15         4.000    23405849.194 7 125073771.50407     -1889.037 7        44.254                                                                    23405849.682 6  97279586.81606     -1469.300 6        39.709
S21         5.000    38424124.263 6 201919865.94206      -475.573 6        41.445
E10         6.000    25289766.163 7 132898626.19207      1645.968 7        44.376                                                                    25289764.701 7  99242477.04207      1229.108 7        47.499    25289764.702 8 101831410.72808      1261.176 8        48.504
G28         7.000    24068155.143 6 126479023.01306     -2883.418 6        39.471                                    24068151.570 3  98555065.40903     -2246.804 3        23.962    24068151.603 6  98555073.40806     -2246.826 6        40.257
G03         8.000    20228748.443 8 106302890.01708     -1628.547 8        49.855                                    20228746.229 8  82833462.59708     -1268.996 8        51.542    20228746.668 7  82833460.59407     -1268.988 7        45.625
G02         9.000    23174742.720 7 121784143.39207     -3636.067 7        44.117                                    23174736.232 5  94896728.81805     -2833.297 5        31.645
G31        10.000    22300542.961 7 117190154.96307     -1379.789 7        45.269                                    22300537.637 6  91316988.25206     -1075.160 6        41.559    22300538.176 6  91316993.25406     -1075.112 6        40.503
C30        11.000                                                                                                                                    23867269.596 7 124283148.71007     -3400.871 7        46.921                                                                    23867270.039 7 100990241.16907     -2763.463 7        46.222
S27        12.000    39054951.901 6 205235143.73106      -467.853 6        36.427
E02        13.000    28784694.708 5 151264606.47505      -942.968 5        34.129                                                                    28784693.541 6 112957324.79706      -704.278 6        38.183    28784693.295 6 115904036.24606      -722.623 6        39.649
S36        14.000    38191514.299 7 200698253.40607      -475.635 7        44.480
I09        15.000    37284536.281 7 146312530.97807      -563.401 7        42.787
G19        16.000    22338096.541 7 117387513.09807     -1186.696 7        44.631                                    22338090.483 5  91470773.32005      -924.699 5        32.132
S45        17.000    63385674.928 6 333095477.75406      -515.961 6        37.747
E12        19.000    24138095.071 7 126846554.63707       503.592 7        44.987                                                                    24138091.003 7  94723065.52307       376.067 7        47.788    24138090.978 8  97194101.44008       385.871 8        48.540
G17        20.000    23108643.808 7 121436767.12307     -2642.741 7        44.402                                    23108639.193 6  94626042.36606     -2059.278 6        39.465    23108639.486 6  94626041.36206     -2059.350 6        39.733
E26        21.000                                                                                                                                    28223481.296 4 110755454.88404     -2664.677 4        26.204    28223480.747 4 113644703.46104     -2733.927 4        26.695
I06        22.000    38072458.782 7 149404745.68207      -275.720 7        43.090
S28        23.000    40858890.623 5 214714945.90705      -470.343 5        34.614
R08        24.000    21641218.547 8 115887779.22808      2388.794 8        48.690                                                                    21641215.842 7  90134943.11107      1857.858 7        44.268
S23        25.000    38138008.361 7 200416583.50907      -471.651 7        44.996
C25        26.000                                                                                                                                    25411132.889 7 132322431.51307      -924.631 7        42.516                                                                    25411130.076 6 107522810.37706      -751.428 6        41.988
R16        27.000    22622807.332 7 120846986.07107      1467.196 7        46.208                                                                    22622806.379 7  93992101.74607      1141.165 7        42.707
R21        29.000    22796731.535 7 121989908.32207     -5019.743 7        45.202                                                                    22796729.477 6  94881041.06506     -3904.225 6        40.892
E19        30.000    23193809.622 7 121884325.65107       687.238 7        44.315                                                                    23193807.032 7  91017518.34307       513.153 7        45.193    23193807.156 7  93391885.13807       526.509 7        46.837
C23        31.000                                                                                                                                    25317390.131 7 131834297.99607      1519.307 7        43.122                                                                    25317381.471 7 107126132.53807      1234.508 7        44.430
R23        32.000    20627475.907 8 110343100.03308      1915.262 8        48.578
E29        33.000    23873963.923 7 125458611.64707     -1759.387 7        47.493                                                                    23873961.787 8  93686640.84408     -1313.835 8        50.101    23873961.766 8  96130634.63408     -1348.156 8        51.397
E04        34.000    27693984.337 6 145532885.12506      2411.161 6        39.093                                                                    27693983.280 6 108677160.07506      1800.526 6        40.930    27693982.692 6 111512212.57206      1847.517 6        41.273
C16        35.000                                                                                                                                    38756034.495 7 201812874.97907      -742.083 7        42.923    38756033.595 7 156054529.03507      -573.890 7        43.634    38756031.743 6 163989492.52606      -603.004 6        40.074
C32        36.000                                                                                                                                    22208250.085 8 115644243.52808     -1665.533 8        50.702                                                                    22208249.778 8  93970442.08408     -1353.459 8        50.778
I01        37.000   378397466.783 7 181772130.20507     -2679.671 7        42.476
E07        38.000    28042117.453 6 147362332.80806     -3309.484 6        36.836                                                                    28042117.768 6 110043336.56806     -2471.374 6        40.675    28042117.600 6 112914024.89806     -2535.854 6        41.557
C41        39.000                                                                                                                                    26111219.212 6 135967993.55406     -3277.814 6        41.275                                                                    26111224.554 7 110485160.12407     -2663.606 7        43.245
C39        40.000                                                                                                                                    39158923.570 7 203910823.07607     -1152.859 7        42.726                                                                    39158919.943 7 165694242.35207      -936.998 7        42.732
E33        41.000    24222979.349 7 127292702.57607     -2469.018 7        47.664                                                                    24222976.854 8  95056272.09508     -1843.709 8        49.195    24222976.600 8  97535996.83608     -1891.842 8        50.262
S44        42.000    40643251.397 6 213581908.80606      -553.716 6        37.856
R06        43.000    20979569.527 6 111951068.98106     -3309.959 6        38.778
C05        44.000                                                                                                                                    39114266.269 6 203678290.38206      -492.092 6        39.508    39114260.360 7 157497000.31107      -380.547 7        43.175    39114262.555 6 165505399.84306      -399.768 6        40.779
C29        45.000                                                                                                                                    22900083.440 8 119246766.89708      -550.249 8        48.404                                                                    22900080.872 8  96897764.41108      -447.232 8        48.447
G04        46.000    20220836.792 8 106261250.62408       541.849 8        48.680                                    20220833.078 6  82800961.08006       422.220 6        41.094    20220833.236 8  82800963.07608       422.227 8        48.192
R22        48.000    19613330.611 8 104697321.62908     -1985.607 8        52.539                                                                    19613328.362 8  81431248.36008     -1544.363 8        48.198
C20        49.000                                                                                                                                    22856266.438 8 119018603.34208      1229.608 8        50.457                                                                    22856260.533 8  96712348.49108       999.187 8        49.212
C06        50.000                                                                                                                                    38263485.746 6 199248043.83606      -645.117 6        41.497    38263480.081 7 154071209.96907      -498.861 7        44.962    38263479.718 7 161905337.65107      -524.251 7        42.332
S48        51.000    77173803.754 6 405551063.99606      -469.566 6        37.894
G21        52.000    24949807.973 6 131112190.65206     -3787.902 6        36.892                                    24949803.978 3 102165362.89903     -2951.616 3        18.955
C09        53.000                                                                                                                                    38516054.483 7 200563219.22407      -131.507 7        42.783    38516050.191 7 155088193.80407      -101.732 7        46.558    38516048.234 7 162974023.80907      -106.911 7        42.777
C60        54.000                                                                                                                                    40643247.684 6 211640274.64106      -548.622 6        39.045                                                                    40643232.241 6 171975031.25506      -445.857 6        40.453
R09        55.000    24021510.460 5 128273532.82505      3369.977 5        35.667                                                                    24021509.543 5  99768294.41805      2621.275 5        34.181
C02        57.000                                                                                                                                    40594587.223 5 211386728.83105      -537.224 5        34.814    40594580.321 6 163457624.60806      -415.273 6        40.536    40594584.265 6 171769038.34106      -436.525 6        36.896
I03        58.000   102597279.512 6 326828536.34406       888.150 6        40.377
R07        59.000    19326185.229 8 103454647.23108      -431.662 8        51.734                                                                    19326183.239 7  80464779.21807      -335.730 7        47.176
> 2025 01 02 02 15 15.0000000  0 55
G09         1.000    21486856.581 7 112914223.44507      2166.276 7        46.873                                    21486853.757 7  87985114.23307      1688.008 7        47.835    21486854.034 7  87985114.22807      1688.058 7        43.325
G06         2.000    22862022.944 7 120140758.04007      2468.493 7        42.557                                    22862021.389 6  93616179.42206      1923.501 6        41.287    22862022.034 7  93616187.42507      1923.402 7        42.610
E11         3.000    27453547.824 5 144269375.83805      2383.033 5        35.600                                                                    27453543.613 6 107733613.31306      1779.665 6        38.051    27453543.714 6 110544051.83806      1825.877 6        39.222
R15         4.000    23407619.288 7 125083228.14507     -1893.239 7        44.309                                                                    23407619.060 6  97286942.00106     -1472.716 6        39.973
S21         5.000    38424578.478 6 201922246.01906      -476.019 6        41.554
E10         6.000    25288200.716 7 132890401.50207      1644.343 7        44.299                                                                    25288199.567 7  99236335.23107      1227.952 7        47.460    25288199.504 8 101825108.69808      1259.940 8        48.574
G28         7.000    24070900.790 6 126493448.59006     -2886.279 6        39.985                                    24070896.619 4  98566306.11404     -2249.047 4        24.195    24070896.195 6  98566314.11306     -2249.005 6        40.215
G03         8.000    20230299.156 8 106311039.23508     -1630.684 8        49.979                                    20230296.988 8  82839812.63508     -1270.662 8        51.666    20230297.561 7  82839810.64007     -1270.767 7        45.758
G02         9.000    23178203.116 7 121802328.33807     -3637.679 7        44.883                                    23178196.736 5  94910898.89905     -2834.555 5        31.804
G31        10.000    22301857.876 7 117197064.68107     -1383.728 7        45.144                                    22301852.517 6  91322372.44706     -1078.230 6        41.745    22301853.234 6  91322377.44206     -1078.165 6        40.644
C30        11.000                                                                                                                                    23870536.047 7 124300157.78507     -3402.424 7        46.977                                                                    23870536.520 7 101004062.43507     -2764.741 7        46.195
S27        12.000    39055395.732 6 205237484.53306      -468.212 6        36.454
E02        13.000    28785593.465 5 151269329.48105      -945.971 5        33.994                                                                    28785592.732 6 112960851.71106      -706.216 6        38.607    28785592.244 6 115907655.16306      -724.637 6        40.164
S36        14.000    38191967.033 7 200700633.32807      -476.064 7        44.734
I09        15.000    37285254.462 7 146315349.68207      -563.662 7        42.899
G19        16.000    22339228.026 7 117393457.16807     -1190.450 7        44.698                                    22339221.580 5  91475405.06805      -927.625 5        32.335
S45        17.000    63386122.878 6 333096358.50116      -516.132 6        37.747
E12        19.000    24137617.019 7 126844043.03407       501.395 7        44.916                                                                    24137613.081 7  94721189.97607       374.411 7        47.698    24137613.045 8  97192176.95808       384.233 8        48.549
G17        20.000    23111159.928 7 121449987.91507     -2645.117 7        44.072                                    23111154.982 6  94636344.28006     -2061.131 6        39.607    23111155.253 6  94636343.28706     -2061.167 6        38.907
E26        21.000                                                                                                                                                                                                    28226876.033 4 113658375.19604     -2733.676 4        26.563
I06        22.000    38072810.467 7 149406125.71407      -275.954 7        43.067
S28        23.000    40859341.609 5 214717298.38005      -470.430 5        34.748
R08        24.000    21638989.197 8 115875841.28108      2386.772 8        48.084                                                                    21638987.108 7  90125658.05607      1856.379 7        44.149
S23        25.000    38138458.587 7 200418943.89507      -472.013 7        45.065
C25        26.000                                                                                                                                    25412022.549 7 132327063.31907      -927.637 7        43.016                                                                    25412019.549 6 107526574.09006      -753.770 6        41.764
R16        27.000    22621434.949 7 120839660.39407      1463.328 7        45.485                                                                    22621435.264 7  93986404.01007      1138.156 7        42.366
R21        29.000    22801422.297 7 122015011.85007     -5021.091 7        44.807                                                                    22801420.542 6  94900566.04006     -3905.483 6        40.381
E19        30.000    23193157.020 7 121880895.66807       685.118 7        44.203                                                                    23193154.387 7  91014956.98807       511.670 7        45.121    23193154.509 7  93389256.96707       524.981 7        46.852
C23        31.000                                                                                                                                    25315932.697 7 131826708.00607      1517.104 7        43.452                                                                    25315923.757 7 107119965.05607      1232.793 7        44.313
R23        32.000    20625687.373 8 110333534.74408      1911.212 8        48.119
E29        33.000    23875639.270 7 125467414.46307     -1761.303 7        47.430                                                                    23875636.867 8  93693214.37508     -1315.287 8        50.041    23875636.808 8  96137379.64208     -1349.508 8        51.556
E04        34.000    27691690.440 6 145520832.24506      2410.361 6        37.943                                                                    27691689.608 6 108668159.56706      1799.934 6        40.965    27691689.048 6 111502977.27006      1846.897 6        41.535
C16        35.000                                                                                                                                    38756747.818 7 201816589.30407      -743.168 7        42.772    38756746.957 7 156057401.18207      -574.677 7        43.680    38756744.963 6 163992510.71706      -603.919 6        40.069
C32        36.000                                                                                                                                    22209850.106 8 115652576.47308     -1667.250 8        50.793                                                                    22209850.061 8  93977213.27808     -1354.735 8        50.788
I01        37.000   378400881.281 7 181785529.86907     -2679.897 7        42.546
E07        38.000    28045266.508 6 147378882.08906     -3309.739 6        36.526                                                                    28045267.297 6 110055694.82206     -2471.791 6        40.925    28045266.758 6 112926705.52706     -2536.037 6        41.661
C41        39.000                                                                                                                                    26114367.343 6 135984384.97706     -3278.272 6        41.058                                                                    26114372.179 7 110498479.48007     -2663.908 7        43.115
C39        40.000                                                                                                                                    39160031.830 7 203916590.73407     -1153.804 7        42.737                                                                    39160027.584 7 165698929.03507      -937.578 7        42.580
E33        41.000    24225329.682 7 127305053.39607     -2470.955 7        47.484                                                                    24225327.104 8  95065495.10608     -1845.161 8        49.214    24225326.932 8  97545460.45008     -1893.340 8        50.294
S44        42.000    40643777.975 6 213584679.29906      -553.984 6        37.648
R06        43.000    20982671.208 6 111967624.26206     -3311.559 6        38.889
C05        44.000                                                                                                                                    39114739.380 6 203680752.44106      -492.419 6        39.444    39114733.104 7 157498904.13707      -380.773 7        43.490    39114735.339 6 165507400.47706      -400.145 6        40.629
C29        45.000                                                                                                                                    22900613.508 8 119249527.23408      -553.481 8        48.303                                                                    22900610.961 8  96900007.40208      -449.691 8        48.481
G04        46.000    20220322.905 8 106258549.79008       538.864 8        48.546                                    20220319.128 6  82798856.53206       419.892 6        41.209    20220319.464 8  82798858.53208       419.877 8        48.303
R22        48.000    19615192.769 8 104707261.78008     -1990.096 8        52.582                                                                    19615190.694 8  81438979.59908     -1547.913 8        48.248
C20        49.000                                                                                                                                    22855086.819 8 119012460.15808      1227.990 8        50.411                                                                    22855080.739 8  96707356.64608       997.898 8        49.212
C06        50.000                                                                                                                                    38264105.992 6 199251273.21906      -646.387 6        41.390    38264100.075 7 154073707.12807      -499.712 7        45.329    38264099.962 7 161907961.77107      -524.997 7        42.307
S48        51.000    77174250.630 6 405553413.50406      -469.842 6        37.955
G21        52.000    24953412.661 6 131131132.85206     -3788.553 6        36.975                                    24953408.459 3 102180123.04103     -2952.119 3        19.075
C09        53.000                                                                                                                                    38516180.919 7 200563880.79307      -132.770 7        42.828    38516177.380 7 155088705.37307      -102.601 7        46.758    38516175.331 7 162974561.38207      -107.724 7        42.703
C60        54.000                                                                                                                                    40643775.063 6 211643019.94406      -548.967 6        39.048                                                                    40643759.543 6 171977262.04006      -446.038 6        40.467
R09        55.000    24018355.283 6 128256684.87206      3369.377 6        36.374                                                                    24018354.468 5  99755190.43705      2620.837 5        34.624
C02        57.000                                                                                                                                    40595103.244 5 211389416.15305      -537.532 5        34.400    40595096.069 6 163459702.61706      -415.565 6        40.517    40595100.138 6 171771222.00306      -436.663 6        36.824
I03        58.000   102596148.507 6 326824097.15106       887.826 6        40.248
R07        59.000    19326589.901 8 103456813.85208      -434.577 8        52.037                                                                    19326587.898 7  80466464.36507      -337.972 7        46.732
> 2025 01 02 02 15 20.0000000  0 55
G09         1.000    21484796.348 7 112903397.60807      2164.363 7        46.855                                    21484793.645 7  87976678.51607      1686.517 7        47.909    21484793.912 7  87976678.52107      1686.528 7        43.393
G06         2.000    22859674.710 7 120128420.14307      2466.854 7        43.058                                    22859673.563 6  93606565.47506      1922.222 6        41.402    22859673.978 7  93606573.46907      1922.324 7        42.320
E11         3.000    27451280.975 5 144257462.53105      2382.467 5        35.829                                                                    27451276.743 6 107724717.00206      1779.231 6        38.225    27451276.483 6 110534923.44606      1825.715 6        39.204
R15         4.000    23409393.005 7 125092705.19707     -1897.315 7        43.462                                                                    23409392.152 6  97294313.02706     -1475.538 6        39.979
S21         5.000    38425034.212 6 201924626.75106      -476.016 6        41.387
E10         6.000    25286637.027 7 132882183.74607      1643.032 7        44.540                                                                    25286635.804 7  99230198.59107      1226.947 7        47.681    25286635.763 8 101818811.97708      1258.911 8        48.546
G28         7.000    24073647.919 6 126507886.72306     -2888.694 6        40.267                                    24073644.010 4  98577556.59404     -2250.945 4        24.421    24073643.285 6  98577564.59906     -2251.013 6        39.946
G03         8.000    20231851.824 8 106319198.52008     -1632.682 8        50.011                                    20231849.660 8  82846170.51808     -1272.220 8        51.801    20231850.212 7  82846168.52407     -1272.285 7        46.006
G02         9.000    23181665.223 7 121820519.89207     -3638.820 7        45.875                                    23181658.505 5  94925074.14205     -2835.444 5        32.281
G31        10.000    22303176.233 7 117203992.49507     -1387.249 7        45.546                                    22303170.836 6  91327770.74706     -1080.971 6        41.869    22303171.843 6  91327775.75506     -1080.969 6        41.247
C30        11.000                                                                                                                                    23873804.083 7 124317174.11607     -3403.826 7        47.064                                                                    23873804.332 7 101017889.61207     -2765.909 7        46.159
S27        12.000    39055843.954 6 205239826.25206      -468.269 6        36.155
E02        13.000    28786494.712 5 151274064.34305      -948.148 5        34.643                                                                    28786494.252 6 112964387.49006      -707.912 6        39.315    28786493.539 6 115911283.19306      -726.388 6        40.076
S36        14.000    38192418.345 7 200703013.84507      -476.245 7        44.364
I09        15.000    37285973.088 7 146318169.35007      -563.844 7        43.007
G19        16.000    22340362.373 7 117399418.75207     -1193.943 7        44.643                                    22340355.986 5  91480050.45805      -930.347 5        32.455
S45        17.000    63386573.179 6 333098939.63906      -516.082 6        37.490
E12        19.000    24137140.784 7 126841541.43907       499.477 7        45.093                                                                    24137137.074 7  94719321.90307       373.021 7        47.946    24137136.969 8  97190260.15808       382.740 8        48.541
G17        20.000    23113677.243 7 121463218.77507     -2647.052 7        44.024                                    23113672.684 6  94646654.03706     -2062.636 6        39.670    23113673.046 6  94646653.03706     -2062.704 6        39.384
E26        21.000                                                                                                                                    28230271.612 4 110782104.57304     -2664.236 4        26.371
I06        22.000    38073162.315 7 149407506.18407      -276.008 7        43.046
S28        23.000    40859785.587 5 214719651.66705      -470.891 5        34.662
R08        24.000    21636761.354 8 115863911.85408      2385.190 8        48.980                                                                    21636758.758 7  90116379.61207      1855.066 7        43.623
S23        25.000    38138907.453 7 200421304.71507      -472.053 7        44.786
C25        26.000                                                                                                                                    25412914.522 7 132331709.02607      -930.325 7        43.170                                                                    25412911.727 7 107530349.12607      -755.858 7        42.129
R16        27.000    22620067.388 7 120832353.18507      1459.718 7        45.881                                                                    22620066.774 7  93980720.60907      1135.436 7        42.271
R21        29.000    22806114.161 7 122040121.04707     -5022.232 7        44.606                                                                    22806112.365 6  94920095.38606     -3906.124 6        40.448
E19        30.000    23192505.892 7 121877474.95007       683.448 7        44.102                                                                    23192503.444 7  91012402.56807       510.371 7        45.308    23192503.585 7  93386635.90707       523.645 7        46.870
C23        31.000                                                                                                                                    25314477.204 7 131819127.49107      1515.282 7        43.835                                                                    25314468.041 7 107113805.28007      1231.273 7        44.199
R23        32.000    20623902.875 8 110323988.49808      1907.496 8        48.564
E29        33.000    23877315.867 7 125476225.32507     -1762.808 7        47.568                                                                    23877313.522 8  93699793.91108     -1316.369 8        50.233    23877313.530 8  96144130.82208     -1350.723 8        51.468
E04        34.000    27689397.370 6 145508782.29806      2409.912 6        38.270                                                                    27689396.598 6 108659161.23106      1799.614 6        41.261    27689396.005 6 111493744.19706      1846.622 6        41.399
C16        35.000                                                                                                                                    38757461.593 7 201820307.91207      -744.031 7        42.741    38757461.002 7 156060276.64007      -575.226 7        43.556    38757459.088 6 163995532.40006      -604.513 6        39.916
C32        36.000                                                                                                                                    22211451.847 8 115660916.52208     -1668.591 8        50.966                                                                    22211451.702 8  93983990.26308     -1355.858 8        50.790
I01        37.000   378404296.309 7 181798930.38607     -2680.007 7        42.409
E07        38.000    28048416.200 6 147395432.30206     -3310.124 6        36.571                                                                    28048416.561 6 110068053.72206     -2471.765 6        41.230    28048416.027 6 112939386.84906     -2536.256 6        41.604
C41        39.000                                                                                                                                    26117515.217 6 136000777.16406     -3278.315 6        40.374                                                                    26117520.091 7 110511799.47107     -2663.967 7        42.827
C39        40.000                                                                                                                                    39161139.971 7 203922362.13207     -1154.489 7        42.743                                                                    39161135.837 7 165703618.78407      -938.122 7        42.569
E33        41.000    24227681.406 7 127317413.18807     -2472.749 7        47.296                                                                    24227679.115 8  95074724.82208     -1846.480 8        49.395    24227678.899 8  97554930.93808     -1894.642 8        50.253
S44        42.000    40644303.664 6 213587450.20806      -554.012 6        37.860
R06        43.000    20985775.376 6 111984185.70306     -3312.877 6        38.760
C05        44.000                                                                                                                                    39115212.576 6 203683215.00106      -492.424 6        39.282    39115206.139 7 157500808.34607      -380.863 7        43.280    39115208.249 6 165509401.51206      -400.100 6        40.694
C29        45.000                                                                                                                                    22901146.630 8 119252302.39708      -556.435 8        48.292                                                                    22901143.956 8  96902262.46808      -452.124 8        48.410
G04        46.000    20219811.461 8 106255862.66308       536.181 8        48.657                                    20219807.789 6  82796762.66906       417.803 6        41.375    20219807.962 8  82796764.66508       417.850 8        48.388
R22        48.000    19617059.004 8 104717223.81508     -1994.479 8        52.300                                                                    19617056.863 8  81446727.83708     -1551.242 8        48.228
C20        49.000                                                                                                                                    22853908.348 8 119006323.96508      1226.679 8        50.398                                                                    22853902.431 8  96702370.50108       996.781 8        49.200
C06        50.000                                                                                                                                    38264726.825 6 199254507.07906      -647.064 6        41.330    38264721.240 7 154076207.74807      -500.310 7        45.308    38264721.032 7 161910589.56307      -525.788 7        42.391
S48        51.000    77174697.774 6 405555763.43006      -469.727 6        37.622
G21        52.000    24957018.036 6 131150076.79706     -3788.866 6        36.941                                    24957013.450 3 102194884.54603     -2952.357 3        19.254
C09        53.000                                                                                                                                    38516308.810 7 200564546.85907      -133.538 7        42.950    38516305.228 7 155089220.41007      -103.167 7        46.802    38516303.213 7 162975102.62707      -108.519 7        42.662
C60        54.000                                                                                                                                    40644302.173 6 211645765.68406      -549.068 6        38.970                                                                    40644286.864 6 171979493.18206      -446.138 6        40.536
R09        55.000    24015201.120 6 128239839.24706      3369.000 6        36.049                                                                    24015199.931 5  99742088.29005      2620.267 5        34.900
C02        57.000                                                                                                                                    40595620.289 5 211392103.98205      -537.522 5        34.352    40595612.094 6 163461781.00306      -415.428 6        40.520    40595616.181 6 171773406.07106      -436.563 6        37.021
I03        58.000   102595017.426 6 326819658.40806       887.809 6        40.231
R07        59.000    19326997.508 8 103458993.69508      -437.142 8        52.119                                                                    19326995.349 7  80468159.79207      -339.970 7        46.944
> 2025 01 02 02 15 25.0000000  0 55
G09         1.000    21482737.871 7 112892581.09307      2162.414 7        47.021                                    21482735.304 7  87968250.06707      1684.998 7        47.798    21482735.478 7  87968250.06207      1685.114 7        43.517
G06         2.000    22857328.803 7 120116090.19707      2465.221 7        43.208                                    22857327.245 6  93596957.72206      1920.952 6        41.280    22857327.550 6  93596965.71206      1920.872 6        41.962
E11         3.000    27449014.324 6 144245551.29406      2382.030 6        36.238                                                                    27449010.175 6 107715822.24906      1778.997 6        38.517    27449009.704 6 110525796.66706      1825.285 6        39.390
R15         4.000    23411169.600 7 125102201.85407     -1901.307 7        43.947                                                                    23411169.817 6  97301699.30106     -1478.742 6        39.955
S21         5.000    38425482.304 6 201927007.68806      -476.012 6        41.425
E10         6.000    25285074.410 7 132873972.39207      1641.739 7        44.621                                                                    25285073.205 7  99224066.74007      1225.916 7        47.729    25285073.191 8 101812520.15308      1257.920 8        48.551
G28         7.000    24076397.309 6 126522336.85206     -2891.164 6        39.889                                    24076393.830 4  98588816.43204     -2252.852 4        24.271    24076393.446 6  98588824.44206     -2252.877 6        39.354
G03         8.000    20233406.306 8 106327367.26208     -1634.645 8        50.097                                    20233404.117 8  82852535.77108     -1273.750 8        51.659    20233404.698 7  82852533.77407     -1273.769 7        46.085
G02         9.000    23185127.700 7 121838717.58207     -3640.079 7        45.138                                    23185121.383 5  94939254.16005     -2836.425 5        32.138
G31        10.000    22304497.890 7 117210937.83707     -1390.753 7        46.090                                    22304492.536 6  91333182.70106     -1083.702 6        41.778    22304493.633 6  91333187.71406     -1083.819 6        41.538
C30        11.000                                                                                                                                    23877073.104 7 124334197.17507     -3405.165 7        46.420                                                                    23877073.424 7 101031722.22107     -2766.947 7        46.132
S27        12.000    39056288.701 6 205242167.54606      -468.203 6        36.295
E02        13.000    28787397.729 5 151278810.50205      -950.435 5        34.543                                                                    28787397.009 6 112967931.69506      -709.559 6        38.685    28787396.097 6 115914919.83906      -727.982 6        39.261
S36        14.000    38192873.364 7 200705394.20907      -476.102 7        44.333
I09        15.000    37286691.843 7 146320989.56807      -564.011 7        43.020
G19        16.000    22341500.302 7 117405397.29007     -1197.250 7        44.536                                    22341493.665 5  91484709.06405      -932.925 5        32.299
S45        17.000    63387021.571 6 333101520.75106      -516.090 6        37.629
E12        19.000    24136666.798 7 126839049.33507       497.549 7        45.135                                                                    24136662.808 8  94717460.91908       371.511 8        48.070    24136662.743 8  97188350.62808       381.185 8        48.649
G17        20.000    23116197.027 7 121476459.28907     -2648.951 7        44.546                                    23116192.255 6  94656971.31906     -2064.115 6        39.465    23116192.325 6  94656970.32506     -2064.244 6        39.246
E26        21.000                                                                                                                                    28233667.441 4 110795431.39304     -2666.021 4        26.108    28233669.041 4 113685722.94404     -2736.017 4        26.970
I06        22.000    38073514.200 7 149408886.68207      -276.014 7        42.997
S28        23.000    40860235.853 5 214722004.79105      -470.532 5        34.367
R08        24.000    21634535.760 8 115851990.44308      2383.564 8        49.097                                                                    21634532.225 7  90107107.40207      1853.841 7        43.429
S23        25.000    38139356.162 7 200423665.46207      -472.106 7        44.716
C25        26.000                                                                                                                                    25413808.748 7 132336368.12907      -933.145 7        42.762                                                                    25413806.545 7 107534135.01407      -758.133 7        42.040
R16        27.000    22618703.055 7 120825063.84207      1456.195 7        45.096                                                                    22618702.283 7  93975051.14707      1132.493 7        42.038
R21        29.000    22810807.549 7 122065235.31507     -5023.318 7        44.417                                                                    22810805.967 6  94939628.70506     -3906.895 6        39.652
E19        30.000    23191856.594 7 121874063.04207       681.668 7        44.153                                                                    23191854.163 7  91009854.70507       509.097 7        45.500    23191854.286 7  93384021.58507       522.207 7        46.857
C23        31.000                                                                                                                                    25313023.328 7 131811555.90807      1513.590 7        43.187                                                                    25313014.044 7 107107652.73707      1229.893 7        44.155
R23        32.000    20622122.083 8 110314460.64008      1903.771 8        48.880
E29        33.000    23878993.824 7 125485043.67707     -1764.334 7        47.549                                                                    23878991.576 8  93706379.04608     -1317.526 8        50.309    23878991.616 8  96150887.74008     -1351.847 8        51.570
E04        34.000    27687104.938 6 145496734.73406      2409.307 6        38.117                                                                    27687103.978 6 108650164.68906      1799.125 6        41.380    27687103.413 6 111484512.95906      1846.003 6        41.497
C16        35.000                                                                                                                                    38758176.160 7 201824030.22407      -744.898 7        42.339    38758176.128 7 156063154.95807      -575.843 7        43.869    38758173.979 6 163998557.07206      -605.027 6        40.036
C32        36.000                                                                                                                                    22213054.757 8 115669263.14608     -1669.903 8        50.626                                                                    22213054.532 8  93990772.56408     -1356.882 8        50.753
I01        37.000   378407711.368 7 181812331.33407     -2680.088 7        42.525
E07        38.000    28051565.467 6 147411982.83906     -3310.007 6        36.495                                                                    28051566.062 6 110080412.89106     -2471.918 6        41.509    28051565.549 6 112952068.42906     -2536.305 6        41.502
C41        39.000                                                                                                                                    26120663.072 6 136017169.57806     -3278.401 6        40.110                                                                    26120668.101 7 110525119.64407     -2663.972 7        42.631
C39        40.000                                                                                                                                    39162248.886 7 203928136.73007     -1155.227 7        42.464                                                                    39162244.835 7 165708311.11107      -938.698 7        42.499
E33        41.000    24230035.010 7 127329781.39707     -2474.458 7        47.628                                                                    24230032.742 8  95083960.82008     -1847.777 8        49.446    24230032.432 8  97564407.87008     -1895.967 8        50.325
S44        42.000    40644831.700 6 213590221.00006      -554.043 6        37.686
R06        43.000    20988881.202 6 112000753.00906     -3313.859 6        39.685
C05        44.000                                                                                                                                    39115685.338 6 203685677.54106      -492.447 6        39.207    39115678.968 7 157502712.53407      -380.800 7        43.446    39115681.222 6 165511402.52506      -400.160 6        40.615
C29        45.000                                                                                                                                    22901682.092 8 119255091.86708      -559.281 8        48.176                                                                    22901679.588 8  96904529.12808      -454.412 8        48.462
G04        46.000    20219302.769 8 106253188.70408       533.572 8        48.814                                    20219298.958 6  82794679.06106       415.771 6        41.294    20219299.251 8  82794681.06208       415.755 8        48.382
R22        48.000    19618929.509 8 104727207.11008     -1998.665 8        52.949                                                                    19618927.025 8  81454492.62208     -1554.514 8        48.623
C20        49.000                                                                                                                                    22852731.142 8 119000194.23608      1225.405 8        50.278                                                                    22852725.311 8  96697389.58208       995.797 8        49.219
C06        50.000                                                                                                                                    38265348.914 6 199257744.88706      -647.778 6        41.058    38265342.994 7 154078711.42407      -500.981 7        45.433    38265342.704 7 161913220.53307      -526.404 7        42.237
S48        51.000    77175143.712 6 405558113.19806      -470.026 6        37.830
G21        52.000    24960623.159 6 131169021.93306     -3789.141 6        37.028                                    24960618.248 3 102209647.00803     -2952.577 3        19.254
C09        53.000                                                                                                                                    38516437.475 7 200565216.86807      -134.384 7        42.527    38516434.131 7 155089738.52107      -103.916 7        47.039    38516431.887 7 162975647.05807      -109.157 7        42.652
C60        54.000                                                                                                                                    40644829.605 6 211648511.27706      -548.913 6        38.883                                                                    40644814.095 6 171981724.19806      -446.016 6        40.501
R09        55.000    24012045.626 5 128222995.55905      3368.738 5        35.967                                                                    24012045.473 5  99728987.63505      2620.108 5        35.852
C02        57.000                                                                                                                                    40596136.193 5 211394791.76505      -537.726 5        33.970    40596128.459 6 163463859.36506      -415.584 6        40.563    40596132.300 6 171775590.09806      -436.809 6        36.817
I03        58.000   102593886.272 6 326815219.72606       887.832 6        40.241
R07        59.000    19327406.857 8 103461186.38208      -439.692 8        51.667                                                                    19327404.850 7  80469865.21007      -341.957 7        46.795
> 2025 01 02 02 15 30.0000000  0 55
G09         1.000    21480681.646 7 112881773.72307      2160.731 7        47.019                                    21480678.719 7  87959828.74207      1683.686 7        47.870    21480678.782 7  87959828.74107      1683.638 7        43.046
G06         2.000    22854983.739 7 120103767.97807      2463.816 7        42.779                                    22854982.429 6  93587355.99906      1919.852 6        41.352    22854982.875 7  93587363.99807      1919.835 7        42.277
E11         3.000    27446748.005 6 144233641.94606      2381.929 6        36.329                                                                    27446744.104 6 107706928.92206      1778.609 6        38.333    27446743.264 6 110516671.33006      1825.008 6        38.901
R15         4.000    23412950.859 7 125111717.97807     -1904.994 7        44.107                                                                    23412950.922 6  97309100.74006     -1481.750 6        40.095
S21         5.000    38425936.397 6 201929388.56506      -475.995 6        41.375
E10         6.000    25283513.093 7 132865767.25807      1640.528 7        44.862                                                                    25283511.886 7  99217939.52407      1225.078 7        47.793    25283511.814 8 101806233.09908      1257.063 8        48.550
G28         7.000    24079149.169 6 126536798.79806     -2893.281 6        39.616                                    24079145.702 4  98600085.48604     -2254.513 4        24.481    24079145.628 6  98600093.50006     -2254.528 6        39.348
G03         8.000    20234962.581 8 106335545.31108     -1636.289 8        49.854                                    20234960.340 8  82858908.27808     -1275.033 8        51.730    20234960.851 7  82858906.27807     -1275.009 7        45.986
G02         9.000    23188591.692 7 121856921.17407     -3641.199 7        44.182                                    23188585.419 5  94953438.77405     -2837.300 5        31.796
G31        10.000    22305822.703 7 117217900.56907     -1394.081 7        45.535                                    22305817.559 6  91338608.20806     -1086.296 6        41.831    22305817.761 6  91338613.21006     -1086.279 6        41.046
C30        11.000                                                                                                                                    23880343.175 7 124351226.72707     -3406.322 7        46.429                                                                    23880343.801 7 101045560.14707     -2768.057 7        46.251
S27        12.000    39056732.152 6 205244508.34806      -468.097 6        36.401
E02        13.000    28788303.025 5 151283567.82305      -952.528 5        35.252                                                                    28788302.141 6 112971484.23706      -711.148 6        38.874    28788301.447 6 115918565.05606      -729.770 6        39.252
S36        14.000    38193324.278 7 200707774.48107      -475.612 7        44.421
I09        15.000    37287410.479 7 146323810.21607      -563.998 7        42.663
G19        16.000    22342641.145 7 117411392.62107     -1200.548 7        44.718                                    22342634.568 5  91489380.74905      -935.491 5        32.401
S45        17.000    63387473.147 6 333104101.53006      -515.861 6        37.497
E12        19.000    24136194.549 7 126836566.56107       495.779 7        45.488                                                                    24136190.357 8  94715606.90108       370.225 8        48.067    24136190.294 8  97186448.24408       379.889 8        48.601
G17        20.000    23118718.931 7 121489709.25307     -2650.744 7        44.871                                    23118713.638 6  94667295.96506     -2065.516 6        39.471    23118714.246 6  94667294.98106     -2065.574 6        39.417
E26        21.000                                                                                                                                    28237064.447 4 110808759.04104     -2665.604 4        25.579    28237065.390 4 113699398.25504     -2735.632 4        26.096
I06        22.000    38073865.804 7 149410267.06207      -275.991 7        42.921
S28        23.000    40860684.214 5 214724357.26005      -470.416 5        34.795
R08        24.000    21632310.867 8 115840076.86308      2382.078 8        48.158                                                                    21632307.778 7  90097841.29307      1852.740 7        43.863
S23        25.000    38139806.714 7 200426026.07307      -471.887 7        44.939
C25        26.000                                                                                                                                    25414706.096 7 132341040.40807      -935.577 7        42.813                                                                    25414703.892 7 107537931.64607      -760.335 7        42.288
R16        27.000    22617341.201 7 120817792.26107      1452.677 7        46.161                                                                    22617341.516 7  93969395.47507      1129.765 7        42.692
R21        29.000    22815501.710 7 122090354.49307     -5024.173 7        45.165                                                                    22815500.178 6  94959165.83806     -3907.545 6        39.258
E19        30.000    23191209.111 7 121870659.73807       680.028 7        44.245                                                                    23191206.458 7  91007313.28407       507.764 7        45.401    23191206.632 7  93381413.85807       521.015 7        46.891
C23        31.000                                                                                                                                    25311571.204 7 131803993.11907      1511.844 7        43.007                                                                    25311561.650 7 107101507.36207      1228.371 7        44.045
R23        32.000    20620344.631 8 110304951.09508      1900.264 8        48.623
E29        33.000    23880673.279 7 125493869.33307     -1765.636 7        47.693                                                                    23880671.094 8  93712969.63808     -1318.541 8        50.315    23880671.072 8  96157650.26208     -1352.915 8        51.397
E04        34.000    27684812.942 6 145484689.34606      2409.068 6        38.279                                                                    27684812.083 6 108641169.77306      1799.008 6        41.542    27684811.116 6 111475283.39306      1845.834 6        41.604
C16        35.000                                                                                                                                    38758891.890 7 201827756.06807      -745.386 7        42.237    38758891.723 7 156066036.02507      -576.281 7        44.014    38758889.407 6 164001584.64706      -605.764 6        39.946
C32        36.000                                                                                                                                    22214658.847 8 115677616.14408     -1671.057 8        50.478                                                                    22214658.658 8  93997560.07608     -1357.979 8        50.846
I01        37.000   378411126.385 7 181825732.70007     -2680.222 7        42.381
E07        38.000    28054714.981 6 147428533.53706     -3309.836 6        36.752                                                                    28054715.725 6 110092772.18006     -2471.784 6        41.523    28054714.955 6 112964750.13806     -2536.301 6        41.459
C41        39.000                                                                                                                                    26123811.555 6 136033562.01906     -3278.351 6        40.520                                                                    26123816.006 7 110538439.86607     -2664.000 7        42.514
C39        40.000                                                                                                                                    39163358.617 7 203933914.35407     -1155.676 7        42.354                                                                    39163354.489 7 165713005.91607      -939.240 7        42.743
E33        41.000    24232390.190 7 127342157.83807     -2475.919 7        47.896                                                                    24232387.899 8  95093202.97308     -1848.963 8        49.446    24232387.586 8  97573891.12708     -1897.190 8        50.316
S44        42.000    40645359.561 6 213592991.49406      -553.925 6        37.686
R06        43.000    20991986.888 6 112017325.88106     -3314.990 6        38.763
C05        44.000                                                                                                                                    39116158.123 6 203688139.84006      -492.061 6        39.225    39116151.722 7 157504616.55807      -380.646 7        43.429    39116154.051 6 165513403.38206      -400.222 6        40.758
C29        45.000                                                                                                                                    22902220.862 8 119257895.44208      -561.892 8        48.330                                                                    22902217.967 8  96906807.28708      -456.752 8        48.525
G04        46.000    20218796.528 8 106250527.71908       531.073 8        48.652                                    20218792.578 6  82792605.57206       413.820 6        41.356    20218792.718 8  82792607.56908       413.805 8        48.235
R22        48.000    19620803.711 8 104737211.49508     -2002.777 8        52.660                                                                    19620801.308 8  81462273.81708     -1557.714 8        48.628
C20        49.000                                                                                                                                    22851555.474 8 118994070.78808      1224.286 8        50.444                                                                    22851549.294 8  96692413.80708       994.671 8        49.302
C06        50.000                                                                                                                                    38265970.954 6 199260986.46806      -648.593 6        40.973    38265965.510 7 154081218.02407      -501.472 7        45.416    38265965.189 7 161915854.60507      -527.057 7        42.299
S48        51.000    77175592.090 6 405560462.66206      -469.436 6        37.890
G21        52.000    24964227.881 6 131187968.09806     -3789.078 6        36.915                                    24964223.641 3 102224410.24103     -2952.532 3        19.134
C09        53.000                                                                                                                                    38516566.730 7 200565890.68807      -134.941 7        42.447    38516563.276 7 155090259.56307      -104.404 7        46.985    38516561.070 7 162976194.61807      -109.741 7        42.698
C60        54.000                                                                                                                                    40645356.783 6 211651256.57506      -548.924 6        38.757                                                                    40645341.192 6 171983954.98806      -445.948 6        40.503
R09        55.000    24008890.484 5 128206153.51705      3368.573 5        35.995                                                                    24008890.704 5  99715888.26705      2619.883 5        35.352
C02        57.000                                                                                                                                    40596651.709 5 211397479.26205      -537.549 5        34.286    40596644.588 6 163465937.52006      -415.425 6        40.560    40596648.554 6 171777773.94906      -436.720 6        36.794
I03        58.000   102592755.055 6 326810780.97506       887.858 6        40.117
R07        59.000    19327818.445 8 103463391.49408      -442.095 8        51.679                                                                    19327816.729 7  80471580.31107      -343.843 7        47.066
> 2025 01 02 02 15 35.0000000  0 55
G09         1.000    21478626.594 7 112870975.95007      2158.583 7        46.739                                    21478623.973 7  87951414.89407      1682.011 7        47.921    21478624.563 7  87951414.90307      1681.968 7        42.961
G06         2.000    22852640.658 7 120091454.00907      2461.813 7        42.294                                    22852639.191 6  93577760.69906      1918.296 6        41.433    22852639.800 7  93577768.69907      1918.357 7        42.622
E11         3.000    27444482.002 5 144221734.93805      2381.123 5        35.867                                                                    27444478.106 6 107698037.32806      1777.960 6        38.369    27444477.669 6 110507547.78606      1824.369 6        38.964
R15         4.000    23414735.386 7 125121254.18107     -1909.299 7        43.699                                                                    23414735.265 6  97316517.76106     -1485.022 6        40.133
S21         5.000    38426389.503 6 201931769.69006      -476.247 6        41.487
E10         6.000    25281953.212 7 132857568.80407      1638.962 7        45.071                                                                    25281951.750 7  99211817.30107      1223.895 7        47.731    25281951.676 8 101799951.16908      1255.850 8        48.450
G28         7.000    24081904.330 6 126551273.02406     -2896.090 6        39.679                                    24081900.003 4  98611364.08704     -2256.693 4        24.617    24081899.703 6  98611372.10006     -2256.841 6        39.465
G03         8.000    20236520.701 8 106343733.13808     -1638.633 8        49.824                                    20236518.437 8  82865288.40408     -1276.854 8        51.779    20236518.826 7  82865286.40607     -1276.848 7        45.804
G02         9.000    23192057.116 7 121875131.06807     -3642.808 7        43.755                                    23192050.672 5  94967628.29905     -2838.549 5        31.532
G31        10.000    22307150.848 7 117224881.13307     -1398.007 7        45.303                                    22307145.966 6  91344047.61106     -1089.355 6        41.907    22307146.145 6  91344052.61006     -1089.337 6        40.930
C30        11.000                                                                                                                                    23883615.079 7 124368263.23907     -3408.017 7        46.289                                                                    23883615.463 7 101059403.69607     -2769.309 7        46.130
S27        12.000    39057179.802 6 205246849.68906      -468.182 6        36.155
E02        13.000    28789210.682 5 151288336.77505      -955.290 5        35.219                                                                    28789209.674 6 112975045.46506      -713.191 6        38.799    28789209.134 6 115922219.17806      -731.576 6        39.225
S36        14.000    38193776.792 7 200710154.97507      -476.242 7        44.575
I09        15.000    37288129.504 7 146326631.63007      -564.388 7        42.813
G19        16.000    22343785.378 7 117417405.18707     -1204.300 7        44.855                                    22343778.736 5  91494065.86505      -938.415 5        32.329
S45        17.000    63387917.170 6 333106682.30506      -516.220 6        37.603
E12        19.000    24135723.902 7 126834093.53707       493.548 7        45.341                                                                    24135719.731 8  94713760.16208       368.546 8        48.098    24135719.607 8  97184553.32808       378.126 8        48.450
G17        20.000    23121241.796 7 121502969.15707     -2652.930 7        44.393                                    23121236.934 6  94677628.36306     -2067.215 6        39.471    23121237.161 6  94677627.35906     -2067.243 6        39.297
E26        21.000                                                                                                                                    28240460.910 4 110822088.03604     -2665.865 4        25.248
I06        22.000    38074217.729 7 149411647.67407      -276.212 7        42.874
S28        23.000    40861126.775 5 214726709.91505      -470.357 5        35.090
R08        24.000    21630087.234 8 115828171.63108      2380.131 8        48.016                                                                    21630084.661 7  90088581.67807      1851.230 7        44.141
S23        25.000    38140256.693 7 200428386.69007      -472.212 7        45.077
C25        26.000                                                                                                                                    25415606.514 7 132345726.35107      -938.652 7        42.984                                                                    25415603.714 7 107541739.34607      -762.678 7        42.110
R16        27.000    22615984.258 7 120810538.95707      1448.725 7        46.246                                                                    22615983.734 7  93963754.02407      1126.735 7        43.335
R21        29.000    22820196.834 7 122115479.09607     -5025.388 7        45.124                                                                    22820196.138 6  94978707.21506     -3908.744 6        39.958
E19        30.000    23190563.381 7 121867265.43007       677.945 7        44.202                                                                    23190560.483 7  91004778.57107       506.214 7        45.369    23190560.811 7  93378813.02607       519.386 7        46.760
C23        31.000                                                                                                                                    25310120.337 7 131796439.54707      1509.633 7        43.486                                                                    25310111.025 7 107095369.46707      1226.758 7        43.812
R23        32.000    20618569.789 8 110295460.29408      1896.195 8        48.824
E29        33.000    23882354.325 7 125502702.76007     -1767.474 7        47.732                                                                    23882352.012 8  93719566.02808     -1319.937 8        50.284    23882352.070 8  96164418.73108     -1354.346 8        51.356
E04        34.000    27682521.691 6 145472646.66006      2408.295 6        38.279                                                                    27682520.522 6 108632176.84706      1798.328 6        41.714    27682519.687 6 111466055.86306      1845.322 6        41.597
C16        35.000                                                                                                                                    38759608.342 7 201831485.90107      -746.448 7        42.332    38759607.837 7 156068920.16407      -577.150 7        44.057    38759605.684 6 164004615.42906      -606.519 6        39.997
C32        36.000                                                                                                                                    22216264.208 8 115685975.97008     -1672.700 8        50.449                                                                    22216264.040 8  94004353.10908     -1359.207 8        50.750
I01        37.000   378414541.519 7 181839134.63607     -2680.492 7        42.444
E07        38.000    28057864.904 6 147445084.85406     -3310.681 6        37.353                                                                    28057865.357 6 110105131.89606     -2471.994 6        41.502    28057864.468 6 112977432.29206     -2536.533 6        41.156
C41        39.000                                                                                                                                    26126959.531 6 136049954.98006     -3278.805 6        40.779                                                                    26126964.058 7 110551760.48007     -2664.328 7        42.419
C39        40.000                                                                                                                                    39164468.980 7 203939695.42407     -1156.689 7        42.354                                                                    39164464.645 7 165717703.51007      -939.938 7        42.730
E33        41.000    24234747.072 7 127354542.97907     -2478.020 7        47.821                                                                    24234744.746 8  95102451.60908     -1850.412 8        49.464    24234744.437 8  97583381.03408     -1898.731 8        50.196
S44        42.000    40645888.523 6 213595762.12906      -554.304 6        37.667
R06        43.000    20995092.472 6 112033904.78206     -3316.290 6        39.231
C05        44.000                                                                                                                                    39116631.288 6 203690602.43406      -492.618 6        39.565    39116624.672 7 157506520.78107      -380.950 7        43.340    39116627.032 6 165515404.41806      -400.269 6        40.656
C29        45.000                                                                                                                                    22902761.997 8 119260713.60508      -565.182 8        48.416                                                                    22902759.121 8  96909097.26108      -459.155 8        48.473
G04        46.000    20218292.554 8 106247880.17708       528.092 8        48.816                                    20218288.761 6  82790542.55006       411.502 6        41.411    20218288.998 8  82790544.55008       411.507 8        48.296
R22        48.000    19622681.339 8 104747237.47608     -2007.397 8        52.363                                                                    19622679.394 8  81470071.79608     -1561.294 8        48.570
C20        49.000                                                                                                                                    22850380.710 8 118987954.08308      1222.589 8        50.664                                                                    22850374.657 8  96687443.47508       993.497 8        49.210
C06        50.000                                                                                                                                    38266594.207 6 199264232.23906      -649.714 6        41.151    38266588.701 7 154083727.86507      -502.405 7        45.285    38266588.550 7 161918492.05707      -528.031 7        42.201
S48        51.000    77176037.964 6 405562812.23306      -470.112 6        37.773
G21        52.000    24967833.915 6 131206915.77306     -3789.621 6        36.707                                    24967829.178 3 102239174.67103     -2952.938 3        18.806
C09        53.000                                                                                                                                    38516697.143 7 200566568.72207      -136.184 7        42.427    38516693.294 7 155090783.86407      -105.274 7        46.788    38516691.453 7 162976745.56607      -110.592 7        42.747
C60        54.000                                                                                                                                    40645883.947 6 211654002.02006      -549.111 6        39.030                                                                    40645868.499 6 171986185.90306      -446.386 6        40.539
R09        55.000    24005738.849 6 128189313.64306      3367.604 6        36.197                                                                    24005738.070 5  99702790.58705      2619.434 5        34.671
C02        57.000                                                                                                                                    40597168.271 5 211400167.02105      -537.453 5        34.467    40597160.863 6 163468015.88506      -415.869 6        40.501    40597164.744 6 171779957.98606      -437.034 6        36.919
I03        58.000   102591623.961 6 326806342.46606       887.608 6        40.124
R07        59.000    19328232.733 8 103465609.72208      -445.032 8        51.725                                                                    19328231.424 7  80473305.60207      -346.144 7        47.034
> 2025 01 02 02 15 40.0000000  0 55
G09         1.000    21476573.550 7 112860187.98307      2156.526 7        46.680                                    21476571.096 7  87943008.68907      1680.409 7        47.708    21476571.488 7  87943008.68807      1680.490 7        43.092
G06         2.000    22850298.644 7 120079148.48107      2460.119 7        42.404                                    22850297.523 6  93568171.97406      1916.981 6        41.182    22850298.181 7  93568179.96407      1917.095 7        42.299
E11         3.000    27442216.965 5 144209830.51905      2380.452 5        35.929                                                                    27442212.580 6 107689147.65506      1777.437 6        38.333    27442212.123 6 110498426.20906      1824.022 6        39.108
R15         4.000    23416523.148 7 125130810.41907     -1913.427 7        43.160                                                                    23416524.482 6  97323950.39106     -1488.176 6        40.315
S21         5.000    38426845.666 6 201934151.24706      -476.572 6        41.535
E10         6.000    25280394.092 7 132849377.26607      1637.497 7        44.689                                                                    25280392.970 7  99205700.24407      1222.775 7        47.760    25280392.967 8 101793674.53408      1254.691 8        48.613
G28         7.000    24084661.016 6 126565759.70506     -2898.820 6        39.559                                    24084656.660 4  98622652.42304     -2258.829 4        24.241    24084656.947 6  98622660.39906     -2258.591 6        39.586
G03         8.000    20238080.687 8 106351930.90708     -1640.648 8        49.704                                    20238078.416 8  82871676.27708     -1278.425 8        51.562    20238078.868 7  82871674.27807     -1278.339 7        45.448
G02         9.000    23195523.766 7 121893347.48807     -3644.067 7        43.704                                    23195517.204 5  94981822.90805     -2839.527 5        31.177
G31        10.000    22308482.729 7 117231879.71607     -1401.565 7        45.204                                    22308477.740 6  91349501.05106     -1092.129 6        41.721    22308477.969 6  91349506.07706     -1092.203 6        40.648
C30        11.000                                                                                                                                    23886888.010 7 124385306.90607     -3409.557 7        46.299                                                                    23886888.417 7 101073253.05307     -2770.641 7        45.878
S27        12.000    39057625.247 6 205249191.22106      -468.635 6        36.166
E02        13.000    28790120.385 5 151293117.54205      -957.464 5        35.686                                                                    28790119.131 6 112978615.54606      -715.081 6        38.198    28790118.653 6 115925882.38806      -733.662 6        39.057
S36        14.000    38194229.871 7 200712536.11507      -476.371 7        44.634
I09        15.000    37288848.748 7 146329453.96407      -564.595 7        42.834
G19        16.000    22344932.769 7 117423435.18807     -1207.875 7        44.325                                    22344926.100 5  91498764.56805      -941.199 5        32.156
S45        17.000    63388364.404 6 333109263.54706      -516.487 6        37.750
E12        19.000    24135255.127 7 126831630.50707       491.471 7        44.910                                                                    24135251.074 8  94711920.88908       367.042 8        48.035    24135250.918 8  97182666.07708       376.546 8        48.611
G17        20.000    23123766.788 7 121516239.16507     -2655.159 7        44.573                                    23123762.180 6  94687968.62406     -2068.960 6        39.357    23123761.838 6  94687967.63606     -2068.846 6        38.988
E26        21.000                                                                                                                                    28243858.029 4 110835418.42104     -2666.365 4        25.835    28243858.884 4 113726753.10204     -2735.294 4        25.233
I06        22.000    38074569.491 7 149413028.67307      -276.313 7        43.058
S28        23.000    40861582.062 5 214729063.21805      -470.700 5        34.495
R08        24.000    21627865.403 8 115816274.89608      2378.411 8        48.410                                                                    21627863.450 7  90079328.66707      1849.878 7        43.566
S23        25.000    38140704.321 7 200430747.58507      -472.248 7        44.957
C25        26.000                                                                                                                                    25416509.319 7 132350426.13407      -941.404 7        42.756                                                                    25416506.276 6 107545558.29706      -765.094 6        41.824
R16        27.000    22614629.638 7 120803303.98307      1445.065 7        46.055                                                                    22614629.497 7  93958126.81407      1123.960 7        43.147
R21        29.000    22824891.978 7 122140609.16407     -5026.665 7        43.884                                                                    22824892.484 6  94998252.81906     -3909.685 6        40.548
E19        30.000    23189919.189 7 121863880.47807       675.918 7        43.936                                                                    23189916.505 7  91002250.84307       504.779 7        45.369    23189916.598 7  93376219.35607       517.947 7        46.928
C23        31.000                                                                                                                                    25308671.660 7 131788895.42907      1507.693 7        43.903                                                                    25308662.184 7 107089239.23507      1225.108 7        43.369
R23        32.000    20616799.138 8 110285988.52308      1892.317 8        48.781
E29        33.000    23884036.770 7 125511544.15607     -1769.141 7        47.311                                                                    23884034.476 8  93726168.36608     -1321.146 8        50.265    23884034.528 8  96171193.30508     -1355.590 8        51.547
E04        34.000    27680230.369 6 145460606.82006      2407.522 6        38.381                                                                    27680229.315 6 108623186.07306      1797.898 6        41.864    27680228.678 6 111456830.54906      1844.869 6        41.924
C16        35.000                                                                                                                                    38760325.455 7 201835219.93307      -747.307 7        42.482    38760325.264 7 156071807.55807      -577.880 7        44.155    38760322.620 6 164007649.62606      -607.500 6        39.910
C32        36.000                                                                                                                                    22217871.012 8 115694342.83408     -1674.263 8        50.579                                                                    22217870.822 8  94011151.85808     -1360.513 8        50.549
I01        37.000   378417957.082 7 181852537.33607     -2680.760 7        42.650
E07        38.000    28061014.646 6 147461636.94706     -3310.557 6        37.002                                                                    28061015.178 6 110117492.23506     -2472.175 6        41.425    28061014.171 6 112990115.07806     -2536.673 6        41.285
C41        39.000                                                                                                                                    26130107.596 6 136066348.61906     -3279.005 6        41.299                                                                    26130112.357 7 110565081.64607     -2664.516 7        42.140
C39        40.000                                                                                                                                    39165579.697 7 203945480.18407     -1157.355 7        42.406                                                                    39165575.591 7 165722404.07907      -940.554 7        42.519
E33        41.000    24237105.488 7 127366937.02007     -2479.813 7        47.279                                                                    24237103.283 8  95111706.89508     -1851.795 8        49.443    24237103.003 8  97592877.76208     -1900.105 8        50.287
S44        42.000    40646415.978 6 213598533.14206      -554.550 6        37.917
R06        43.000    20998200.845 6 112050489.96406     -3317.787 6        38.778
C05        44.000                                                                                                                                    39117103.840 6 203693065.44906      -492.796 6        39.447    39117097.756 7 157508425.33807      -381.094 7        43.297    39117100.032 6 165517405.80306      -400.551 6        40.293
C29        45.000                                                                                                                                    22903305.956 8 119263546.53608      -568.176 8        48.518                                                                    22903303.254 8  96911399.24208      -461.801 8        48.209
G04        46.000    20217791.422 8 106245246.28808       525.310 8        48.692                                    20217787.536 6  82788490.16906       409.332 6        41.247    20217787.880 8  82788492.17108       409.328 8        48.225
R22        48.000    19624563.766 8 104757285.19908     -2011.816 8        52.222                                                                    19624561.605 8  81477886.69608     -1564.731 8        48.289
C20        49.000                                                                                                                                    22849207.185 8 118981844.33008      1221.131 8        50.730                                                                    22849201.390 8  96682478.79108       992.154 8        48.974
C06        50.000                                                                                                                                    38267218.644 6 199267482.41906      -650.446 6        41.352    38267212.684 7 154086241.10907      -503.048 7        45.187    38267212.631 7 161921133.08407      -528.690 7        42.025
S48        51.000    77176488.735 6 405565162.12406      -470.140 6        37.803
G21        52.000    24971439.487 6 131225865.13306     -3790.229 6        36.287                                    24971435.170 3 102253940.38703     -2953.430 3        18.716
C09        53.000                                                                                                                                    38516827.882 7 200567251.17707      -137.157 7        42.525    38516824.240 7 155091311.57607      -105.918 7        46.681    38516822.538 7 162977300.11107      -111.550 7        42.535
C60        54.000                                                                                                                                    40646411.254 6 211656747.83506      -549.299 6        39.186                                                                    40646395.811 6 171988417.07106      -446.394 6        40.181
R09        55.000    24002585.359 6 128172476.09706      3367.166 6        37.047                                                                    24002585.041 5  99689694.70705      2619.044 5        34.476
C02        57.000                                                                                                                                    40597684.229 5 211402855.22305      -537.585 5        34.310    40597677.219 6 163470094.56906      -415.834 6        40.400    40597680.895 6 171782142.33106      -437.011 6        36.461
I03        58.000   102590492.670 6 326801904.39606       887.526 6        40.091
R07        59.000    19328650.129 8 103467841.06908      -447.737 8        51.931                                                                    19328648.377 7  80475041.09607      -348.280 7        47.117
> 2025 01 02 02 15 45.0000000  0 55
G09         1.000    21474522.730 7 112849409.38707      2154.842 7        46.423                                    21474519.994 7  87934609.78707      1679.100 7        47.690    21474520.429 7  87934609.78707      1679.146 7        43.130
G06         2.000    22847958.610 7 120066850.95807      2458.797 7        42.199                                    22847957.371 6  93558589.48906      1915.945 6        41.085    22847957.512 7  93558597.47607      1916.079 7        42.182
E11         3.000    27439952.023 6 144197928.17406      2380.290 6        36.197                                                                    27439947.757 6 107680259.57306      1777.395 6        38.474    27439947.441 6 110489306.24506      1823.842 6        39.384
R15         4.000    23418314.452 7 125140386.38407     -1916.969 7        42.802                                                                    23418315.367 6  97331398.35406     -1490.909 6        39.378
S21         5.000    38427295.865 6 201936532.80606      -476.045 6        41.776
E10         6.000    25278836.525 7 132841192.16607      1636.428 7        44.361                                                                    25278835.331 7  99199587.99107      1222.089 7        47.787    25278835.343 8 101787402.83608      1253.918 8        48.680
G28         7.000    24087419.648 6 126580258.33906     -2900.774 6        39.012                                    24087415.548 4  98633950.05504     -2260.344 4        24.060    24087415.657 6  98633958.08106     -2260.491 6        40.143
G03         8.000    20239642.462 8 106360138.19508     -1642.296 8        49.348                                    20239640.188 8  82878071.56208     -1279.711 8        51.489    20239640.662 7  82878069.56707     -1279.664 7        45.592
G02         9.000    23198991.615 7 121911570.00207     -3645.031 7        44.126                                    23198984.884 5  94996022.27105     -2840.288 5        31.155
G31        10.000    22309817.760 7 117238895.88307     -1404.872 7        45.403                                    22309812.886 6  91354968.19106     -1094.706 6        41.604    22309813.039 6  91354973.20406     -1094.735 6        41.018
C30        11.000                                                                                                                                    23890162.231 7 124402357.24407     -3410.625 7        46.739                                                                    23890162.815 7 101087107.86007     -2771.468 7        45.982
S27        12.000    39058070.558 6 205251532.88706      -468.207 6        36.533
E02        13.000    28791032.547 5 151297909.65405      -959.339 5        34.962                                                                    28791030.938 6 112982194.07306      -716.288 6        38.183    28791030.970 6 115929554.28306      -735.224 6        39.345
S36        14.000    38194684.845 7 200714917.09007      -476.249 7        44.700
I09        15.000    37289568.064 7 146332276.86707      -564.515 7        42.864
G19        16.000    22346082.925 7 117429482.12407     -1210.947 7        44.536                                    22346076.805 5  91503476.47105      -943.597 5        32.144
S45        17.000    63388811.687 6 333111844.69206      -516.043 6        37.769
E12        19.000    24134788.079 7 126829177.01007       489.831 7        45.094                                                                    24134784.122 8  94710088.73608       365.779 8        48.152    24134784.064 8  97180786.12208       375.302 8        48.616
G17        20.000    23126293.848 7 121529518.81107     -2656.750 7        43.321                                    23126289.255 6  94698316.39606     -2070.194 6        39.360    23126289.612 6  94698315.39606     -2070.235 6        39.820
E26        21.000                                                                                                                                    28247255.526 4 110848749.92704     -2665.622 4        24.887    28247256.193 4 113740432.42104     -2736.538 4        26.108
I06        22.000    38074921.424 7 149414409.71407      -276.142 7        43.064
S28        23.000    40862025.727 5 214731416.09405      -470.526 5        35.214
R08        24.000    21625645.398 8 115804386.22708      2377.021 8        48.509                                                                    21625642.641 7  90070081.93607      1848.776 7        43.676
S23        25.000    38141155.029 7 200433108.37107      -472.039 7        45.216
C25        26.000                                                                                                                                    25417413.658 7 132355139.32107      -943.951 7        42.817                                                                    25417411.365 6 107549388.14206      -766.892 6        41.936
R16        27.000    22613277.959 7 120796086.96607      1441.770 7        45.449                                                                    22613277.995 7  93952513.59307      1121.316 7        42.603
R21        29.000    22829588.894 7 122165744.38907     -5027.444 7        43.450                                                                    22829589.527 6  95017802.42306     -3910.257 6        41.373
E19        30.000    23189276.619 7 121860504.29907       674.526 7        44.015                                                                    23189273.930 7  90999729.68207       503.675 7        45.439    23189274.184 7  93373632.42607       516.741 7        46.997
C23        31.000                                                                                                                                    25307224.089 7 131781360.30307      1506.191 7        43.772                                                                    25307215.070 7 107083116.34407      1223.930 7        43.543
R23        32.000    20615031.801 8 110276535.34808      1888.896 8        48.556
E29        33.000    23885720.672 7 125520393.05007     -1770.368 7        47.268                                                                    23885718.413 8  93732776.30808     -1322.091 8        50.320    23885718.429 8  96177973.62608     -1356.526 8        51.577
E04        34.000    27677939.943 6 145448569.40006      2407.305 6        38.213                                                                    27677938.654 6 108614197.10406      1797.737 6        41.986    27677937.929 6 111447607.07706      1844.682 6        41.969
C16        35.000                                                                                                                                    38761043.069 7 201838957.69507      -747.870 7        42.396    38761043.108 7 156074697.82907      -578.155 7        44.426    38761040.662 6 164010686.86206      -607.568 6        39.805
C32        36.000                                                                                                                                    22219479.116 8 115702716.25408     -1675.239 8        50.723                                                                    22219478.828 8  94017955.95408     -1361.218 8        50.610
I01        37.000   378421372.706 7 181865940.48707     -2680.650 7        42.696
E07        38.000    28064164.622 6 147478189.40306     -3310.478 6        37.195                                                                    28064164.951 6 110129852.82906     -2472.089 6        41.111    28064164.111 6 113002798.11506     -2536.565 6        41.459
C41        39.000                                                                                                                                    26133255.721 6 136082742.50606     -3278.753 6        41.495                                                                    26133260.591 7 110578403.02307     -2664.222 7        42.214
C39        40.000                                                                                                                                    39166691.338 7 203951268.15507     -1157.740 7        42.303                                                                    39166687.141 7 165727107.28107      -940.778 7        42.563
E33        41.000    24239465.782 7 127379339.48807     -2481.216 7        47.244                                                                    24239463.312 8  95120968.47808     -1852.820 8        49.481    24239463.143 8  97602380.95008     -1901.172 8        50.303
S44        42.000    40646940.088 6 213601304.00406      -553.826 6        38.108
R06        43.000    21001311.043 6 112067080.84406     -3318.697 6        38.970
C05        44.000                                                                                                                                    39117577.170 6 203695528.45906      -492.593 6        39.459    39117570.831 7 157510329.89107      -380.882 7        43.443    39117572.964 6 165519407.19806      -400.076 6        40.508
C29        45.000                                                                                                                                    22903852.637 8 119266393.78208      -570.746 8        48.510                                                                    22903849.978 8  96913712.87108      -463.794 8        48.287
G04        46.000    20217292.465 8 106242625.58308       522.902 8        48.425                                    20217288.825 6  82786448.06306       407.453 6        41.201    20217289.070 8  82786450.06308       407.449 8        48.274
R22        48.000    19626449.931 8 104767354.20508     -2015.826 8        52.247                                                                    19626447.845 8  81485718.14408     -1567.872 8        48.340
C20        49.000                                                                                                                                    22848035.131 8 118975741.06208      1220.137 8        50.776                                                                    22848029.325 8  96677519.39308       991.432 8        49.078
C06        50.000                                                                                                                                    38267843.936 6 199270736.56206      -651.107 6        41.433    38267837.559 7 154088757.42407      -503.485 7        45.321    38267837.486 7 161923777.34207      -528.988 7        42.286
S48        51.000    77176933.496 6 405567511.82006      -469.638 6        38.045
G21        52.000    24975046.025 6 131244815.70506     -3790.300 6        36.537                                    24975041.355 3 102268707.07103     -2953.481 3        19.045
C09        53.000                                                                                                                                    38516959.792 7 200567937.61907      -137.672 7        42.627    38516956.133 7 155091842.37907      -106.439 7        46.699    38516954.355 7 162977857.90507      -111.897 7        42.512
C60        54.000                                                                                                                                    40646938.740 6 211659493.53606      -549.126 6        39.231                                                                    40646922.979 6 171990648.18306      -446.179 6        40.212
R09        55.000    23999433.841 6 128155640.50406      3366.896 6        37.766                                                                    23999431.372 5  99676600.36005      2618.677 5        34.205
C02        57.000                                                                                                                                    40598200.625 5 211405543.38205      -537.681 5        34.395    40598193.079 6 163472173.21306      -415.633 6        40.529    40598197.081 6 171784326.68306      -436.655 6        36.620
I03        58.000   102589362.116 6 326797466.39506       887.678 6        40.138
R07        59.000    19329069.264 8 103470085.28408      -449.953 8        52.042                                                                    19329067.667 7  80476786.58407      -349.966 7        47.374
> 2025 01 02 02 15 50.0000000  0 55
G09         1.000    21472473.352 7 112838639.59007      2152.966 7        46.897                                    21472470.578 7  87926217.74307      1677.635 7        47.727    21472471.097 7  87926217.74107      1677.625 7        43.409
G06         2.000    22845619.652 7 120054560.88307      2457.195 7        42.294                                    22845618.641 6  93549012.80806      1914.695 6        41.156    22845618.983 7  93549020.81607      1914.718 7        42.273
E11         3.000    27437687.115 5 144186027.42205      2379.723 5        35.748                                                                    27437682.932 6 107671372.61806      1777.338 6        38.432    27437682.714 6 110480187.47806      1823.525 6        39.102
R15         4.000    23420110.819 7 125149981.57507     -1920.980 7        43.230                                                                    23420110.726 6  97338861.27706     -1494.178 6        38.471
S21         5.000    38427751.375 6 201938913.72406      -476.207 6        41.495
E10         6.000    25277280.119 7 132833012.96107      1635.147 7        44.354                                                                    25277278.977 7  99193480.14707      1221.063 7        47.836    25277278.867 8 101781135.65708      1252.853 8        48.645
G28         7.000    24090181.145 6 126594768.41306     -2903.323 6        38.643                                    24090176.748 3  98645256.60703     -2262.341 3        23.829    24090177.428 6  98645264.60706     -2262.330 6        40.267
G03         8.000    20241205.872 8 106368354.42908     -1644.185 8        49.349                                    20241203.673 8  82884473.82608     -1281.183 8        51.510    20241204.188 7  82884471.83407     -1281.241 7        45.538
G02         9.000    23202460.104 7 121929798.04407     -3646.312 7        43.882                                    23202453.652 5  95010225.93605     -2841.286 5        31.449
G31        10.000    22311156.355 7 117245929.04207     -1408.461 7        45.500                                    22311151.247 6  91360448.58006     -1097.499 6        41.576    22311151.771 6  91360453.57506     -1097.446 6        41.075
C30        11.000                                                                                                                                    23893438.162 7 124419413.69607     -3411.996 7        46.950                                                                    23893438.418 7 101100967.64607     -2772.610 7        45.840
S27        12.000    39058515.409 6 205253873.86206      -468.400 6        36.537
E02        13.000    28791946.538 5 151302712.56005      -961.686 5        35.214                                                                    28791945.254 6 112985780.67706      -718.187 6        37.713    28791944.973 6 115933234.43506      -736.931 6        39.267
S36        14.000    38195136.291 7 200717297.57807      -476.080 7        44.745
I09        15.000    37290287.641 7 146335099.92507      -564.659 7        42.902
G19        16.000    22347237.188 7 117435545.48207     -1214.393 7        44.558                                    22347230.623 5  91508201.16605      -946.281 5        32.090
S45        17.000    63389261.304 6 333114425.09406      -516.264 6        37.781
E12        19.000    24134322.878 7 126826732.48007       487.855 7        44.965                                                                    24134319.027 8  94708263.28008       364.288 8        48.103    24134318.894 8  97178913.04708       373.835 8        48.649
G17        20.000    23128822.754 7 121542807.47707     -2658.620 7        43.790                                    23128818.065 6  94708671.20006     -2071.651 6        39.387    23128818.064 6  94708670.20806     -2071.821 6        39.751
E26        21.000                                                                                                                                                                                                    28250652.883 4 113754112.29504     -2736.058 4        25.474
I06        22.000    38075273.221 7 149415790.38907      -276.225 7        42.965
S28        23.000    40862473.896 5 214733768.58205      -470.418 5        35.014
R08        24.000    21623426.518 8 115792505.07308      2375.353 8        48.274                                                                    21623423.670 7  90060841.02507      1847.519 7        43.244
S23        25.000    38141603.711 7 200435468.58907      -471.990 7        45.220
C25        26.000                                                                                                                                    25418321.502 7 132359865.31407      -946.563 7        42.891                                                                    25418318.971 6 107553228.42306      -769.288 6        41.814
R16        27.000    22611930.298 7 120788887.49207      1438.050 7        46.025                                                                    22611930.042 7  93946914.00407      1118.440 7        42.510
R21        29.000    22834288.326 7 122190884.02007     -5028.567 7        44.358                                                                    22834287.035 6  95037355.46006     -3910.981 6        41.273
E19        30.000    23188635.709 7 121857136.31307       672.621 7        44.020                                                                    23188633.079 7  90997214.62607       502.294 7        45.497    23188633.271 7  93371051.76207       515.391 7        46.919
C23        31.000                                                                                                                                    25305778.104 7 131773833.64907      1504.310 7        43.293                                                                    25305769.762 7 107077000.32107      1222.334 7        43.308
R23        32.000    20613267.997 8 110267100.04408      1885.162 8        48.823
E29        33.000    23887405.732 7 125529248.87307     -1771.910 7        47.254                                                                    23887403.588 8  93739389.42608     -1323.255 8        50.300    23887403.649 8  96184759.25908     -1357.742 8        51.531
E04        34.000    27675649.463 6 145436533.84306      2406.903 6        38.829                                                                    27675648.448 6 108605209.52006      1797.425 6        41.902    27675647.498 6 111438385.03606      1844.194 6        41.971
C16        35.000                                                                                                                                    38761761.580 7 201842698.62607      -748.627 7        42.398    38761761.350 7 156077590.55907      -578.897 7        44.391    38761759.009 6 164013726.68206      -608.279 6        39.508
C32        36.000                                                                                                                                    22221088.332 8 115711095.68908     -1676.621 8        50.586                                                                    22221088.050 8  94024764.94208     -1362.405 8        50.449
I01        37.000   378424788.027 7 181879343.69607     -2680.754 7        42.715
E07        38.000    28067314.196 6 147494741.60306     -3310.451 6        37.021                                                                    28067314.582 6 110142213.26106     -2472.199 6        41.032    28067313.901 6 113015480.99106     -2536.690 6        41.435
C41        39.000                                                                                                                                    26136404.158 6 136099136.06706     -3278.778 6        41.523                                                                    26136408.857 7 110591724.16007     -2664.453 7        42.178
C39        40.000                                                                                                                                    39167803.159 7 203957058.77607     -1158.527 7        42.157                                                                    39167799.201 7 165731812.64807      -941.459 7        42.554
E33        41.000    24241827.238 7 127391749.82707     -2482.991 7        47.054                                                                    24241824.878 8  95130235.93808     -1854.174 8        49.492    24241824.779 8  97611890.17408     -1902.587 8        50.334
S44        42.000    40647468.660 6 213604074.24706      -554.095 6        37.955
R06        43.000    21004420.068 6 112083676.94006     -3319.600 6        39.171
C05        44.000                                                                                                                                    39118049.736 6 203697990.87906      -492.481 6        39.258    39118043.455 7 157512233.99507      -380.921 7        43.384    39118045.735 6 165521408.13806      -400.253 6        40.288
C29        45.000                                                                                                                                    22904401.774 8 119269254.80708      -573.650 8        48.257                                                                    22904399.444 8  96916037.69408      -466.231 8        48.160
G04        46.000    20216796.322 8 106240017.50708       520.232 8        48.368                                    20216792.516 6  82784415.79806       405.374 6        41.266    20216792.757 8  82784417.79708       405.414 8        48.289
R22        48.000    19628340.108 8 104777443.91108     -2020.121 8        52.226                                                                    19628338.100 8  81493565.69408     -1571.237 8        48.261
C20        49.000                                                                                                                                    22846863.936 8 118969643.74408      1218.744 8        50.420                                                                    22846858.350 8  96672564.82908       990.212 8        48.862
C06        50.000                                                                                                                                    38268469.945 6 199273994.11506      -652.014 6        41.423    38268463.185 7 154091276.36707      -504.152 7        45.190    38268463.310 6 161926424.37906      -529.881 6        41.948
S48        51.000    77177381.633 6 405569860.90906      -470.052 6        38.658
G21        52.000    24978652.838 6 131263766.88606     -3790.537 6        36.741                                    24978647.647 3 102283474.22103     -2953.666 3        19.791
C09        53.000                                                                                                                                    38517092.702 7 200568627.48407      -138.409 7        42.237    38517088.668 7 155092375.82407      -106.947 7        46.546    38517086.941 7 162978418.48407      -112.512 7        42.360
C60        54.000                                                                                                                                    40647465.730 6 211662238.58906      -549.060 6        38.865                                                                    40647450.255 6 171992878.77306      -446.186 6        40.167
R09        55.000    23996280.354 6 128138806.28506      3366.632 6        37.682                                                                    23996278.728 5  99663507.08305      2618.577 5        34.138
C02        57.000                                                                                                                                    40598715.939 5 211408230.95005      -537.405 5        34.267    40598709.261 6 163474251.42106      -415.662 6        40.536    40598713.321 6 171786510.56606      -436.876 6        36.287
I03        58.000   102588231.168 6 326793028.02606       887.580 6        40.341
R07        59.000    19329490.851 8 103472341.60608      -452.606 8        52.075                                                                    19329488.733 7  80478541.50507      -352.041 7        47.166
> 2025 01 02 02 15 55.0000000  0 55
G09         1.000    21470425.835 7 112827879.19207      2150.990 7        46.778                                    21470422.932 7  87917833.02007      1676.096 7        47.938    21470423.194 7  87917833.01407      1676.105 7        43.340
G06         2.000    22843283.002 7 120042278.86807      2455.533 7        42.639                                    22843281.458 6  93539442.41306      1913.403 6        41.299    22843281.622 7  93539450.39807      1913.452 7        42.013
E11         3.000    27435422.689 5 144174128.77705      2379.465 5        35.352                                                                    27435418.817 6 107662487.30206      1776.906 6        38.532    27435418.357 6 110471070.35806      1823.115 6        39.312
R15         4.000    23421911.015 7 125159596.33407     -1925.006 7        43.374                                                                    23421910.069 6  97346339.42606     -1497.145 6        39.150
S21         5.000    38428198.734 6 201941294.54406      -476.256 6        41.678
E10         6.000    25275724.940 7 132824840.26107      1633.764 7        44.387                                                                    25275723.787 7  99187377.15807      1219.989 7        47.672    25275723.678 8 101774873.45308      1251.857 8        48.752
G28         7.000    24092944.414 6 126609290.48706     -2905.666 6        38.489                                    24092940.265 4  98656572.50304     -2264.155 4        24.195    24092940.502 6  98656580.49706     -2264.269 6        40.343
G03         8.000    20242771.324 8 106376580.19608     -1646.241 8        49.357                                    20242768.982 8  82890883.51808     -1282.785 8        51.673    20242769.760 7  82890881.52007     -1282.745 7        45.741
G02         9.000    23205930.065 7 121948032.18507     -3647.484 7        44.023                                    23205923.671 5  95024434.35305     -2842.192 5        31.691
G31        10.000    22312498.004 7 117252979.79107     -1412.061 7        45.077                                    22312492.944 6  91365942.67106     -1100.306 6        41.750    22312493.237 6  91365947.67206     -1100.333 6        40.834
C30        11.000                                                                                                                                    23896714.950 7 124436476.87007     -3413.462 7        46.526                                                                    23896715.305 7 101114832.85907     -2773.752 7        45.973
S27        12.000    39058961.287 6 205256214.84206      -468.261 6        36.510
E02        13.000    28792862.417 5 151307526.87005      -963.918 5        35.205                                                                    28792861.349 6 112989375.78106      -719.877 6        37.754    28792860.842 6 115936923.33806      -738.741 6        39.324
S36        14.000    38195591.422 7 200719677.99107      -476.043 7        44.658
I09        15.000    37291007.059 7 146337923.60007      -564.872 7        42.935
G19        16.000    22348394.099 7 117441625.81907     -1217.841 7        44.390                                    22348387.664 5  91512939.09505      -948.966 5        32.257
S45        17.000    63389707.853 6 333115305.43216      -516.397 6        37.735
E12        19.000    24133859.549 7 126824297.50907       485.855 7        44.883                                                                    24133855.622 8  94706444.95208       362.865 8        48.022    24133855.491 8  97177047.28408       372.312 8        48.644
G17        20.000    23131353.660 7 121556105.80807     -2660.680 7        44.048                                    23131348.686 6  94719033.53206     -2073.256 6        39.568    23131348.720 6  94719032.52606     -2073.264 6        40.040
E26        21.000                                                                                                                                    28254049.874 3 110875415.44003     -2667.414 3        23.486    28254051.073 4 113767793.40504     -2736.225 4        25.308
I06        22.000    38075625.098 7 149417171.11707      -276.097 7        43.052
S28        23.000    40862921.679 5 214736120.82705      -470.785 5        35.138
R08        24.000    21621209.455 8 115780632.07208      2373.718 8        48.076                                                                    21621206.664 7  90051606.49507      1846.194 7        43.515
S23        25.000    38142051.996 7 200437828.75707      -472.004 7        45.106
C25        26.000                                                                                                                                    25419231.794 7 132364604.74707      -949.343 7        42.639                                                                    25419228.993 6 107557079.59606      -771.396 6        41.897
R16        27.000    22610586.441 7 120781706.09207      1434.333 7        45.436                                                                    22610586.378 7  93941328.46907      1115.737 7        42.214
R21        29.000    22838987.475 7 122216028.69507     -5029.562 7        44.915                                                                    22838985.890 6  95056912.42606     -3911.926 6        41.039
E19        30.000    23187996.395 7 121853777.26107       670.855 7        43.816                                                                    23187993.835 7  90994706.24307       500.966 7        45.309    23187994.071 7  93368477.93707       514.045 7        47.013
C23        31.000                                                                                                                                    25304334.632 7 131766316.03507      1502.525 7        42.739                                                                    25304326.265 7 107070891.65007      1220.922 7        43.536
R23        32.000    20611507.883 8 110257683.41108      1881.378 8        48.672
E29        33.000    23889092.414 7 125538112.22307     -1773.544 7        47.424                                                                    23889090.252 8  93746008.15708     -1324.405 8        50.214    23889090.256 8  96191550.65708     -1358.930 8        51.611
E04        34.000    27673359.818 6 145424500.73006      2406.115 6        38.964                                                                    27673358.391 6 108596223.77306      1796.877 6        41.678    27673357.766 6 111429164.86006      1843.899 6        41.921
C16        35.000                                                                                                                                    38762481.166 7 201846443.32907      -749.519 7        42.533    38762480.478 7 156080486.20607      -579.437 7        44.278    38762478.056 6 164016769.55606      -608.960 6        39.685
C32        36.000                                                                                                                                    22222698.742 8 115719481.72908     -1677.943 8        50.657                                                                    22222698.512 8  94031579.28408     -1363.463 8        50.511
I01        37.000   378428203.954 7 181892747.34507     -2680.849 7        42.832
E07        38.000    28070463.836 6 147511294.21206     -3310.677 6        37.206                                                                    28070464.483 6 110154573.95106     -2472.240 6        40.725    28070463.996 6 113028164.14406     -2536.667 6        41.425
C41        39.000                                                                                                                                    26139552.339 6 136115529.90906     -3278.957 6        41.082                                                                    26139557.150 7 110605045.48207     -2664.440 7        42.347
C39        40.000                                                                                                                                    39168915.967 7 203962852.64107     -1159.197 7        42.171                                                                    39168911.759 7 165736520.62407      -941.830 7        42.569
E33        41.000    24244190.521 7 127404168.62007     -2484.688 7        47.272                                                                    24244188.128 8  95139509.71308     -1855.482 8        49.405    24244188.038 8  97621405.87308     -1903.841 8        50.412
S44        42.000    40647995.185 6 213606844.43006      -554.278 6        38.279
R06        43.000    21007531.995 6 112100278.83206     -3321.064 6        39.132
C05        44.000                                                                                                                                    39118522.355 6 203700453.34906      -492.669 6        39.369    39118516.571 7 157514138.13607      -380.885 7        43.372    39118518.855 6 165523409.08606      -400.284 6        40.417
C29        45.000                                                                                                                                    22904954.104 8 119272130.17908      -576.641 8        48.246                                                                    22904951.562 8  96918374.16508      -468.545 8        48.240
G04        46.000    20216302.561 8 106237422.64508       517.476 8        48.354                                    20216298.737 6  82782393.83006       403.226 6        41.395    20216299.057 8  82782395.82708       403.278 8        48.428
R22        48.000    19630234.340 8 104787554.96308     -2024.462 8        52.196                                                                    19630232.687 8  81501429.84108     -1574.559 8        48.758
C20        49.000                                                                                                                                    22845694.355 8 118963552.94708      1217.405 8        50.256                                                                    22845688.730 8  96667615.54708       989.287 8        48.938
C06        50.000                                                                                                                                    38269095.800 6 199277255.63506      -652.783 6        41.263    38269089.500 7 154093798.38107      -504.793 7        45.124    38269089.563 6 161929074.63106      -530.557 6        41.926
S48        51.000    77177827.284 6 405572209.95906      -469.986 6        38.186
G21        52.000    24982259.204 6 131282719.29906     -3790.629 6        36.888                                    24982254.181 3 102298242.33403     -2953.762 3        19.463
C09        53.000                                                                                                                                    38517226.198 7 200569321.34407      -139.281 7        42.485    38517221.899 7 155092912.36407      -107.734 7        46.507    38517220.104 7 162978982.30007      -113.190 7        42.427
C60        54.000                                                                                                                                    40647993.010 6 211664983.58306      -549.243 6        38.943                                                                    40647977.267 6 171995109.29106      -446.046 6        40.203
R09        55.000    23993126.931 6 128121974.01206      3366.042 6        37.554                                                                    23993126.508 5  99650415.29205      2618.071 5        34.319
C02        57.000                                                                                                                                    40599232.492 5 211410918.56605      -537.917 5        34.333    40599225.608 6 163476329.64406      -415.809 6        40.577    40599229.243 6 171788694.45806      -436.749 6        36.529
I03        58.000   102587100.258 6 326788589.77506       887.560 6        40.334
R07        59.000    19329914.418 8 103474610.74808      -455.202 8        51.968                                                                    19329912.419 7  80480306.40007      -354.081 7        47.314
> 2025 01 02 02 16  0.0000000  0 55
G09         1.000    21468379.878 7 112817128.15707      2149.099 7        46.220                                    21468377.076 7  87909455.59307      1674.621 7        47.895    21468377.494 7  87909455.60507      1674.566 7        43.338
G06         2.000    22840947.460 7 120030004.86707      2453.895 7        42.186                                    22840945.773 6  93529878.25806      1912.128 6        41.263    22840946.421 6  93529886.25906      1912.093 6        41.919
E11         3.000    27433158.866 5 144162232.28405      2378.990 5        35.943                                                                    27433154.938 6 107653603.55606      1776.555 6        38.571    27433154.652 6 110461954.87506      1822.867 6        39.363
R15         4.000    23423712.857 7 125169230.82507     -1928.937 7        43.187                                                                    23423713.625 6  97353832.93106     -1500.245 6        39.613
S21         5.000    38428652.846 6 201943675.31506      -476.229 6        41.764
E10         6.000    25274171.019 7 132816674.02807      1632.508 7        44.560                                                                    25274169.777 7  99181278.99107      1219.028 7        47.843    25274169.652 8 101768616.20908      1250.838 8        48.666
G28         7.000    24095710.302 6 126623824.51106     -2908.131 6        38.913                                    24095706.223 4  98667897.71304     -2266.078 4        24.135    24095705.980 6  98667905.69306     -2265.992 6        40.110
G03         8.000    20244338.677 8 106384815.44508     -1648.085 8        49.419                                    20244336.089 8  82897300.59408     -1284.224 8        51.680    20244336.791 7  82897298.59407     -1284.294 7        45.929
G02         9.000    23209401.215 7 121966272.40707     -3648.818 7        44.906                                    23209394.781 5  95038647.50905     -2843.232 5        32.054
G31        10.000    22313842.808 7 117260048.09407     -1415.542 7        44.886                                    22313837.964 6  91371450.44106     -1103.020 6        41.695    22313838.154 6  91371455.44306     -1103.080 6        41.011
C30        11.000                                                                                                                                    23899992.752 7 124453546.67907     -3414.801 7        46.760                                                                    23899993.310 7 101128703.46207     -2774.884 7        46.055
S27        12.000    39059406.183 6 205258555.50006      -468.180 6        36.692
E02        13.000    28793780.597 5 151312352.50905      -966.243 5        35.562                                                                    28793779.538 6 112992979.36306      -721.639 6        38.189    28793779.036 6 115940620.92606      -740.495 6        39.279
S36        14.000    38196041.893 7 200722057.85107      -476.114 7        44.667
I09        15.000    37291726.668 7 146340747.80907      -565.011 7        42.887
G19        16.000    22349554.173 7 117447723.08807     -1221.304 7        43.755                                    22349547.902 5  91517690.21505      -951.664 5        32.275
S45        17.000    63390158.902 6 333117885.63006      -516.054 6        37.633
E12        19.000    24133397.940 7 126821872.10007       484.074 7        45.002                                                                    24133394.083 8  94704633.76408       361.481 8        48.208    24133393.940 8  97175188.85208       370.873 8        48.646
G17        20.000    23133885.677 7 121569413.72207     -2662.747 7        44.152                                    23133881.118 6  94729403.33206     -2074.868 6        39.556    23133881.189 6  94729402.33506     -2074.785 6        39.688
E26        21.000                                                                                                                                                                                                    28257449.398 4 113781475.66004     -2736.417 4        24.556
I06        22.000    38075976.970 7 149418551.88907      -276.225 7        43.041
S28        23.000    40863368.247 5 214738472.96505      -470.531 5        34.986
R08        24.000    21618993.337 7 115768767.07507      2372.031 7        47.994                                                                    21618991.270 7  90042378.15507      1845.015 7        43.481
S23        25.000    38142501.305 7 200440188.71407      -472.013 7        45.106
C25        26.000                                                                                                                                    25420144.033 7 132369357.56307      -952.078 7        42.499                                                                    25420141.906 6 107560941.62506      -773.620 6        41.959
R16        27.000    22609245.207 7 120774542.61607      1430.714 7        45.884                                                                    22609244.566 7  93935756.86907      1112.836 7        42.135
R21        29.000    22843687.143 7 122241178.39507     -5030.525 7        44.757                                                                    22843685.829 6  95076473.30006     -3912.668 6        41.108
E19        30.000    23187358.934 7 121850427.03907       669.036 7        44.113                                                                    23187356.316 7  90992204.45707       499.556 7        45.586    23187356.495 7  93365910.88807       512.654 7        46.899
C23        31.000                                                                                                                                    25302893.263 7 131758807.45407      1500.727 7        43.289                                                                    25302884.347 7 107064790.31007      1219.248 7        43.628
R23        32.000    20609751.255 8 110248285.28308      1877.617 8        48.819
E29        33.000    23890780.390 7 125546983.04707     -1775.048 7        47.576                                                                    23890778.278 8  93752632.47608     -1325.554 8        50.338    23890778.300 8  96198347.77708     -1360.073 8        51.497
E04        34.000    27671069.829 6 145412470.05506      2405.646 6        38.513                                                                    27671068.931 6 108587239.84806      1796.412 6        41.430    27671068.351 6 111419946.57506      1843.289 6        41.642
C16        35.000                                                                                                                                    38763201.244 7 201850191.74707      -750.261 7        42.825    38763200.134 7 156083384.72307      -580.070 7        44.108    38763197.945 6 164019815.44606      -609.637 6        39.673
C32        36.000                                                                                                                                    22224310.444 8 115727874.30508     -1679.257 8        50.914                                                                    22224310.214 8  94038398.93308     -1364.626 8        50.535
I01        37.000   378431619.235 7 181906151.44607     -2680.926 7        42.897
E07        38.000    28073613.910 6 147527847.11806     -3310.656 6        37.535                                                                    28073614.253 6 110166934.88306     -2472.194 6        40.577    28073613.979 6 113040847.53606     -2536.771 6        41.447
C41        39.000                                                                                                                                    26142700.849 6 136131923.98006     -3279.004 6        40.477                                                                    26142705.554 7 110618366.99607     -2664.476 7        42.597
C39        40.000                                                                                                                                    39170028.918 7 203968649.70807     -1159.848 7        42.400                                                                    39170025.097 7 165741231.20807      -942.544 7        42.582
E33        41.000    24246555.471 7 127416595.83107     -2486.435 7        47.531                                                                    24246552.958 8  95148789.77508     -1856.777 8        49.518    24246552.786 8  97630928.01908     -1905.173 8        50.370
S44        42.000    40648523.896 6 213609614.48706      -554.082 6        37.909
R06        43.000    21010644.210 6 112116886.38706     -3322.251 6        38.991
C05        44.000                                                                                                                                    39118995.788 6 203702915.80006      -492.627 6        39.598    39118989.351 7 157516042.26007      -380.999 7        43.211    39118991.631 6 165525410.01306      -400.270 6        40.524
C29        45.000                                                                                                                                    22905509.076 8 119275019.83908      -579.451 8        48.510                                                                    22905506.520 8  96920722.24908      -470.922 8        48.246
G04        46.000    20215811.257 8 106234840.97308       514.871 8        48.130                                    20215807.457 6  82780382.13606       401.199 6        41.380    20215807.747 8  82780384.13608       401.245 8        48.363
R22        48.000    19632132.538 8 104797687.22608     -2028.704 8        52.309                                                                    19632130.609 8  81509310.50108     -1577.932 8        48.808
C20        49.000                                                                                                                                    22844525.951 8 118957468.63508      1216.129 8        50.365                                                                    22844520.264 8  96662671.53208       988.131 8        49.040
C06        50.000                                                                                                                                    38269722.898 6 199280521.10606      -653.686 6        41.461    38269716.241 7 154096323.45707      -505.373 7        44.919    38269716.724 7 161931728.09707      -531.238 7        42.008
S48        51.000    77178274.357 6 405574558.82406      -469.582 6        38.195
G21        52.000    24985865.756 6 131301672.89206     -3791.030 6        36.541                                    24985860.763 3 102313011.36503     -2954.037 3        19.284
C09        53.000                                                                                                                                    38517360.051 7 200570019.19007      -140.051 7        42.612    38517355.759 7 155093451.98507      -108.284 7        46.487    38517354.158 7 162979549.34807      -113.857 7        42.428
C60        54.000                                                                                                                                    40648520.147 6 211667728.44406      -549.028 6        39.003                                                                    40648504.530 6 171997339.71906      -446.167 6        40.236
R09        55.000    23989975.169 6 128105143.72106      3365.818 6        38.183                                                                    23989975.153 5  99637325.09205      2617.811 5        34.533
C02        57.000                                                                                                                                    40599748.714 5 211413606.11605      -537.512 5        34.352    40599741.893 6 163478407.83806      -415.643 6        40.522    40599745.367 6 171790878.32406      -437.113 6        36.541
I03        58.000   102585969.199 6 326784151.58106       887.531 6        40.198
R07        59.000    19330340.854 8 103476892.56808      -457.773 8        51.887                                                                    19330339.311 7  80482081.14107      -356.001 7        47.454
> 2025 01 02 02 16  5.0000000  0 55
G09         1.000    21466336.103 7 112806386.74407      2147.059 7        46.631                                    21466333.030 7  87901085.66407      1673.034 7        47.806    21466333.115 7  87901085.66007      1673.021 7        42.999
G06         2.000    22838613.098 7 120017739.16107      2452.119 7        42.110                                    22838611.658 6  93520320.56206      1910.744 6        41.142    22838612.320 6  93520328.57306      1910.664 6        41.833
E11         3.000    27430895.798 6 144150338.12606      2378.225 6        36.306                                                                    27430891.384 6 107644721.55606      1776.002 6        38.634    27430891.270 6 110452841.16606      1822.438 6        39.297
R15         4.000    23425520.199 7 125178885.24407     -1933.111 7        44.280                                                                    23425520.605 6  97361341.92006     -1503.552 6        39.577
S21         5.000    38429110.158 6 201946056.32206      -476.343 6        41.547
E10         6.000    25272618.664 7 132808514.49607      1630.926 7        44.777                                                                    25272617.085 7  99175185.84007      1217.864 7        47.920    25272616.995 8 101762364.09908      1249.734 8        48.569
G28         7.000    24098478.380 6 126638370.69506     -2910.688 6        39.580                                    24098474.372 4  98679232.38404     -2268.072 4        24.316    24098473.725 6  98679240.39906     -2268.185 6        39.922
G03         8.000    20245907.372 8 106393060.44008     -1650.252 8        49.689                                    20245905.052 8  82903725.26508     -1285.909 8        51.565    20245905.685 7  82903723.26607     -1285.989 7        45.750
G02         9.000    23212873.284 7 121984518.86907     -3650.278 7        45.025                                    23212866.876 5  95052865.53305     -2844.378 5        31.940
G31        10.000    22315191.421 7 117267134.18707     -1419.300 7        45.118                                    22315186.368 6  91376972.07306     -1105.947 6        41.616    22315187.028 6  91376977.08506     -1105.995 6        41.516
C30        11.000                                                                                                                                    23903272.451 7 124470623.36507     -3416.400 7        46.690                                                                    23903272.635 7 101142579.65907     -2775.993 7        45.884
S27        12.000    39059853.045 6 205260896.74106      -468.746 6        36.442
E02        13.000    28794701.100 5 151317189.73005      -968.897 5        35.652                                                                    28794700.414 6 112996591.56406      -723.505 6        38.766    28794699.541 6 115944327.35806      -742.487 6        39.393
S36        14.000    38196494.935 7 200724437.78207      -476.267 7        44.638
I09        15.000    37292447.027 7 146343572.77807      -565.363 7        42.849
G19        16.000    22350718.222 7 117453837.50907     -1224.885 7        44.597                                    22350711.410 5  91522454.70005      -954.454 5        32.198
S45        17.000    63390607.092 6 333120465.99506      -516.385 6        37.769
E12        19.000    24132938.334 7 126819456.45207       481.850 7        45.144                                                                    24132934.448 8  94702829.88508       359.802 8        48.152    24132934.282 8  97173337.90908       369.187 8        48.521
G17        20.000    23136420.358 7 121582731.38207     -2664.792 7        44.024                                    23136415.383 6  94739780.73206     -2076.465 6        39.381    23136415.154 6  94739779.73606     -2076.499 6        39.664
E26        21.000                                                                                                                                    28260846.640 3                     -2666.392 3        22.762
I06        22.000    38076328.829 7 149419932.87007      -276.450 7        43.270
S28        23.000    40863820.587 5 214740825.03105      -470.622 5        35.019
R08        24.000    21616779.181 8 115756910.33208      2370.161 8        48.450                                                                    21616777.411 7  90033156.26307      1843.516 7        44.129
S23        25.000    38142951.700 7 200442548.66507      -472.302 7        45.035
C25        26.000                                                                                                                                    25421059.466 7 132374123.97407      -954.948 7        42.588                                                                    25421057.260 7 107564814.71907      -775.758 7        42.140
R16        27.000    22607907.847 7 120767397.46207      1426.895 7        45.550                                                                    22607907.166 7  93930199.55307      1109.786 7        42.119
R21        29.000    22848387.996 7 122266333.35207     -5031.878 7        45.126                                                                    22848386.716 6  95096038.26206     -3913.667 6        41.313
E19        30.000    23186723.044 7 121847085.86007       667.016 7        44.355                                                                    23186720.537 7  90989709.41907       498.149 7        45.464    23186720.709 7  93363350.76807       511.097 7        46.836
C23        31.000                                                                                                                                    25301453.910 7 131751308.14307      1498.582 7        44.147                                                                    25301444.273 7 107058696.49807      1217.843 7        43.731
R23        32.000    20607997.967 8 110238906.06108      1873.730 8        48.765
E29        33.000    23892470.037 7 125555861.57607     -1776.814 7        47.628                                                                    23892467.832 8  93759262.54108     -1326.778 8        50.353    23892467.853 8  96205150.80708     -1361.434 8        51.464
E04        34.000    27668780.193 6 145400442.02606      2404.930 6        38.541                                                                    27668779.813 6 108578257.87906      1795.860 6        41.216    27668779.541 6 111410730.29706      1842.849 6        41.554
C16        35.000                                                                                                                                    38763921.707 7 201853944.13407      -751.153 7        42.927    38763920.822 7 156086286.29707      -580.902 7        44.105    38763918.221 6 164022864.56306      -610.316 6        39.508
C32        36.000                                                                                                                                    22225923.564 8 115736273.68808     -1680.884 8        50.742                                                                    22225923.213 8  94045224.10908     -1365.766 8        50.530
I01        37.000   378435035.671 7 181919556.22307     -2681.238 7        42.978
E07        38.000    28076763.808 6 147544400.59006     -3311.091 6        37.924                                                                    28076764.187 6 110179296.23706     -2472.508 6        40.150    28076763.960 6 113053531.35806     -2537.046 6        41.530
C41        39.000                                                                                                                                    26145849.194 6 136148318.51306     -3279.317 6        40.141                                                                    26145854.084 7 110631688.87107     -2664.520 7        42.804
C39        40.000                                                                                                                                    39171142.971 7 203974450.20807     -1160.670 7        42.440                                                                    39171138.912 7 165745944.58507      -943.147 7        42.480
E33        41.000    24248922.024 7 127429031.69807     -2488.370 7        47.969                                                                    24248919.477 8  95158076.29708     -1858.178 8        49.438    24248919.221 8  97640456.79908     -1906.670 8        50.284
S44        42.000    40649049.093 6 213612384.67506      -554.283 6        37.913
R06        43.000    21013757.342 6 112133500.02606     -3323.649 6        39.784
C05        44.000                                                                                                                                    39119468.818 6 203705378.49706      -492.969 6        39.685    39119462.158 7 157517946.56007      -381.057 7        43.391    39119464.586 6 165527411.15106      -400.398 6        40.420
C29        45.000                                                                                                                                    22906067.385 8 119277924.08208      -582.636 8        48.645                                                                    22906064.312 8  96923082.17308      -473.312 8        48.182
G04        46.000    20215322.667 8 106232272.72308       511.963 8        48.272                                    20215318.740 6  82778380.90006       398.932 6        41.285    20215318.769 8  82778382.90008       398.978 8        48.360
R22        48.000    19634034.623 8 104807841.00008     -2033.196 8        52.366                                                                    19634032.411 8  81517207.86308     -1581.304 8        48.613
C20        49.000                                                                                                                                    22843358.953 8 118951391.05008      1214.549 8        50.307                                                                    22843353.115 8  96657732.99108       986.978 8        48.971
C06        50.000                                                                                                                                    38270350.839 6 199283790.74806      -654.627 6        41.504    38270344.413 7 154098851.75107      -506.284 7        44.743    38270344.516 7 161934384.93307      -531.906 7        42.070
S48        51.000    77178719.637 6 405576907.64706      -470.134 6        37.849
G21        52.000    24989472.720 6 131320627.87506     -3791.431 6        36.650                                    24989467.628 3 102327781.48203     -2954.361 3        19.582
C09        53.000                                                                                                                                    38517495.124 7 200570721.25907      -141.184 7        42.690    38517490.524 7 155093994.86007      -109.127 7        46.332    38517488.997 7 162980119.82007      -114.604 7        42.381
C60        54.000                                                                                                                                    40649047.262 6 211670473.45106      -549.279 6        39.141                                                                    40649031.662 6 171999570.25506      -446.268 6        40.100
R09        55.000    23986824.913 6 128088315.72606      3365.113 6        38.315                                                                    23986823.680 5  99624236.60005      2617.483 5        35.033
C02        57.000                                                                                                                                    40600265.486 5 211416293.88005      -537.610 5        34.343    40600257.703 6 163480486.20606      -416.010 6        40.629    40600261.535 6 171793062.35406      -436.961 6        36.526
I03        58.000   102584838.221 6 326779713.62606       887.383 6        40.319
R07        59.000    19330769.368 8 103479187.30308      -460.524 8        51.654                                                                    19330767.496 7  80483865.94407      -358.186 7        47.469
> 2025 01 02 02 16 10.0000000  0 55
G09         1.000    21464293.721 7 112795655.06307      2145.663 7        46.925                                    21464290.880 7  87892723.31607      1671.945 7        47.880    21464291.257 7  87892723.31807      1671.925 7        43.710
G06         2.000    22836280.296 7 120005481.84307      2450.949 7        42.339                                    22836279.161 6  93510769.40906      1909.833 6        41.166    22836279.567 6  93510777.41506      1909.728 6        41.600
E11         3.000    27428632.760 6 144138446.42606      2378.564 6        36.030                                                                    27428628.581 6 107635841.37406      1776.191 6        38.538    27428628.330 6 110443729.32606      1822.370 6        39.177
R15         4.000    23427331.326 7 125188559.46007     -1936.595 7        44.086                                                                    23427330.381 6  97368866.31106     -1506.353 6        39.718
S21         5.000    38429560.777 6 201948437.48706      -475.942 6        41.299
E10         6.000    25271067.095 7 132800361.78207      1630.179 7        44.652                                                                    25271065.673 7  99169097.76807      1217.303 7        47.890    25271065.594 8 101756117.21708      1249.027 8        48.483
G28         7.000    24101248.574 6 126652929.15506     -2912.576 6        40.157                                    24101244.604 4  98690576.63604     -2269.540 4        24.150    24101243.792 6  98690584.65206     -2269.576 6        39.655
G03         8.000    20247478.071 8 106401315.25408     -1651.638 8        49.613                                    20247475.888 8  82910157.58808     -1286.991 8        51.599    20247476.571 7  82910155.59207     -1287.027 7        45.561
G02         9.000    23216346.193 7 122002771.67207     -3650.928 7        44.355                                    23216340.003 5  95067088.50105     -2844.881 5        31.592
G31        10.000    22316543.443 7 117274238.13207     -1422.165 7        44.947                                    22316538.153 6  91382507.61606     -1108.182 6        41.604    22316538.342 6  91382512.62006     -1108.238 6        41.223
C30        11.000                                                                                                                                    23906552.845 7 124487707.00507     -3417.157 7        46.287                                                                    23906553.256 7 101156461.50607     -2776.687 7        45.955
S27        12.000    39060297.453 6 205263238.47006      -467.786 6        36.219
E02        13.000    28795623.540 5 151322038.58105      -970.659 5        35.576                                                                    28795623.221 6 113000212.47206      -725.062 6        38.826    28795622.294 6 115948042.72806      -743.850 6        38.895
S36        14.000    38196950.142 7 200726818.17407      -475.844 7        44.424
I09        15.000    37293166.661 7 146346398.56407      -564.924 7        42.931
G19        16.000    22351884.421 7 117459969.19007     -1227.766 7        44.388                                    22351878.248 5  91527232.63705      -956.698 5        32.162
S45        17.000    63391054.746 6 333123046.52106      -515.735 6        37.372
E12        19.000    24132480.440 7 126817050.69707       480.475 7        45.139                                                                    24132476.613 8  94701033.37708       358.791 8        48.217    24132476.477 8  97171494.54108       368.089 8        48.376
G17        20.000    23138956.274 7 121596058.93107     -2666.194 7        44.322                                    23138951.504 6  94750165.83206     -2077.552 6        39.321    23138951.369 6  94750164.83406     -2077.611 6        39.414
E26        21.000                                                                                                                                    28264244.805 3                     -2667.057 3        22.019    28264245.444 4 113808843.96904     -2736.654 4        24.211
I06        22.000    38076681.174 7 149421314.15507      -276.101 7        43.306
S28        23.000    40864264.901 5 214743177.35605      -470.057 5        34.533
R08        24.000    21614567.907 8 115745062.16208      2369.125 8        49.078                                                                    21614564.502 7  90023941.00307      1842.712 7        43.708
S23        25.000    38143399.224 7 200444908.82307      -471.750 7        44.906
C25        26.000                                                                                                                                    25421976.995 7 132378904.10307      -957.045 7        42.415                                                                    25421975.264 7 107568698.96207      -777.683 7        42.172
R16        27.000    22606573.162 7 120760270.60407      1423.808 7        46.172                                                                    22606573.002 7  93924656.44707      1107.346 7        42.233
R21        29.000    22853090.091 7 122291493.62907     -5032.280 7        45.523                                                                    22853088.618 6  95115607.36906     -3913.990 6        41.476
E19        30.000    23186088.992 7 121843753.72807       665.849 7        44.141                                                                    23186086.497 7  90987221.14407       497.198 7        45.409    23186086.634 7  93360797.57407       510.193 7        46.716
C23        31.000                                                                                                                                    25300015.426 7 131743818.21507      1497.310 7        44.256                                                                    25300005.916 7 107052610.30907      1216.672 7        44.001
R23        32.000    20606247.851 8 110229545.66908      1870.457 8        48.878
E29        33.000    23894161.040 7 125564747.90407     -1777.697 7        47.695                                                                    23894158.795 8  93765898.44008     -1327.558 8        50.322    23894158.852 8  96211959.81808     -1362.204 8        51.315
E04        34.000    27666491.842 6 145388416.77006      2405.033 6        38.078                                                                    27666491.335 6 108569277.98506      1796.003 6        41.025    27666491.221 6 111401516.15306      1842.828 6        41.456
C16        35.000                                                                                                                                    38764643.043 7 201857700.55807      -751.283 7        42.832    38764642.158 7 156089191.00707      -581.056 7        44.066    38764639.905 6 164025916.96206      -610.588 6        39.604
C32        36.000                                                                                                                                    22227537.813 8 115744679.92908     -1681.639 8        50.716                                                                    22227537.568 8  94052054.87208     -1366.567 8        50.469
I01        37.000   378438451.518 7 181932961.67207     -2680.927 7        42.825
E07        38.000    28079913.758 6 147560954.68506     -3310.387 6        37.561                                                                    28079914.287 6 110191658.07906     -2472.124 6        40.212    28079914.188 6 113066215.68306     -2536.725 6        41.499
C41        39.000                                                                                                                                    26148997.200 6 136164713.58306     -3278.787 6        39.739                                                                    26149002.697 7 110645011.20707     -2664.344 7        42.921
C39        40.000                                                                                                                                    39172257.487 7 203980254.23507     -1160.919 7        42.284                                                                    39172253.610 7 165750660.82507      -943.298 7        42.660
E33        41.000    24251289.975 7 127441476.30907     -2489.504 7        47.798                                                                    24251287.617 8  95167369.34908     -1859.048 8        49.435    24251287.332 8  97649992.28208     -1907.587 8        50.147
S44        42.000    40649578.372 6 213615155.11006      -554.032 6        37.577
R06        43.000    21016872.488 6 112150119.63706     -3324.235 6        39.501
C05        44.000                                                                                                                                    39119941.219 6 203707841.46806      -492.368 6        39.390    39119935.166 7 157519851.09507      -380.677 7        43.355    39119937.509 6 165529412.53306      -400.167 6        40.431
C29        45.000                                                                                                                                    22906627.722 8 119280842.94708      -584.955 8        48.424                                                                    22906624.739 8  96925454.00008      -475.373 8        48.177
G04        46.000    20214836.465 8 106229717.98408       509.880 8        48.697                                    20214832.581 6  82776390.19806       397.308 6        41.311    20214832.711 8  82776392.19008       397.311 8        48.345
R22        48.000    19635941.067 8 104818016.34808     -2036.958 8        52.608                                                                    19635938.592 8  81525122.02808     -1584.280 8        48.836
C20        49.000                                                                                                                                    22842193.204 8 118945320.27508      1213.743 8        50.195                                                                    22842187.290 8  96652799.99208       986.198 8        48.976
C06        50.000                                                                                                                                    38270979.671 6 199287064.65906      -654.824 6        41.387    38270973.188 7 154101383.33907      -506.374 7        44.629    38270973.158 6 161937045.24806      -532.233 6        41.967
S48        51.000    77179166.741 6 405579256.59106      -469.658 6        37.898
G21        52.000    24993079.967 6 131339584.32006     -3791.136 6        36.752                                    24993075.047 3 102342552.73203     -2954.132 3        19.463
C09        53.000                                                                                                                                    38517630.274 7 200571427.60907      -141.458 7        42.550    38517626.277 7 155094541.05607      -109.326 7        46.481    38517624.611 7 162980693.79107      -114.955 7        42.406
C60        54.000                                                                                                                                    40649574.614 6 211673218.67306      -548.686 6        39.048                                                                    40649558.773 6 172001800.97806      -445.938 6        40.176
R09        55.000    23983674.121 6 128071490.13106      3365.069 6        37.705                                                                    23983672.189 5  99611150.04405      2617.222 5        35.252
C02        57.000                                                                                                                                    40600781.386 5 211418981.92805      -537.103 5        34.038    40600774.024 6 163482564.75906      -415.382 6        40.667    40600777.771 6 171795246.61706      -436.729 6        36.514
I03        58.000   102583707.691 6 326775276.00106       887.766 6        40.253
R07        59.000    19331200.712 8 103481495.10908      -462.567 8        52.044                                                                    19331198.755 7  80485660.89607      -359.775 7        47.447
> 2025 01 02 02 16 15.0000000  0 55
G09         1.000    21462253.436 7 112784933.03507      2143.587 7        46.850                                    21462250.577 7  87884368.49407      1670.326 7        47.686    21462250.858 7  87884368.50007      1670.379 7        43.549
G06         2.000    22833949.421 7 119993232.86707      2449.186 7        42.226                                    22833948.247 6  93501224.75506      1908.456 6        41.006    22833948.864 6  93501232.76606      1908.498 6        41.726
E11         3.000    27426370.558 5 144126557.14505      2377.687 5        35.652                                                                    27426366.119 6 107626963.04506      1775.491 6        38.375    27426365.851 6 110434619.37806      1822.069 6        38.967
R15         4.000    23429143.961 7 125198253.60807     -1940.536 7        43.735                                                                    23429144.368 6  97376406.20006     -1509.343 6        39.207
S21         5.000    38430014.710 6 201950818.68506      -476.053 6        41.650
E10         6.000    25269516.842 7 132792215.85407      1628.661 7        44.555                                                                    25269515.533 7  99163014.76007      1216.289 7        47.819    25269515.469 8 101749875.52108      1248.015 8        48.346
G28         7.000    24104021.265 6 126667499.81506     -2915.222 6        40.489                                    24104017.212 4  98701930.40704     -2271.609 4        24.015    24104017.257 6  98701938.41606     -2271.683 6        39.234
G03         8.000    20249050.802 8 106409579.83608     -1653.626 8        50.027                                    20249048.598 8  82916597.52408     -1288.539 8        51.416    20249048.913 7  82916595.52907     -1288.585 7        45.242
G02         9.000    23219820.838 7 122021030.79207     -3652.212 7        44.247                                    23219814.489 5  95081316.38705     -2845.881 5        31.343
G31        10.000    22317898.340 7 117281359.93707     -1425.898 7        45.031                                    22317893.368 6  91388057.07506     -1111.094 6        41.342    22317893.834 6  91388062.09006     -1111.130 6        40.870
C30        11.000                                                                                                                                    23909834.635 7 124504797.54307     -3418.586 7        46.214                                                                    23909835.280 7 101170348.98207     -2777.908 7        45.765
S27        12.000    39060742.661 6 205265579.96806      -467.861 6        36.405
E02        13.000    28796548.602 5 151326899.07805      -972.836 5        35.352                                                                    28796547.577 6 113003842.07706      -726.720 6        38.387    28796547.036 6 115951767.00406      -745.470 6        38.964
S36        14.000    38197402.201 7 200729198.36407      -475.846 7        44.625
I09        15.000    37293887.039 7 146349225.12007      -565.099 7        43.054
G19        16.000    22353054.832 7 117466118.08907     -1231.367 7        44.751                                    22353048.405 5  91532023.99105      -959.506 5        32.054
S45        17.000    63391504.838 6 333125627.29706      -515.948 6        37.629
E12        19.000    24132024.385 7 126814654.78107       478.409 7        45.064                                                                    24132020.687 8  94699244.21408       357.301 8        48.195    24132020.556 8  97169658.70408       366.560 8        48.307
G17        20.000    23141494.395 7 121609396.27407     -2668.223 7        44.050                                    23141489.494 6  94760558.56106     -2079.131 6        39.024    23141489.352 6  94760557.57706     -2079.084 6        39.354
E26        21.000                                                                                                                                    28267643.336 3                     -2668.808 3        21.452    28267644.932 3 113822530.09303     -2737.002 3        23.562
I06        22.000    38077032.681 7 149422695.68307      -276.216 7        43.268
S28        23.000    40864713.557 5 214745530.05605      -470.217 5        34.919
R08        24.000    21612356.792 8 115733222.36608      2367.339 8        48.633                                                                    21612353.300 7  90014732.27507      1841.269 7        44.456
S23        25.000    38143848.202 7 200447269.14307      -471.919 7        44.837
C25        26.000                                                                                                                                    25422898.239 7 132383697.89807      -959.984 7        42.597                                                                    25422896.018 7 107572594.31907      -779.997 7        42.356
R16        27.000    22605242.872 7 120753162.18507      1420.019 7        45.854                                                                    22605242.180 7  93919127.67207      1104.397 7        42.224
R21        29.000    22857792.902 7 122316659.13707     -5033.452 7        45.294                                                                    22857790.816 6  95135180.53206     -3914.887 6        41.228
E19        30.000    23185456.791 7 121840430.75207       663.948 7        44.117                                                                    23185454.197 7  90984739.70807       495.830 7        45.455    23185454.206 7  93358251.40007       508.808 7        46.592
C23        31.000                                                                                                                                    25298578.646 7 131736337.64707      1495.344 7        44.048                                                                    25298569.450 7 107046531.73907      1215.143 7        44.209
R23        32.000    20604501.710 8 110220204.33708      1866.609 8        48.937
E29        33.000    23895853.628 7 125573641.99007     -1779.403 7        47.522                                                                    23895851.344 8  93772540.12508     -1328.744 8        50.332    23895851.295 8  96218774.76008     -1363.399 8        51.170
E04        34.000    27664205.116 6 145376394.22806      2404.416 6        39.120                                                                    27664203.774 6 108560300.12006      1795.655 6        40.994    27664203.386 6 111392304.07906      1842.357 6        41.490
C16        35.000                                                                                                                                    38765365.335 7 201861460.99207      -752.206 7        42.654    38765364.240 7 156092098.81007      -581.718 7        43.954    38765362.133 6 164028972.62806      -611.294 6        39.640
C32        36.000                                                                                                                                    22229153.533 8 115753093.00808     -1683.091 8        50.611                                                                    22229153.217 8  94058891.19108     -1367.603 8        50.444
I01        37.000   378441867.936 7 181946367.76107     -2681.237 7        42.870
E07        38.000    28083063.826 6 147577509.40406     -3310.785 6        37.747                                                                    28083064.548 6 110204020.36506     -2472.153 6        40.024    28083064.360 6 113078900.45506     -2536.840 6        41.046
C41        39.000                                                                                                                                    26152145.792 6 136181109.15406     -3278.855 6        39.676                                                                    26152151.306 7 110658333.96207     -2664.419 7        42.923
C39        40.000                                                                                                                                    39173372.715 7 203986061.75607     -1161.749 7        42.125                                                                    39173368.910 7 165755379.91507      -943.925 7        42.542
E33        41.000    24253659.643 7 127453929.60607     -2491.292 7        47.598                                                                    24253657.398 8  95176668.88408     -1860.383 8        49.403    24253657.078 8  97659534.41108     -1908.883 8        50.053
S44        42.000    40650105.768 6 213617925.68806      -553.766 6        37.754
R06        43.000    21019987.893 6 112166745.20906     -3325.544 6        39.523
C05        44.000                                                                                                                                    39120415.076 6 203710304.75306      -492.330 6        39.225    39120408.273 7 157521755.87107      -380.785 7        43.333    39120410.647 6 165531414.16206      -400.228 6        40.412
C29        45.000                                                                                                                                    22907190.690 8 119283776.43608      -587.963 8        48.206                                                                    22907188.150 8  96927837.69808      -477.733 8        48.086
G04        46.000    20214352.891 8 106227176.71608       507.158 8        48.767                                    20214349.011 6  82774409.98906       395.189 6        41.161    20214349.072 8  82774411.99008       395.123 8        48.313
R22        48.000    19637851.304 8 104828213.23008     -2041.339 8        52.542                                                                    19637848.714 7  81533052.94207     -1587.723 7        47.890
C20        49.000                                                                                                                                    22841028.734 8 118939256.27708      1212.338 8        50.229                                                                    22841022.746 8  96647872.50708       985.144 8        48.892
C06        50.000                                                                                                                                    38271609.235 6 199290342.82006      -655.803 6        41.271    38271602.646 7 154103918.22207      -507.222 7        44.409    38271602.690 7 161939709.03407      -532.996 7        42.019
S48        51.000    77179615.602 6 405581605.61906      -469.517 6        37.735
G21        52.000    24996687.229 6 131358542.24706     -3791.417 6        36.673                                    24996682.671 3 102357325.14803     -2954.354 3        19.194
C09        53.000                                                                                                                                    38517766.715 7 200572138.17907      -142.391 7        42.434    38517762.788 7 155095090.52407      -110.096 7        46.502    38517761.155 7 162981271.19607      -115.695 7        42.402
C60        54.000                                                                                                                                    40650101.729 6 211675964.10206      -548.909 6        38.946                                                                    40650085.972 6 172004031.86506      -446.042 6        40.005
R09        55.000    23980523.343 6 128054666.88406      3364.730 6        37.077                                                                    23980522.005 5  99598065.27405      2617.046 5        34.719
C02        57.000                                                                                                                                    40601297.658 5 211421670.28305      -537.298 5        34.310    40601290.536 6 163484643.55806      -415.652 6        40.591    40601294.082 6 171797431.13306      -436.890 6        36.552
I03        58.000   102582576.674 6 326770838.66806       887.639 6        40.441
R07        59.000    19331634.430 8 103483815.90708      -465.188 8        52.124                                                                    19331632.017 7  80487465.96307      -361.811 7        47.048
> 2025 01 02 02 16 20.0000000  0 55
G09         1.000    21460214.620 7 112774220.27307      2141.617 7        46.548                                    21460212.054 7  87876020.88407      1668.792 7        47.666    21460211.824 7  87876020.89007      1668.790 7        43.479
G06         2.000    22831620.526 7 119980991.84007      2447.443 7        42.444                                    22831618.845 6  93491686.29306      1907.099 6        40.956    22831619.519 6  93491694.29606      1907.021 6        41.733
E11         3.000    27424108.340 6 144114669.91606      2377.176 6        36.004                                                                    27424104.195 6 107618086.20706      1775.245 6        38.486    27424103.869 6 110425510.97806      1821.587 6        39.423
R15         4.000    23430962.156 7 125207967.28507     -1944.607 7        44.065                                                                    23430962.082 6  97383961.27306     -1512.504 6        39.204
S21         5.000    38430466.580 6 201953199.38806      -476.020 6        41.661
E10         6.000    25267967.765 7 132784076.26807      1627.238 7        44.745                                                                    25267966.602 7  99156936.50207      1215.210 7        47.878    25267966.538 8 101743638.69408      1246.900 8        48.644
G28         7.000    24106796.541 6 126682082.23606     -2917.578 6        39.769                                    24106791.907 3  98713293.33303     -2273.437 3        23.619    24106791.824 6  98713301.34506     -2273.516 6        38.994
G03         8.000    20250625.399 8 106417853.77708     -1655.746 8        49.894                                    20250623.074 8  82923044.74908     -1290.191 8        51.325    20250623.693 7  82923042.75407     -1290.197 7        45.309
G02         9.000    23223297.021 7 122039295.77507     -3653.479 7        44.206                                    23223290.241 5  95095548.84205     -2846.863 5        31.147
G31        10.000    22319257.015 7 117288499.13807     -1429.566 7        45.035                                    22319251.914 6  91393620.09406     -1113.942 6        41.271    22319252.386 6  91393625.08706     -1113.796 6        41.313
C30        11.000                                                                                                                                    23913118.260 7 124521894.53707     -3419.966 7        46.362                                                                    23913118.665 7 101184241.67607     -2779.031 7        45.857
S27        12.000    39061190.512 6 205267921.03906      -467.934 6        36.261
E02        13.000    28797475.548 5 151331770.77605      -975.603 5        34.971                                                                    28797474.693 6 113007480.03006      -728.465 6        38.231    28797474.303 6 115955499.85706      -747.418 6        38.976
S36        14.000    38197856.835 7 200731577.60007      -475.968 7        44.542
I09        15.000    37294607.539 7 146352052.15407      -565.398 7        42.825
G19        16.000    22354228.277 7 117472283.76607     -1234.817 7        45.127                                    22354221.732 5  91536828.41605      -962.196 5        31.977
S45        17.000    63391950.815 6 333128207.81606      -516.147 6        37.784
E12        19.000    24131570.568 7 126812268.31707       476.427 7        44.861                                                                    24131566.580 8  94697462.11808       355.778 8        48.193    24131566.401 8  97167830.11808       365.004 8        48.441
G17        20.000    23144034.045 7 121622743.01707     -2670.224 7        43.869                                    23144029.269 6  94770958.62006     -2080.692 6        38.952    23144029.903 6  94770957.61306     -2080.609 6        39.396
E26        21.000                                                                                                                                    28271040.312 3                     -2666.617 3        20.500    28271044.995 3                     -2737.166 3        23.010
I06        22.000    38077384.564 7 149424077.13807      -276.258 7        43.209
S28        23.000    40865160.464 5 214747882.60805      -470.065 5        34.690
R08        24.000    21610145.989 8 115721390.39208      2365.570 8        49.082                                                                    21610143.528 7  90005529.62207      1839.929 7        43.206
S23        25.000    38144298.021 7 200449629.32607      -471.987 7        44.904
C25        26.000                                                                                                                                    25423822.104 7 132388504.92707      -962.646 7        42.366                                                                    25423819.250 7 107576500.42107      -782.301 7        42.627
R16        27.000    22603914.713 7 120746071.66607      1416.285 7        45.601                                                                    22603915.255 7  93913612.81807      1101.587 7        42.131
R21        29.000    22862495.777 7 122341829.46007     -5034.628 7        44.647                                                                    22862494.528 6  95154757.43106     -3915.818 6        41.290
E19        30.000    23184826.169 7 121837116.43807       662.089 7        44.119                                                                    23184823.482 7  90982264.73307       494.358 7        45.455    23184823.639 7  93355711.86007       507.274 7        46.839
C23        31.000                                                                                                                                    25297143.114 7 131728865.98707      1493.481 7        44.235                                                                    25297134.679 7 107040460.39707      1213.619 7        44.548
R23        32.000    20602758.719 8 110210881.45908      1862.705 8        48.670
E29        33.000    23897547.384 7 125582543.38807     -1780.966 7        47.288                                                                    23897545.220 8  93779187.27108     -1329.969 8        50.292    23897545.195 8  96225595.31208     -1364.663 8        51.454
E04        34.000    27661918.200 6 145364373.98206      2403.871 6        39.294                                                                    27661916.584 6 108551323.98306      1795.063 6        41.035    27661916.109 6 111383093.77406      1841.856 6        41.936
C16        35.000                                                                                                                                    38766087.746 7 201865224.99907      -753.036 7        42.504    38766087.237 7 156095009.38807      -582.472 7        43.848    38766084.788 6 164032031.19206      -611.957 6        39.637
C32        36.000                                                                                                                                    22230770.350 8 115761512.47608     -1684.470 8        50.607                                                                    22230770.075 8  94065732.68708     -1368.793 8        50.515
I01        37.000   378445284.058 7 181959774.25607     -2681.285 7        42.798
E07        38.000    28086214.267 6 147594064.27906     -3311.034 6        37.255                                                                    28086214.909 6 110216382.78106     -2472.414 6        40.029    28086214.449 6 113091585.36406     -2536.950 6        41.156
C41        39.000                                                                                                                                    26155294.038 6 136197504.82006     -3279.044 6        39.973                                                                    26155299.929 7 110671656.75207     -2664.516 7        43.086
C39        40.000                                                                                                                                    39174488.595 7 203991872.31707     -1162.348 7        42.093                                                                    39174484.675 7 165760101.45307      -944.468 7        42.728
E33        41.000    24256030.822 7 127466391.17607     -2493.116 7        47.199                                                                    24256028.719 8  95185974.59808     -1861.707 8        49.410    24256028.449 8  97669082.88308     -1910.275 8        50.271
S44        42.000    40650630.478 6 213620696.05306      -553.983 6        37.898
R06        43.000    21023104.716 6 112183376.47406     -3326.685 6        38.931
C05        44.000                                                                                                                                    39120887.620 6 203712767.87206      -492.581 6        39.417    39120881.478 7 157523660.49707      -380.831 7        43.503    39120883.485 6 165533415.61206      -400.153 6        40.431
C29        45.000                                                                                                                                    22907756.757 8 119286724.07808      -590.923 8        48.201                                                                    22907754.148 8  96930232.87808      -480.106 8        48.205
G04        46.000    20213871.651 8 106224648.50508       504.354 8        48.819                                    20213867.900 6  82772439.95506       393.002 6        41.111    20213868.078 8  82772441.95308       392.965 8        48.268
R22        48.000    19639765.030 8 104838431.21408     -2045.753 8        52.113                                                                    19639762.892 8  81541000.25808     -1591.129 8        48.699
C20        49.000                                                                                                                                    22839865.571 8 118933198.64208      1210.893 8        50.247                                                                    22839859.438 8  96642950.16208       984.060 8        49.020
C06        50.000                                                                                                                                    38272239.269 6 199293624.76006      -656.810 6        40.977    38272232.990 7 154106456.01407      -507.680 7        44.315    38272232.965 7 161942375.85807      -533.483 7        42.017
S48        51.000    77180059.702 6 405583954.62706      -469.826 6        37.958
G21        52.000    25000295.729 6 131377501.20406     -3791.947 6        36.510                                    25000290.354 3 102372098.37303     -2954.760 3        18.866
C09        53.000                                                                                                                                    38517903.815 7 200572852.61807      -143.250 7        42.470    38517899.907 7 155095642.97107      -110.863 7        46.629    38517898.323 7 162981851.71007      -116.313 7        42.432
C60        54.000                                                                                                                                    40650628.857 6 211678709.26906      -548.974 6        39.003                                                                    40650613.074 6 172006262.51206      -445.975 6        40.215
R09        55.000    23977372.944 6 128037845.56906      3364.213 6        37.410                                                                    23977371.865 5  99584982.05505      2616.495 5        34.967
C02        57.000                                                                                                                                    40601813.459 5 211424358.46705      -537.693 5        34.024    40601806.655 6 163486722.22006      -415.672 6        40.656    40601810.586 6 171799615.45006      -436.832 6        36.586
I03        58.000   102581445.989 6 326766401.28806       887.463 6        40.393
R07        59.000    19332070.120 8 103486149.35908      -467.913 8        51.976                                                                    19332068.360 7  80489280.87107      -363.961 7        47.233
> 2025 01 02 02 16 25.0000000  0 55
G09         1.000    21458178.025 7 112763517.13007      2139.555 7        46.613                                    21458175.337 7  87867680.78407      1667.185 7        47.879    21458175.174 7  87867680.78907      1667.187 7        43.467
G06         2.000    22829292.781 7 119968759.13007      2445.561 7        42.961                                    22829291.026 6  93482154.31706      1905.632 6        41.199    22829291.942 7  93482162.30907      1905.664 7        42.089
E11         3.000    27421846.686 6 144102785.06006      2376.517 6        36.238                                                                    27421842.582 6 107609211.15706      1774.690 6        38.366    27421842.079 6 110416404.39906      1821.000 6        39.222
R15         4.000    23432783.851 7 125217700.78307     -1948.815 7        43.945                                                                    23432783.727 6  97391531.77306     -1515.737 6        38.979
S21         5.000    38430917.526 6 201955580.15806      -476.185 6        41.876
E10         6.000    25266420.124 7 132775943.40407      1625.848 7        44.767                                                                    25266418.957 7  99150863.26807      1214.054 7        47.772    25266418.935 8 101737407.03408      1245.702 8        48.607
G28         7.000    24109573.273 6 126696676.78506     -2920.225 6        39.532                                    24109568.847 3  98724665.70803     -2275.499 3        23.790    24109569.183 6  98724673.71506     -2275.665 6        39.342
G03         8.000    20252201.541 8 106426137.43308     -1657.780 8        49.651                                    20252199.406 8  82929499.54708     -1291.774 8        51.503    20252200.066 7  82929497.54607     -1291.825 7        45.240
G02         9.000    23226773.890 7 122057566.97307     -3654.921 7        44.302                                    23226767.125 5  95109786.13605     -2847.987 5        31.464
G31        10.000    22320619.427 7 117295656.06907     -1433.134 7        44.706                                    22320613.867 6  91399196.92006     -1116.729 6        41.471    22320614.263 6  91399201.92006     -1116.628 6        41.123
C30        11.000                                                                                                                                    23916402.935 7 124538998.36907     -3421.540 7        46.389                                                                    23916403.259 7 101198139.94307     -2780.323 7        45.765
S27        12.000    39061635.009 6 205270262.67506      -468.427 6        36.106
E02        13.000    28798404.937 5 151336653.98405      -977.877 5        35.324                                                                    28798404.000 6 113011126.60106      -730.392 6        37.732    28798403.457 6 115959241.54106      -749.132 6        38.165
S36        14.000    38198308.227 7 200733957.57307      -476.194 7        44.539
I09        15.000    37295327.936 7 146354879.91207      -565.728 7        42.895
G19        16.000    22355404.707 7 117478466.55907     -1238.256 7        44.388                                    22355398.220 5  91541646.18505      -964.880 5        32.030
S45        17.000    63392399.480 6 333130788.42706      -516.326 6        37.894
E12        19.000    24131118.364 7 126809891.63007       474.272 7        45.112                                                                    24131114.274 8  94695687.31908       354.182 8        48.097    24131114.207 8  97166009.02408       363.313 8        48.547
G17        20.000    23146575.511 7 121636099.46907     -2672.294 7        44.224                                    23146570.899 6  94781366.24406     -2082.310 6        39.234    23146571.014 6  94781365.23806     -2082.299 6        38.766
E26        21.000                                                                                                                                    28274440.408 3                     -2670.275 3        18.806    28274443.660 3                     -2737.358 3        20.976
I06        22.000    38077736.883 7 149425458.79207      -276.308 7        43.429
S28        23.000    40865606.424 5 214750235.01805      -470.519 5        34.971
R08        24.000    21607938.576 7 115709566.74907      2363.777 7        47.874                                                                    21607935.441 7  89996333.46007      1838.512 7        43.266
S23        25.000    38144747.137 7 200451989.64007      -472.163 7        44.889
C25        26.000                                                                                                                                    25424747.356 7 132393325.57907      -965.573 7        42.038                                                                    25424745.044 7 107580417.57207      -784.457 7        42.563
R16        27.000    22602591.067 7 120738999.42907      1412.517 7        46.357                                                                    22602591.088 7  93908112.21007      1098.567 7        42.286
R21        29.000    22867199.324 7 122367004.91107     -5035.748 7        43.856                                                                    22867199.187 6  95174338.34406     -3916.700 6        41.578
E19        30.000    23184197.214 7 121833811.18607       660.170 7        44.126                                                                    23184194.479 7  90979796.52107       492.951 7        45.339    23184194.585 7  93353179.27207       505.719 7        46.874
C23        31.000                                                                                                                                    25295709.806 7 131721403.62807      1491.428 7        44.438                                                                    25295701.686 7 107034396.63607      1211.953 7        44.677
R23        32.000    20601019.371 8 110201577.56008      1858.781 8        49.159
E29        33.000    23899242.703 7 125591452.46007     -1782.657 7        47.168                                                                    23899240.507 8  93785840.15508     -1331.267 8        50.180    23899240.552 8  96232421.74608     -1365.946 8        51.458
E04        34.000    27659630.538 6 145352356.41706      2403.262 6        39.159                                                                    27659629.805 6 108542349.83106      1794.635 6        41.111    27659629.241 6 111373885.52506      1841.457 6        41.979
C16        35.000                                                                                                                                    38766811.516 7 201868992.97607      -754.051 7        42.508    38766810.655 7 156097923.01707      -583.172 7        43.835    38766808.424 6 164035092.98406      -612.801 6        39.631
C32        36.000                                                                                                                                    22232388.337 8 115769938.72108     -1686.016 8        50.580                                                                    22232388.249 8  94072579.70108     -1370.023 8        50.555
I01        37.000   378448700.362 7 181973181.32807     -2681.446 7        42.605
E07        38.000    28089364.794 6 147610619.70006     -3311.320 6        37.327                                                                    28089365.294 6 110228745.59906     -2472.846 6        39.955    28089364.809 6 113104270.66406     -2537.114 6        41.116
C41        39.000                                                                                                                                    26158442.928 6 136213900.91906     -3279.246 6        40.100                                                                    26158448.569 7 110684979.93107     -2664.684 7        42.984
C39        40.000                                                                                                                                    39175605.156 6 203997686.30406     -1163.277 6        41.926                                                                    39175601.186 7 165764825.80707      -945.281 7        42.535
E33        41.000    24258403.849 7 127478861.37807     -2494.988 7        47.425                                                                    24258401.710 8  95195286.76208     -1863.177 8        49.262    24258401.487 8  97678637.97508     -1911.756 8        50.276
S44        42.000    40651157.414 6 213623466.53506      -554.357 6        37.890
R06        43.000    21026221.154 6 112200013.48306     -3328.159 6        38.796
C05        44.000                                                                                                                                    39121360.695 6 203715231.20406      -492.790 6        39.156    39121354.571 7 157525565.32107      -381.174 7        43.445    39121356.641 6 165535417.29506      -400.316 6        40.484
C29        45.000                                                                                                                                    22908326.059 8 119289686.25208      -593.947 8        48.252                                                                    22908323.039 8  96932639.90008      -482.627 8        48.275
G04        46.000    20213393.308 8 106222133.70808       501.513 8        48.836                                    20213389.351 6  82770480.37306       390.789 6        41.328    20213389.498 8  82770482.37508       390.796 8        48.353
R22        48.000    19641683.147 8 104848670.63008     -2050.096 8        52.015                                                                    19641681.373 8  81548964.24908     -1594.538 8        48.493
C20        49.000                                                                                                                                    22838703.458 8 118927147.73008      1209.449 8        50.318                                                                    22838697.425 8  96638033.30508       982.765 8        49.080
C06        50.000                                                                                                                                    38272870.281 6 199296910.89306      -657.860 6        40.949    38272863.914 7 154108997.07107      -508.642 7        44.190    38272864.093 7 161945046.11307      -534.517 7        42.099
S48        51.000    77180507.083 6 405586303.57406      -469.693 6        37.856
G21        52.000    25003903.831 6 131396461.52806     -3792.240 6        36.601                                    25003898.546 3 102386872.64003     -2955.005 3        19.045
C09        53.000                                                                                                                                    38518041.989 7 200573571.23707      -144.252 7        42.510    38518038.210 7 155096198.66207      -111.507 7        46.683    38518036.247 7 162982435.65507      -117.142 7        42.535
C60        54.000                                                                                                                                    40651156.066 6 211681454.55906      -549.198 6        38.940                                                                    40651140.359 6 172008493.29606      -446.258 6        40.279
R09        55.000    23974222.900 6 128021026.56306      3363.627 6        36.643                                                                    23974221.193 5  99571900.61605      2616.101 5        35.338
C02        57.000                                                                                                                                    40602329.574 5 211427046.79105      -537.703 5        33.898    40602322.708 6 163488801.02006      -415.942 6        40.729    40602326.669 6 171801799.94906      -436.967 6        36.836
I03        58.000   102580314.932 6 326761964.13706       887.347 6        40.312
R07        59.000    19332508.250 8 103488495.58108      -470.648 8        51.947                                                                    19332506.741 7  80491105.70807      -366.115 7        47.238
> 2025 01 02 02 16 30.0000000  0 55
G09         1.000    21456143.292 7 112752822.97407      2137.756 7        47.359                                    21456140.302 7  87859347.67907      1665.782 7        47.873    21456140.761 7  87859347.68007      1665.745 7        43.278
G06         2.000    22826966.224 7 119956534.08707      2443.959 7        42.516                                    22826964.668 6  93472628.31106      1904.384 6        41.197    22826965.398 7  93472636.31307      1904.408 7        42.246
E11         3.000    27419585.197 6 144090901.95006      2376.127 6        36.106                                                                    27419581.315 6 107600337.41006      1774.396 6        38.405    27419580.838 6 110407299.17006      1820.680 6        39.408
R15         4.000    23434608.777 7 125227453.39407     -1952.692 7        43.486                                                                    23434609.215 6  97399117.16206     -1518.889 6        40.107
S21         5.000    38431371.064 6 201957960.37906      -476.262 6        41.707
E10         6.000    25264873.410 7 132767816.65107      1624.450 7        44.554                                                                    25264872.459 7  99144794.58207      1212.994 7        47.637    25264872.460 8 101731180.03308      1244.656 8        48.737
G28         7.000    24112352.887 6 126711282.78606     -2922.719 6        40.029                                    24112348.144 3  98736047.00003     -2277.442 3        23.581    24112349.018 6  98736055.02106     -2277.518 6        39.444
G03         8.000    20253779.719 8 106434430.15208     -1659.673 8        49.763                                    20253777.464 8  82935961.40608     -1293.253 8        51.480    20253778.197 7  82935959.40407     -1293.276 7        45.466
G02         9.000    23230251.772 7 122075843.74307     -3656.308 7        44.764                                    23230245.117 5  95124027.77805     -2849.076 5        31.494
G31        10.000    22321984.413 7 117302830.07507     -1436.797 7        44.528                                    22321979.076 6  91404787.05806     -1119.582 6        41.509    22321979.005 6  91404792.05806     -1119.534 6        41.025
C30        11.000                                                                                                                                    23919688.877 7 124556108.37407     -3422.833 7        46.544                                                                    23919689.122 7 101212043.22907     -2781.405 7        46.024
S27        12.000    39062080.861 6 205272603.65306      -468.220 6        36.389
E02        13.000    28799336.645 5 151341548.10505      -980.067 5        34.895                                                                    28799335.408 6 113014781.31906      -731.993 6        37.565    28799334.906 6 115962991.60906      -751.066 6        38.297
S36        14.000    38198761.189 7 200736336.59507      -475.924 7        44.698
I09        15.000    37296048.650 7 146357707.93107      -565.818 7        42.868
G19        16.000    22356584.087 7 117484665.87007     -1241.827 7        44.792                                    22356577.933 5  91546476.81505      -967.657 5        32.234
S45        17.000    63392847.948 6 333131668.53616      -516.348 6        37.860
E12        19.000    24130667.677 7 126807524.10007       472.305 7        44.903                                                                    24130663.758 7  94693919.35307       352.740 7        47.900    24130663.610 8  97164194.93108       361.909 8        48.606
G17        20.000    23149119.437 7 121649465.00307     -2674.312 7        43.956                                    23149114.255 6  94791780.94106     -2083.880 6        39.381    23149114.909 6  94791779.94506     -2083.908 6        39.069
E26        21.000                                                                                                                                    28277840.845 3                     -2668.782 3        19.791    28277842.518 3                     -2738.419 3        21.262
I06        22.000    38078088.810 7 149426840.18007      -276.494 7        43.245
S28        23.000    40866054.391 5 214752587.21005      -470.585 5        34.738
R08        24.000    21605731.651 7 115697750.76407      2362.114 7        47.381                                                                    21605729.086 7  89987143.28507      1837.155 7        43.761
S23        25.000    38145195.453 7 200454349.41207      -472.215 7        45.001
C25        26.000                                                                                                                                    25425675.089 7 132398159.18807      -968.299 7        42.258                                                                    25425673.230 7 107584345.28507      -786.828 7        42.512
R16        27.000    22601271.001 7 120731944.96507      1408.810 7        45.824                                                                    22601270.000 6  93902625.39406      1095.694 6        41.547
R21        29.000    22871905.368 7 122392184.89507     -5036.740 7        44.111                                                                    22871904.278 6  95193922.76306     -3917.425 6        41.530
E19        30.000    23183569.601 7 121830514.22607       658.287 7        44.008                                                                    23183567.109 7  90977334.50107       491.545 7        45.281    23183567.158 7  93350653.02307       504.340 7        47.020
C23        31.000                                                                                                                                    25294278.417 7 131713949.97307      1489.541 7        44.316                                                                    25294270.229 7 107028339.93907      1210.269 7        44.593
R23        32.000    20599284.282 8 110192291.74408      1854.958 8        49.016
E29        33.000    23900939.329 7 125600368.56407     -1784.214 7        47.113                                                                    23900937.186 8  93792498.27908     -1332.398 8        50.109    23900937.220 8  96239253.56208     -1367.154 8        51.522
E04        34.000    27657343.502 6 145340340.89006      2402.500 6        38.730                                                                    27657343.232 6 108533377.20106      1794.089 6        41.099    27657342.902 7 111364678.82407      1840.905 7        42.229
C16        35.000                                                                                                                                    38767535.406 7 201872764.24107      -754.861 7        42.392    38767534.508 7 156100839.19707      -583.830 7        43.803    38767532.655 6 164038157.44106      -613.544 6        39.682
C32        36.000                                                                                                                                    22234007.727 8 115778371.08308     -1687.387 8        50.722                                                                    22234007.646 8  94079431.69708     -1371.182 8        50.586
I01        37.000   378452116.998 7 181986588.63407     -2681.734 7        42.445
E07        38.000    28092515.398 6 147627174.95506     -3311.299 6        37.119                                                                    28092515.720 6 110241108.28806     -2472.808 6        39.922    28092515.258 6 113116955.89006     -2537.359 6        41.049
C41        39.000                                                                                                                                    26161591.372 6 136230296.82906     -3279.493 6        40.243                                                                    26161597.257 7 110698302.94507     -2664.870 7        42.938
C39        40.000                                                                                                                                    39176722.207 6 204003503.07006     -1163.935 6        41.886                                                                    39176718.228 7 165769552.40407      -945.774 7        42.639
E33        41.000    24260778.582 7 127491339.56307     -2496.729 7        47.278                                                                    24260776.240 8  95204604.88008     -1864.436 8        49.114    24260776.039 8  97688199.17608     -1913.137 8        50.388
S44        42.000    40651683.656 6 213626236.47606      -554.288 6        38.153
R06        43.000    21029341.200 6 112216655.81706     -3329.262 6        39.108
C05        44.000                                                                                                                                    39121833.641 6 203717694.11106      -492.757 6        39.318    39121827.177 7 157527469.78607      -381.142 7        43.501    39121829.685 6 165537418.61006      -400.527 6        40.472
C29        45.000                                                                                                                                    22908897.422 8 119292662.33908      -596.914 8        48.180                                                                    22908894.602 8  96935058.22108      -485.030 8        48.311
G04        46.000    20212917.018 8 106219631.67908       498.861 8        48.877                                    20212913.213 6  82768530.74206       388.722 6        41.344    20212913.569 8  82768532.73608       388.689 8        48.433
R22        48.000    19643605.403 8 104858930.85708     -2054.369 8        52.612                                                                    19643603.131 8  81556944.42508     -1597.913 8        48.138
C20        49.000                                                                                                                                    22837542.672 8 118921102.88908      1208.065 8        50.506                                                                    22837536.614 8  96633121.39008       981.596 8        49.110
C06        50.000                                                                                                                                    38273502.047 6 199300200.54106      -658.498 6        41.044    38273495.691 7 154111540.83007      -509.248 7        44.200    38273495.880 7 161947719.23707      -535.142 7        42.121
S48        51.000    77180954.245 6 405588651.94306      -469.773 6        37.747
G21        52.000    25007511.594 6 131415422.57906     -3792.721 6        36.503                                    25007506.976 3 102401647.49603     -2955.381 3        18.627
C09        53.000                                                                                                                                    38518181.093 7 200574293.40307      -145.044 7        42.609    38518176.875 7 155096757.07807      -112.115 7        46.787    38518174.886 7 162983022.49207      -117.919 7        42.599
C60        54.000                                                                                                                                    40651683.141 6 211684199.33506      -549.200 6        39.048                                                                    40651667.505 6 172010723.65106      -446.243 6        40.369
R09        55.000    23971072.956 6 128004209.33006      3362.750 6        36.930                                                                    23971073.708 6  99558820.52206      2615.820 6        36.329
C02        57.000                                                                                                                                    40602846.002 5 211429734.73805      -537.913 5        34.176    40602839.207 6 163490879.50006      -415.898 6        40.880    40602842.636 6 171803984.12506      -437.124 6        36.662
I03        58.000   102579184.490 6 326757526.76606       887.280 6        40.305
R07        59.000    19332949.210 8 103490854.06008      -473.209 8        51.961                                                                    19332947.146 7  80492940.08107      -368.047 7        47.317
> 2025 01 02 02 16 35.0000000  0 55
G09         1.000    21454110.043 7 112742138.23807      2136.036 7        47.341                                    21454107.055 8  87851021.91408      1664.446 8        48.063    21454107.098 7  87851021.91307      1664.484 7        43.342
G06         2.000    22824641.315 7 119944317.19107      2442.554 7        42.157                                    22824639.863 6  93463108.65206      1903.291 6        41.282    22824640.497 7  93463116.64507      1903.301 7        42.269
E11         3.000    27417324.396 5 144079021.02205      2376.049 5        35.976                                                                    27417320.523 6 107591465.30406      1774.125 6        38.447    27417320.179 6 110398195.60606      1820.534 6        39.547
R15         4.000    23436438.026 7 125237225.74407     -1956.430 7        43.304                                                                    23436437.116 6  97406717.87506     -1521.580 6        40.470
S21         5.000    38431825.413 6 201960340.40006      -475.797 6        41.921
E10         6.000    25263328.640 7 132759696.41807      1623.431 7        44.364                                                                    25263327.239 7  99138730.76607      1212.363 7        47.613    25263327.201 8 101724958.04008      1243.867 8        48.755
G28         7.000    24115134.356 6 126725900.68006     -2924.678 6        39.562                                    24115129.936 3  98747437.56703     -2278.969 3        23.676    24115130.268 6  98747445.57406     -2279.094 6        39.441
G03         8.000    20255359.532 8 106442732.37408     -1661.366 8        49.498                                    20255357.320 8  82942430.67008     -1294.569 8        51.652    20255358.110 7  82942428.66907     -1294.654 7        45.707
G02         9.000    23233730.686 7 122094126.49707     -3657.186 7        44.033                                    23233724.249 5  95138274.07805     -2849.756 5        31.660
G31        10.000    22323352.896 7 117310021.61707     -1440.037 7        44.972                                    22323347.647 6  91410390.85106     -1122.108 6        41.707    22323347.690 6  91410395.85606     -1122.168 6        41.108
C30        11.000                                                                                                                                    23922975.962 7 124573224.97107     -3424.022 7        46.270                                                                    23922976.360 7 101225951.84907     -2782.232 7        46.165
S27        12.000    39062526.843 6 205274944.85806      -468.423 6        36.605
E02        13.000    28800269.786 5 151346453.59505      -982.154 5        34.733                                                                    28800268.942 6 113018444.51506      -733.471 6        37.244    28800268.053 6 115966750.35006      -752.512 6        38.261
S36        14.000    38199213.467 7 200738715.48007      -475.922 7        44.727
I09        15.000    37296769.418 7 146360536.54607      -565.830 7        42.663
G19        16.000    22357767.645 7 117490882.05707     -1244.835 7        44.734                                    22357760.865 5  91551320.60005      -970.003 5        32.311
S45        17.000    63393292.744 6 333134248.40606      -515.965 6        37.951
E12        19.000    24130218.899 7 126805166.14907       470.744 7        44.874                                                                    24130215.069 7  94692158.55207       351.455 7        47.957    24130214.900 8  97162388.19408       360.671 8        48.692
G17        20.000    23151664.286 7 121662840.05607     -2675.959 7        43.179                                    23151659.422 6  94802203.06006     -2085.158 6        39.468    23151659.654 6  94802202.05406     -2085.292 6        38.883
E26        21.000                                                                                                                                                                                                    28281243.943 3                     -2740.021 3        22.019
I06        22.000    38078441.222 7 149428221.61707      -276.249 7        43.232
S28        23.000    40866504.464 5 214754939.08605      -470.240 5        34.819
R08        24.000    21603526.432 8 115685942.93608      2360.802 8        48.161                                                                    21603524.513 7  89977959.40607      1836.157 7        43.867
S23        25.000    38145645.083 7 200456709.11907      -471.898 7        45.115
C25        26.000                                                                                                                                    25426605.650 7 132403006.18107      -970.757 7        42.487                                                                    25426604.041 7 107588283.86607      -788.853 7        42.413
R16        27.000    22599953.457 7 120724908.59507      1405.447 7        45.848                                                                    22599953.541 7  93897152.67407      1093.107 7        42.957
R21        29.000    22876612.154 7 122417369.73807     -5037.404 7        44.451                                                                    22876610.845 6  95213510.96706     -3918.009 6        40.796
E19        30.000    23182943.833 7 121827226.10407       656.701 7        43.903                                                                    23182941.320 7  90974879.08507       490.377 7        45.193    23182941.463 7  93348133.54307       503.238 7        46.975
C23        31.000                                                                                                                                    25292848.157 7 131706505.43607      1488.049 7        43.736                                                                    25292840.192 7 107022290.63207      1209.132 7        44.671
R23        32.000    20597551.410 8 110183024.79708      1851.549 8        48.918
E29        33.000    23902637.558 7 125609292.12007     -1785.479 7        47.057                                                                    23902635.291 8  93799161.97208     -1333.306 8        50.076    23902635.306 8  96246091.08808     -1368.032 8        51.604
E04        34.000    27655057.610 6 145328327.80806      2402.343 6        38.114                                                                    27655057.167 6 108524406.40306      1794.100 6        41.056    27655056.697 7 111355474.00807      1840.710 7        42.250
C16        35.000                                                                                                                                    38768260.618 7 201876539.23007      -755.347 7        42.705    38768259.876 7 156103758.25307      -584.195 7        43.484    38768257.611 6 164041224.92606      -613.844 6        40.083
C32        36.000                                                                                                                                    22235628.211 8 115786809.97108     -1688.404 8        50.915                                                                    22235628.201 8  94086288.97908     -1372.023 8        50.748
I01        37.000   378455533.329 7 181999996.34307     -2681.533 7        42.334
E07        38.000    28095665.986 6 147643730.55206     -3311.342 6        36.839                                                                    28095666.166 6 110253471.22106     -2472.636 6        40.105    28095665.709 6 113129641.32506     -2537.158 6        41.087
C41        39.000                                                                                                                                    26164740.045 6 136246692.95406     -3279.073 6        40.358                                                                    26164745.871 7 110711626.13507     -2664.669 7        43.060
C39        40.000                                                                                                                                    39177840.059 6 204009323.03306     -1164.211 6        41.998                                                                    39177835.872 7 165774281.59807      -946.122 7        42.775
E33        41.000    24263154.745 7 127503826.15607     -2498.116 7        47.265                                                                    24263152.381 8  95213929.28108     -1865.476 8        49.077    24263152.180 8  97697766.82408     -1914.177 8        50.448
S44        42.000    40652214.246 6 213629006.35506      -554.033 6        38.108
R06        43.000    21032461.156 6 112233303.84806     -3330.271 6        39.952
C05        44.000                                                                                                                                    39122306.671 6 203720157.03306      -492.604 6        39.348    39122300.332 7 157529374.27007      -380.851 7        43.299    39122302.599 6 165539419.92706      -400.270 6        40.546
C29        45.000                                                                                                                                    22909471.168 8 119295652.74408      -599.485 8        48.123                                                                    22909468.865 8  96937488.16708      -487.169 8        48.489
G04        46.000    20212443.358 8 106217142.84608       496.415 8        48.653                                    20212439.597 6  82766591.38906       386.817 6        41.471    20212439.771 8  82766593.38808       386.834 8        48.545
R22        48.000    19645532.015 8 104869212.29708     -2058.384 8        52.401                                                                    19645529.318 8  81564941.08508     -1600.910 8        48.256
C20        49.000                                                                                                                                    22836382.719 8 118915064.56808      1207.017 8        50.487                                                                    22836377.013 8  96628214.74108       980.841 8        49.308
C06        50.000                                                                                                                                    38274133.831 6 199303494.16006      -659.145 6        41.042    38274128.366 7 154114087.65607      -509.663 7        44.173    38274128.315 7 161950395.56307      -535.774 7        42.307
S48        51.000    77181397.383 6 405591000.29206      -469.866 6        38.114
G21        52.000    25011119.804 6 131434384.71906     -3792.645 6        36.446                                    25011115.414 3 102416423.19103     -2955.307 3        19.015
C09        53.000                                                                                                                                    38518320.691 7 200575019.57407      -145.634 7        42.658    38518316.193 7 155097318.59507      -112.525 7        46.820    38518314.472 7 162983612.56107      -118.287 7        42.688
C60        54.000                                                                                                                                    40652210.273 6 211686944.01006      -548.975 6        38.916                                                                    40652194.687 6 172012953.91906      -446.038 6        40.448
R09        55.000    23967924.065 6 127987394.11006      3362.873 6        37.875                                                                    23967924.769 6  99545742.06406      2615.482 6        36.560
C02        57.000                                                                                                                                    40603361.566 5 211432422.64505      -537.591 5        34.362    40603355.219 6 163492957.96006      -415.788 6        40.625    40603359.006 6 171806168.27406      -436.936 6        36.953
I03        58.000   102578053.585 6 326753089.45006       887.416 6        40.389
R07        59.000    19333392.163 8 103493225.39008      -475.485 8        51.956                                                                    19333390.082 7  80494784.44407      -369.826 7        47.406
> 2025 01 02 02 16 40.0000000  0 55
G09         1.000    21452078.268 7 112731463.00407      2134.243 7        47.264                                    21452075.606 8  87842703.55208      1663.044 8        48.120    21452075.790 7  87842703.55507      1662.994 7        43.236
G06         2.000    22822318.243 7 119932108.47507      2440.995 7        42.201                                    22822316.618 6  93453595.36406      1902.074 6        41.361    22822316.876 7  93453603.36107      1902.075 7        42.100
E11         3.000    27415063.722 6 144067142.33606      2375.697 6        36.223                                                                    27415059.929 6 107582594.85706      1774.122 6        38.264    27415059.682 6 110389093.77306      1820.354 6        39.384
R15         4.000    23438269.952 7 125247017.70307     -1960.263 7        43.020                                                                    23438270.300 6  97414333.86206     -1524.642 6        40.670
S21         5.000    38432278.477 6 201962720.03006      -475.721 6        41.766
E10         6.000    25261784.617 7 132751582.78207      1622.228 7        44.528                                                                    25261783.245 7  99132671.88507      1211.374 7        47.564    25261783.245 8 101718741.09508      1242.965 8        48.694
G28         7.000    24117918.430 6 126740530.52206     -2926.983 6        39.694                                    24117913.758 3  98758837.44603     -2280.767 3        23.467    24117914.143 6  98758845.43606     -2280.704 6        39.144
G03         8.000    20256941.403 8 106451044.14408     -1663.160 8        49.850                                    20256939.013 8  82948907.37208     -1295.970 8        51.691    20256939.501 7  82948905.37507     -1296.004 7        45.377
G02         9.000    23237210.656 7 122112415.30007     -3658.204 7        43.363                                    23237204.643 5  95152525.10205     -2850.546 5        31.608
G31        10.000    22324724.758 7 117317230.70707     -1443.398 7        45.285                                    22324719.528 6  91416008.32806     -1124.722 6        41.697    22324719.653 6  91416013.33206     -1124.724 6        41.166
C30        11.000                                                                                                                                    23926263.888 7 124590348.19707     -3425.199 7        46.522                                                                    23926264.644 7 101239865.89307     -2783.320 7        45.941
S27        12.000    39062969.019 6 205277285.68606      -467.763 6        36.446
E02        13.000    28801205.456 5 151351370.45005      -984.243 5        35.048                                                                    28801204.365 6 113022116.18806      -735.010 6        37.603    28801203.765 6 115970517.81706      -754.297 6        38.520
S36        14.000    38199666.013 7 200741095.32907      -475.986 7        44.716
I09        15.000    37297490.344 7 146363365.76807      -565.869 7        42.787
G19        16.000    22358953.521 7 117497115.20207     -1248.166 7        44.108                                    22358946.985 5  91556177.60205      -972.593 5        32.240
S45        17.000    63393747.647 6 333136828.19606      -515.710 6        38.012
E12        19.000    24129772.152 7 126802817.87907       468.806 7        44.916                                                                    24129768.141 7  94690404.97207       350.087 7        47.946    24129768.065 8  97160588.87008       359.272 8        48.653
G17        20.000    23154211.072 7 121676224.62707     -2677.752 7        43.791                                    23154206.422 6  94812632.59206     -2086.558 6        39.553    23154206.912 6  94812631.59206     -2086.471 6        38.886
E26        21.000                                                                                                                                    28284643.305 3                     -2670.127 3        19.224    28284642.881 3                     -2736.099 3        20.476
I06        22.000    38078792.883 7 149429603.15707      -276.231 7        43.300
S28        23.000    40866951.962 5 214757290.97705      -470.500 5        35.290
R08        24.000    21601323.041 8 115674143.28508      2359.286 8        48.374                                                                    21601320.821 7  89968781.89707      1835.040 7        43.299
S23        25.000    38146093.064 7 200459068.89607      -471.818 7        45.047
C25        26.000                                                                                                                                    25427538.994 7 132407866.63507      -973.360 7        42.017                                                                    25427537.260 7 107592233.38507      -790.903 7        42.121
R16        27.000    22598639.535 7 120717890.43907      1401.934 7        44.894                                                                    22598640.699 7  93891694.13707      1090.358 7        43.355
R21        29.000    22881319.573 7 122442559.56507     -5038.308 7        44.388                                                                    22881317.621 6  95233103.04706     -3918.662 6        39.892
E19        30.000    23182319.785 7 121823946.86107       655.033 7        44.015                                                                    23182317.354 7  90972430.30007       489.224 7        45.225    23182317.458 7  93345620.87507       502.050 7        46.935
C23        31.000                                                                                                                                    25291420.773 7 131699070.05207      1486.348 7        43.573                                                                    25291412.287 7 107016248.78607      1207.681 7        44.405
R23        32.000    20595822.490 8 110173776.38508      1847.960 8        48.764
E29        33.000    23904337.035 7 125618223.17507     -1786.803 7        47.187                                                                    23904334.776 8  93805831.26908     -1334.333 8        50.033    23904334.854 8  96252934.36808     -1369.072 8        51.491
E04        34.000    27652772.498 6 145316317.24106      2402.119 6        38.078                                                                    27652771.398 6 108515437.48706      1793.786 6        41.080    27652771.216 7 111346271.12207      1840.548 7        42.112
C16        35.000                                                                                                                                    38768986.150 7 201880317.99507      -755.895 7        42.732    38768985.346 7 156106680.23407      -584.674 7        43.663    38768983.397 6 164044295.49906      -614.436 6        39.724
C32        36.000                                                                                                                                    22237250.264 8 115795255.46208     -1689.619 8        50.983                                                                    22237250.034 8  94093151.64708     -1372.939 8        50.511
I01        37.000   378458950.362 7 182013404.55307     -2681.662 7        42.207
E07        38.000    28098816.475 6 147660286.48606     -3311.063 6        36.926                                                                    28098816.797 6 110265834.40806     -2472.422 6        40.110    28098816.249 6 113142327.03506     -2537.069 6        40.744
C41        39.000                                                                                                                                    26167889.064 6 136263089.33606     -3279.100 6        40.830                                                                    26167894.597 7 110724949.56007     -2664.672 7        42.521
C39        40.000                                                                                                                                    39178958.251 6 204015146.25306     -1164.890 6        41.990                                                                    39178954.168 7 165779013.45307      -946.591 7        42.546
E33        41.000    24265532.452 7 127516321.22007     -2499.746 7        47.241                                                                    24265530.144 8  95223260.00708     -1866.653 8        49.122    24265529.899 8  97707340.95808     -1915.344 8        50.348
S44        42.000    40652739.402 6 213631776.16806      -553.770 6        37.974
R06        43.000    21035581.875 6 112249957.64106     -3331.136 6        39.751
C05        44.000                                                                                                                                    39122779.469 6 203722619.98906      -492.392 6        39.381    39122773.278 7 157531278.77607      -380.806 7        43.388    39122775.683 6 165541421.29706      -400.259 6        40.372
C29        45.000                                                                                                                                    22910048.356 8 119298657.52408      -602.213 8        48.205                                                                    22910045.874 8  96939929.82008      -489.400 8        48.228
G04        46.000    20211972.184 8 106214667.26708       493.892 8        48.803                                    20211968.507 6  82764662.36706       384.850 6        41.576    20211968.664 8  82764664.36408       384.904 8        48.391
R22        48.000    19647461.722 8 104879514.99308     -2062.524 8        52.510                                                                    19647459.371 8  81572954.30408     -1604.161 8        48.443
C20        49.000                                                                                                                                    22835224.314 8 118909032.80308      1205.799 8        50.340                                                                    22835218.691 8  96623313.46308       979.806 8        48.959
C06        50.000                                                                                                                                    38274767.211 6 199306791.77106      -659.870 6        40.980    38274761.673 7 154116637.57707      -510.085 7        44.336    38274761.595 7 161953075.15707      -536.198 7        42.212
S48        51.000    77181847.886 6 405593348.40106      -469.354 6        38.003
G21        52.000    25014728.462 6 131453348.04406     -3792.633 6        36.110                                    25014723.982 3 102431199.79103     -2955.305 3        18.896
C09        53.000                                                                                                                                    38518460.688 7 200575749.75307      -146.403 7        42.717    38518456.314 7 155097883.21207      -113.096 7        46.799    38518454.618 7 162984205.89307      -118.889 7        42.514
C60        54.000                                                                                                                                    40652737.290 6 211689688.65906      -548.719 6        39.111                                                                    40652721.676 6 172015184.19406      -446.045 6        40.203
R09        55.000    23964776.857 6 127970581.09306      3362.638 6        38.637                                                                    23964776.178 6  99532665.29906      2615.303 6        37.301
C02        57.000                                                                                                                                    40603878.472 5 211435110.54505      -537.420 5        34.095    40603871.002 6 163495036.42206      -415.693 6        40.725    40603875.255 6 171808352.43006      -436.664 6        36.405
I03        58.000   102576922.776 6 326748652.27506       887.556 6        40.341
R07        59.000    19333837.285 8 103495609.35508      -477.919 8        52.094                                                                    19333835.393 7  80496638.65407      -371.789 7        47.376
> 2025 01 02 02 16 45.0000000  0 55
G09         1.000    21450048.205 7 112720797.12507      2132.426 7        47.101                                    21450045.914 8  87834392.48108      1661.630 8        48.075    21450046.021 7  87834392.48107      1661.605 7        43.236
G06         2.000    22819996.828 7 119919907.84207      2439.574 7        42.633                                    22819994.867 6  93444088.38306      1900.968 6        41.328    22819995.194 6  93444096.38406      1900.889 6        41.878
E11         3.000    27412803.549 5 144055265.81905      2375.440 5        35.505                                                                    27412799.690 6 107573726.03906      1773.766 6        38.447    27412799.565 6 110379993.57306      1820.040 6        39.504
R15         4.000    23440106.787 7 125256829.11107     -1964.086 7        44.465                                                                    23440105.736 6  97421964.94006     -1527.594 6        40.088
S21         5.000    38432729.418 6 201965099.23706      -475.524 6        41.864
E10         6.000    25260241.883 7 132743475.63507      1620.984 7        44.382                                                                    25260240.538 7  99126617.84807      1210.468 7        47.562    25260240.455 8 101712529.12508      1242.031 8        48.730
G28         7.000    24120704.550 6 126755172.15206     -2929.357 6        39.414                                    24120700.080 3  98770246.51603     -2282.612 3        23.238    24120700.976 6  98770254.52306     -2282.557 6        39.375
G03         8.000    20258524.964 8 106459365.34208     -1664.903 8        49.820                                    20258522.495 8  82955391.42208     -1297.328 8        51.602    20258523.201 7  82955389.42607     -1297.365 7        45.684
G02         9.000    23240692.450 7 122130710.03207     -3659.254 7        44.262                                    23240686.230 5  95166780.72405     -2851.362 5        31.675
G31        10.000    22326099.621 7 117324457.25607     -1446.847 7        44.603                                    22326094.735 6  91421639.40906     -1127.412 6        41.578    22326094.928 6  91421644.40206     -1127.413 6        41.232
C30        11.000                                                                                                                                    23929553.683 7 124607477.91707     -3426.456 7        46.779                                                                    23929554.262 7 101253785.18507     -2784.207 7        46.123
S27        12.000    39063414.232 6 205279626.55406      -467.847 6        36.363
E02        13.000    28802143.333 5 151356298.59705      -986.276 5        34.410                                                                    28802142.359 6 113025796.30906      -736.846 6        37.524    28802141.668 6 115974293.93306      -755.867 6        38.303
S36        14.000    38200120.625 7 200743474.99007      -475.776 7        44.646
I09        15.000    37298211.341 7 146366195.50507      -565.858 7        42.781
G19        16.000    22360142.206 7 117503365.21307     -1251.484 7        44.321                                    22360136.244 5  91561047.74005      -975.184 5        32.162
S45        17.000    63394194.577 6 333139407.73106      -515.746 6        37.947
E12        19.000    24129327.068 7 126800479.14307       467.050 7        44.697                                                                    24129323.139 7  94688658.51607       348.728 7        47.883    24129323.027 8  97158796.85508       357.807 8        48.654
G17        20.000    23156760.405 7 121689618.62207     -2679.456 7        43.716                                    23156755.193 6  94823069.46906     -2087.885 6        39.426    23156755.759 6  94823068.48106     -2087.921 6        39.258
E26        21.000                                                                                                                                                                                                    28288040.299 3                     -2739.118 3        18.836
I06        22.000    38079145.184 7 149430984.68907      -276.079 7        43.278
S28        23.000    40867396.714 5 214759642.68505      -470.040 5        34.676
R08        24.000    21599121.680 8 115662351.63608      2357.752 8        49.337                                                                    21599118.823 7  89959610.62307      1833.735 7        44.546
S23        25.000    38146542.601 7 200461428.44707      -471.683 7        45.047
C25        26.000                                                                                                                                    25428475.035 6 132412740.39806      -975.828 6        41.516                                                                    25428472.985 7 107596193.70007      -792.865 7        42.178
R16        27.000    22597328.756 7 120710890.40007      1398.444 7        45.240                                                                    22597329.245 7  93886249.63807      1087.759 7        42.119
R21        29.000    22886027.488 7 122467754.21207     -5039.155 7        44.330                                                                    22886025.937 6  95252698.87906     -3919.314 6        40.017
E19        30.000    23181697.607 7 121820676.38107       653.392 7        43.752                                                                    23181695.003 7  90969988.06307       487.907 7        45.142    23181695.135 7  93343114.93307       500.666 7        46.932
C23        31.000                                                                                                                                    25289995.390 7 131691643.74607      1484.578 7        44.167                                                                    25289986.176 7 107010214.29807      1206.392 7        44.391
R23        32.000    20594097.040 8 110164546.65808      1844.300 8        48.553
E29        33.000    23906037.859 7 125627161.61707     -1788.201 7        47.036                                                                    23906035.731 8  93812506.07908     -1335.356 8        50.008    23906035.790 8  96259783.30608     -1370.184 8        51.541
E04        34.000    27650487.686 6 145304309.10006      2401.806 6        38.201                                                                    27650486.447 6 108506470.37906      1793.452 6        40.820    27650486.140 7 111337070.08307      1840.222 7        42.085
C16        35.000                                                                                                                                    38769712.684 7 201884100.43007      -756.635 7        42.813    38769711.820 7 156109605.05307      -585.137 7        43.467    38769709.645 6 164047369.02406      -614.823 6        39.826
C32        36.000                                                                                                                                    22238873.417 8 115803707.42908     -1690.783 8        50.875                                                                    22238873.144 8  94100019.55308     -1373.907 8        50.650
I01        37.000   378462367.050 7 182026813.25207     -2681.588 7        42.165
E07        38.000    28101967.397 6 147676842.66206     -3311.173 6        36.646                                                                    28101967.277 6 110278197.79906     -2472.598 6        40.119    28101966.757 6 113155012.93806     -2536.964 6        40.808
C41        39.000                                                                                                                                    26171037.942 6 136279485.90706     -3279.173 6        41.402                                                                    26171043.266 7 110738273.08007     -2664.524 7        42.353
C39        40.000                                                                                                                                    39180077.146 7 204020972.59307     -1165.336 7        42.032                                                                    39180072.979 7 165783747.82407      -946.921 7        42.588
E33        41.000    24267911.776 7 127528824.62507     -2501.307 7        46.870                                                                    24267909.452 8  95232596.96208     -1867.847 8        49.043    24267909.143 8  97716921.48508     -1916.569 8        50.331
S44        42.000    40653267.456 6 213634545.84106      -553.664 6        38.297
R06        43.000    21038704.232 6 112266616.93506     -3332.260 6        39.529
C05        44.000                                                                                                                                    39123253.050 6 203725082.90406      -492.448 6        39.192    39123246.255 7 157533183.25407      -380.671 7        43.270    39123248.517 6 165543422.60206      -400.053 6        40.639
C29        45.000                                                                                                                                    22910628.793 8 119301676.57508      -604.985 8        48.361                                                                    22910625.672 8  96942383.02908      -491.603 8        48.286
G04        46.000    20211503.737 8 106212204.82708       491.441 8        48.745                                    20211499.908 6  82762743.58606       382.943 6        41.573    20211499.905 8  82762745.58308       382.922 8        48.348
R22        48.000    19649395.623 8 104889838.83708     -2066.694 8        52.465                                                                    19649393.230 8  81580983.95408     -1607.429 8        48.242
C20        49.000                                                                                                                                    22834067.328 8 118903007.49108      1204.616 8        50.276                                                                    22834061.596 8  96618417.38308       978.957 8        49.220
C06        50.000                                                                                                                                    38275401.170 6 199310093.25606      -660.571 6        40.984    38275395.868 7 154119190.49207      -510.688 7        44.322    38275395.625 7 161955757.86007      -536.617 7        42.210
S48        51.000    77182293.308 6 405595696.48406      -469.581 6        38.102
G21        52.000    25018337.245 5 131472312.42005     -3792.491 5        35.833                                    25018332.886 3 102445977.23803     -2955.198 3        18.507
C09        53.000                                                                                                                                    38518601.547 7 200576483.84707      -146.873 7        42.770    38518597.369 7 155098450.87507      -113.675 7        46.710    38518595.658 7 162984802.40407      -119.383 7        42.595
C60        54.000                                                                                                                                    40653264.288 6 211692433.15206      -548.595 6        39.012                                                                    40653248.724 6 172017414.30806      -445.915 6        40.367
R09        55.000    23961629.661 6 127953770.27106      3362.211 6        38.613                                                                    23961627.394 6  99519590.22906      2615.015 6        37.690
C02        57.000                                                                                                                                    40604394.864 5 211437798.41205      -537.342 5        33.832    40604387.819 6 163497114.85906      -415.606 6        40.653    40604391.159 6 171810536.53406      -436.573 6        36.420
I03        58.000   102575792.140 6 326744215.10906       887.640 6        40.253
R07        59.000    19334285.106 8 103498006.01608      -480.363 8        52.047                                                                    19334283.110 7  80498502.71107      -373.655 7        47.319
> 2025 01 02 02 16 50.0000000  0 55
G09         1.000    21448020.855 7 112710141.05307      2130.432 7        46.973                                    21448018.100 7  87826089.05207      1660.076 7        47.988    21448018.402 7  87826089.05007      1660.130 7        42.895
G06         2.000    22817676.510 7 119907715.75007      2437.662 7        42.870                                    22817674.779 6  93434588.04906      1899.475 6        41.249    22817675.617 7  93434596.05307      1899.435 7        42.419
E11         3.000    27410544.105 5 144043391.84505      2374.481 5        35.567                                                                    27410540.384 6 107564859.10806      1773.169 6        38.390    27410539.846 6 110370895.33806      1819.508 6        39.297
R15         4.000    23441946.714 7 125266660.54307     -1968.175 7        43.769                                                                    23441945.698 6  97429611.60706     -1530.812 6        40.396
S21         5.000    38433185.041 6 201967478.60906      -475.825 6        41.857
E10         6.000    25258700.279 7 132735375.41807      1619.433 7        44.417                                                                    25258699.158 7  99120568.98307      1209.328 7        47.549    25258699.073 8 101706322.46308      1240.867 8        48.743
G28         7.000    24123493.302 6 126769826.02506     -2931.935 6        39.700                                    24123488.615 3  98781665.10003     -2284.620 3        23.219    24123489.428 6  98781673.10006     -2284.610 6        39.402
G03         8.000    20260110.000 8 106467696.41008     -1667.079 8        49.677                                    20260107.842 8  82961883.16308     -1299.022 8        51.517    20260108.601 7  82961881.16107     -1299.040 7        45.759
G02         9.000    23244175.299 7 122149011.07207     -3660.698 7        44.539                                    23244168.927 5  95181041.26605     -2852.493 5        31.894
G31        10.000    22327478.238 7 117331701.68007     -1450.526 7        44.036                                    22327473.327 6  91427284.41406     -1130.281 6        41.545    22327473.322 6  91427289.42206     -1130.352 6        40.706
C30        11.000                                                                                                                                    23932844.821 7 124624614.57607     -3427.985 7        46.583                                                                    23932845.079 7 101267710.13407     -2785.581 7        45.977
S27        12.000    39063859.248 6 205281967.74806      -468.225 6        36.582
E02        13.000    28803083.312 5 151361238.44505      -988.816 5        33.802                                                                    28803082.090 6 113029485.18006      -738.563 6        36.934    28803081.499 6 115978079.03606      -757.920 6        38.393
S36        14.000    38200571.159 7 200745855.32607      -476.167 7        44.588
I09        15.000    37298933.019 7 146369026.10507      -566.051 7        42.804
G19        16.000    22361335.186 7 117509632.47407     -1255.091 7        44.480                                    22361328.884 5  91565931.32605      -977.990 5        32.138
S45        17.000    63394639.624 6 333141987.52206      -515.969 6        37.459
E12        19.000    24128883.902 7 126798150.39007       464.898 7        44.927                                                                    24128880.046 8  94686919.51208       347.166 8        48.017    24128879.837 8  97157012.48208       356.221 8        48.573
G17        20.000    23159310.724 7 121703022.44307     -2681.654 7        43.479                                    23159305.852 6  94833514.00806     -2089.596 6        39.240    23159306.574 6  94833513.01106     -2089.544 6        38.859
E26        21.000                                                                                                                                    28291446.919 3                     -2669.414 3        19.433
I06        22.000    38079497.546 7 149432366.53907      -276.168 7        43.300
S28        23.000    40867845.222 5 214761994.84705      -470.096 5        34.862
R08        24.000    21596921.453 8 115650568.52708      2355.876 8        48.509                                                                    21596918.202 7  89950445.98607      1832.352 7        44.479
S23        25.000    38146990.921 7 200463788.29807      -472.057 7        44.956
C25        26.000                                                                                                                                    25429413.693 6 132417627.91606      -978.787 6        41.757                                                                    25429411.378 6 107600165.22906      -795.474 6        41.852
R16        27.000    22596022.451 7 120703908.92307      1394.433 7        46.139                                                                    22596021.991 7  93880819.60107      1084.562 7        42.493
R21        29.000    22890736.933 7 122492954.05507     -5040.455 7        44.476                                                                    22890736.141 6  95272298.74506     -3920.251 6        40.424
E19        30.000    23181077.064 7 121817415.17007       651.467 7        44.000                                                                    23181074.522 7  90967552.74407       486.484 7        45.154    23181074.541 7  93340616.08507       499.184 7        47.010
C23        31.000                                                                                                                                    25288571.193 7 131684226.94707      1482.514 7        44.745                                                                    25288561.912 7 107004187.55607      1204.694 7        44.315
R23        32.000    20592375.700 8 110155336.23308      1840.276 8        48.829
E29        33.000    23907740.303 7 125636107.86007     -1789.850 7        47.276                                                                    23907738.136 8  93819186.72008     -1336.660 8        50.043    23907738.211 8  96266638.22108     -1371.491 8        51.504
E04        34.000    27648202.987 6 145292303.81606      2400.739 6        38.856                                                                    27648201.970 6 108497505.39906      1792.814 6        41.046    27648201.689 7 111327871.23307      1839.585 7        42.262
C16        35.000                                                                                                                                    38770440.107 7 201887886.96507      -757.615 7        42.991    38770438.643 7 156112533.03707      -585.986 7        43.367    38770436.802 6 164050445.89806      -615.742 6        39.856
C32        36.000                                                                                                                                    22240497.855 8 115812166.29808     -1692.332 8        50.849                                                                    22240497.579 8  94106893.08308     -1375.244 8        50.625
I01        37.000   378465784.151 7 182040222.59807     -2681.863 7        42.246
E07        38.000    28105117.658 6 147693399.48606     -3311.288 6        36.987                                                                    28105117.954 6 110290561.66506     -2472.866 6        40.331    28105117.495 6 113167699.35006     -2537.281 6        40.858
C41        39.000                                                                                                                                    26174187.441 6 136295883.02606     -3279.305 6        41.781                                                                    26174191.990 7 110751597.10707     -2664.815 7        42.059
C39        40.000                                                                                                                                    39181196.582 7 204026802.51107     -1166.230 7        42.089                                                                    39181192.611 7 165788485.13007      -947.798 7        42.561
E33        41.000    24270292.796 7 127541336.79607     -2503.190 7        46.986                                                                    24270290.432 8  95241940.46408     -1869.272 8        49.066    24270290.140 8  97726508.73608     -1918.050 8        50.360
S44        42.000    40653791.387 6 213637315.79006      -553.820 6        38.063
R06        43.000    21041826.687 6 112283282.31606     -3333.517 6        38.922
C05        44.000                                                                                                                                    39123725.879 6 203727546.15806      -492.516 6        39.192    39123719.496 7 157535088.01107      -380.843 7        43.287    39123721.593 6 165545424.22106      -400.447 6        40.524
C29        45.000                                                                                                                                    22911211.561 8 119304710.32008      -608.106 8        48.606                                                                    22911208.277 8  96944848.20008      -494.176 8        48.324
G04        46.000    20211037.804 8 106209755.96208       488.510 8        48.764                                    20211033.915 6  82760835.37906       380.658 6        41.490    20211033.878 8  82760837.37608       380.639 8        48.202
R22        48.000    19651333.938 8 104900184.26208     -2071.206 8        52.777                                                                    19651331.205 8  81589030.40208     -1610.954 8        48.430
C20        49.000                                                                                                                                    22832911.664 8 118896989.04708      1203.117 8        50.342                                                                    22832905.792 8  96613526.92008       977.561 8        49.166
C06        50.000                                                                                                                                    38276036.232 6 199313399.06806      -661.410 6        40.968    38276030.608 7 154121746.77607      -511.525 7        44.348    38276030.555 7 161958444.12707      -537.654 7        42.146
S48        51.000    77182741.624 6 405598044.94906      -469.297 6        37.947
G21        52.000    25021946.161 5 131491278.31405     -3793.284 5        35.895                                    25021941.928 3 102460755.85203     -2955.821 3        18.328
C09        53.000                                                                                                                                    38518743.448 7 200577222.29607      -148.025 7        42.675    38518739.156 7 155099021.89607      -114.458 7        46.666    38518737.429 7 162985402.47207      -120.230 7        42.527
C60        54.000                                                                                                                                    40653791.493 6 211695177.93006      -548.912 6        39.042                                                                    40653775.821 6 172019644.66306      -446.156 6        40.303
R09        55.000    23958481.593 6 127936961.95506      3361.573 6        38.811                                                                    23958480.331 6  99506517.09806      2614.262 6        37.641
C02        57.000                                                                                                                                    40604910.398 5 211440486.60605      -537.625 5        34.057    40604903.849 6 163499193.54106      -415.786 6        40.574    40604907.511 6 171812720.93106      -437.050 6        36.767
I03        58.000   102574661.246 6 326739778.31506       887.445 6        40.415
R07        59.000    19334735.305 8 103500415.68508      -483.106 8        52.019                                                                    19334733.342 7  80500376.90407      -375.815 7        47.362
