     3.04           OBSERVATION DATA    M                   RINEX VERSION / TYPE
ssrcrin-15.6.1x                         20250102 083000 UTC PGM / RUN BY / DATE 
(00000000023479385599111004) Septentrio proprietary         COMMENT             
rref                                                        MARKER NAME         
01                                                          MARKER NUMBER       
geodetic                                                    MARKER TYPE         
NFB                 CLIMERS@TUW                             OBSERVER / AGENCY   
3297213             SEPT ASTERX SB3 PROB4.14.4              REC # / TYPE / VERS 
Unknown             Unknown                                 ANT # / TYPE        
  4127832.0653  1207193.3227  4695247.8306                  APPROX POSITION XYZ 
        0.0000        0.0000        0.0000                  ANTENNA: DELTA H/E/N
G   23 X1  C1C L1C D1C S1C C1W S1W C2W L2W D2W S2W C2L L2L  SYS / # / OBS TYPES 
       D2L S2L C5Q L5Q D5Q S5Q C1L L1L D1L S1L              SYS / # / OBS TYPES 
E   21 X1  C1C L1C D1C S1C C6C L6C D6C S6C C5Q L5Q D5Q S5Q  SYS / # / OBS TYPES 
       C7Q L7Q D7Q S7Q C8Q L8Q D8Q S8Q                      SYS / # / OBS TYPES 
S    9 X1  C1C L1C D1C S1C C5I L5I D5I S5I                  SYS / # / OBS TYPES 
R   17 X1  C1C L1C D1C S1C C2P L2P D2P S2P C2C L2C D2C S2C  SYS / # / OBS TYPES 
       C3Q L3Q D3Q S3Q                                      SYS / # / OBS TYPES 
C   25 X1  C1P L1P D1P S1P C5P L5P D5P S5P C2I L2I D2I S2I  SYS / # / OBS TYPES 
       C7I L7I D7I S7I C6I L6I D6I S6I C7D L7D D7D S7D      SYS / # / OBS TYPES 
J   17 X1  C1C L1C D1C S1C C2L L2L D2L S2L C5Q L5Q D5Q S5Q  SYS / # / OBS TYPES 
       C1L L1L D1L S1L                                      SYS / # / OBS TYPES 
I    5 X1  C5A L5A D5A S5A                                  SYS / # / OBS TYPES 
SEPTENTRIO RECEIVERS OUTPUT ALIGNED CARRIER PHASES.         COMMENT             
NO FURTHER PHASE SHIFT APPLIED IN THE RINEX ENCODER.        COMMENT             
G L1C                                                       SYS / PHASE SHIFT   
G L2W                                                       SYS / PHASE SHIFT   
G L2L  0.00000                                              SYS / PHASE SHIFT   
G L5Q  0.00000                                              SYS / PHASE SHIFT   
G L1L  0.00000                                              SYS / PHASE SHIFT   
E L1C  0.00000                                              SYS / PHASE SHIFT   
E L6C  0.00000                                              SYS / PHASE SHIFT   
E L5Q  0.00000                                              SYS / PHASE SHIFT   
E L7Q  0.00000                                              SYS / PHASE SHIFT   
E L8Q  0.00000                                              SYS / PHASE SHIFT   
S L1C                                                       SYS / PHASE SHIFT   
S L5I                                                       SYS / PHASE SHIFT   
R L1C                                                       SYS / PHASE SHIFT   
R L2P  0.00000                                              SYS / PHASE SHIFT   
R L2C                                                       SYS / PHASE SHIFT   
R L3Q  0.00000                                              SYS / PHASE SHIFT   
C L1P  0.00000                                              SYS / PHASE SHIFT   
C L5P  0.00000                                              SYS / PHASE SHIFT   
C L2I                                                       SYS / PHASE SHIFT   
C L7I                                                       SYS / PHASE SHIFT   
C L6I                                                       SYS / PHASE SHIFT   
C L7D                                                       SYS / PHASE SHIFT   
J L1C                                                       SYS / PHASE SHIFT   
J L2L  0.00000                                              SYS / PHASE SHIFT   
J L5Q  0.00000                                              SYS / PHASE SHIFT   
J L1L  0.00000                                              SYS / PHASE SHIFT   
I L5A                                                       SYS / PHASE SHIFT   
  2025     1     2     8    30    0.0000000     GPS         TIME OF FIRST OBS   
 C1C    0.000 C2C    0.000 C2P    0.000                     GLONASS COD/PHS/BIS 
DBHZ                                                        SIGNAL STRENGTH UNIT
    18                                                      LEAP SECONDS        
 24 R01  1 R02 -4 R03  5 R04  6 R05  1 R06 -4 R07  5 R08  6 GLONASS SLOT / FRQ #
    R09 -2 R10 -7 R11  0 R12 -1 R13 -2 R14 -7 R15  0 R16 -1 GLONASS SLOT / FRQ #
    R17  4 R18 -3 R19  3 R20  2 R21  4 R22 -3 R23  3 R24  2 GLONASS SLOT / FRQ #
                                                            END OF HEADER       
> 2025 01 02 08 30  0.0000000  0 55
E24         1.000    27408293.451 6 144031610.64406      2641.995 6        39.246                                                                    27408301.302 7 107556122.52407      1972.946 7        42.377    27408299.835 7 110361925.46007      2024.374 7        43.308
G15         2.000    21336968.530 7 112126480.39907      2133.309 7        46.911                                    21336966.803 7  87371260.12607      1662.322 7        44.614    21336967.034 7  87371255.12107      1662.329 7        43.082
E15         3.000    28429506.708 5 149398043.49505       106.839 5        35.633                                                                    28429510.909 6 111563469.98406        79.711 6        40.412    28429509.993 6 114473818.04106        81.759 6        41.251
G08         4.000    24685834.822 6 129724946.14406     -2409.749 6        36.938                                    24685840.093 4 101084394.45204     -1877.725 4        29.659    24685840.373 6 101084390.45706     -1877.637 6        36.484
S21         5.000    38386349.208 6 201721220.88506      -512.848 6        41.962
E05         6.000    24955334.539 6 131141129.08506      2010.613 6        40.553                                                                    24955338.789 7  97930037.87007      1501.391 7        44.239    24955337.799 7 100484734.06207      1540.496 7        44.933
G20         7.000    23738582.577 6 124746973.37506     -4074.138 6        40.565                                    23738585.110 3  97205382.50303     -3174.647 3        23.410
R02         8.000    19104598.860 8 101945762.44108     -1054.091 8        51.921                                                                    19104600.344 7  79291139.53007      -819.881 7        46.862
R20         9.000    23705819.527 5 126765694.93805       346.031 5        30.747                                                                    23705826.172 6  98595561.95206       269.036 6        40.491
G24        10.000    24767577.822 6 130154474.15306      3018.861 6        37.047                                    24767580.830 4 101419079.05004      2352.372 4        27.497    24767581.574 5 101419084.01805      2352.466 5        34.710
G30        11.000    21645165.696 7 113746071.12807     -2635.005 7        46.875                                    21645166.915 7  88633280.93707     -2053.245 7        46.084    21645167.443 7  88633288.92907     -2053.220 7        43.107
S27        12.000    39080457.281 5 205369103.47205      -544.812 5        35.067
G13        13.000    19863178.187 8 104381673.09108       166.595 8        48.774                                    19863175.139 6  81336338.80106       129.816 6        40.517
S36        14.000    38155545.739 7 200509229.38807      -513.955 7        44.000
I09        15.000    39904523.117 6 156593708.36906     -1046.604 6        39.850
E09        16.000    23464574.384 8 123307155.58608        56.438 8        48.711                                                                    23464576.006 8  92080007.47308        42.143 8        50.479    23464575.519 8  94482092.08008        43.231 8        51.712
S45        17.000    63336985.326 6 332839149.44506      -560.487 6        36.291
E36        18.000    28833900.472 5 151523070.16205     -3291.874 5        32.928                                                                    28833906.934 5 113150337.32405     -2458.037 5        34.148    28833905.474 5 116102086.71405     -2522.614 5        34.690
R19        19.000    24454065.843 5 130812722.62405     -3137.544 5        31.381                                                                    24454065.420 6 101743222.87806     -2440.261 6        36.945
E21        20.000    28762655.383 5 151148627.34305     -3451.127 5        32.593                                                                    28762665.973 6 112870700.47306     -2577.333 6        37.323    28762664.787 6 115815154.87206     -2644.471 6        38.297
R03        21.000    20968892.103 8 112248076.46108      2791.246 8        50.917                                                                    20968891.302 7  87304049.35007      2170.980 7        44.727
I06        22.000    38009119.997 7 149156087.08407      -457.219 7        43.280
S28        23.000    40825843.576 5 214541126.68505      -521.111 5        34.776
S23        25.000    38088201.471 7 200154810.13007      -512.826 7        43.672
R01        26.000    21673327.409 7 115856254.11607     -4380.190 7        44.229                                                                    21673333.270 6  90110385.47406     -3406.897 6        38.895
C07        27.000                                                                                                                                    38921171.996 6 202672725.65406        22.721 6        41.111    38921169.862 7 156719394.88207        17.554 7        44.176    38921167.373 6 164688168.60806        18.310 6        41.395
C40        29.000                                                                                                                                    38925555.507 7 202695567.25407        78.127 7        43.092                                                                    38925557.385 7 164706752.74907        63.434 7        42.806
G17        30.000    24318749.699 6 127795915.57606      2472.064 6        39.856                                    24318755.629 5  99581267.70405      1926.269 5        32.515    24318756.302 6  99581264.72006      1926.401 6        37.202
G14        31.000    20459850.531 8 107517240.49408      -335.147 8        48.126                                    20459849.228 6  83779667.20206      -261.151 6        40.319    20459849.284 8  83779653.19708      -261.163 8        48.457
G23        32.000    24769188.440 6 130162924.42006      2564.811 6        38.393                                    24769187.951 3 101425633.05403      1998.563 3        22.114    24769188.227 6 101425628.04706      1998.629 6        38.775
I02        33.000    37524363.990 7 147253660.50707       134.569 7        42.783
E04        34.000    24527289.245 7 128891751.39707     -2363.555 7        45.904                                                                    24527291.222 8  96250327.80408     -1765.028 8        49.038    24527290.413 8  98761203.42008     -1811.050 8        50.000
R13        35.000    20550007.408 7 109735916.05107      2376.491 7        45.437
R12        36.000    19074051.716 8 101890146.11408     -1027.914 8        51.595                                                                    19074053.477 7  79247892.40607      -799.507 7        47.266
I01        37.000   393206042.834 5 239883873.54805     -3177.736 5        35.605
C10        38.000                                                                                                                                    38951196.085 6 202829090.54306       372.960 6        40.627    38951197.149 7 156840318.32707       288.526 7        44.757    38951194.146 6 164815238.23306       303.176 6        40.853
C19        39.000                                                                                                                                    24446905.105 7 127301342.85907     -3683.139 7        45.872                                                                    24446905.564 7 103442723.47207     -2992.798 7        46.215
E34        40.000    27907998.548 6 146657471.31006     -2084.315 6        37.176                                                                    27908002.580 6 109516927.21106     -1556.073 6        39.628    27908001.889 6 112373892.02006     -1596.866 6        40.398
G05        41.000    21943533.976 7 115313992.73707     -2993.080 7        46.637                                    21943532.998 7  89855024.37907     -2332.268 7        44.773    21943533.794 7  89855033.37207     -2332.199 7        42.828
S44        42.000    40834726.968 6 214587970.44006      -517.654 6        37.214
C36        43.000                                                                                                                                    21384396.524 8 111354139.87808      -555.336 8        51.306                                                                    21384402.544 8  90484374.96708      -451.184 8        50.068
C05        44.000                                                                                                                                    39300062.486 6 204645671.56906      -569.049 6        37.970    39300064.237 7 158245011.89807      -440.094 7        43.177    39300064.706 6 166291453.16606      -462.613 6        40.102
G18        46.000    25392448.613 6 133438175.75206     -2173.239 6        37.214                                    25392447.459 2 103977774.67702     -1693.441 2        17.434    25392447.432 5 103977764.65105     -1693.192 5        35.929
R11        47.000    22346734.968 7 119414075.67907     -4378.832 7        45.661                                                                    22346738.206 7  92877597.15207     -3405.673 7        42.808
C45        50.000                                                                                                                                    23488821.465 7 122312457.93207      2010.738 7        47.137                                                                    23488815.797 7  99388875.33807      1633.891 7        47.750
S48        51.000    77101741.848 6 405170998.95906      -501.335 6        37.788
E06        52.000    23309828.898 8 122493962.55408     -1214.707 8        48.369                                                                    23309831.250 8  91472763.99708      -907.099 8        50.466    23309830.938 8  93859009.25408      -930.753 8        51.504
C09        53.000                                                                                                                                    40844086.673 5 212685742.72605     -1138.256 5        35.771    40844093.939 6 164462057.16106      -880.304 6        41.013    40844089.478 6 172824534.36306      -924.943 6        36.786
C60        54.000                                                                                                                                    40834731.456 6 212637188.54706      -512.715 6        40.405                                                                    40834723.127 6 172785066.98506      -416.611 6        38.480
E31        55.000    23836808.926 8 125263277.71808      1004.782 8        48.348                                                                    23836812.202 8  93540790.91808       750.340 8        49.685    23836811.563 8  95980981.64308       769.934 8        50.771
G07        56.000    24428634.155 6 128373219.58806     -3309.847 6        40.019                                    24428637.614 5 100031029.14805     -2579.085 5        31.834    24428638.040 6 100031038.11806     -2579.053 6        37.066
C02        57.000                                                                                                                                    40879257.275 5 212868887.92205      -560.319 5        33.228    40879263.435 6 164603672.88306      -433.220 6        37.062    40879264.248 5 172973372.89905      -455.296 5        33.168
I03        58.000    95598519.196 6 299363635.99206       846.975 6        40.977
C21        59.000                                                                                                                                    24015911.659 7 125057105.97807      1887.439 7        46.344                                                                    24015908.132 7 101619108.93107      1533.700 7        46.779
C22        60.000                                                                                                                                    21686904.747 8 112929359.95108     -1132.832 8        52.307                                                                    21686900.175 8  91764322.17008      -920.502 8        49.939
> 2025 01 02 08 30  5.0000000  0 55
E24         1.000    27405780.339 6 144018402.38106      2641.339 6        39.003                                                                    27405787.691 7 107546259.23207      1972.289 7        42.332    27405786.191 7 110351804.86207      2023.841 7        43.029
G15         2.000    21334939.640 7 112115819.81507      2131.014 7        47.133                                    21334938.184 7  87362953.17307      1660.531 7        44.695    21334938.147 7  87362948.16907      1660.554 7        42.631
E15         3.000    28429406.121 5 149397516.53505       103.882 5        34.924                                                                    28429410.751 6 111563076.43306        77.683 6        40.451    28429409.995 6 114473414.23106        79.774 6        41.511
G08         4.000    24688128.623 6 129737002.25406     -2412.508 6        36.442                                    24688134.483 4 101093788.80504     -1879.870 4        29.763    24688135.292 6 101093784.81206     -1880.092 6        37.093
S21         5.000    38386833.878 6 201723786.10306      -513.136 6        41.948
E05         6.000    24953422.311 6 131131077.81806      2010.069 6        40.482                                                                    24953426.064 7  97922532.04607      1500.948 7        44.256    24953425.055 7 100477032.43007      1540.189 7        44.962
G20         7.000    23742459.490 6 124767345.79906     -4074.826 6        40.467                                    23742462.230 3  97221257.07203     -3175.179 3        23.657
R02         8.000    19105588.590 8 101951043.84108     -1058.344 8        52.089                                                                    19105590.326 7  79295247.27807      -823.197 7        46.956
R20         9.000    23705496.683 5 126763977.02605       341.553 5        30.106                                                                    23705503.793 6  98594225.76306       265.554 6        39.003
G24        10.000    24764705.515 6 130139380.90806      3018.393 6        37.667                                    24764708.810 4 101407318.03404      2352.009 4        27.748    24764708.436 5 101407323.00905      2351.926 5        34.743
G30        11.000    21647673.805 7 113759249.86907     -2636.384 7        47.309                                    21647674.784 7  88643550.07007     -2054.322 7        46.161    21647675.076 7  88643558.07407     -2054.428 7        42.950
S27        12.000    39080978.095 5 205371827.63105      -545.008 5        35.267
G13        13.000    19863020.744 8 104380847.32908       163.880 8        48.644                                    19863018.028 6  81335695.34806       127.701 6        40.517
S36        14.000    38156036.303 7 200511798.81507      -513.863 7        44.004
I09        15.000    39905856.577 6 156598942.20406     -1046.761 6        39.784
E09        16.000    23464521.490 8 123306878.14708        54.715 8        48.575                                                                    23464523.186 8  92079800.29108        40.819 8        50.518    23464522.760 8  94481879.49108        41.908 8        51.622
S45        17.000    63337477.952 6 332841952.58106      -560.662 6        36.495
E36        18.000    28837032.555 5 151539530.70005     -3292.193 5        31.351                                                                    28837039.186 5 113162629.26205     -2458.382 5        32.880    28837038.139 5 116114699.28705     -2522.086 5        32.988
R19        19.000    24456997.558 4 130828417.86604     -3140.261 4        28.341                                                                    24456998.395 5 101755430.36605     -2442.877 5        34.243
E21        20.000    28765939.312 5 151165886.06105     -3452.108 5        31.804                                                                    28765950.414 6 112883588.37906     -2577.718 6        37.123    28765949.086 6 115828379.00206     -2645.152 6        37.796
R03        21.000    20966285.678 8 112234126.36908      2788.916 8        50.337                                                                    20966285.574 7  87293199.28407      2169.115 7        45.348
I06        22.000    38009703.019 7 149158374.35407      -457.537 7        43.238
S28        23.000    40826344.670 5 214543735.15805      -521.615 5        34.929
S23        25.000    38088690.980 7 200157375.86307      -513.182 7        43.824
R01        26.000    21677425.660 7 115878161.02407     -4382.361 7        44.596                                                                    21677430.844 6  90127424.13406     -3408.336 6        38.607
C07        27.000                                                                                                                                    38921150.998 6 202672615.12306        21.680 6        41.023    38921148.568 7 156719309.40007        16.732 7        44.141    38921146.208 6 164688078.78806        17.580 6        41.156
C40        29.000                                                                                                                                    38925481.557 7 202695179.86907        76.803 7        43.098                                                                    38925482.962 7 164706437.97207        62.394 7        42.787
G17        30.000    24316397.680 6 127783557.11406      2471.376 6        39.604                                    24316403.851 5  99571637.79605      1925.733 5        32.521    24316403.485 6  99571634.83606      1925.738 6        37.350
G14        31.000    20460171.292 8 107518925.06608      -338.483 8        48.048                                    20460169.798 6  83780979.85206      -263.753 6        40.410    20460170.007 8  83780965.84808      -263.793 8        48.695
G23        32.000    24766748.869 6 130150105.49506      2562.936 6        39.339                                    24766748.359 3 101415644.25403      1997.093 3        22.286    24766748.902 6 101415639.25106      1997.085 6        38.847
I02        33.000    37524192.647 7 147252988.84207       134.300 7        42.650
E04        34.000    24529538.841 7 128903573.50107     -2365.157 7        45.848                                                                    24529540.944 8  96259155.98108     -1766.199 8        49.106    24529540.054 8  98770261.90508     -1812.242 8        49.938
R13        35.000    20547783.444 7 109724040.83907      2373.743 7        45.196
R12        36.000    19075015.566 8 101895295.51208     -1031.652 8        51.390                                                                    19075017.579 7  79251897.48507      -802.441 7        47.517
I01        37.000   393210090.904 5 239899763.07805     -3178.050 5        35.005
C10        38.000                                                                                                                                    38950838.524 6 202827228.01706       372.095 6        40.787    38950839.369 7 156838878.11207       287.681 7        44.751    38950836.443 6 164813724.78306       302.456 6        40.815
C19        39.000                                                                                                                                    24450442.081 7 127319762.44507     -3684.512 7        45.678                                                                    24450443.000 7 103457690.86407     -2994.035 7        46.081
E34        40.000    27909982.583 6 146667896.78106     -2086.056 6        37.565                                                                    27909986.615 6 109524712.47006     -1557.816 6        39.751    27909985.833 6 112381880.36006     -1598.564 6        40.472
G05        41.000    21946382.899 7 115328965.63207     -2995.912 7        46.484                                    21946382.285 7  89866691.55107     -2334.469 7        44.813    21946382.572 7  89866700.54307     -2334.453 7        42.758
S44        42.000    40835216.682 6 214590558.41906      -517.674 6        37.301
C36        43.000                                                                                                                                    21384930.832 8 111356922.70408      -557.679 8        51.345                                                                    21384936.957 8  90486636.24808      -453.168 8        49.926
C05        44.000                                                                                                                                    39300609.115 6 204648517.84806      -569.343 6        38.012    39300611.089 7 158247212.82507      -440.218 7        43.365    39300611.371 6 166293766.00306      -462.675 6        39.883
G18        46.000    25394517.081 6 133449047.94106     -2175.444 6        37.043                                    25394516.344 2 103986246.49602     -1695.154 2        17.170    25394517.342 6 103986236.49506     -1695.363 6        36.008
R11        47.000    22350832.103 7 119435972.29707     -4379.722 7        44.816                                                                    22350836.135 7  92894627.83307     -3406.429 7        42.641
C45        50.000                                                                                                                                    23486891.431 7 122302408.63407      2009.050 7        47.626                                                                    23486885.878 7  99380709.46907      1632.579 7        47.620
S48        51.000    77102228.088 6 405173506.77206      -501.588 6        38.051
E06        52.000    23310985.618 8 122500041.06208     -1216.524 8        48.192                                                                    23310987.935 8  91477303.13308      -908.476 8        50.493    23310987.644 8  93863666.80408      -932.183 8        51.442
C09        53.000                                                                                                                                    40845181.011 6 212691434.97406     -1138.465 6        36.042    40845186.658 6 164466458.73606      -880.274 6        40.694    40845182.500 6 172829159.79606      -925.326 6        36.461
C60        54.000                                                                                                                                    40835223.746 6 212639753.03006      -512.954 6        40.479                                                                    40835215.631 6 172787150.83006      -416.793 6        38.417
E31        55.000    23835854.061 8 125258259.63008      1002.524 8        48.244                                                                    23835857.266 8  93537043.63808       748.672 8        49.691    23835856.660 8  95977136.61208       768.183 8        50.679
G07        56.000    24431783.572 6 128389770.35806     -3310.362 6        40.048                                    24431787.174 5 100043925.79105     -2579.489 5        31.864    24431787.416 6 100043934.76206     -2579.535 6        37.350
C02        57.000                                                                                                                                    40879796.625 5 212871689.79705      -560.269 5        33.216    40879801.362 6 164605839.47206      -433.490 6        37.108    40879802.659 5 172975649.65205      -455.665 5        33.174
I03        58.000    95597440.130 6 299359401.87006       846.803 6        40.973
C21        59.000                                                                                                                                    24014100.246 7 125047674.24207      1885.442 7        46.412                                                                    24014096.877 7 101611444.88707      1532.027 7        46.655
C22        60.000                                                                                                                                    21687994.214 8 112935032.03208     -1135.850 8        52.266                                                                    21687989.469 8  91768931.19308      -922.945 8        49.820
> 2025 01 02 08 30 10.0000000  0 55
E24         1.000    27403267.474 6 144005196.68706      2640.834 6        40.036                                                                    27403274.650 7 107536397.83507      1972.163 7        42.299    27403273.015 7 110341686.21507      2023.530 7        42.936
G15         2.000    21332913.274 7 112105169.97007      2128.889 7        46.931                                    21332911.573 7  87354654.58607      1658.875 7        44.822    21332912.170 7  87354649.59307      1658.917 7        42.988
E15         3.000    28429307.723 5 149397001.78105       101.673 5        35.471                                                                    28429312.720 6 111562692.03406        76.026 6        40.598    28429312.262 6 114473019.79806        77.901 6        41.454
G08         4.000    24690425.862 6 129749072.29406     -2415.188 6        36.314                                    24690431.448 4 101103194.01204     -1881.959 4        29.820    24690432.482 6 101103190.00806     -1882.084 6        37.425
S21         5.000    38387323.136 6 201726351.82806      -513.204 6        41.866
E05         6.000    24951509.846 6 131121028.43906      2009.721 6        40.834                                                                    24951513.706 7  97915027.65007      1500.783 7        44.239    24951512.706 7 100469332.27107      1539.924 7        44.792
G20         7.000    23746336.344 6 124787721.09406     -4075.171 6        40.105                                    23746339.704 3  97237133.87803     -3175.460 3        23.619
R02         8.000    19106582.029 8 101956345.55208     -1062.285 8        51.960                                                                    19106583.491 7  79299370.81807      -826.212 7        46.785
R20         9.000    23705176.674 4 126762279.87804       337.101 4        29.678                                                                    23705186.376 6  98592905.73706       262.318 6        38.369
G24        10.000    24761833.221 6 130124289.70406      3018.084 6        36.499                                    24761837.129 4 101395558.61804      2351.752 4        27.976    24761836.617 5 101395563.59205      2351.645 5        35.562
G30        11.000    21650182.855 7 113772435.10507     -2637.616 7        46.745                                    21650183.870 7  88653824.26207     -2055.285 7        46.307    21650184.346 7  88653832.25407     -2055.244 7        42.891
S27        12.000    39081500.984 5 205374551.84705      -544.850 5        35.233
G13        13.000    19862866.232 8 104380034.20708       161.435 8        48.864                                    19862863.310 6  81335061.74006       125.792 6        40.670
S36        14.000    38156525.158 7 200514367.75107      -513.701 7        43.761
I09        15.000    39907190.515 6 156604176.27506     -1046.915 6        39.766
E09        16.000    23464470.145 8 123306608.36208        53.186 8        48.701                                                                    23464471.847 8  92079598.82008        39.798 8        50.522    23464471.405 8  94481672.76908        40.752 8        51.512
S45        17.000    63337969.218 6 332844755.89106      -560.724 6        36.412
E36        18.000    28840164.671 5 151555992.15905     -3292.314 5        30.558                                                                    28840172.007 5 113174921.88305     -2458.450 5        31.940    28840170.650 5 116127312.63505     -2522.839 5        31.879
R19        19.000    24459935.632 5 130844127.72305     -3143.354 5        32.982                                                                    24459936.120 5 101767649.16205     -2444.728 5        35.081
E21        20.000    28769223.910 5 151183146.96005     -3452.221 5        31.660                                                                    28769235.054 6 112896477.97706     -2577.938 6        36.741    28769233.733 6 115841604.85306     -2645.266 6        37.323
R03        21.000    20963680.778 8 112220186.81108      2786.916 8        50.385                                                                    20963681.848 7  87282357.41207      2167.607 7        45.151
I06        22.000    38010285.714 7 149160661.87907      -457.459 7        43.020
S28        23.000    40826837.318 5 214546343.48005      -521.787 5        34.324
S23        25.000    38089184.530 7 200159941.76507      -513.223 7        44.119
R01        26.000    21681525.766 7 115900077.81907     -4384.301 7        44.360                                                                    21681531.322 6  90144470.49106     -3409.833 6        38.520
C07        27.000                                                                                                                                    38921130.615 6 202672508.83106        20.745 6        41.151    38921128.389 7 156719227.19207        16.157 7        44.158    38921125.655 6 164687992.39106        16.971 6        41.089
C40        29.000                                                                                                                                    38925408.050 7 202694797.72907        75.916 7        43.251                                                                    38925409.499 7 164706127.44407        61.701 7        42.529
G17        30.000    24314046.470 6 127771201.38506      2471.004 6        40.029                                    24314052.672 5  99562010.02205      1925.443 5        32.701    24314053.075 6  99562007.05406      1925.510 6        37.327
G14        31.000    20460494.693 8 107520625.38308      -341.545 8        48.154                                    20460493.374 6  83782304.77306      -266.137 6        40.517    20460493.285 8  83782290.77308      -266.184 8        48.516
G23        32.000    24764311.509 6 130137295.47106      2561.222 6        39.105                                    24764310.668 3 101405662.40503      1995.758 3        22.210    24764311.095 6 101405657.41606      1995.654 6        39.330
I02        33.000    37524021.602 7 147252318.78207       133.964 7        42.514
E04        34.000    24531789.610 7 128915402.12407     -2366.328 7        46.010                                                                    24531791.851 8  96267989.03608     -1767.142 8        49.080    24531790.997 8  98779325.38608     -1813.176 8        49.650
R13        35.000    20545562.499 7 109712179.02407      2371.139 7        45.169
R12        36.000    19075983.201 8 101900462.86108     -1035.184 8        51.893                                                                    19075984.893 7  79255916.53107      -805.137 7        47.516
I01        37.000   393214140.015 5 239915652.63905     -3178.081 5        34.595
C10        38.000                                                                                                                                    38950481.015 6 202825369.28106       371.421 6        40.763    38950482.173 7 156837440.83807       287.184 7        44.686    38950479.464 6 164812214.41306       301.870 6        40.732
C19        39.000                                                                                                                                    24453980.347 7 127338188.05507     -3685.641 7        45.863                                                                    24453981.253 7 103472663.15707     -2994.849 7        45.678
E34        40.000    27911968.112 6 146678332.21106     -2088.172 6        38.321                                                                    27911972.493 6 109532505.13006     -1559.220 6        39.682    27911971.825 6 112389876.32806     -1600.057 6        40.415
G05        41.000    21949234.758 7 115343951.39307     -2998.450 7        46.696                                    21949234.027 7  89878368.74607     -2336.454 7        44.919    21949234.712 7  89878377.73207     -2336.459 7        42.341
S44        42.000    40835709.299 6 214593146.45106      -517.514 6        37.025
C36        43.000                                                                                                                                    21385467.185 8 111359716.24208      -559.741 8        51.206                                                                    21385473.448 8  90488906.21508      -454.732 8        49.729
C05        44.000                                                                                                                                    39301155.579 6 204651364.29706      -569.296 6        37.985    39301157.920 7 158249413.87807      -440.196 7        43.585    39301157.995 6 166296078.96306      -462.574 6        39.892
G18        46.000    25396587.658 6 133459931.79106     -2177.993 6        37.701                                    25396587.493 2 103994727.39002     -1697.129 2        17.774    25396588.356 6 103994717.38006     -1697.129 6        37.365
R11        47.000    22354930.504 7 119457873.04807     -4380.469 7        44.734                                                                    22354934.390 7  92911661.73307     -3407.133 7        42.946
C45        50.000                                                                                                                                    23484962.699 7 122292366.34607      2007.801 7        47.365                                                                    23484957.376 7  99372549.29407      1631.579 7        47.474
S48        51.000    77102706.087 6 405176015.32706      -501.870 6        37.705
E06        52.000    23312143.962 8 122506127.68808     -1218.130 8        48.523                                                                    23312146.223 8  91481848.33108      -909.597 8        50.548    23312145.884 8  93868330.57208      -933.346 8        51.239
C09        53.000                                                                                                                                    40846274.401 6 212697127.09006     -1138.336 6        36.068    40846279.878 6 164470860.20506      -880.256 6        40.682    40846275.842 6 172833785.06906      -925.049 6        36.370
C60        54.000                                                                                                                                    40835716.304 6 212642317.54006      -512.886 6        40.546                                                                    40835708.029 6 172789234.72106      -417.067 6        38.339
E31        55.000    23834901.168 8 125253251.95908      1000.523 8        48.541                                                                    23834904.293 8  93533304.14508       747.157 8        49.726    23834903.746 8  95973299.56308       766.640 8        50.534
G07        56.000    24434933.667 6 128406322.83806     -3310.834 6        39.435                                    24434937.110 5 100056823.75305     -2579.862 5        31.721    24434936.735 6 100056832.72906     -2579.708 6        36.760
C02        57.000                                                                                                                                    40880334.869 5 212874491.73905      -560.123 5        33.000    40880339.848 6 164608006.11106      -433.348 6        37.157    40880340.698 5 172977926.44705      -455.208 5        32.988
I03        58.000    95596361.428 6 299355167.76506       846.854 6        40.887
C21        59.000                                                                                                                                    24012290.593 7 125038251.31807      1883.776 7        46.458                                                                    24012287.315 7 101603787.98007      1530.777 7        46.573
C22        60.000                                                                                                                                    21689086.052 8 112940717.96008     -1138.497 8        52.071                                                                    21689081.401 8  91773551.46308      -925.064 8        49.668
> 2025 01 02 08 30 15.0000000  0 55
E24         1.000    27400755.209 6 143991993.63106      2640.414 6        40.462                                                                    27400762.258 7 107526538.40307      1971.849 7        42.506    27400760.619 7 110331569.58607      2023.300 7        43.071
G15         2.000    21330888.379 7 112094530.85907      2126.995 7        46.400                                    21330887.037 7  87346364.36507      1657.402 7        44.820    21330887.494 7  87346359.36807      1657.429 7        42.995
E15         3.000    28429212.319 5 149396499.23805        99.658 5        35.010                                                                    28429217.300 6 111562316.75206        74.428 6        40.746    28429216.703 6 114472634.74406        76.226 6        41.733
G08         4.000    24692725.609 6 129761156.25806     -2417.926 6        37.025                                    24692731.087 4 101112610.06304     -1884.099 4        29.953    24692732.125 6 101112606.06406     -1884.124 6        37.471
S21         5.000    38387807.807 6 201728917.93106      -513.010 6        41.647
E05         6.000    24949597.655 6 131110980.99406      2009.559 6        40.841                                                                    24949601.795 7  97907524.69007      1500.617 7        44.470    24949600.748 7 100461633.57607      1539.740 7        44.733
G20         7.000    23750214.707 6 124808099.30706     -4075.723 6        40.563                                    23750217.522 3  97253012.96503     -3175.878 3        23.105
R02         8.000    19107579.494 8 101961667.45608     -1066.235 8        52.304                                                                    19107581.023 7  79303510.05807      -829.235 7        46.542
R20         9.000    23704863.256 5 126760603.42505       333.484 5        31.011                                                                    23704873.540 6  98591601.83606       259.244 6        39.393
G24        10.000    24758962.136 6 130109200.49706      3017.986 6        36.355                                    24758965.654 4 101383800.76504      2351.686 4        27.737    24758965.208 5 101383805.76605      2351.759 5        35.090
G30        11.000    21652692.798 7 113785626.82207     -2638.750 7        46.068                                    21652694.171 7  88664103.50707     -2056.165 7        46.215    21652694.960 7  88664111.49507     -2056.091 7        43.020
S27        12.000    39082012.891 5 205377276.49505      -544.671 5        35.290
G13        13.000    19862713.917 8 104379233.73408       159.061 8        48.780                                    19862710.975 6  81334437.99106       123.943 6        40.577
S36        14.000    38157016.129 7 200516936.42507      -513.699 7        44.120
I09        15.000    39908524.294 6 156609410.55206     -1046.825 6        39.877
E09        16.000    23464420.239 8 123306346.22608        51.801 8        48.554                                                                    23464421.998 8  92079403.06208        38.753 8        50.712    23464421.540 8  94481471.90408        39.737 8        51.393
S45        17.000    63338453.503 6 332845959.36016      -560.545 6        36.015
E36        18.000    28843296.621 4 151572454.51504     -3292.274 4        28.209                                                                    28843304.496 5 113187215.24005     -2458.842 5        31.117    28843303.159 5 116139926.66605     -2523.064 5        30.445
R19        19.000    24462876.817 5 130859852.02905     -3146.307 5        31.011                                                                    24462876.135 6 101779879.14406     -2446.996 6        36.601
E21        20.000    28772509.781 5 151200410.13005     -3452.707 5        31.230                                                                    28772520.140 6 112909369.23406     -2578.023 6        36.586    28772518.911 6 115854832.41306     -2645.544 6        37.217
R03        21.000    20961079.040 8 112206257.97908      2784.924 8        50.209                                                                    20961079.861 7  87271523.87507      2166.035 7        45.371
I06        22.000    38010868.693 7 149162949.70307      -457.435 7        43.054
S28        23.000    40827335.868 5 214548952.09005      -521.238 5        34.557
S23        25.000    38089671.691 7 200162508.08007      -512.991 7        43.924
R01        26.000    21685627.260 7 115922004.39807     -4386.087 7        44.328                                                                    21685633.743 6  90161524.46606     -3411.356 6        39.183
C07        27.000                                                                                                                                    38921111.257 6 202672406.75206        20.146 6        41.335    38921108.616 7 156719148.24107        15.629 7        44.224    38921106.001 6 164687909.40906        16.500 6        40.942
C40        29.000                                                                                                                                    38925335.961 7 202694420.83407        75.021 7        43.429                                                                    38925337.166 7 164705821.18107        60.750 7        42.336
G17        30.000    24311695.667 6 127758848.40106      2470.576 6        40.169                                    24311701.976 5  99552384.38605      1925.109 5        32.808    24311702.544 6  99552381.41106      1924.958 6        37.554
G14        31.000    20460821.480 8 107522341.45308      -344.580 8        48.119                                    20460819.932 6  83783641.97006      -268.508 6        40.336    20460819.733 8  83783627.96608      -268.498 8        48.474
G23        32.000    24761875.545 6 130124494.39206      2559.462 6        39.021                                    24761874.760 3 101395687.50703      1994.391 3        22.114    24761875.057 6 101395682.50306      1994.451 6        39.985
I02        33.000    37523851.438 7 147251649.54407       133.877 7        42.364
E04        34.000    24534041.766 7 128927237.27007     -2367.430 7        46.000                                                                    24534043.928 8  96276826.94708     -1767.872 8        49.246    24534043.181 8  98788393.85708     -1814.015 8        49.698
R13        35.000    20543344.120 7 109700330.57907      2368.507 7        45.648
R12        36.000    19076954.207 8 101905648.07408     -1038.614 8        51.884                                                                    19076955.588 7  79259949.47207      -807.779 7        47.817
I01        37.000   393218189.190 5 239931542.21905     -3177.768 5        34.357
C10        38.000                                                                                                                                    38950124.655 6 202823514.32406       370.846 6        40.708    38950125.969 7 156836006.46307       286.755 7        44.621    38950123.180 6 164810707.10406       301.177 6        40.582
C19        39.000                                                                                                                                    24457520.199 7 127356619.69107     -3686.729 7        46.204                                                                    24457520.541 7 103487640.32807     -2995.848 7        45.246
E34        40.000    27913955.428 6 146688777.57906     -2089.840 6        37.777                                                                    27913959.987 6 109540305.21406     -1560.559 6        39.952    27913959.321 6 112397879.89106     -1601.372 6        40.276
G05        41.000    21952088.963 7 115358950.05607     -3000.853 7        46.093                                    21952088.214 7  89890055.99807     -2338.320 7        44.709    21952088.561 7  89890064.98907     -2338.268 7        42.461
S44        42.000    40836200.596 6 214595734.54006      -517.585 6        37.323
C36        43.000                                                                                                                                    21386005.666 8 111362520.48608      -561.712 8        51.330                                                                    21386011.963 8  90491184.87708      -456.507 8        49.669
C05        44.000                                                                                                                                    39301701.944 6 204654210.89606      -569.230 6        38.027    39301704.741 7 158251615.03407      -440.023 7        43.704    39301704.638 6 166298392.03506      -462.680 6        39.724
G18        46.000    25398662.420 6 133470827.23706     -2179.990 6        36.673                                    25398660.895 2 104003217.34802     -1698.688 2        16.943    25398661.677 6 104003207.32706     -1698.674 6        36.919
R11        47.000    22359030.173 7 119479777.92607     -4381.182 7        45.099                                                                    22359034.074 7  92928698.81107     -3407.543 7        43.302
C45        50.000                                                                                                                                    23483035.192 7 122282331.08207      2006.527 7        47.643                                                                    23483030.245 7  99364394.80907      1630.433 7        47.436
S48        51.000    77103191.732 6 405178523.85706      -501.303 6        37.437
E06        52.000    23313303.639 8 122512222.42008     -1219.495 8        48.384                                                                    23313306.018 8  91486399.58008      -910.704 8        50.621    23313305.669 8  93873000.55008      -934.447 8        51.278
C09        53.000                                                                                                                                    40847367.333 6 212702819.03006     -1138.184 6        36.132    40847373.719 6 164475261.54906      -880.011 6        40.944    40847368.895 6 172838410.19106      -924.835 6        36.386
C60        54.000                                                                                                                                    40836209.197 6 212644882.08806      -512.750 6        40.617                                                                    40836200.833 6 172791318.59506      -416.665 6        38.189
E31        55.000    23833950.144 8 125248254.72008       998.611 8        48.424                                                                    23833953.410 8  93529572.43708       745.726 8        49.888    23833952.759 8  95969470.50808       765.137 8        50.536
G07        56.000    24438083.322 6 128422876.97606     -3311.042 6        38.691                                    24438087.283 5 100069723.01405     -2580.019 5        31.019    24438086.175 6 100069731.98506     -2579.914 6        36.495
C02        57.000                                                                                                                                    40880872.667 5 212877293.74905      -560.085 5        33.030    40880877.749 6 164610172.77906      -433.219 6        36.888    40880878.777 5 172980203.29905      -455.197 5        32.862
I03        58.000    95595282.442 6 299350933.66906       846.940 6        41.135
C21        59.000                                                                                                                                    24010482.808 7 125028837.20007      1882.188 7        46.702                                                                    24010479.439 7 101596138.23007      1529.365 7        46.564
C22        60.000                                                                                                                                    21690180.558 8 112946417.73808     -1141.108 8        52.113                                                                    21690176.001 8  91778182.97608      -927.280 8        49.715
> 2025 01 02 08 30 20.0000000  0 55
E24         1.000    27398243.004 6 143978792.75106      2639.924 6        40.319                                                                    27398250.286 7 107516680.62307      1971.337 7        42.717    27398248.562 7 110321454.63307      2022.830 7        43.209
G15         2.000    21328865.370 7 112083902.09607      2124.760 7        46.611                                    21328864.455 7  87338082.20707      1655.658 7        44.692    21328864.353 7  87338077.21307      1655.580 7        42.610
E15         3.000    28429119.406 5 149396008.56805        96.933 5        34.814                                                                    28429123.752 6 111561950.34906        72.490 6        40.505    28429123.010 6 114472258.77006        74.325 6        41.251
G08         4.000    24695027.615 6 129773253.75306     -2420.819 6        38.273                                    24695033.226 5 101122036.66605     -1886.349 5        30.053    24695033.508 6 101122032.66206     -1886.217 6        37.202
S21         5.000    38388292.244 6 201731483.99206      -513.338 6        41.442
E05         6.000    24947685.996 6 131100935.10106      2009.001 6        40.706                                                                    24947690.088 7  97900022.89407      1500.294 7        44.369    24947689.044 7 100453936.07807      1539.381 7        44.743
G20         7.000    23754093.044 6 124828479.94706     -4076.366 6        40.822                                    23754095.711 3  97268893.93703     -3176.366 3        23.010
R02         8.000    19108580.594 8 101967009.01808     -1070.276 8        52.408                                                                    19108582.004 7  79307664.61207      -832.435 7        46.813
R20         9.000    23704556.936 5 126758947.31505       329.101 5        30.536                                                                    23704563.598 6  98590313.77706       256.041 6        38.940
G24        10.000    24756091.694 6 130094113.04606      3017.442 6        37.777                                    24756094.564 4 101372044.26304      2351.261 4        27.389    24756094.591 5 101372049.24505      2351.310 5        33.461
G30        11.000    21655204.119 7 113798824.67107     -2640.149 7        46.294                                    21655205.640 7  88674387.52507     -2057.255 7        46.049    21655206.089 7  88674395.51607     -2057.231 7        43.088
S27        12.000    39082532.288 5 205380000.73605      -544.862 5        34.952
G13        13.000    19862563.967 8 104378445.53508       156.445 8        48.866                                    19862560.988 6  81333823.80706       121.905 6        40.472
S36        14.000    38157506.702 7 200519504.82007      -513.619 7        43.962
I09        15.000    39909858.119 6 156614644.79106     -1046.835 6        40.026
E09        16.000    23464371.711 8 123306091.36608        50.264 8        48.422                                                                    23464373.471 8  92079212.74208        37.624 8        50.591    23464373.056 8  94481276.62008        38.546 8        51.351
S45        17.000    63338945.212 6 332848762.64006      -560.649 6        36.159
E36        18.000    28846430.628 4 151588917.46404     -3292.663 4        24.917                                                                    28846437.332 4 113199509.00304     -2458.825 4        29.801    28846435.839 4 116152541.10904     -2522.742 4        28.938
R19        19.000    24465817.940 5 130875590.23105     -3148.849 5        33.084                                                                    24465819.546 6 101792119.98506     -2449.185 6        36.291
E21        20.000    28775794.517 5 151217675.14005     -3453.171 5        30.785                                                                    28775805.526 6 112922261.87206     -2578.566 6        36.507    28775804.285 6 115868061.41506     -2646.080 6        37.146
R03        21.000    20958479.369 8 112192339.45108      2782.660 8        50.765                                                                    20958479.230 7  87260698.34507      2164.367 7        45.139
I06        22.000    38011452.032 7 149165237.53207      -457.530 7        43.084
S28        23.000    40827831.096 5 214551560.43305      -521.426 5        34.571
S23        25.000    38090157.386 7 200165074.26007      -513.114 7        43.617
R01        26.000    21689731.676 7 115943940.51407     -4388.178 7        44.474                                                                    21689737.403 6  90178585.83406     -3413.141 6        39.667
C07        27.000                                                                                                                                    38921092.859 6 202672308.51906        19.448 6        41.228    38921089.826 7 156719072.28207        14.957 7        44.098    38921087.283 6 164687829.57406        15.716 6        40.894
C40        29.000                                                                                                                                    38925264.422 7 202694048.81507        73.966 7        43.253                                                                    38925265.702 7 164705518.86007        60.223 7        42.423
G17        30.000    24309345.616 6 127746497.76506      2469.944 6        40.226                                    24309351.740 5  99542760.57805      1924.619 5        32.892    24309352.196 6  99542757.60106      1924.551 6        37.580
G14        31.000    20461150.937 8 107524072.89808      -347.763 8        48.042                                    20461149.410 6  83784991.14706      -270.984 6        40.403    20461149.317 8  83784977.14508      -271.010 8        48.029
G23        32.000    24759440.864 6 130111701.84106      2557.808 6        39.261                                    24759440.530 3 101385719.27603      1993.102 3        22.705    24759440.294 6 101385714.27906      1993.053 6        39.718
I02        33.000    37523681.086 7 147250981.68707       133.418 7        42.252
E04        34.000    24536295.231 7 128939078.56207     -2368.838 7        46.045                                                                    24536297.244 8  96285669.46808     -1768.949 8        49.176    24536296.549 8  98797467.05108     -1815.066 8        49.573
R13        35.000    20541127.692 7 109688495.25707      2365.745 7        45.845
R12        36.000    19077927.895 8 101910850.79508     -1042.273 8        51.882                                                                    19077929.349 7  79263996.03107      -810.667 7        47.504
I01        37.000   393222237.908 5 239947431.48705     -3177.896 5        33.982
C10        38.000                                                                                                                                    38949769.002 6 202821662.78906       370.032 6        40.758    38949770.561 7 156834574.74207       286.069 7        44.539    38949767.522 6 164809202.56106       300.716 6        40.691
C19        39.000                                                                                                                                    24461061.540 7 127375056.98007     -3687.928 7        46.166                                                                    24461061.242 7 103502622.09407     -2996.670 7        45.266
E34        40.000    27915944.261 6 146699232.48106     -2091.898 6        37.686                                                                    27915949.543 6 109548112.43706     -1562.152 6        39.802    27915948.912 6 112405890.77106     -1602.898 6        40.348
G05        41.000    21954945.408 7 115373961.13007     -3003.403 7        46.366                                    21954944.754 7  89901752.91707     -2340.312 7        44.773    21954946.109 7  89901761.91107     -2340.355 7        43.609
S44        42.000    40836696.803 6 214598322.28406      -517.426 6        37.142
C36        43.000                                                                                                                                    21386546.527 8 111365335.07108      -563.913 8        51.460                                                                    21386552.489 8  90493471.94508      -458.179 8        49.661
C05        44.000                                                                                                                                    39302248.989 6 204657057.24906      -569.068 6        38.081    39302251.102 7 158253816.03007      -440.088 7        43.287    39302251.258 6 166300704.92306      -462.394 6        39.667
G18        46.000    25400737.080 5 133481733.92705     -2182.601 5        35.324                                    25400736.425 2 104011716.07302     -1700.708 2        17.132    25400737.096 6 104011706.04406     -1700.690 6        37.308
R11        47.000    22363130.604 7 119501686.51307     -4381.987 7        44.882                                                                    22363133.949 7  92945738.79307     -3408.177 7        42.918
C45        50.000                                                                                                                                    23481109.318 7 122272302.46307      2005.097 7        47.692                                                                    23481104.322 7  99356245.72507      1629.396 7        47.357
S48        51.000    77103674.287 6 405181032.64406      -501.895 6        37.656
E06        52.000    23314464.906 8 122518324.89708     -1221.211 8        48.220                                                                    23314467.265 8  91490956.61408      -912.000 8        50.573    23314466.931 8  93877676.46508      -935.733 8        51.183
C09        53.000                                                                                                                                    40848460.638 6 212708510.45606     -1138.300 6        36.276    40848467.100 6 164479662.50806      -880.184 6        40.894    40848462.049 6 172843034.91106      -924.928 6        36.552
C60        54.000                                                                                                                                    40836701.465 6 212647446.29606      -512.683 6        40.598                                                                    40836693.351 6 172793402.21606      -416.530 6        38.150
E31        55.000    23833001.124 8 125243267.51008       996.480 8        48.226                                                                    23833004.337 8  93525848.22008       744.170 8        49.745    23833003.704 8  95965649.13908       763.560 8        50.435
G07        56.000    24441233.663 6 128439432.43106     -3311.250 6        38.535                                    24441237.743 5 100082623.30205     -2580.180 5        30.445    24441237.401 6 100082632.28806     -2580.165 6        36.076
C02        57.000                                                                                                                                    40881410.402 5 212880095.51005      -560.181 5        33.066    40881415.958 6 164612339.27506      -433.396 6        37.134    40881416.498 5 172982479.91705      -455.308 5        32.904
I03        58.000    95594203.515 6 299346699.28106       846.980 6        41.058
C21        59.000                                                                                                                                    24008676.498 7 125019431.53907      1880.320 7        46.490                                                                    24008673.136 7 101588495.34007      1527.996 7        46.509
C22        60.000                                                                                                                                    21691277.753 8 112952130.98308     -1143.952 8        52.233                                                                    21691273.184 8  91782825.43808      -929.502 8        49.580
> 2025 01 02 08 30 25.0000000  0 55
E24         1.000    27395731.005 6 143965594.57106      2639.343 6        40.181                                                                    27395738.941 7 107506824.85407      1970.949 7        42.938    27395737.226 7 110311341.75907      2022.362 7        43.234
G15         2.000    21326845.502 7 112073284.19907      2122.409 7        46.851                                    21326843.921 7  87329808.52207      1653.830 7        44.752    21326844.203 7  87329803.50007      1653.936 7        43.090
E15         3.000    28429028.312 5 149395530.25005        94.415 5        35.214                                                                    28429032.802 6 111561593.15006        70.562 6        40.551    28429031.983 6 114471892.26806        72.248 6        41.340
G08         4.000    24697332.379 6 129785365.24606     -2423.679 6        38.228                                    24697337.869 5 101131474.18005     -1888.574 5        30.226    24697337.967 6 101131470.18506     -1888.765 6        36.711
S21         5.000    38388784.843 6 201734050.48706      -513.332 6        41.938
E05         6.000    24945774.484 6 131090891.23506      2008.532 6        40.932                                                                    24945778.792 7  97892522.60307      1499.919 7        44.409    24945777.805 7 100446240.12807      1539.013 7        44.698
G20         7.000    23757972.129 6 124848863.54006     -4076.973 6        41.097                                    23757974.799 3  97284777.21503     -3176.854 3        23.200
R02         8.000    19109585.545 8 101972371.06008     -1074.451 8        52.539                                                                    19109586.891 7  79311835.07907      -835.678 7        46.916
R20         9.000    23704251.469 5 126757312.30405       324.941 5        31.441                                                                    23704257.730 6  98589042.06806       252.607 6        40.074
G24        10.000    24753220.887 6 130079027.73706      3016.884 6        37.391                                    24753223.729 4 101360289.43904      2350.828 4        27.473    24753224.695 5 101360294.40005      2350.955 5        33.413
G30        11.000    21657717.514 7 113812029.09407     -2641.671 7        46.392                                    21657718.361 7  88684676.67007     -2058.441 7        46.051    21657718.795 7  88684684.66307     -2058.405 7        43.137
S27        12.000    39083053.755 5 205382725.73805      -544.837 5        35.095
G13        13.000    19862416.524 8 104377670.11108       153.692 8        48.666                                    19862413.429 6  81333219.57406       119.760 6        40.558
S36        14.000    38157991.444 7 200522073.86307      -514.138 7        43.875
I09        15.000    39911191.917 6 156619879.30306     -1046.964 6        40.145
E09        16.000    23464324.846 8 123305844.27808        48.578 8        48.466                                                                    23464326.472 8  92079028.22908        36.285 8        50.570    23464326.038 8  94481087.29208        37.216 8        51.404
S45        17.000    63339430.758 6 332851566.25606      -560.880 6        36.469
E36        18.000    28849563.853 4 151605381.43004     -3293.463 4        26.431                                                                    28849570.486 4 113211803.47804     -2458.903 4        29.791    28849568.927 4 116165156.36304     -2523.650 4        28.957
R19        19.000    24468760.183 4 130891343.08804     -3152.155 4        29.336                                                                    24468763.701 6 101804372.23506     -2451.959 6        36.495
E21        20.000    28779080.651 5 151234942.46105     -3453.428 5        31.713                                                                    28779091.598 6 112935156.27106     -2579.086 6        36.684    28779090.196 6 115881292.15206     -2646.311 6        36.979
R03        21.000    20955880.887 8 112178431.63708      2780.463 8        50.176                                                                    20955881.606 7  87249881.15707      2162.555 7        45.553
I06        22.000    38012034.857 7 149167525.72007      -457.684 7        42.931
S28        23.000    40828326.654 5 214554168.81005      -521.699 5        34.910
S23        25.000    38090648.088 7 200167640.84607      -513.338 7        43.877
R01        26.000    21693837.485 7 115965886.53707     -4390.321 7        45.061                                                                    21693842.950 6  90195654.89706     -3414.508 6        38.811
C07        27.000                                                                                                                                    38921074.346 6 202672214.62906        18.309 6        41.406    38921071.359 7 156718999.66107        14.130 7        43.918    38921069.183 6 164687753.27406        14.862 6        40.853
C40        29.000                                                                                                                                    38925193.677 7 202693682.16407        72.753 7        43.280                                                                    38925195.441 7 164705220.92007        59.035 7        42.535
G17        30.000    24306995.603 6 127734150.02306      2469.281 6        40.200                                    24307002.028 5  99533139.01305      1924.097 5        33.006    24307002.297 6  99533136.04106      1924.146 6        37.682
G14        31.000    20461483.110 8 107525820.19808      -351.090 8        48.035                                    20461481.915 6  83786352.67606      -273.574 6        40.405    20461481.973 8  83786338.67408      -273.595 8        48.076
G23        32.000    24757008.711 6 130098918.36806      2555.760 6        39.598                                    24757008.311 3 101375758.10803      1991.496 3        22.400    24757007.997 6 101375753.10306      1991.438 6        39.414
I02        33.000    37523511.017 7 147250315.27707       133.129 7        42.085
E04        34.000    24538549.714 7 128950926.49707     -2370.277 7        45.919                                                                    24538551.873 8  96294516.93308     -1770.022 8        49.240    24538551.116 8  98806545.32308     -1816.177 8        49.636
R13        35.000    20538913.298 7 109676673.51007      2362.981 7        45.812
R12        36.000    19078905.354 8 101916071.55608     -1045.990 8        52.088                                                                    19078906.778 7  79268056.61807      -813.568 7        47.482
I01        37.000   393226287.993 5 239963320.81505     -3177.407 5        33.940
C10        38.000                                                                                                                                    38949414.648 6 202819815.13506       369.004 6        40.763    38949415.492 7 156833146.01307       285.371 7        44.307    38949412.663 6 164807701.17506       299.840 6        40.722
C19        39.000                                                                                                                                    24464603.415 7 127393500.42007     -3689.356 7        45.406                                                                    24464603.555 7 103517608.85607     -2997.914 7        45.616
E34        40.000    27917936.234 6 146709697.42906     -2094.012 6        37.331                                                                    27917940.998 6 109555927.13306     -1563.736 6        39.474    27917940.221 6 112413909.34206     -1604.650 6        40.155
G05        41.000    21957804.474 7 115388985.16407     -3006.153 7        46.882                                    21957803.762 7  89913459.93807     -2342.449 7        44.775    21957804.631 7  89913468.93507     -2342.406 7        43.043
S44        42.000    40837188.699 6 214600910.17706      -517.687 6        37.085
C36        43.000                                                                                                                                    21387089.142 8 111368160.46908      -566.218 8        51.335                                                                    21387095.060 8  90495767.80408      -460.126 8        49.799
C05        44.000                                                                                                                                    39302795.417 6 204659903.87306      -569.527 6        38.024    39302797.695 7 158256017.22307      -440.367 7        43.189    39302797.967 6 166303018.03406      -462.674 6        39.694
G18        46.000    25402815.597 5 133492652.29705     -2184.936 5        34.681                                    25402814.147 2 104020223.87602     -1702.512 2        16.943    25402814.737 6 104020213.86206     -1702.651 6        37.403
R11        47.000    22367231.222 7 119523599.30407     -4383.050 7        44.888                                                                    22367233.965 6  92962782.03806     -3409.022 6        41.845
C45        50.000                                                                                                                                    23479184.685 7 122262280.96807      2003.552 7        47.511                                                                    23479179.839 7  99348102.44907      1627.986 7        47.549
S48        51.000    77104157.048 6 405183541.41106      -501.710 6        37.864
E06        52.000    23315627.691 8 122524435.58308     -1223.015 8        48.137                                                                    23315630.145 8  91495519.78008      -913.277 8        50.557    23315629.786 8  93882358.67208      -937.108 8        51.246
C09        53.000                                                                                                                                    40849552.944 6 212714201.85906     -1138.466 6        36.166    40849559.730 6 164484063.43306      -880.269 6        41.051    40849555.187 6 172847659.63606      -925.115 6        36.707
C60        54.000                                                                                                                                    40837193.884 6 212650010.66006      -512.985 6        40.520                                                                    40837185.591 6 172795485.96206      -416.999 6        38.192
E31        55.000    23832053.918 8 125238290.85108       994.207 8        48.110                                                                    23832057.351 8  93522131.88908       742.450 8        49.796    23832056.681 8  95961835.85608       761.788 8        50.465
G07        56.000    24444384.992 6 128455989.67106     -3311.665 6        38.805                                    24444388.399 5 100095524.99305     -2580.500 5        30.309    24444388.575 6 100095533.97306     -2580.448 6        36.045
C02        57.000                                                                                                                                    40881947.354 5 212882897.42405      -560.331 5        33.234    40881953.451 6 164614505.87306      -433.365 6        37.009    40881954.676 5 172984756.69705      -455.460 5        32.904
I03        58.000    95593124.480 6 299342464.98206       846.881 6        41.051
C21        59.000                                                                                                                                    24006871.816 7 125010034.82007      1878.380 7        46.508                                                                    24006868.609 7 101580859.73007      1526.376 7        46.482
C22        60.000                                                                                                                                    21692377.828 8 112957858.19408     -1146.889 8        52.344                                                                    21692373.043 8  91787479.26008      -931.948 8        49.600
> 2025 01 02 08 30 30.0000000  0 55
E24         1.000    27393219.842 6 143952398.90806      2638.882 6        39.661                                                                    27393227.917 7 107496970.95707      1970.505 7        43.120    27393226.016 7 110301230.79507      2021.905 7        43.175
G15         2.000    21324827.050 7 112062676.97307      2120.294 7        46.707                                    21324825.449 7  87321543.14707      1652.178 7        44.649    21324826.222 7  87321538.14107      1652.182 7        43.132
E15         3.000    28428939.315 5 149395064.08605        92.009 5        34.795                                                                    28428944.144 6 111561245.01206        68.764 6        40.942    28428943.351 6 114471535.04506        70.417 6        41.304
G08         4.000    24699639.415 6 129797490.52806     -2426.554 6        37.474                                    24699645.110 4 101140922.43404     -1890.819 4        29.754    24699645.883 6 101140918.43006     -1890.787 6        36.106
S21         5.000    38389276.203 7 201736617.23607      -513.506 7        42.080
E05         6.000    24943863.643 6 131080849.19306      2008.105 6        40.372                                                                    24943867.852 7  97885023.67907      1499.475 7        44.453    24943866.807 7 100438545.57607      1538.694 7        44.828
G20         7.000    23761851.364 6 124869249.86206     -4077.529 6        41.008                                    23761854.079 3  97300662.63003     -3177.281 3        23.314
R02         8.000    19110594.129 8 101977753.13608     -1078.509 8        52.126                                                                    19110595.431 7  79316021.13007      -838.923 7        46.793
R20         9.000    23703948.731 5 126755697.98405       320.635 5        32.030                                                                    23703956.526 6  98587786.48606       249.455 6        39.943
G24        10.000    24750349.800 6 130063944.38306      3016.502 6        36.208                                    24750353.390 4 101348536.12204      2350.527 4        27.365    24750354.619 5 101348541.12905      2350.667 5        32.928
G30        11.000    21660231.467 7 113825239.88207     -2642.798 7        46.597                                    21660232.285 7  88694970.77407     -2059.323 7        45.962    21660232.547 7  88694978.77307     -2059.426 7        42.667
S27        12.000    39083569.454 5 205385450.40705      -544.996 5        34.986
G13        13.000    19862271.085 8 104376907.23008       151.274 8        48.732                                    19862268.235 6  81332625.11706       117.877 6        40.479
S36        14.000    38158479.790 7 200524643.20607      -514.135 7        43.920
I09        15.000    39912526.476 6 156625113.97706     -1046.999 6        40.031
E09        16.000    23464279.413 8 123305604.74608        47.103 8        48.349                                                                    23464280.878 8  92078849.35508        35.134 8        50.636    23464280.478 8  94480903.75208        36.066 8        51.457
S45        17.000    63339925.472 6 332854369.96206      -560.743 6        36.242
E36        18.000    28852696.377 4 151621846.15104     -3293.376 4        26.299                                                                    28852703.633 4 113224098.54504     -2458.986 4        29.924    28852702.353 4 116177772.12804     -2523.105 4        28.919
R19        19.000    24471709.650 5 130907110.15705     -3154.756 5        33.359                                                                    24471708.838 5 101816635.57705     -2453.810 5        34.952
E21        20.000    28782366.845 5 151252211.90205     -3454.133 5        31.064                                                                    28782377.941 6 112948052.21906     -2579.430 6        36.715    28782376.435 6 115894524.54606     -2646.754 6        37.089
R03        21.000    20953284.032 8 112164534.25508      2778.358 8        49.997                                                                    20953285.377 7  87239072.08207      2160.932 7        45.568
I06        22.000    38012618.107 7 149169814.13907      -457.714 7        42.997
S28        23.000    40828820.424 5 214556777.11605      -521.702 5        34.357
S23        25.000    38091135.446 7 200170207.26407      -513.297 7        43.860
R01        26.000    21697943.908 7 115987842.32507     -4392.130 7        44.823                                                                    21697949.710 6  90212731.59606     -3416.316 6        38.826
C07        27.000                                                                                                                                    38921056.861 6 202672124.84406        17.379 6        41.228    38921054.072 7 156718930.21007        13.578 7        43.748    38921051.908 6 164687680.31506        14.309 6        41.025
C40        29.000                                                                                                                                    38925124.092 7 202693320.66007        71.733 7        43.209                                                                    38925125.778 7 164704927.18607        58.434 7        42.525
G17        30.000    24304646.379 6 127721805.00206      2468.613 6        39.393                                    24304652.753 5  99523519.57805      1923.583 5        32.647    24304652.692 6  99523516.60206      1923.756 6        37.187
G14        31.000    20461818.718 8 107527583.14808      -354.174 8        48.290                                    20461817.390 6  83787726.40106      -275.980 6        40.307    20461817.756 8  83787712.40008      -275.998 8        48.149
G23        32.000    24754577.665 6 130086143.75306      2553.946 6        38.562                                    24754577.278 3 101365803.83903      1990.088 3        22.152    24754576.994 6 101365798.81606      1990.331 6        39.024
I02        33.000    37523341.786 7 147249650.23907       132.907 7        42.057
E04        34.000    24540805.452 7 128962780.84107     -2371.513 7        45.899                                                                    24540807.713 8  96303369.19708     -1770.981 8        49.255    24540806.940 8  98815628.51608     -1817.212 8        49.632
R13        35.000    20536702.134 7 109664865.01307      2360.286 7        45.723
R12        36.000    19079885.809 8 101921310.06808     -1049.539 8        52.213                                                                    19079887.608 7  79272131.01107      -816.255 7        47.595
I01        37.000   393230337.169 5 239979210.13105     -3177.936 5        33.557
C10        38.000                                                                                                                                    38949060.785 6 202817971.10106       368.273 6        40.729    38949061.456 7 156831720.09407       284.888 7        44.385    38949058.656 6 164806202.77406       299.612 6        40.806
C19        39.000                                                                                                                                    24468145.972 7 127411949.74507     -3690.583 7        45.220                                                                    24468146.781 7 103532600.43407     -2998.679 7        45.702
E34        40.000    27919929.792 6 146720172.15206     -2096.163 6        36.938                                                                    27919934.248 6 109563749.15506     -1565.263 6        39.601    27919933.178 6 112421935.39406     -1605.912 6        40.343
G05        41.000    21960665.839 7 115404021.93307     -3008.724 7        47.176                                    21960665.189 7  89925176.88107     -2344.459 7        44.704    21960665.336 7  89925185.88707     -2344.476 7        42.851
S44        42.000    40837679.576 6 214603497.99606      -517.591 6        36.964
C36        43.000                                                                                                                                    21387633.647 8 111370996.46608      -568.344 8        51.301                                                                    21387639.735 8  90498072.29808      -461.656 8        49.812
C05        44.000                                                                                                                                    39303342.287 6 204662750.55006      -569.438 6        37.747    39303344.243 7 158258218.44307      -440.319 7        43.395    39303344.677 6 166305331.20006      -462.301 6        39.892
G18        46.000    25404895.457 6 133503582.14006     -2186.955 6        37.554                                    25404894.006 2 104028740.62602     -1704.119 2        17.057    25404894.397 6 104028730.63506     -1704.343 6        36.439
R11        47.000    22371332.291 7 119545516.06607     -4383.733 7        45.377                                                                    22371335.515 6  92979828.37706     -3409.617 6        41.130
C45        50.000                                                                                                                                    23477261.405 7 122252266.41207      2002.083 7        47.420                                                                    23477256.662 7  99339964.82407      1627.091 7        47.467
S48        51.000    77104639.764 6 405186049.88006      -501.854 6        37.735
E06        52.000    23316792.063 8 122530554.29508     -1224.635 8        48.074                                                                    23316794.453 8  91500088.93508      -914.482 8        50.659    23316794.132 8  93887047.02608      -938.357 8        51.248
C09        53.000                                                                                                                                    40850645.721 5 212719892.98605     -1138.282 5        35.948    40850652.389 6 164488464.18406      -880.199 6        41.006    40850648.034 6 172852284.14206      -924.761 6        36.575
C60        54.000                                                                                                                                    40837686.384 6 212652574.96406      -512.840 6        40.546                                                                    40837678.033 6 172797569.69006      -416.501 6        38.030
E31        55.000    23831109.108 8 125233324.52208       992.150 8        48.228                                                                    23831112.314 8  93518423.26208       740.822 8        49.834    23831111.642 8  95958030.48208       760.229 8        50.582
G07        56.000    24447535.884 6 128472548.48706     -3311.933 6        39.111                                    24447539.345 5 100108427.88905     -2580.709 5        30.317    24447539.423 6 100108436.87306     -2580.854 6        36.076
C02        57.000                                                                                                                                    40882485.058 5 212885699.32405      -560.598 5        33.251    40882492.210 6 164616672.45106      -433.342 6        37.293    40882492.916 5 172987033.46705      -455.146 5        32.832
I03        58.000    95592045.185 6 299338230.63106       846.735 6        41.011
C21        59.000                                                                                                                                    24005069.195 7 125000646.82807      1876.653 7        46.460                                                                    24005065.759 7 101573231.24007      1525.090 7        46.648
C22        60.000                                                                                                                                    21693480.329 8 112963599.15608     -1149.630 8        52.188                                                                    21693475.558 8  91792144.27308      -934.004 8        49.698
> 2025 01 02 08 30 35.0000000  0 55
E24         1.000    27390709.218 6 143939205.99606      2637.986 6        39.468                                                                    27390717.178 7 107487119.12707      1969.944 7        43.007    27390715.494 7 110291121.95107      2021.416 7        43.118
G15         2.000    21322810.849 7 112052080.68707      2117.985 7        46.641                                    21322809.051 7  87313286.29607      1650.376 7        44.739    21322809.319 7  87313281.30607      1650.285 7        43.064
E15         3.000    28428853.386 5 149394610.32805        89.325 5        35.667                                                                    28428857.749 6 111560906.15906        66.687 6        40.846    28428856.960 6 114471187.34706        68.509 6        41.352
G08         4.000    24701948.890 6 129809629.86006     -2429.544 6        37.811                                    24701955.133 4 101150381.63204     -1893.150 4        29.848    24701955.549 5 101150377.62505     -1893.049 5        35.962
S21         5.000    38389766.449 7 201739184.40207      -513.625 7        42.442
E05         6.000    24941953.039 6 131070809.25806      2007.583 6        40.610                                                                    24941957.339 7  97877526.31707      1499.159 7        44.476    24941956.352 7 100430852.63807      1538.211 7        44.844
G20         7.000    23765731.186 6 124889639.15606     -4078.399 6        39.979                                    23765734.249 3  97316550.35103     -3177.962 3        23.200
R02         8.000    19111605.749 8 101983155.57308     -1082.753 8        51.900                                                                    19111607.627 7  79320223.01807      -842.191 7        46.816
R20         9.000    23703649.314 5 126754104.57705       316.163 5        30.626                                                                    23703657.375 6  98586547.18706       246.078 6        39.351
G24        10.000    24747479.774 6 130048863.27706      3015.778 6        37.195                                    24747483.552 4 101336784.57204      2349.964 4        27.737    24747484.574 5 101336789.57505      2350.069 5        33.168
G30        11.000    21662746.808 7 113838457.30207     -2644.257 7        46.411                                    21662747.479 7  88705270.05007     -2060.456 7        46.086    21662747.753 7  88705278.04207     -2060.559 7        42.641
S27        12.000    39084089.602 5 205388175.32505      -545.436 5        35.467
G13        13.000    19862128.446 8 104376157.15708       148.547 8        48.791                                    19862125.497 6  81332040.64106       115.752 6        40.555
S36        14.000    38158969.754 7 200527213.46807      -514.038 7        43.852
I09        15.000    39913860.260 6 156630348.98606     -1047.137 6        40.164
E09        16.000    23464235.158 8 123305373.05308        45.366 8        48.418                                                                    23464236.810 8  92078676.33308        33.853 8        50.576    23464236.339 8  94480726.21108        34.744 8        51.448
S45        17.000    63340411.806 6 332857174.09706      -561.068 6        36.423
E36        18.000                                                                                                                                    28855836.484 4 113236394.40004     -2459.008 4        26.240    28855835.290 4 116190388.73504     -2523.736 4        26.862
R19        19.000    24474661.137 5 130922891.74405     -3157.859 5        32.425                                                                    24474659.485 6 101828910.14206     -2456.070 6        37.713
E21        20.000    28785653.335 5 151269483.75205     -3454.636 5        31.238                                                                    28785664.680 6 112960949.95906     -2579.913 6        36.355    28785663.353 6 115907758.73406     -2647.077 6        36.779
R03        21.000    20950690.651 8 112150647.75608      2775.955 8        50.911                                                                    20950691.157 7  87228271.46707      2159.054 7        45.532
I06        22.000    38013201.191 7 149172102.94607      -457.963 7        42.737
S28        23.000    40829322.113 5 214559386.09505      -522.017 5        34.710
S23        25.000    38091622.016 7 200172773.96207      -513.500 7        43.577
R01        26.000    21702052.606 7 116009808.07907     -4394.333 7        44.466                                                                    21702059.144 6  90229816.03006     -3417.898 6        39.012
C07        27.000                                                                                                                                    38921040.346 6 202672039.43606        16.426 6        41.099    38921037.853 7 156718864.16907        12.688 7        44.126    38921035.493 6 164687610.89706        13.558 6        40.973
C40        29.000                                                                                                                                    38925056.235 7 202692964.56507        70.557 7        42.965                                                                    38925057.489 7 164704637.81207        57.462 7        42.599
G17        30.000    24302297.570 6 127709462.92806      2468.020 6        39.577                                    24302303.962 5  99513902.44105      1923.120 5        32.383    24302304.207 6  99513899.45206      1923.200 6        37.085
G14        31.000    20462157.394 8 107529362.01508      -357.534 8        48.105                                    20462155.892 6  83789112.52906      -278.598 6        40.431    20462156.000 8  83789098.52608      -278.553 8        48.002
G23        32.000    24752147.603 6 130073378.23406      2552.007 6        37.921                                    24752147.948 3 101355856.66303      1988.579 3        22.438    24752147.870 6 101355851.68606      1988.473 6        39.775
I02        33.000    37523172.755 6 147248986.73206       132.400 6        41.814
E04        34.000    24543062.674 7 128974641.89907     -2373.141 7        45.831                                                                    24543064.761 8  96312226.45908     -1772.081 8        49.235    24543063.977 8  98824716.84208     -1818.367 8        49.719
R13        35.000    20534493.387 7 109653070.29807      2357.387 7        45.409
R12        36.000    19080870.073 8 101926566.64408     -1053.307 8        51.946                                                                    19080871.671 7  79276219.44907      -819.180 7        47.213
I01        37.000   393234385.953 5 239995099.57405     -3177.845 5        33.443
C10        38.000                                                                                                                                    38948707.980 6 202816131.04606       367.363 6        40.443    38948708.171 7 156830297.23807       284.150 7        44.417    38948705.184 6 164804707.56706       298.735 6        40.768
C19        39.000                                                                                                                                    24471690.305 7 127430405.23007     -3691.937 7        45.219                                                                    24471690.918 7 103547596.97907     -2999.729 7        45.770
E34        40.000    27921925.569 6 146730656.94306     -2098.180 6        37.739                                                                    27921929.507 6 109571578.67806     -1566.842 6        39.865    27921928.354 6 112429969.19906     -1607.769 6        40.315
G05        41.000    21963529.582 7 115419071.70507     -3011.427 7        46.998                                    21963529.089 7  89936903.95507     -2346.562 7        44.811    21963529.242 7  89936912.95107     -2346.630 7        42.834
S44        42.000    40838169.576 6 214606086.03406      -517.720 6        36.733
C36        43.000                                                                                                                                    21388180.399 8 111373843.32208      -570.646 8        51.304                                                                    21388186.406 8  90500385.57808      -463.490 8        49.747
C05        44.000                                                                                                                                    39303888.921 6 204665597.50206      -569.596 6        37.887    39303891.253 7 158260419.89407      -440.472 7        43.416    39303891.333 6 166307644.57606      -462.678 6        39.772
G18        46.000    25406977.439 6 133514523.74006     -2189.590 6        37.021                                    25406975.998 2 104037266.53502     -1706.180 2        16.906    25406976.567 6 104037256.55506     -1706.371 6        36.140
R11        47.000    22375434.709 7 119567437.09207     -4384.739 7        45.961                                                                    22375438.750 6  92996878.02306     -3410.361 6        41.666
C45        50.000                                                                                                                                    23475339.699 7 122242259.03607      2000.576 7        47.741                                                                    23475334.785 7  99331832.99807      1625.809 7        47.482
S48        51.000    77105120.034 6 405190158.47216      -501.941 6        37.637
E06        52.000    23317958.033 8 122536681.27108     -1226.385 8        48.208                                                                    23317960.377 8  91504664.27008      -915.827 8        50.559    23317960.068 8  93891741.71608      -939.724 8        51.295
C09        53.000                                                                                                                                    40851738.193 6 212725584.19906     -1138.455 6        36.015    40851744.834 6 164492864.95006      -880.322 6        40.555    40851740.820 6 172856908.68806      -924.812 6        36.405
C60        54.000                                                                                                                                    40838178.728 6 212655139.47206      -513.123 6        40.379                                                                    40838170.627 6 172799653.55306      -416.761 6        38.105
E31        55.000    23830166.144 8 125228368.77408       989.884 8        48.246                                                                    23830169.287 8  93514722.54408       739.199 8        49.775    23830168.655 8  95954233.22408       758.513 8        50.578
G07        56.000    24450687.815 6 128489109.13606     -3312.439 6        39.712                                    24450690.645 5 100121332.23405     -2581.114 5        30.875    24450691.203 6 100121341.20506     -2581.097 6        36.257
C02        57.000                                                                                                                                    40883025.311 5 212888501.37305      -560.607 5        33.030    40883029.892 6 164618839.18006      -433.589 6        37.002    40883030.996 5 172989310.35405      -455.186 5        33.150
I03        58.000    95590966.215 6 299333996.39606       846.697 6        40.722
C21        59.000                                                                                                                                    24003267.874 7 124991267.84707      1874.684 7        46.316                                                                    24003264.590 7 101565610.03607      1523.489 7        46.668
C22        60.000                                                                                                                                    21694585.442 8 112969354.12408     -1152.599 8        52.193                                                                    21694580.725 8  91796820.63508      -936.410 8        49.732
> 2025 01 02 08 30 40.0000000  0 55
E24         1.000    27388199.825 6 143926016.18106      2637.508 6        39.574                                                                    27388206.880 7 107477269.58707      1969.702 7        42.741    27388205.601 7 110281015.47207      2021.032 7        43.111
G15         2.000    21320796.268 7 112041495.66107      2115.822 7        46.334                                    21320794.786 7  87305038.22307      1648.693 7        44.823    21320795.136 7  87305033.22807      1648.594 7        43.033
E15         3.000    28428769.570 6 149394169.23906        87.013 6        36.125                                                                    28428774.049 6 111560576.77506        64.919 6        40.775    28428773.164 6 114470849.37906        66.492 6        41.406
G08         4.000    24704262.497 6 129821783.56506     -2432.547 6        37.611                                    24704267.918 5 101159852.02605     -1895.483 5        30.023    24704269.142 6 101159847.99506     -1895.119 6        36.420
S21         5.000    38390250.498 6 201741752.18706      -513.790 6        41.959
E05         6.000    24940043.208 6 131060771.71406      2007.272 6        40.594                                                                    24940047.265 7  97870030.75507      1498.948 7        44.527    24940046.304 7 100423161.53807      1538.024 7        44.903
G20         7.000    23769611.235 6 124910031.72506     -4078.906 6        39.171                                    23769614.772 3  97332440.61203     -3178.366 3        22.514
R02         8.000    19112622.286 8 101988578.85808     -1086.743 8        51.883                                                                    19112624.134 7  79324441.11907      -845.289 7        46.891
R20         9.000    23703356.991 5 126752532.47905       312.404 5        31.464                                                                    23703363.918 6  98585324.45206       242.925 6        40.067
G24        10.000    24744611.320 5 130033784.70805      3015.395 5        35.938                                    24744614.290 4 101325034.99604      2349.676 4        27.928    24744615.632 5 101325039.98805      2349.846 5        33.305
G30        11.000    21665262.902 7 113851681.67007     -2645.603 7        46.387                                    21665264.014 7  88715574.73307     -2061.505 7        46.134    21665264.599 7  88715582.73407     -2061.537 7        42.428
S27        12.000    39084608.655 5 205390901.25005      -545.175 5        35.648
G13        13.000    19861988.217 8 104375420.21808       145.999 8        48.539                                    19861985.267 6  81331466.39906       113.764 6        40.639
S36        14.000    38159457.823 7 200529784.02607      -513.933 7        43.746
I09        15.000    39915194.540 6 156635584.58306     -1047.272 6        40.348
E09        16.000    23464192.503 8 123305149.50108        43.821 8        48.423                                                                    23464194.284 8  92078509.38208        32.742 8        50.734    23464193.848 8  94480554.91408        33.570 8        51.498
S45        17.000    63340902.132 6 332859979.01806      -560.951 6        36.405
E36        18.000    28858963.684 3                     -3294.128 3        22.971                                                                    28858970.049 4 113248691.19404     -2459.414 4        24.256    28858968.727 4 116203006.35404     -2522.678 4        24.797
R19        19.000    24477612.765 5 130938687.95905     -3160.773 5        33.168                                                                    24477613.516 6 101841196.07106     -2458.266 6        37.403
E21        20.000    28788940.714 5 151286758.22305     -3455.385 5        30.740                                                                    28788951.879 5 112973849.67205     -2580.111 5        35.929    28788950.555 6 115920994.97906     -2647.535 6        36.817
R03        21.000    20948099.339 8 112136772.42208      2773.885 8        50.528                                                                    20948099.002 7  87217479.54707      2157.444 7        45.729
I06        22.000    38013784.393 7 149174392.39807      -457.927 7        43.065
S28        23.000    40829818.401 5 214561995.84705      -521.806 5        34.524
S23        25.000    38092113.202 7 200175341.30007      -513.644 7        43.708
R01        26.000    21706163.836 7 116031784.14107     -4396.316 7        44.655                                                                    21706170.720 6  90246908.46606     -3419.285 6        38.658
C07        27.000                                                                                                                                    38921024.913 6 202671958.73106        15.604 6        40.770    38921022.801 7 156718801.74507        12.132 7        44.175    38921020.029 6 164687545.32606        12.629 6        40.703
C40        29.000                                                                                                                                    38924988.880 7 202692614.19407        69.396 7        42.845                                                                    38924990.204 7 164704353.13207        56.389 7        42.351
G17        30.000    24299949.794 6 127697124.10406      2467.389 6        39.333                                    24299955.783 5  99504287.82605      1922.630 5        32.413    24299955.996 6  99504284.85106      1922.606 6        36.904
G14        31.000    20462498.647 7 107531157.10407      -360.724 7        47.699                                    20462497.475 6  83790511.29606      -281.084 6        40.484    20462497.682 8  83790497.29108      -281.040 8        48.260
G23        32.000    24749720.362 6 130060622.19306      2550.315 6        38.060                                    24749720.666 3 101345916.88003      1987.261 3        22.552    24749720.965 6 101345911.89806      1987.108 6        40.200
I02        33.000    37523004.140 7 147248324.91607       132.080 7        42.023
E04        34.000    24545321.086 7 128986509.91107     -2374.360 7        45.952                                                                    24545323.195 8  96321088.92608     -1773.071 8        49.295    24545322.467 8  98833810.50308     -1819.368 8        49.729
R13        35.000    20532287.084 7 109641289.57407      2354.615 7        45.777
R12        36.000    19081857.181 8 101931841.48808     -1056.899 8        51.982                                                                    19081859.105 7  79280322.10607      -822.004 7        47.696
I01        37.000   393238435.090 5 240010989.40805     -3178.213 5        33.299
C10        38.000                                                                                                                                    38948355.130 6 202814295.26706       366.673 6        40.257    38948355.612 7 156828877.70607       283.515 7        44.409    38948352.727 6 164803215.87606       297.907 6        40.579
C19        39.000                                                                                                                                    24475235.769 7 127448867.17507     -3693.110 7        45.174                                                                    24475236.421 7 103562598.81807     -3001.019 7        45.714
E34        40.000    27923922.731 6 146741152.10706     -2100.274 6        37.856                                                                    27923926.512 6 109579415.95606     -1568.276 6        39.910    27923925.624 6 112438010.91306     -1609.168 6        40.312
G05        41.000    21966395.823 7 115434134.77407     -3013.981 7        46.481                                    21966395.501 7  89948641.39607     -2348.554 7        44.864    21966395.792 7  89948650.39507     -2348.574 7        42.294
S44        42.000    40838662.246 6 214608674.58106      -517.700 6        36.775
C36        43.000                                                                                                                                    21388729.217 8 111376701.33708      -572.770 8        51.174                                                                    21388735.290 8  90502707.98008      -465.486 8        49.644
C05        44.000                                                                                                                                    39304435.782 6 204668445.06806      -569.504 6        37.671    39304438.114 7 158262621.81807      -440.520 7        43.520    39304438.235 6 166309958.49006      -462.961 6        39.640
G18        46.000    25409061.361 6 133525477.36506     -2191.967 6        36.181                                    25409060.386 2 104045801.79602     -1708.065 2        16.717    25409060.993 5 104045791.83405     -1708.198 5        35.905
R11        47.000    22379538.100 7 119589362.65307     -4385.636 7        45.663                                                                    22379542.104 7  93013931.22007     -3411.056 7        42.415
C45        50.000                                                                                                                                    23473419.254 7 122232259.16207      1999.209 7        47.719                                                                    23473414.414 7  99323707.32007      1624.469 7        47.420
S48        51.000    77105602.697 6 405192667.55306      -501.867 6        37.807
E06        52.000    23319125.778 8 122542816.85608     -1228.129 8        48.196                                                                    23319127.970 8  91509246.02308      -917.013 8        50.684    23319127.663 8  93896442.99508      -940.976 8        51.299
C09        53.000                                                                                                                                    40852831.646 6 212731275.67506     -1138.308 6        36.200    40852837.178 6 164497265.93906      -880.160 6        40.272    40852834.033 6 172861533.47906      -924.961 6        36.560
C60        54.000                                                                                                                                    40838671.188 6 212657704.49006      -513.101 6        40.472                                                                    40838663.114 6 172801737.85206      -416.942 6        38.057
E31        55.000    23829225.148 8 125223423.95508       987.767 8        48.180                                                                    23829228.307 8  93511029.97008       737.647 8        49.918    23829227.691 8  95950444.32508       756.923 8        50.583
G07        56.000    24453839.571 6 128505671.91006     -3312.963 6        39.775                                    24453842.491 5 100134238.22805     -2581.521 5        31.200    24453842.787 6 100134247.21006     -2581.510 6        36.193
C02        57.000                                                                                                                                    40883563.314 5 212891303.96805      -560.686 5        32.748    40883567.828 6 164621006.34406      -433.715 6        36.862    40883569.299 5 172991587.74305      -455.746 5        32.970
I03        58.000    95589887.440 6 299329762.51806       846.755 6        40.961
C21        59.000                                                                                                                                    24001468.830 7 124981898.19407      1872.911 7        46.341                                                                    24001465.261 7 101557996.44707      1521.891 7        46.449
C22        60.000                                                                                                                                    21695693.331 8 112975123.40908     -1155.345 8        52.098                                                                    21695688.655 8  91801508.67308      -938.839 8        49.570
> 2025 01 02 08 30 45.0000000  0 55
E24         1.000    27385690.771 6 143912829.01406      2637.089 6        40.007                                                                    27385697.135 7 107467422.04707      1969.311 7        42.258    27385696.277 7 110270911.03607      2020.754 7        43.043
G15         2.000    21318784.087 7 112030921.45907      2113.682 7        46.159                                    21318782.587 7  87296798.58207      1647.025 7        44.965    21318783.107 7  87296793.56707      1647.157 7        43.191
E15         3.000    28428687.822 6 149393740.49406        84.317 6        36.030                                                                    28428692.367 6 111560256.58206        63.079 6        40.799    28428691.638 6 114470520.82906        64.831 6        41.538
G08         4.000    24706577.760 6 129833951.11106     -2435.087 6        36.677                                    24706583.432 4 101169333.22104     -1897.461 4        29.877    24706584.444 6 101169329.21306     -1897.094 6        36.401
S21         5.000    38390739.393 7 201744320.47907      -513.690 7        42.163
E05         6.000    24938133.479 6 131050736.17606      2006.916 6        40.157                                                                    24938137.529 7  97862536.68907      1498.642 7        44.417    24938136.595 7 100415471.97407      1537.810 7        44.754
G20         7.000    23773492.472 6 124930427.14906     -4079.271 6        39.072                                    23773495.966 3  97348333.09903     -3178.643 3        22.819
R02         8.000    19113643.015 8 101994022.30408     -1090.765 8        52.064                                                                    19113644.453 7  79328674.90207      -848.390 7        47.316
R20         9.000    23703066.404 5 126750981.23205       307.837 5        30.672                                                                    23703073.960 6  98584117.93706       239.714 6        40.038
G24        10.000    24741741.857 5 130018708.26105      3014.930 5        35.748                                    24741745.378 4 101313287.07304      2349.306 4        27.904    24741746.520 5 101313292.04505      2349.488 5        33.389
G30        11.000    21667780.637 7 113864912.54007     -2646.799 7        46.335                                    21667781.802 7  88725884.48007     -2062.438 7        46.275    21667782.184 7  88725892.47507     -2062.422 7        42.590
S27        12.000    39085124.747 5 205393627.39205      -545.132 5        35.410
G13        13.000    19861850.373 8 104374695.97508       143.527 8        48.473                                    19861847.492 6  81330902.04806       111.840 6        40.744
S36        14.000    38159946.920 7 200532354.20007      -514.222 7        43.884
I09        15.000    39916529.050 6 156640820.43706     -1047.149 6        40.601
E09        16.000    23464151.489 8 123304933.66608        42.382 8        48.216                                                                    23464153.191 8  92078348.20508        31.652 8        50.551    23464152.782 8  94480389.53008        32.486 8        51.360
S45        17.000    63341395.737 6 332862784.09306      -561.112 6        36.450
E36        18.000    28862096.387 3                     -3293.866 3        19.821                                                                    28862103.597 3                     -2458.074 3        20.690    28862103.075 3                     -2523.267 3        20.857
R19        19.000    24480567.439 5 130954498.73805     -3163.617 5        30.211                                                                    24480569.030 6 101853493.31606     -2460.636 6        37.244
E21        20.000    28792228.955 5 151304034.97205     -3455.922 5        30.174                                                                    28792239.796 6 112986751.07706     -2580.617 6        36.060    28792238.246 6 115934232.94206     -2647.710 6        36.688
R03        21.000    20945508.559 8 112122907.92008      2771.812 8        50.576                                                                    20945509.131 7  87206696.03807      2155.887 7        45.383
I06        22.000    38014368.316 7 149176682.15307      -457.935 7        42.809
S28        23.000    40830314.966 5 214564606.13305      -522.038 5        34.481
S23        25.000    38092598.753 7 200177908.98607      -513.582 7        44.014
R01        26.000    21710277.347 7 116053770.04207     -4398.129 7        45.061                                                                    21710283.644 6  90264008.54906     -3420.697 6        39.153
C07        27.000                                                                                                                                    38921010.027 6 202671882.24206        14.940 6        40.832    38921007.811 7 156718742.58907        11.505 7        44.218    38921005.237 6 164687483.16206        12.106 6        40.880
C40        29.000                                                                                                                                    38924922.663 7 202692269.11507        68.414 7        42.756                                                                    38924923.890 7 164704072.70807        55.563 7        42.396
G17        30.000    24297602.082 6 127684788.11406      2466.931 6        39.072                                    24297608.208 5  99494675.42105      1922.270 5        32.611    24297609.113 6  99494672.44506      1922.226 6        37.732
G14        31.000    20462843.496 7 107532967.97107      -363.768 7        47.564                                    20462842.080 6  83791922.35806      -283.455 6        40.658    20462842.303 8  83791908.35708      -283.433 8        48.207
G23        32.000    24747295.685 6 130047875.20606      2548.553 6        38.426                                    24747295.290 3 101335984.14403      1985.902 3        23.486    24747295.208 6 101335979.15006      1985.804 6        39.862
I02        33.000    37522835.581 6 147247664.50106       131.981 6        41.936
E04        34.000    24547580.832 7 128998384.51107     -2375.572 7        45.538                                                                    24547582.938 8  96329956.30908     -1773.986 8        49.162    24547582.171 8  98842909.20708     -1820.217 8        49.605
R13        35.000    20530083.590 7 109629522.20907      2352.130 7        45.568
R12        36.000    19082847.827 8 101937134.24408     -1060.364 8        51.846                                                                    19082850.152 7  79284438.68807      -824.715 7        47.969
I01        37.000   393242484.576 5 240026879.25005     -3177.863 5        33.509
C10        38.000                                                                                                                                    38948002.608 6 202812463.30006       365.926 6        40.286    38948003.569 7 156827461.10007       283.065 7        44.539    38948000.887 6 164801727.23206       297.336 6        40.451
C19        39.000                                                                                                                                    24478782.195 7 127467335.12607     -3694.194 7        45.634                                                                    24478783.150 7 103577605.50807     -3001.869 7        45.914
E34        40.000    27925921.634 6 146751657.17606     -2101.943 6        37.535                                                                    27925925.500 6 109587260.62506     -1569.611 6        39.841    27925924.871 6 112446060.24406     -1610.666 6        40.362
G05        41.000    21969264.762 7 115449210.63207     -3016.435 7        46.073                                    21969264.325 7  89960388.79707     -2350.466 7        44.999    21969264.518 7  89960397.79507     -2350.418 7        42.643
S44        42.000    40839157.461 6 214611263.20806      -517.790 6        37.055
C36        43.000                                                                                                                                    21389280.147 8 111379570.09208      -574.847 8        51.071                                                                    21389286.190 8  90505039.06008      -467.106 8        49.617
C05        44.000                                                                                                                                    39304982.434 6 204671292.84606      -569.629 6        37.777    39304984.774 7 158264823.88607      -440.403 7        43.496    39304985.293 6 166312272.53806      -462.985 6        39.721
G18        46.000    25411149.088 5 133536442.63805     -2194.192 5        34.929                                    25411147.011 2 104054346.16802     -1709.751 2        16.453    25411147.596 5 104054336.16005     -1709.796 5        35.010
R11        47.000    22383641.201 7 119611292.30007     -4386.390 7        44.922                                                                    22383645.616 7  93030987.59007     -3411.659 7        43.014
C45        50.000                                                                                                                                    23471499.941 7 122222266.37007      1997.829 7        47.558                                                                    23471495.448 7  99315587.35207      1623.351 7        47.419
S48        51.000    77106083.190 6 405195177.03306      -502.029 6        37.622
E06        52.000    23320294.904 8 122548960.58608     -1229.567 8        48.107                                                                    23320297.035 8  91513833.86208      -918.125 8        50.524    23320296.750 8  93901150.51708      -942.091 8        51.141
C09        53.000                                                                                                                                    40853924.750 6 212736967.07006     -1138.368 6        36.034    40853930.440 6 164501666.87106      -880.032 6        39.826    40853927.088 6 172866158.19306      -925.002 6        36.560
C60        54.000                                                                                                                                    40839163.867 6 212660269.58106      -512.964 6        40.513                                                                    40839155.717 6 172803822.20106      -417.073 6        38.087
E31        55.000    23828286.281 8 125218489.60408       985.843 8        48.339                                                                    23828289.359 8  93507345.23208       736.151 8        49.816    23828288.735 8  95946663.46308       755.366 8        50.441
G07        56.000    24456991.498 6 128522236.39806     -3313.168 6        39.805                                    24456994.726 5 100147145.55105     -2581.681 5        31.638    24456994.724 6 100147154.50906     -2581.598 6        36.276
C02        57.000                                                                                                                                    40884101.102 5 212894106.67805      -560.463 5        32.976    40884106.538 6 164623173.55106      -433.363 6        36.994    40884107.293 5 172993865.12405      -455.525 5        32.892
I03        58.000    95588808.515 6 299325528.67706       846.762 6        40.973
C21        59.000                                                                                                                                    23999671.118 7 124972537.44907      1871.198 7        46.153                                                                    23999667.584 7 101550390.06607      1520.458 7        46.444
C22        60.000                                                                                                                                    21696804.047 8 112980906.58708     -1158.071 8        52.108                                                                    21696799.240 8  91806207.96208      -941.054 8        49.595
> 2025 01 02 08 30 50.0000000  0 55
E24         1.000    27383181.626 6 143899644.17306      2636.682 6        40.341                                                                    27383188.147 7 107457576.22707      1969.064 7        42.265    27383187.286 7 110260808.36807      2020.477 7        43.166
G15         2.000    21316773.718 7 112020357.73007      2111.645 7        45.931                                    21316772.379 7  87288567.10007      1645.437 7        44.930    21316772.760 7  87288562.10207      1645.418 7        42.976
E15         3.000    28428608.373 5 149393323.69605        82.015 5        35.967                                                                    28428613.076 6 111559945.30206        61.370 6        41.123    28428612.358 6 114470201.43706        62.932 6        41.752
G08         4.000    24708895.520 6 129846132.25306     -2437.691 6        37.119                                    24708901.450 4 101178824.99804     -1899.496 4        29.877    24708901.750 5 101178820.98805     -1899.510 5        35.905
S21         5.000    38391233.168 7 201746888.68307      -513.714 7        42.163
E05         6.000    24936224.041 6 131040702.27506      2006.583 6        39.949                                                                    24936228.131 7  97855043.84307      1498.442 7        44.482    24936227.253 7 100407783.66007      1537.607 7        44.778
G20         7.000    23777374.883 6 124950825.04506     -4079.957 6        39.898                                    23777377.594 3  97364227.52703     -3179.176 3        22.895
R02         8.000    19114666.431 8 101999485.67008     -1094.744 8        51.855                                                                    19114668.155 7  79332924.17507      -851.450 7        47.016
R20         9.000    23702780.008 5 126749450.52505       304.010 5        30.468                                                                    23702788.126 6  98582927.36306       236.485 6        39.393
G24        10.000    24738873.754 6 130003633.55506      3014.865 6        36.204                                    24738876.854 4 101301540.51304      2349.246 4        27.737    24738878.297 5 101301545.51205      2349.127 5        34.705
G30        11.000    21670299.718 7 113878149.56807     -2648.021 7        46.525                                    21670300.747 7  88736199.03107     -2063.392 7        46.216    21670301.260 7  88736207.03007     -2063.345 7        42.552
S27        12.000    39085643.048 5 205396353.18605      -545.277 5        35.181
G13        13.000    19861715.101 8 104373984.09708       141.101 8        48.604                                    19861712.015 6  81330347.33306       109.948 6        40.725
S36        14.000    38160434.564 7 200534924.22407      -514.027 7        43.884
I09        15.000    39917863.251 6 156646056.27206     -1047.199 6        40.741
E09        16.000    23464111.980 8 123304725.21408        40.832 8        48.282                                                                    23464113.582 8  92078192.53608        30.493 8        50.621    23464113.088 8  94480229.79808        31.361 8        51.278
S45        17.000    63341884.056 6 332863889.06016      -560.951 6        36.363
E36        18.000                                                                                                                                    28865238.267 3                     -2457.817 3        19.194    28865239.368 3                     -2523.700 3        18.627
R19        19.000    24483524.641 5 130970323.38905     -3166.396 5        30.619                                                                    24483527.539 6 101865801.43506     -2462.845 6        37.588
E21        20.000    28795516.813 5 151321313.55405     -3455.770 5        30.800                                                                    28795527.777 6 112999653.86906     -2580.739 6        36.250    28795526.401 6 115947472.33706     -2647.969 6        36.949
R03        21.000    20942920.727 8 112109053.75108      2769.800 8        50.705                                                                    20942920.940 7  87195920.57807      2154.304 7        45.381
I06        22.000    38014951.394 7 149178971.97107      -457.946 7        42.933
S28        23.000    40830808.508 5 214567216.13505      -522.185 5        34.933
S23        25.000    38093086.705 7 200180476.64907      -513.532 7        43.579
R01        26.000    21714392.665 7 116075765.48007     -4399.993 7        44.745                                                                    21714397.858 6  90281116.05906     -3422.212 6        38.979
C07        27.000                                                                                                                                    38920995.485 6 202671809.71706        13.989 6        40.398    38920993.761 7 156718686.49107        10.944 7        44.080    38920991.305 6 164687424.22906        11.351 6        40.901
C40        29.000                                                                                                                                    38924857.108 7 202691928.96507        67.479 7        42.700                                                                    38924858.613 7 164703796.31707        54.905 7        42.417
G17        30.000    24295255.386 6 127672454.69106      2466.314 6        39.661                                    24295261.157 5  99485065.02305      1921.794 5        32.802    24295261.688 6  99485062.05306      1921.679 6        37.414
G14        31.000    20463191.022 7 107534794.28407      -366.848 7        47.857                                    20463189.628 6  83793345.45906      -285.855 6        40.605    20463189.700 8  83793331.45708      -285.810 8        48.183
G23        32.000    24744871.568 6 130035136.90706      2546.702 6        37.732                                    24744871.295 3 101326058.17803      1984.456 3        22.933    24744871.086 6 101326053.19306      1984.544 6        39.378
I02        33.000    37522667.741 7 147247005.13007       131.594 7        42.119
E04        34.000    24549841.540 7 129010265.30707     -2376.799 7        45.526                                                                    24549843.831 8  96338828.31308     -1774.849 8        49.220    24549843.066 8  98852012.66008     -1821.130 8        49.615
R13        35.000    20527882.473 7 109617768.18307      2349.434 7        46.105
R12        36.000    19083842.089 8 101942444.48508     -1063.831 8        51.994                                                                    19083843.947 7  79288568.87407      -827.420 7        47.756
I01        37.000   393246533.644 5 240042768.88605     -3177.815 5        33.036
C10        38.000                                                                                                                                    38947651.028 6 202810634.75906       365.395 6        40.026    38947652.779 7 156826047.17907       282.412 7        44.390    38947649.785 6 164800241.41806       296.799 6        40.551
C19        39.000                                                                                                                                    24482330.117 7 127485808.75807     -3695.336 7        45.734                                                                    24482330.933 7 103592616.82307     -3002.694 7        45.982
E34        40.000    27927922.233 6 146762171.84406     -2103.927 6        38.003                                                                    27927926.281 6 109595112.45306     -1571.086 6        39.997    27927925.703 6 112454116.90506     -1612.084 6        40.243
G05        41.000    21972136.076 7 115464298.96007     -3018.960 7        46.081                                    21972135.558 7  89972145.91807     -2352.434 7        44.913    21972136.353 7  89972154.91007     -2352.343 7        42.489
S44        42.000    40839649.160 6 214613851.60606      -517.960 6        36.858
C36        43.000                                                                                                                                    21389833.052 8 111382449.22008      -576.887 8        51.031                                                                    21389839.102 8  90507378.59208      -468.749 8        49.694
C05        44.000                                                                                                                                    39305529.134 6 204674140.46706      -569.558 6        37.599    39305531.708 7 158267025.84207      -440.369 7        43.490    39305532.266 6 166314586.45206      -462.797 6        39.784
G18        46.000    25413237.928 6 133547419.10706     -2196.519 6        36.953                                    25413235.916 2 104062899.26002     -1711.557 2        16.943    25413235.816 5 104062889.23505     -1711.397 5        35.967
R11        47.000    22387745.455 7 119633225.64607     -4387.078 7        45.407                                                                    22387749.961 7  93048046.82907     -3412.127 7        42.863
C45        50.000                                                                                                                                    23469582.405 7 122212280.31907      1996.524 7        47.249                                                                    23469577.751 7  99307472.87407      1622.326 7        47.512
S48        51.000    77106566.962 6 405197686.76306      -502.065 6        37.312
E06        52.000    23321465.265 8 122555112.14508     -1231.104 8        48.111                                                                    23321467.668 8  91518427.55208      -919.370 8        50.632    23321467.349 8  93905864.04508      -943.325 8        51.120
C09        53.000                                                                                                                                    40855017.653 5 212742658.03205     -1138.266 5        35.967    40855023.773 6 164506067.48006      -880.288 6        39.495    40855020.112 6 172870782.54506      -924.628 6        36.510
C60        54.000                                                                                                                                    40839656.613 6 212662834.41906      -512.988 6        40.448                                                                    40839648.319 6 172805906.33606      -416.764 6        38.081
E31        55.000    23827349.053 8 125213565.39408       983.747 8        48.230                                                                    23827352.315 8  93503668.05708       734.622 8        49.837    23827351.670 8  95942890.36108       753.790 8        50.416
G07        56.000    24460143.980 6 128538802.22606     -3313.286 6        39.988                                    24460147.206 5 100160053.92805     -2581.771 5        31.781    24460147.528 5 100160062.91005     -2581.965 5        35.962
C02        57.000                                                                                                                                    40884639.168 5 212896909.16105      -560.370 5        33.108    40884644.509 6 164625340.60206      -433.344 6        37.221    40884645.623 5 172996142.39205      -455.542 5        32.647
I03        58.000    95587729.426 6 299321294.61006       846.806 6        40.892
C21        59.000                                                                                                                                    23997875.106 7 124963185.28207      1869.476 7        46.249                                                                    23997871.652 7 101542790.67107      1519.137 7        46.488
C22        60.000                                                                                                                                    21697917.330 8 112986703.32508     -1160.754 8        51.944                                                                    21697912.447 8  91810918.27908      -943.116 8        49.633
> 2025 01 02 08 30 55.0000000  0 54
E24         1.000    27380672.973 6 143886461.88706      2636.099 6        40.174                                                                    27380679.688 7 107447732.31507      1968.588 7        42.025    27380678.837 7 110250707.66507      2019.917 7        43.251
G15         2.000    21314765.774 7 112009804.68607      2109.567 7        46.261                                    21314764.195 7  87280343.94807      1643.819 7        44.804    21314764.639 7  87280338.93207      1643.823 7        43.054
E15         3.000    28428531.241 5 149392919.00905        79.548 5        35.462                                                                    28428535.984 6 111559643.09306        59.401 6        40.813    28428535.309 6 114469891.34106        61.099 6        41.533
G08         4.000    24711216.366 6 129858327.12706     -2440.319 6        36.798                                    24711221.882 4 101188327.46704     -1901.546 4        29.355    24711222.933 6 101188323.46906     -1901.612 6        36.113
S21         5.000    38391722.663 7 201749456.83207      -513.584 7        42.408
E05         6.000    24934315.282 6 131030670.22206      2006.248 6        40.288                                                                    24934319.062 7  97847552.37607      1498.106 7        44.477    24934318.199 7 100400096.76107      1537.282 7        44.807
G20         7.000    23781256.915 6 124971225.52706     -4080.330 6        40.126                                    23781259.767 3  97380123.97103     -3179.476 3        23.124
R02         8.000    19115694.542 8 102004969.23808     -1098.695 8        52.129                                                                    19115695.703 7  79337189.16107      -854.587 7        46.871
R20         9.000    23702497.439 5 126747940.49705       299.617 5        30.838                                                                    23702505.608 6  98581752.91906       233.300 6        39.670
G24        10.000    24736005.705 6 129988560.87506      3014.124 6        36.836                                    24736008.858 4 101289795.53004      2348.677 4        27.509    24736009.782 5 101289800.50505      2348.930 5        34.205
G30        11.000    21672820.109 7 113891392.93507     -2649.274 7        46.212                                    21672820.877 7  88746518.52107     -2064.367 7        46.091    21672821.629 7  88746526.52007     -2064.437 7        42.709
S27        12.000    39086160.652 5 205399079.20105      -545.356 5        35.514
G13        13.000    19861581.945 8 104373284.82208       138.572 8        48.366                                    19861578.935 6  81329802.43706       107.980 6        40.582
S36        14.000    38160925.356 7 200537494.05607      -514.028 7        44.114
I09        15.000    39919197.758 6 156651292.25006     -1047.333 6        40.899
E09        16.000    23464073.834 8 123304524.32808        39.386 8        48.200                                                                    23464075.327 8  92078042.51508        29.414 8        50.523    23464074.862 8  94480075.86508        30.200 8        51.315
S45        17.000    63342373.533 6 332866694.08006      -561.245 6        36.068
R19        19.000    24486486.585 4 130986162.23704     -3169.130 4        28.815                                                                    24486489.396 6 101878120.50106     -2465.003 6        36.752
E21        20.000    28798804.807 5 151338594.21705     -3455.939 5        30.641                                                                    28798816.357 5 113012558.19205     -2580.811 5        35.933    28798814.808 6 115960713.30406     -2648.273 6        36.779
R03        21.000    20940334.187 8 112095210.28608      2767.580 8        50.149                                                                    20940335.148 7  87185153.43407      2152.555 7        45.386
I06        22.000    38015535.416 7 149181262.00507      -458.119 7        43.039
S28        23.000    40831309.642 5 214569826.24005      -522.033 5        34.519
S23        25.000    38093577.090 7 200183044.42007      -513.561 7        43.998
R01        26.000    21718508.899 7 116097770.52107     -4401.935 7        45.093                                                                    21718513.748 6  90298231.07206     -3423.933 6        38.456
C07        27.000                                                                                                                                    38920982.410 6 202671741.32106        12.980 6        40.379    38920980.752 7 156718633.57407        10.230 7        44.095    38920978.274 6 164687368.61406        10.643 6        40.963
C40        29.000                                                                                                                                    38924793.101 7 202691593.97107        66.388 7        42.827                                                                    38924794.492 7 164703524.09807        53.859 7        42.582
G17        30.000    24292908.722 6 127660123.98406      2465.886 6        39.483                                    24292914.659 5  99475456.72905      1921.459 5        32.838    24292914.805 6  99475453.75606      1921.452 6        37.233
G14        31.000    20463541.638 8 107536636.22808      -369.981 8        48.015                                    20463540.150 6  83794780.73706      -288.298 6        40.498    20463540.240 8  83794766.73008      -288.273 8        48.377
G23        32.000    24742449.552 6 130022407.53306      2544.946 6        37.777                                    24742448.762 3 101316139.17403      1983.084 3        22.457    24742448.532 6 101316134.17006      1983.074 6        39.138
I02        33.000    37522499.886 7 147246346.95407       131.427 7        42.428
E04        34.000    24552103.602 7 129022152.52107     -2378.118 7        45.543                                                                    24552105.848 8  96347705.11508     -1775.834 8        49.055    24552105.146 8  98861121.03108     -1822.144 8        49.624
R13        35.000    20525683.522 7 109606027.34207      2346.847 7        45.789
R12        36.000    19084839.573 8 101947772.50808     -1067.365 8        52.057                                                                    19084841.217 7  79292712.88807      -830.188 7        47.451
I01        37.000   393250582.476 5 240058658.44305     -3177.898 5        33.012
C10        38.000                                                                                                                                    38947301.364 6 202808809.90306       364.510 6        40.248    38947302.165 7 156824636.08207       281.953 7        44.479    38947299.183 6 164798758.57506       296.023 6        40.658
C19        39.000                                                                                                                                    24485879.020 7 127504288.25607     -3696.523 7        45.356                                                                    24485879.611 7 103607632.88507     -3003.823 7        46.069
E34        40.000    27929925.321 6 146772696.26806     -2105.907 6        38.171                                                                    27929929.007 6 109602971.60106     -1572.673 6        39.577    27929928.419 6 112462181.05606     -1613.629 6        40.215
G05        41.000    21975009.790 7 115479399.96707     -3021.497 7        46.319                                    21975009.170 7  89983912.91407     -2354.409 7        44.781    21975009.844 7  89983921.91007     -2354.346 7        42.415
S44        42.000    40840139.778 6 214616439.85506      -517.777 6        36.953
C36        43.000                                                                                                                                    21390388.164 8 111385338.92808      -579.011 8        51.149                                                                    21390394.032 8  90509726.70808      -470.678 8        49.776
C05        44.000                                                                                                                                    39306075.696 6 204676988.12206      -569.546 6        37.361    39306078.618 7 158269227.82707      -440.414 7        43.488    39306079.011 6 166316900.40406      -463.001 6        39.889
G18        46.000    25415328.081 6 133558406.95706     -2198.626 6        36.284                                    25415326.748 2 104071461.20502     -1713.235 2        17.623    25415327.073 5 104071451.20705     -1713.070 5        35.371
R11        47.000    22391851.445 7 119655162.88407     -4387.828 7        45.983                                                                    22391855.007 7  93065109.09307     -3412.712 7        42.675
C45        50.000                                                                                                                                    23467665.710 7 122202301.19907      1995.067 7        47.340                                                                    23467661.333 7  99299364.01707      1621.093 7        47.585
S48        51.000    77107052.441 6 405200196.25106      -501.984 6        37.758
E06        52.000    23322637.365 8 122561271.70308     -1232.702 8        48.066                                                                    23322639.808 8  91523027.21308      -920.548 8        50.550    23322639.506 8  93910583.69708      -944.538 8        51.101
C09        53.000                                                                                                                                    40856111.129 6 212748348.76206     -1138.240 6        36.163    40856116.590 6 164510467.86906      -880.084 6        39.553    40856112.876 6 172875406.68606      -925.055 6        36.465
C60        54.000                                                                                                                                    40840149.023 6 212665399.17706      -512.973 6        40.329                                                                    40840140.726 6 172807990.41406      -417.046 6        37.970
E31        55.000    23826413.919 8 125208651.51108       981.651 8        48.168                                                                    23826417.153 8  93499998.59308       733.087 8        49.778    23826416.628 8  95939125.17408       752.230 8        50.428
G07        56.000    24463296.520 6 128555369.61506     -3313.659 6        40.007                                    24463299.986 5 100172963.51805     -2582.066 5        31.555    24463300.737 6 100172972.50206     -2582.137 6        36.197
C02        57.000                                                                                                                                    40885177.708 5 212899711.65205      -560.478 5        33.000    40885182.423 6 164627507.63706      -433.357 6        37.304    40885183.733 5 172998419.58305      -455.316 5        33.060
I03        58.000    95586650.661 6 299317060.48606       846.721 6        41.004
C21        59.000                                                                                                                                    23996080.804 7 124953841.89007      1867.763 7        46.222                                                                    23996077.359 7 101535198.39807      1517.498 7        46.685
C22        60.000                                                                                                                                    21699032.937 8 112992513.78908     -1163.513 8        51.963                                                                    21699028.281 8  91815639.74408      -945.623 8        49.778
> 2025 01 02 08 31  0.0000000  0 55
E24         1.000    27378164.246 6 143873282.38006      2635.781 6        39.252                                                                    27378171.907 6 107437890.49306      1968.216 6        41.990    27378170.949 7 110240609.09507      2019.611 7        43.407
G15         2.000    21312760.028 7 111999262.68907      2107.296 7        46.117                                    21312758.114 7  87272129.40007      1642.049 7        44.746    21312758.390 7  87272124.40207      1642.084 7        42.897
E15         3.000    28428456.560 5 149392526.77705        77.256 5        35.867                                                                    28428461.415 6 111559350.18306        57.657 6        40.801    28428460.571 6 114469590.78306        59.259 6        41.683
G08         4.000    24713539.967 6 129870536.00806     -2443.035 6        36.673                                    24713545.140 4 101197840.87304     -1903.664 4        28.948    24713545.461 5 101197836.86605     -1903.594 5        35.957
S21         5.000    38392205.723 7 201752025.06607      -513.633 7        42.265
E05         6.000    24932406.987 6 131020640.30306      2005.814 6        40.136                                                                    24932410.484 7  97840062.50007      1497.821 7        44.289    24932409.487 7 100392411.49607      1536.966 7        44.847
G20         7.000    23785139.433 6 124991628.96906     -4080.939 6        39.450                                    23785142.647 3  97396022.70103     -3179.930 3        23.352
R02         8.000    19116725.633 8 102010473.22108     -1102.808 8        52.110                                                                    19116727.382 7  79341470.03107      -857.741 7        46.787
R20         9.000    23702218.304 5 126746451.50505       295.480 5        31.079                                                                    23702227.678 6  98580594.82206       230.035 6        39.967
G24        10.000    24733137.737 6 129973490.45206      3013.833 6        36.087                                    24733141.086 4 101278052.30804      2348.452 4        27.425    24733141.382 5 101278057.27805      2348.347 5        33.317
G30        11.000    21675341.386 7 113904642.92807     -2650.598 7        46.209                                    21675342.273 7  88756843.17007     -2065.399 7        45.977    21675342.736 7  88756851.17007     -2065.526 7        42.923
S27        12.000    39086679.468 5 205401805.54305      -545.229 5        35.733
G13        13.000    19861451.244 8 104372598.46108       136.012 8        48.386                                    19861448.323 6  81329267.60506       105.984 6        40.503
S36        14.000    38161417.476 7 200540064.78207      -513.998 7        44.221
I09        15.000    39920531.933 6 156656528.59006     -1047.240 6        40.639
E09        16.000    23464037.000 8 123304331.31908        37.888 8        48.216                                                                    23464038.627 8  92077898.37908        28.270 8        50.441    23464038.141 8  94479927.96908        29.043 8        51.270
S45        17.000    63342859.791 6 332869499.35506      -560.908 6        36.212
E36        18.000                                                                                                                                    28871505.979 3                     -2459.626 3        19.313    28871505.605 3                     -2524.903 3        20.024
R19        19.000    24489450.969 5 131002015.49405     -3172.095 5        32.371                                                                    24489451.533 5 101890450.92605     -2467.258 5        34.238
E21        20.000    28802094.479 5 151355877.24305     -3456.820 5        30.626                                                                    28802105.133 5 113025464.29105     -2581.298 5        35.562    28802103.799 6 115973956.11706     -2648.917 6        36.503
R03        21.000    20937750.040 8 112081377.58408      2765.503 8        50.321                                                                    20937750.591 7  87174394.65607      2150.988 7        44.661
I06        22.000    38016119.084 7 149183552.43807      -458.153 7        42.821
S28        23.000    40831806.699 5 214572436.42005      -522.163 5        34.843
S23        25.000    38094065.879 7 200185612.57707      -513.636 7        44.059
R01        26.000    21722626.791 7 116119785.45007     -4403.860 7        44.713                                                                    21722632.020 6  90315353.72806     -3425.185 6        38.661
C07        27.000                                                                                                                                    38920969.866 6 202671677.24806        12.539 6        40.088    38920967.992 7 156718584.04307         9.635 7        44.017    38920965.922 6 164687316.58506        10.073 6        40.944
C40        29.000                                                                                                                                    38924729.723 7 202691264.39107        65.444 7        43.173                                                                    38924731.217 7 164703256.31107        52.999 7        42.696
G17        30.000    24290562.632 6 127647796.34706      2465.268 6        39.444                                    24290568.770 5  99465850.82805      1920.976 5        32.748    24290568.780 6  99465847.84106      1921.101 6        37.233
G14        31.000    20463894.973 7 107538494.10607      -373.100 7        47.571                                    20463893.690 6  83796228.42906      -290.728 6        40.429    20463893.756 8  83796214.42508      -290.697 8        48.386
G23        32.000    24740029.141 6 130009687.39106      2543.196 6        38.444                                    24740028.080 3 101306227.35703      1981.714 3        22.171    24740028.161 6 101306222.35506      1981.782 6        38.994
I02        33.000    37522332.952 7 147245690.40207       131.065 7        42.394
E04        34.000    24554367.170 7 129034046.43007     -2379.358 7        45.615                                                                    24554369.153 8  96356586.91508     -1776.787 8        49.008    24554368.494 8  98870234.53308     -1823.188 8        49.687
R13        35.000    20523488.110 7 109594300.38907      2344.073 7        45.639
R12        36.000    19085840.429 8 101953118.52708     -1070.883 8        52.055                                                                    19085842.361 7  79296870.89607      -832.948 7        47.462
I01        37.000   393254631.857 5 240074548.20005     -3178.052 5        32.659
C10        38.000                                                                                                                                    38946951.507 6 202806989.04506       363.887 6        40.355    38946952.543 7 156823228.08607       281.326 7        44.504    38946949.585 6 164797278.98806       295.487 6        40.532
C19        39.000                                                                                                                                    24489428.489 7 127522773.89407     -3697.693 7        45.642                                                                    24489429.407 7 103622653.96807     -3004.789 7        46.057
E34        40.000    27931929.795 6 146783230.73706     -2107.890 6        38.021                                                                    27931933.777 6 109610838.21106     -1573.944 6        39.544    27931932.863 6 112470252.89106     -1615.100 6        40.081
G05        41.000    21977886.187 7 115494513.85007     -3023.992 7        45.833                                    21977885.260 7  89995689.94807     -2356.354 7        44.689    21977886.019 7  89995698.92907     -2356.259 7        42.239
S44        42.000    40840633.472 6 214619028.38006      -517.304 6        37.285
C36        43.000                                                                                                                                    21390944.974 8 111388239.50408      -581.161 8        51.334                                                                    21390951.111 8  90512083.67308      -472.340 8        49.853
C05        44.000                                                                                                                                    39306622.978 6 204679836.10406      -569.861 6        37.599    39306625.538 7 158271430.06007      -440.537 7        43.481    39306625.748 6 166319214.60706      -462.791 6        40.024
G18        46.000    25417421.297 5 133569406.57505     -2200.992 5        35.486                                    25417419.928 2 104080032.31002     -1715.081 2        17.509    25417420.664 5 104080022.31905     -1715.134 5        35.119
R11        47.000    22395958.090 7 119677104.29707     -4388.733 7        45.600                                                                    22395961.050 7  93082174.59707     -3413.396 7        42.368
C45        50.000                                                                                                                                    23465751.252 7 122192329.30607      1993.730 7        47.491                                                                    23465746.320 7  99291261.06907      1619.964 7        47.592
S48        51.000    77107533.400 6 405202706.25206      -501.919 6        37.512
E06        52.000    23323811.250 8 122567439.58008     -1234.309 8        48.075                                                                    23323813.513 8  91527633.08008      -921.740 8        50.428    23323813.237 8  93915309.72008      -945.800 8        51.155
C09        53.000                                                                                                                                    40857204.324 6 212754039.50006     -1138.347 6        36.639    40857209.663 6 164514868.29906      -880.098 6        39.796    40857205.698 6 172880030.89706      -924.862 6        36.473
C60        54.000                                                                                                                                    40840641.751 6 212667964.16106      -512.918 6        40.560                                                                    40840633.163 6 172810074.68806      -417.014 6        38.153
E31        55.000    23825480.780 8 125203748.25808       979.698 8        48.238                                                                    23825484.104 8  93496337.07608       731.561 8        49.603    23825483.523 8  95935368.14108       750.629 8        50.449
G07        56.000    24466449.884 6 128571938.84306     -3313.931 6        39.462                                    24466453.178 5 100185874.52905     -2582.276 5        31.728    24466453.657 6 100185883.50206     -2582.026 6        36.208
C02        57.000                                                                                                                                    40885716.025 5 212902514.28505      -560.550 5        33.168    40885720.927 6 164629674.80906      -433.535 6        37.093    40885722.054 5 173000696.97705      -455.614 5        32.946
I03        58.000    95585571.919 6 299312826.49306       846.810 6        40.892
C21        59.000                                                                                                                                    23994288.216 7 124944507.57207      1866.073 7        46.282                                                                    23994284.786 7 101527613.52307      1516.120 7        46.650
C22        60.000                                                                                                                                    21700151.473 8 112998338.28308     -1166.274 8        52.079                                                                    21700146.850 8  91820372.63008      -947.779 8        49.729
> 2025 01 02 08 31  5.0000000  0 55
E24         1.000    27375657.147 6 143860105.37006      2635.201 6        38.772                                                                    27375664.334 6 107428050.51606      1967.876 6        41.809    27375663.255 7 110230512.42807      2019.223 7        43.230
G15         2.000    21310755.984 7 111988731.31307      2105.332 7        46.240                                    21310754.062 7  87263923.12907      1640.518 7        44.662    21310754.227 7  87263918.13307      1640.423 7        42.713
E15         3.000    28428384.541 6 149392146.59406        75.060 6        36.344                                                                    28428389.009 6 111559066.26806        55.919 6        40.656    28428388.365 6 114469299.47106        57.440 6        41.661
G08         4.000    24715865.606 6 129882758.53206     -2445.835 6        36.544                                    24715871.023 4 101207364.90004     -1905.841 4        28.635    24715870.944 6 101207360.90306     -1905.876 6        36.189
S21         5.000    38392693.340 7 201754593.42607      -513.612 7        42.262
E05         6.000    24930498.212 6 131010612.16106      2005.418 6        40.756                                                                    24930502.259 7  97832573.95407      1497.576 7        44.215    24930501.214 7 100384727.59807      1536.707 7        44.980
G20         7.000    23789022.107 6 125012034.85106     -4081.250 6        39.213                                    23789025.817 3  97411923.34503     -3180.177 3        23.105
R02         8.000    19117760.823 8 102015997.20008     -1106.750 8        52.338                                                                    19117762.361 7  79345766.45407      -860.793 7        46.465
R20         9.000    23701944.431 5 126744983.25405       291.295 5        32.383                                                                    23701951.691 6  98579452.83506       226.751 6        39.919
G24        10.000    24730270.262 6 129958421.92406      3013.515 6        36.711                                    24730273.618 4 101266310.54104      2348.200 4        27.341    24730272.982 5 101266315.54105      2348.419 5        33.641
G30        11.000    21677864.064 7 113917899.16207     -2651.790 7        46.283                                    21677864.859 7  88767172.68707     -2066.326 7        45.895    21677865.362 7  88767180.68907     -2066.460 7        42.861
S27        12.000    39087200.492 5 205404531.75905      -545.051 5        35.510
G13        13.000    19861323.282 8 104371924.55608       133.608 8        48.429                                    19861320.073 6  81328742.47906       104.107 6        40.462
S36        14.000    38161904.252 7 200542635.62307      -514.356 7        44.141
I09        15.000    39921866.200 6 156661764.99506     -1047.212 6        40.579
E09        16.000    23464001.689 8 123304145.80408        36.413 8        48.400                                                                    23464003.323 8  92077759.84008        27.207 8        50.296    23464002.862 8  94479785.81808        27.879 8        51.393
S45        17.000    63343355.287 6 332872304.76106      -561.230 6        36.102
E36        18.000                                                                                                                                                                                                    28874639.653 3                     -2529.178 3        18.687
R19        19.000    24492416.714 5 131017882.98405     -3175.032 5        30.883                                                                    24492417.652 5 101902792.27305     -2469.276 5        34.952
E21        20.000    28805383.608 4 151373162.24804     -3457.626 4        29.336                                                                    28805394.394 5 113038371.85505     -2581.744 5        35.109    28805393.005 6 115987200.38706     -2648.793 6        36.246
R03        21.000    20935168.120 8 112067555.62908      2763.392 8        50.300                                                                    20935168.678 7  87163644.25407      2149.301 7        45.497
I06        22.000    38016702.690 7 149185843.01407      -458.157 7        42.948
S28        23.000    40832299.476 5 214575046.87605      -521.975 5        34.581
S23        25.000    38094555.812 7 200188180.64007      -513.565 7        44.059
R01        26.000    21726746.517 7 116141810.10707     -4405.840 7        43.236                                                                    21726753.216 6  90332483.95606     -3426.779 6        39.348
C07        27.000                                                                                                                                    38920957.763 6 202671617.24606        11.728 6        40.396    38920956.710 7 156718537.63507         9.074 7        44.030    38920954.573 6 164687267.82306         9.296 6        40.961
C40        29.000                                                                                                                                    38924667.165 7 202690939.88107        64.463 7        43.511                                                                    38924668.979 7 164702992.61707        52.280 7        42.734
G17        30.000    24288217.138 6 127635471.37506      2464.943 6        39.823                                    24288223.413 5  99456247.01305      1920.726 5        32.689    24288224.042 6  99456244.03506      1920.807 6        37.853
G14        31.000    20464251.559 7 107540367.51707      -376.216 7        47.447                                    20464250.190 6  83797688.23106      -293.159 6        40.317    20464249.971 8  83797674.23208      -293.118 8        48.371
G23        32.000    24737610.515 6 129996976.10106      2541.451 6        38.670                                    24737609.259 3 101296322.43603      1980.361 3        22.629    24737609.670 6 101296317.43706      1980.315 6        39.595
I02        33.000    37522166.024 7 147245035.15007       130.935 7        42.665
E04        34.000    24556631.636 7 129045946.66307     -2380.708 7        45.577                                                                    24556633.731 8  96365473.43608     -1777.700 8        48.904    24556632.971 8  98879352.88108     -1824.131 8        49.820
R13        35.000    20521294.060 7 109582586.53607      2341.565 7        45.713
R12        36.000    19086844.405 8 101958482.16808     -1074.445 8        51.507                                                                    19086846.364 7  79301042.61607      -835.722 7        47.419
I01        37.000   393258680.527 5 240090437.79605     -3177.597 5        32.671
C10        38.000                                                                                                                                    38946602.176 6 202805171.74806       363.095 6        40.522    38946603.515 7 156821822.83807       280.838 7        44.492    38946600.755 6 164795802.28606       295.055 6        40.784
C19        39.000                                                                                                                                    24492979.795 7 127541265.28307     -3698.824 7        46.049                                                                    24492980.410 7 103637679.70707     -3005.686 7        45.842
E34        40.000    27933936.264 6 146793774.85706     -2109.742 6        37.834                                                                    27933940.300 6 109618712.05306     -1575.515 6        39.510    27933939.497 6 112478332.15206     -1616.540 6        40.200
G05        41.000    21980764.390 7 115509640.30307     -3026.537 7        45.974                                    21980763.755 7  90007476.77207     -2358.339 7        44.584    21980764.336 7  90007485.76307     -2358.337 7        42.318
S44        42.000    40841126.276 6 214621616.73106      -517.481 6        37.172
C36        43.000                                                                                                                                    21391504.008 8 111391150.55408      -583.216 8        51.446                                                                    21391510.125 8  90514449.14108      -474.038 8        49.953
C05        44.000                                                                                                                                    39307170.005 6 204682684.00606      -569.559 6        37.902    39307172.462 7 158273632.23807      -440.351 7        43.175    39307172.802 6 166321528.79606      -462.900 6        39.994
G18        46.000    25419517.412 5 133580417.52405     -2203.261 5        35.910                                    25419515.138 2 104088612.27002     -1716.797 2        16.830    25419515.513 5 104088602.27305     -1716.980 5        35.105
R11        47.000    22400064.066 7 119699049.51207     -4389.263 7        45.111                                                                    22400067.797 7  93099243.09007     -3414.016 7        42.483
C45        50.000                                                                                                                                    23463837.445 7 122182364.27907      1992.345 7        47.723                                                                    23463832.645 7  99283163.66307      1618.850 7        47.706
S48        51.000    77108014.770 6 405205216.64206      -502.268 6        37.618
E06        52.000    23324986.418 8 122573615.38108     -1235.887 8        48.258                                                                    23324988.744 8  91532244.87108      -922.945 8        50.324    23324988.481 8  93920041.81708      -946.982 8        51.242
C09        53.000                                                                                                                                    40858296.775 6 212759729.89906     -1137.966 6        36.957    40858303.157 6 164519268.47506      -880.022 6        40.305    40858298.144 6 172884654.79506      -924.757 6        36.045
C60        54.000                                                                                                                                    40841134.260 6 212670528.99006      -512.872 6        40.741                                                                    40841126.007 6 172812158.83006      -416.972 6        38.297
E31        55.000    23824549.675 8 125198855.26208       977.609 8        48.169                                                                    23824553.006 8  93492683.21508       730.074 8        49.595    23824552.385 8  95931618.96408       749.065 8        50.485
G07        56.000    24469602.747 6 128588509.52306     -3314.165 6        39.444                                    24469606.713 5 100198786.68405     -2582.449 5        31.924    24469606.710 6 100198795.67406     -2582.560 6        36.741
C02        57.000                                                                                                                                    40886253.254 5 212905316.82205      -560.168 5        33.491    40886259.727 6 164631841.91406      -433.451 6        37.225    40886260.106 5 173002974.29105      -455.766 5        33.006
I03        58.000    95584493.153 6 299308592.35906       846.892 6        40.586
C21        59.000                                                                                                                                    23992497.641 7 124935181.96607      1864.352 7        46.656                                                                    23992493.837 7 101520035.69207      1514.844 7        46.696
C22        60.000                                                                                                                                    21701272.726 8 113004176.42208     -1168.920 8        52.365                                                                    21701268.038 8  91825116.59608      -949.995 8        49.783
> 2025 01 02 08 31 10.0000000  0 55
E24         1.000    27373150.706 6 143846931.25106      2634.711 6        38.757                                                                    27373157.343 6 107418212.73306      1967.403 6        41.652    27373156.227 7 110220417.99907      2018.651 7        43.211
G15         2.000    21308753.713 7 111978211.07107      2103.110 7        46.510                                    21308752.121 7  87255725.53907      1638.786 7        44.749    21308752.389 7  87255720.53707      1638.796 7        42.650
E15         3.000    28428314.583 6 149391778.94806        72.628 6        36.238                                                                    28428319.162 6 111558791.71106        54.085 6        40.653    28428318.495 6 114469017.74906        55.558 6        41.838
G08         4.000    24718194.057 6 129894995.15906     -2448.721 6        36.522                                    24718199.509 4 101216899.91804     -1908.089 4        28.663    24718199.720 5 101216895.90105     -1907.989 5        35.548
S21         5.000    38393178.704 7 201757162.42707      -513.604 7        42.140
E05         6.000    24928590.109 6 131000586.25906      2005.237 6        40.889                                                                    24928594.399 7  97825087.07507      1497.426 7        44.272    24928593.358 7 100377045.42007      1536.443 7        45.016
G20         7.000    23792905.950 6 125032443.73606     -4081.861 6        39.198                                    23792909.734 3  97427826.31003     -3180.666 3        23.162
R02         8.000    19118800.046 8 102021541.66208     -1110.728 8        52.412                                                                    19118801.566 7  79350078.80307      -863.846 7        46.996
R20         9.000    23701675.141 5 126743536.14705       287.626 5        31.623                                                                    23701682.602 6  98578327.30506       223.579 6        40.412
G24        10.000    24727403.473 6 129943355.77006      3013.275 6        36.004                                    24727406.735 4 101254570.64904      2348.014 4        27.461    24727407.236 5 101254575.63405      2348.248 5        34.167
G30        11.000    21680387.883 7 113931162.12707     -2653.084 7        46.555                                    21680388.723 7  88777507.45007     -2067.337 7        45.989    21680388.987 7  88777515.44107     -2067.319 7        42.673
S27        12.000    39087719.442 5 205407258.75405      -545.397 5        35.471
G13        13.000    19861197.273 8 104371263.65708       131.073 8        48.435                                    19861194.317 6  81328227.49106       102.135 6        40.572
S36        14.000    38162395.080 7 200545207.16107      -514.041 7        44.278
I09        15.000    39923201.220 6 156667001.82806     -1047.219 6        40.491
E09        16.000    23463967.843 8 123303968.27108        34.843 8        48.435                                                                    23463969.550 8  92077627.26008        26.012 8        50.414    23463969.065 8  94479649.77808        26.738 8        51.480
S45        17.000    63343844.965 6 332875110.64106      -561.072 6        36.348
E36        18.000                                                                                                                                    28877769.824 3                     -2461.493 3        19.313    28877773.138 3                     -2524.421 3        20.333
R19        19.000    24495385.858 5 131033764.85105     -3177.932 5        33.329                                                                    24495387.308 5 101915144.88205     -2471.299 5        35.043
E21        20.000    28808673.001 4 151390449.69704     -3457.802 4        29.697                                                                    28808684.012 5 113051281.21305     -2581.688 5        34.762    28808682.634 6 116000446.53206     -2649.291 6        36.174
R03        21.000    20932588.311 8 112053744.59808      2761.285 8        50.294                                                                    20932589.006 7  87152902.34207      2147.590 7        45.755
I06        22.000    38017286.322 7 149188134.10007      -458.048 7        42.796
S28        23.000    40832799.019 5 214577657.68905      -521.873 5        34.971
S23        25.000    38095045.012 7 200190749.10707      -513.584 7        44.372
R01        26.000    21730868.382 7 116163844.81407     -4407.771 7        43.062                                                                    21730876.012 6  90349622.02006     -3428.144 6        39.075
C07        27.000                                                                                                                                    38920947.078 6 202671561.73906        10.778 6        40.253    38920945.858 7 156718494.70207         8.345 7        44.053    38920943.908 6 164687222.71006         8.583 6        40.918
C40        29.000                                                                                                                                    38924605.989 7 202690620.90707        63.434 7        43.634                                                                    38924607.679 7 164702733.42707        51.357 7        42.620
G17        30.000    24285872.893 6 127623149.61206      2464.258 6        39.694                                    24285878.570 5  99446645.68205      1920.193 5        32.952    24285878.823 6  99446642.72506      1920.024 6        37.388
G14        31.000    20464611.281 7 107542256.95907      -379.329 7        47.827                                    20464609.726 6  83799160.52306      -295.582 6        40.386    20464609.805 8  83799146.51708      -295.564 8        48.240
G23        32.000    24735192.769 6 129984274.12806      2539.695 6        38.943                                    24735192.088 3 101286424.78703      1978.987 3        22.895    24735191.716 6 101286419.78706      1978.925 6        39.691
I02        33.000    37521999.506 7 147244381.52007       130.670 7        42.705
E04        34.000    24558897.400 7 129057853.69307     -2381.922 7        45.707                                                                    24558899.580 8  96374365.04008     -1778.709 8        48.934    24558898.794 8  98888476.43908     -1825.110 8        49.788
R13        35.000    20519103.314 7 109570886.54607      2338.872 7        45.851
R12        36.000    19087851.855 8 101963863.85208     -1077.971 8        51.984                                                                    19087853.916 8  79305228.36208      -838.418 8        48.015
I01        37.000   393262729.889 5 240106327.62605     -3177.862 5        32.952
C10        38.000                                                                                                                                    38946253.821 6 202803358.47706       362.469 6        40.841    38946255.396 7 156820420.70207       280.312 7        44.346    38946252.487 6 164794328.88606       294.299 6        40.639
C19        39.000                                                                                                                                    24496532.340 7 127559762.89107     -3699.993 7        45.752                                                                    24496532.568 7 103652710.50907     -3006.598 7        45.535
E34        40.000    27935944.716 6 146804329.12306     -2111.726 6        37.372                                                                    27935948.792 6 109626593.45706     -1576.850 6        39.559    27935948.070 6 112486419.14406     -1617.900 6        40.081
G05        41.000    21983645.556 7 115524779.81707     -3029.020 7        46.299                                    21983644.727 7  90019273.78007     -2360.270 7        44.673    21983645.605 7  90019282.76307     -2360.258 7        42.394
S44        42.000    40841617.416 6 214624205.44106      -517.582 6        37.127
C36        43.000                                                                                                                                    21392065.275 8 111394072.57108      -585.367 8        51.362                                                                    21392071.288 8  90516823.52108      -475.803 8        49.770
C05        44.000                                                                                                                                    39307716.938 6 204685532.35706      -569.591 6        37.338    39307719.511 7 158275834.75007      -440.337 7        43.410    39307719.775 6 166323843.29506      -462.972 6        40.079
G18        46.000    25421614.750 6 133591440.17206     -2205.475 6        37.301                                    25421612.535 2 104097201.34302     -1718.553 2        17.358    25421613.160 5 104097191.37105     -1718.615 5        34.876
R11        47.000    22404171.324 7 119720998.97407     -4390.020 7        44.930                                                                    22404175.776 7  93116314.87707     -3414.600 7        43.120
C45        50.000                                                                                                                                    23461925.056 7 122172406.57407      1990.987 7        47.221                                                                    23461920.400 7  99275072.22807      1617.715 7        47.597
S48        51.000    77108498.488 6 405207727.94206      -502.188 6        37.766
E06        52.000    23326163.305 8 122579799.58208     -1237.480 8        48.196                                                                    23326165.632 8  91536862.93508      -924.060 8        50.385    23326165.312 8  93924780.35308      -948.183 8        51.261
C09        53.000                                                                                                                                    40859389.499 6 212765420.41706     -1137.872 6        36.510    40859395.682 6 164523668.72906      -879.948 6        40.517    40859391.068 6 172889278.80506      -924.509 6        36.038
C60        54.000                                                                                                                                    40841626.868 6 212673094.14006      -512.816 6        40.725                                                                    40841618.610 6 172814243.22706      -416.818 6        38.300
E31        55.000    23823620.693 8 125193973.01208       975.594 8        48.145                                                                    23823623.934 8  93489037.37408       728.547 8        49.588    23823623.301 8  95927878.01308       747.508 8        50.562
G07        56.000    24472756.860 6 128605082.13906     -3314.423 6        40.267                                    24472760.616 5 100211700.33905     -2582.656 5        32.305    24472761.326 6 100211709.31106     -2582.700 6        36.779
C02        57.000                                                                                                                                    40886792.975 5 212908119.70405      -560.087 5        33.096    40886797.242 6 164634009.27206      -433.397 6        37.112    40886798.226 5 173005251.90105      -455.943 5        33.150
I03        58.000    95583413.813 6 299304358.45306       846.962 6        40.408
C21        59.000                                                                                                                                    23990708.379 7 124925865.55107      1862.598 7        46.563                                                                    23990704.703 7 101512465.35707      1513.344 7        46.594
C22        60.000                                                                                                                                    21702396.620 8 113010028.69608     -1171.699 8        52.244                                                                    21702391.887 8  91829872.04508      -952.180 8        49.717
> 2025 01 02 08 31 15.0000000  0 54
E24         1.000    27370644.485 6 143833759.27606      2634.198 6        39.997                                                                    27370650.730 6 107408376.51606      1967.185 6        41.673    27370649.777 7 110210325.19007      2018.434 7        43.395
G15         2.000    21306753.812 7 111967701.17807      2101.006 7        46.591                                    21306752.157 7  87247536.00907      1637.146 7        44.846    21306752.810 7  87247531.00907      1637.112 7        43.031
E15         3.000    28428246.783 5 149391423.03505        70.177 5        35.576                                                                    28428251.348 6 111558525.90506        52.375 6        40.389    28428250.677 6 114468745.02306        53.691 6        41.757
G08         4.000    24720524.150 6 129907245.03406     -2451.150 6        36.416                                    24720530.602 4 101226445.24904     -1909.982 4        28.663    24720531.673 5 101226441.24305     -1909.981 5        35.929
S21         5.000    38393669.925 7 201759730.98507      -513.599 7        42.030
E05         6.000    24926682.535 6 130990561.79606      2004.757 6        40.689                                                                    24926686.809 7  97817601.26807      1497.070 7        44.256    24926685.742 7 100369364.32307      1536.230 7        45.154
G20         7.000    23796790.549 6 125052854.81106     -4082.434 6        40.024                                    23796794.108 3  97443731.01203     -3181.115 3        23.276
R02         8.000    19119842.557 8 102027105.91808     -1114.743 8        52.117                                                                    19119844.115 7  79354406.54507      -867.014 7        46.585
R20         9.000    23701408.112 5 126742109.27005       283.696 5        31.555                                                                    23701414.634 6  98577217.56806       220.301 6        39.751
G24        10.000    24724536.305 6 129928291.19406      3012.796 6        36.454                                    24724540.081 4 101242831.97004      2347.640 4        27.701    24724541.128 5 101242836.93905      2347.881 5        33.808
G30        11.000    21682912.647 7 113944430.97007     -2654.189 7        46.634                                    21682913.692 7  88787846.78707     -2068.196 7        46.027    21682914.135 7  88787854.78007     -2068.203 7        42.135
S27        12.000    39088239.500 5 205409985.26605      -545.246 5        35.324
G13        13.000    19861073.794 8 104370614.90108       128.638 8        48.738                                    19861070.851 6  81327721.95906       100.239 6        40.610
S36        14.000    38162884.830 7 200547778.07107      -514.335 7        44.152
I09        15.000    39924535.492 6 156672238.48206     -1047.199 6        40.737
E09        16.000    23463935.295 8 123303797.87908        33.501 8        48.452                                                                    23463937.111 8  92077500.01108        24.999 8        50.447    23463936.643 8  94479519.21208        25.641 8        51.547
S45        17.000    63344330.736 6 332877916.21406      -561.021 6        36.197
R19        19.000    24498359.864 5 131049660.47805     -3180.437 5        31.079                                                                    24498357.938 6 101927508.09806     -2473.810 6        36.926
E21        20.000    28811963.289 4 151407738.71004     -3458.427 4        29.810                                                                    28811974.075 5 113064191.78905     -2582.121 5        34.905    28811972.540 6 116013693.89606     -2649.484 6        36.163
R03        21.000    20930010.037 8 112039943.93208      2759.240 8        50.305                                                                    20930011.109 7  87142168.48807      2146.083 7        45.771
I06        22.000    38017870.405 7 149190425.07407      -458.193 7        42.718
S28        23.000    40833294.444 5 214580268.05705      -521.964 5        34.838
S23        25.000    38095534.583 7 200193317.20907      -513.523 7        44.385
R01        26.000    21734992.630 7 116185888.56807     -4409.576 7        44.140                                                                    21734999.378 6  90366767.12306     -3429.596 6        39.111
C07        27.000                                                                                                                                    38920936.893 6 202671509.88006        10.193 6        39.724    38920935.765 7 156718454.59007         7.855 7        44.006    38920933.936 6 164687180.53106         8.304 6        40.899
C40        29.000                                                                                                                                    38924545.402 7 202690306.61707        62.455 7        43.492                                                                    38924547.349 7 164702478.01607        50.906 7        42.542
G17        30.000    24283527.920 6 127610830.20206      2463.632 6        39.450                                    24283534.282 5  99437046.18505      1919.705 5        33.024    24283534.110 6  99437043.19706      1919.929 6        37.558
G14        31.000    20464973.777 8 107544161.58408      -382.320 8        48.088                                    20464972.160 6  83800644.63806      -297.911 6        40.536    20464972.123 8  83800630.63708      -297.944 8        48.224
G23        32.000    24732777.299 6 129971580.69806      2538.026 6        38.297                                    24732776.633 3 101276533.78203      1977.692 3        22.876    24732776.625 6 101276528.78006      1977.591 6        39.538
I02        33.000    37521832.997 7 147243728.87907       130.303 7        42.692
E04        34.000    24561164.621 7 129069766.68307     -2383.076 7        45.983                                                                    24561166.575 8  96383261.08908     -1779.563 8        48.966    24561165.639 8  98897604.56308     -1825.997 8        49.876
R13        35.000    20516914.977 7 109559199.54007      2336.191 7        46.190
R12        36.000    19088862.980 8 101969262.82208     -1081.430 8        52.244                                                                    19088864.690 7  79309427.55007      -841.093 7        47.739
I01        37.000   393266779.493 5 240122217.02205     -3177.620 5        32.701
C10        38.000                                                                                                                                    38945906.846 6 202801548.46706       361.755 6        40.992    38945907.682 7 156819021.08707       279.710 7        44.272    38945904.833 6 164792858.08406       294.043 6        40.584
C19        39.000                                                                                                                                    24500085.694 7 127578265.89207     -3701.024 7        45.081                                                                    24500085.931 7 103667745.66007     -3007.299 7        45.559
E34        40.000    27937954.718 6 146814892.66506     -2113.439 6        37.849                                                                    27937959.213 6 109634481.79306     -1578.325 6        39.724    27937958.323 6 112494513.27406     -1619.458 6        40.338
G05        41.000    21986528.884 7 115539931.48007     -3031.437 7        46.213                                    21986528.030 7  90031080.25207     -2362.156 7        44.795    21986528.756 7  90031089.24907     -2362.254 7        42.612
S44        42.000    40842110.489 6 214626793.57006      -517.355 6        37.066
C36        43.000                                                                                                                                    21392628.435 8 111397004.70508      -587.391 8        51.416                                                                    21392634.372 8  90519206.09108      -477.135 8        49.765
C05        44.000                                                                                                                                    39308263.728 6 204688380.27506      -569.464 6        37.342    39308266.494 7 158278036.94107      -440.334 7        43.674    39308266.502 6 166326157.44306      -462.537 6        39.694
G18        46.000    25423713.723 6 133602473.79506     -2207.713 6        37.917                                    25423712.239 2 104105798.96302     -1720.295 2        17.057    25423712.969 5 104105788.96505     -1720.214 5        35.567
R11        47.000    22408280.052 7 119742951.82707     -4390.857 7        45.285                                                                    22408284.276 7  93133389.25407     -3415.067 7        43.390
C45        50.000                                                                                                                                    23460014.029 7 122162455.39307      1989.673 7        47.216                                                                    23460009.345 7  99266986.05607      1616.929 7        47.568
S48        51.000    77108979.103 6 405210238.62906      -502.032 6        37.936
E06        52.000    23327341.522 8 122585991.36808     -1238.978 8        48.471                                                                    23327343.843 8  91541486.65808      -925.267 8        50.278    23327343.544 8  93929524.69708      -949.400 8        51.399
C09        53.000                                                                                                                                    40860481.896 6 212771110.26806     -1137.730 6        36.628    40860487.985 6 164528068.48306      -880.000 6        40.424    40860483.558 5 172893902.26105      -924.678 5        35.490
C60        54.000                                                                                                                                    40842119.573 6 212675658.77806      -512.648 6        40.515                                                                    40842111.164 6 172816327.16806      -416.378 6        38.165
E31        55.000    23822693.524 8 125189100.67208       973.567 8        48.316                                                                    23822696.815 8  93485398.93608       727.017 8        49.584    23822696.132 8  95924144.65408       746.002 8        50.668
G07        56.000    24475910.928 6 128621655.88006     -3314.781 6        40.229                                    24475914.702 5 100224614.87005     -2582.927 5        32.557    24475915.186 6 100224623.83406     -2582.860 6        36.843
C02        57.000                                                                                                                                    40887330.522 5 212910922.12305      -560.260 5        33.024    40887335.371 6 164636176.30206      -433.494 6        37.070    40887336.649 5 173007529.04405      -455.489 5        32.719
I03        58.000    95582334.889 6 299300124.12406       847.037 6        40.369
C21        59.000                                                                                                                                    23988920.490 7 124916557.52207      1860.868 7        46.509                                                                    23988917.208 7 101504901.80707      1512.187 7        46.533
C22        60.000                                                                                                                                    21703523.107 8 113015894.26608     -1174.328 8        52.102                                                                    21703518.328 8  91834638.27808      -954.182 8        49.712
> 2025 01 02 08 31 20.0000000  0 54
E24         1.000    27368138.604 6 143820590.18106      2633.404 6        40.720                                                                    27368144.814 6 107398542.45006      1966.527 6        41.673    27368143.945 7 110200234.58807      2017.876 7        43.587
G15         2.000    21304755.958 7 111957202.37307      2098.581 7        47.062                                    21304754.303 7  87239355.12007      1635.260 7        44.816    21304754.720 7  87239350.11107      1635.217 7        42.698
E15         3.000    28428181.246 6 149391079.60706        67.287 6        36.295                                                                    28428185.821 6 111558269.43506        50.288 6        40.462    28428185.168 6 114468481.85506        51.791 6        41.616
G08         4.000    24722858.678 6 129919508.93206     -2454.458 6        36.473                                    24722864.386 4 101236001.50304     -1912.556 4        28.493    24722865.166 6 101235997.49906     -1912.496 6        36.499
S21         5.000    38394160.256 6 201762300.01006      -513.920 6        41.876
E05         6.000    24924775.361 6 130980539.50906      2003.996 6        40.820                                                                    24924779.612 7  97810117.09007      1496.577 7        44.324    24924778.582 7 100361684.90607      1535.674 7        45.082
G20         7.000    23800675.074 6 125073268.78806     -4083.083 6        40.739                                    23800678.678 3  97459637.96303     -3181.608 3        23.486
R02         8.000    19120888.912 8 102032690.48308     -1119.083 8        51.979                                                                    19120890.633 7  79358750.09407      -870.356 7        46.699
R20         9.000    23701145.639 5 126740703.64405       279.074 5        31.185                                                                    23701151.755 6  98576124.27606       216.839 6        39.198
G24        10.000    24721670.107 6 129913228.92506      3012.020 6        36.431                                    24721674.017 4 101231095.10304      2347.039 4        27.593    24721673.958 5 101231100.08705      2347.397 5        33.868
G30        11.000    21685439.001 7 113957706.46107     -2655.807 7        46.738                                    21685439.939 7  88798191.31207     -2069.455 7        45.967    21685440.413 7  88798199.30407     -2069.444 7        42.491
S27        12.000    39088757.967 5 205412712.25005      -545.509 5        35.262
G13        13.000    19860953.060 8 104369979.06108       125.793 8        48.819                                    19860949.858 6  81327226.49606        98.020 6        40.615
S36        14.000    38163373.882 7 200550349.91807      -514.445 7        44.385
I09        15.000    39925869.995 6 156677475.50806     -1047.646 6        40.296
E09        16.000    23463904.357 8 123303635.41008        31.653 8        48.520                                                                    23463906.223 8  92077378.68208        23.616 8        50.376    23463905.723 8  94479394.72008        24.245 8        51.496
S45        17.000    63344822.225 6 332880722.27206      -561.313 6        36.318
R19        19.000    24501333.667 5 131065570.46905     -3183.451 5        33.066                                                                    24501334.399 6 101939882.52906     -2476.152 6        38.411
E21        20.000    28815253.629 4 151425030.05904     -3458.538 4        29.336                                                                    28815264.611 5 113077104.12605     -2582.964 5        34.376    28815263.243 6 116026943.07106     -2649.976 6        36.147
R03        21.000    20927433.905 8 112026154.20608      2756.757 8        49.983                                                                    20927434.279 7  87131443.14807      2144.126 7        45.285
I06        22.000    38018454.067 7 149192716.45907      -458.365 7        42.622
S28        23.000    40833794.098 5 214582879.15205      -522.219 5        35.176
S23        25.000    38096023.242 7 200195885.90307      -514.012 7        44.333
R01        26.000    21739118.711 7 116207942.26007     -4411.918 7        44.053                                                                    21739125.128 6  90383919.92806     -3431.363 6        40.064
C07        27.000                                                                                                                                    38920928.068 6 202671462.50606         8.909 6        39.877    38920926.921 7 156718417.94707         6.869 7        44.229    38920924.845 6 164687142.03706         7.383 6        41.149
C40        29.000                                                                                                                                    38924485.931 7 202689997.80307        61.080 7        43.587                                                                    38924487.992 7 164702227.08407        49.688 7        42.868
G17        30.000    24281184.303 6 127598513.93806      2462.710 6        39.778                                    24281190.584 5  99427449.14405      1918.985 5        33.054    24281190.482 6  99427446.17006      1919.227 6        37.792
G14        31.000    20465338.952 7 107546082.17207      -385.846 7        47.922                                    20465337.639 6  83802141.20306      -300.660 6        40.465    20465337.820 8  83802127.19208      -300.616 8        48.134
G23        32.000    24730363.131 6 129958896.57206      2535.781 6        38.721                                    24730362.865 3 101266650.03203      1975.939 3        22.705    24730362.589 6 101266645.01606      1976.062 6        38.982
I02        33.000    37521667.286 7 147243077.60307       130.105 7        42.550
E04        34.000    24563432.750 7 129081686.40407     -2384.645 7        46.200                                                                    24563434.888 8  96392162.16808     -1780.745 8        48.906    24563433.805 8  98906737.84608     -1827.195 8        49.752
R13        35.000    20514728.418 7 109547526.30907      2333.244 7        45.269
R12        36.000    19089876.909 8 101974679.81008     -1085.279 8        52.200                                                                    19089878.385 7  79313640.76607      -844.158 7        47.990
I01        37.000   393270828.325 5 240138106.58705     -3177.761 5        32.491
C10        38.000                                                                                                                                    38945560.360 6 202799742.50306       360.564 6        41.173    38945560.997 7 156817624.60707       278.864 7        44.310    38945558.079 6 164791390.57806       293.110 6        40.901
C19        39.000                                                                                                                                    24503639.934 7 127596775.05507     -3702.557 7        45.093                                                                    24503640.722 7 103682785.81707     -3008.513 7        46.016
E34        40.000    27939966.907 6 146825466.24506     -2115.853 6        37.728                                                                    27939971.126 6 109642377.64006     -1579.956 6        39.577    27939970.495 6 112502615.09706     -1621.194 6        40.322
G05        41.000    21989414.459 7 115555096.12307     -3034.346 7        45.985                                    21989413.827 7  90042896.83707     -2364.421 7        44.718    21989414.240 7  90042905.82707     -2364.459 7        42.597
S44        42.000    40842607.841 6 214629382.01306      -517.611 6        37.021
C36        43.000                                                                                                                                    21393193.579 8 111399947.73308      -589.842 8        51.296                                                                    21393199.581 8  90521597.53508      -479.248 8        50.077
C05        44.000                                                                                                                                    39308810.362 6 204691228.57406      -569.740 6        37.539    39308813.270 7 158280239.42707      -440.571 7        43.511    39308813.690 6 166328471.91706      -463.085 6        40.219
G18        46.000    25425815.427 6 133613519.09406     -2210.246 6        38.369                                    25425813.875 2 104114405.68802     -1722.279 2        17.962    25425815.109 6 104114395.69806     -1722.339 6        36.261
R11        47.000    22412389.516 7 119764908.81507     -4391.863 7        45.217                                                                    22412392.692 7  93150466.89807     -3415.872 7        43.782
C45        50.000                                                                                                                                    23458104.745 7 122152511.48007      1987.927 7        47.325                                                                    23458099.726 7  99258905.82007      1615.369 7        47.908
S48        51.000    77109464.958 6 405212749.96006      -502.192 6        37.947
E06        52.000    23328521.364 8 122592191.49608     -1240.954 8        48.336                                                                    23328523.694 8  91546116.61408      -926.698 8        50.343    23328523.381 8  93934275.43808      -950.862 8        51.318
C09        53.000                                                                                                                                    40861575.367 6 212776800.25206     -1138.088 6        36.597    40861580.434 6 164532468.31006      -880.004 6        40.102    40861575.851 5 172898525.82605      -924.741 5        35.600
C60        54.000                                                                                                                                    40842611.729 6 212678223.69006      -513.218 6        40.458                                                                    40842603.695 6 172818411.37706      -417.029 6        38.384
E31        55.000    23821768.451 8 125184239.00608       971.146 8        48.392                                                                    23821771.665 8  93481768.46808       725.197 8        49.528    23821770.991 8  95920419.48108       744.130 8        50.610
G07        56.000    24479064.923 6 128638231.48006     -3315.397 6        40.381                                    24479069.047 5 100237530.84405     -2583.409 5        32.503    24479069.254 6 100237539.82206     -2583.321 6        36.495
C02        57.000                                                                                                                                    40887868.498 5 212913724.80105      -560.420 5        32.850    40887874.215 6 164638343.48306      -433.518 6        37.051    40887874.769 5 173009806.44305      -455.678 5        33.132
I03        58.000    95581255.894 6 299295889.96606       846.695 6        40.274
C21        59.000                                                                                                                                    23987134.881 7 124907258.64807      1858.710 7        46.567                                                                    23987131.479 7 101497345.69707      1510.385 7        46.858
C22        60.000                                                                                                                                    21704652.029 8 113021773.91608     -1177.457 8        52.055                                                                    21704647.443 8  91839415.95408      -956.659 8        50.023
> 2025 01 02 08 31 25.0000000  0 54
E24         1.000    27365632.728 6 143807423.74206      2632.950 6        40.629                                                                    27365639.453 6 107388710.38106      1966.147 6        41.781    27365638.371 7 110190146.03207      2017.401 7        43.596
G15         2.000    21302760.109 7 111946714.42907      2096.484 7        46.773                                    21302758.519 7  87231182.69107      1633.626 7        44.748    21302758.652 7  87231177.68907      1633.648 7        42.779
E15         3.000    28428118.189 6 149390748.43306        64.888 6        36.737                                                                    28428122.815 6 111558022.11306        48.465 6        40.482    28428122.384 6 114468228.08506        49.791 6        41.959
G08         4.000    24725195.313 6 129931786.58806     -2457.004 6        36.582                                    24725200.992 4 101245568.48204     -1914.545 4        28.825    24725201.302 6 101245564.47506     -1914.461 6        36.522
S21         5.000    38394654.746 7 201764869.32907      -514.021 7        42.222
E05         6.000    24922868.374 6 130970519.18106      2003.871 6        41.037                                                                    24922872.797 7  97802634.38807      1496.348 7        44.340    24922871.784 7 100354007.00007      1535.416 7        45.077
G20         7.000    23804560.470 6 125093685.43106     -4083.637 6        40.665                                    23804563.780 3  97475546.99403     -3182.051 3        23.543
R02         8.000    19121939.524 8 102038295.39108     -1123.089 8        52.101                                                                    19121941.155 7  79363109.46307      -873.472 7        47.017
R20         9.000    23700886.507 5 126739318.74505       274.822 5        32.096                                                                    23700892.878 6  98575047.13306       213.840 6        40.412
G24        10.000    24718804.222 6 129898168.74506      3011.846 6        37.134                                    24718808.073 4 101219359.86304      2346.902 4        27.844    24718808.097 5 101219364.86305      2346.689 5        34.433
G30        11.000    21687966.375 7 113970988.37607     -2657.060 7        46.705                                    21687967.390 7  88808540.83607     -2070.434 7        45.856    21687968.167 7  88808548.83607     -2070.471 7        42.745
S27        12.000    39089276.434 5 205415439.52905      -545.350 5        34.743
G13        13.000    19860834.352 8 104369355.87008       123.345 8        48.552                                    19860831.253 6  81326740.88806        96.115 6        40.601
S36        14.000    38163861.043 7 200552922.14407      -514.593 7        44.075
I09        15.000    39927205.054 6 156682712.73206     -1047.477 6        40.510
E09        16.000    23463875.119 8 123303480.63308        30.126 8        48.705                                                                    23463876.769 8  92077263.10008        22.452 8        50.315    23463876.303 8  94479276.12308        23.082 8        51.464
S45        17.000    63345309.596 6 332881928.37216      -561.157 6        36.522
R19        19.000    24504308.809 5 131081494.69505     -3186.704 5        31.170                                                                    24504309.700 6 101952268.02006     -2478.175 6        36.881
E21        20.000    28818544.369 5 151442323.56805     -3459.367 5        30.226                                                                    28818555.320 5 113090018.01105     -2582.977 5        34.543    28818554.020 6 116040193.87406     -2650.505 6        36.019
R03        21.000    20924860.239 8 112012375.26808      2754.660 8        50.117                                                                    20924860.433 7  87120726.18607      2142.518 7        45.029
I06        22.000    38019038.128 7 149195008.14207      -458.353 7        42.787
S28        23.000    40834289.612 5 214585490.02605      -522.181 5        34.957
S23        25.000    38096511.941 7 200198454.95107      -513.916 7        43.920
R01        26.000    21743245.740 7 116230005.74407     -4413.673 7        43.738                                                                    21743252.424 6  90401080.36406     -3432.858 6        39.778
C07        27.000                                                                                                                                    38920919.522 6 202671419.28206         8.269 6        39.847    38920918.670 7 156718384.53507         6.260 7        44.164    38920916.573 6 164687106.89706         6.806 6        41.216
C40        29.000                                                                                                                                    38924427.497 7 202689694.22107        60.156 7        43.249                                                                    38924429.650 7 164701980.38407        48.902 7        42.893
G17        30.000    24278841.267 6 127586200.57706      2462.303 6        39.535                                    24278847.427 5  99417854.36405      1918.668 5        32.970    24278848.178 6  99417851.39506      1918.769 6        37.709
G14        31.000    20465707.201 7 107548018.48107      -388.931 7        47.761                                    20465706.105 6  83803650.01006      -303.062 6        40.417    20465706.317 8  83803636.00508      -303.047 8        48.006
G23        32.000    24727951.652 6 129946221.54206      2533.988 6        38.760                                    24727950.863 3 101256773.37603      1974.547 3        22.571    24727950.986 6 101256768.36006      1974.581 6        39.132
I02        33.000    37521501.334 7 147242427.65207       129.785 7        42.396
E04        34.000    24565702.060 7 129093612.62307     -2385.917 7        46.055                                                                    24565704.308 8  96401068.09708     -1781.691 8        48.828    24565703.301 8  98915876.10208     -1828.186 8        49.761
R13        35.000    20512544.182 7 109535866.56307      2330.483 7        45.812
R12        36.000    19090894.218 8 101980114.65108     -1088.767 8        51.782                                                                    19090895.853 8  79317867.86208      -846.791 8        48.015
I01        37.000   393274878.317 5 240153996.18905     -3177.877 5        33.054
C10        38.000                                                                                                                                    38945214.566 6 202797940.26806       360.001 6        41.292    38945214.814 7 156816231.00307       278.403 7        44.200    38945211.991 6 164789926.10706       292.607 6        41.018
C19        39.000                                                                                                                                    24507195.511 7 127615290.09607     -3703.675 7        45.669                                                                    24507196.525 7 103697830.77107     -3009.457 7        46.134
E34        40.000    27941981.376 6 146836049.64206     -2117.609 6        37.773                                                                    27941985.135 6 109650280.81006     -1581.343 6        39.456    27941984.432 6 112510724.45506     -1622.639 6        40.365
G05        41.000    21992302.548 7 115570273.41907     -3036.766 7        46.006                                    21992301.990 7  90054723.28307     -2366.305 7        44.620    21992302.419 7  90054732.27907     -2366.300 7        42.864
S44        42.000    40843097.805 6 214631970.48106      -517.793 6        36.877
C36        43.000                                                                                                                                    21393760.762 8 111402901.39708      -591.876 8        51.178                                                                    21393766.791 8  90523997.61908      -480.856 8        50.049
C05        44.000                                                                                                                                    39309357.818 6 204694076.99506      -569.840 6        37.456    39309360.396 7 158282442.00107      -440.595 7        43.526    39309360.525 6 166330786.48306      -462.944 6        40.284
G18        46.000    25427919.178 6 133624575.86206     -2212.567 6        37.240                                    25427917.930 2 104123021.34502     -1724.068 2        17.811    25427918.746 6 104123011.35206     -1723.820 6        36.265
R11        47.000    22416498.573 7 119786869.74807     -4392.525 7        44.859                                                                    22416502.233 7  93167547.58107     -3416.505 7        43.302
C45        50.000                                                                                                                                    23456196.451 7 122142574.61807      1986.572 7        47.278                                                                    23456191.420 7  99250831.29807      1614.391 7        47.925
S48        51.000    77109944.857 6 405215261.40906      -502.334 6        37.554
E06        52.000    23329702.872 8 122598399.74508     -1242.547 8        48.462                                                                    23329705.135 8  91550752.63308      -927.840 8        50.311    23329704.775 8  93939032.39608      -952.073 8        51.313
C09        53.000                                                                                                                                    40862668.088 6 212782490.03706     -1137.961 6        36.620    40862672.813 6 164536867.98806      -879.879 6        39.850    40862668.910 5 172903149.21305      -924.707 5        35.343
C60        54.000                                                                                                                                    40843104.444 6 212680788.59906      -513.008 6        40.272                                                                    40843096.321 6 172820495.55906      -416.714 6        38.306
E31        55.000    23820845.329 8 125179387.78008       969.217 8        48.562                                                                    23820848.497 8  93478145.80508       723.700 8        49.541    23820847.853 8  95916702.30908       742.627 8        50.640
G07        56.000    24482219.416 6 128654808.71206     -3315.612 6        40.205                                    24482223.526 5 100250448.10305     -2583.582 5        32.216    24482223.015 5 100250457.08905     -2583.671 5        35.743
C02        57.000                                                                                                                                    40888405.969 5 212916527.58105      -560.564 5        33.419    40888412.254 6 164640510.77106      -433.885 6        36.994    40888413.264 5 173012083.86805      -455.415 5        33.419
I03        58.000    95580176.566 6 299291655.81906       846.754 6        40.174
C21        59.000                                                                                                                                    23985350.858 7 124897968.68807      1857.122 7        46.454                                                                    23985347.386 7 101489796.84007      1509.069 7        46.801
C22        60.000                                                                                                                                    21705783.928 8 113027667.38808     -1180.156 8        51.936                                                                    21705779.261 8  91844204.86708      -958.926 8        49.952
> 2025 01 02 08 31 30.0000000  0 54
E24         1.000    27363127.161 6 143794259.75306      2632.581 6        40.129                                                                    27363134.767 7 107378880.13007      1965.898 7        42.207    27363133.323 7 110180059.34807      2017.172 7        43.153
G15         2.000    21300766.101 7 111936237.18807      2094.499 7        46.409                                    21300764.779 7  87223018.60207      1632.075 7        44.695    21300764.964 7  87223013.60807      1632.020 7        43.052
E15         3.000    28428057.743 6 149390429.29706        62.706 6        37.191                                                                    28428062.202 6 111557783.76706        46.826 6        40.429    28428061.518 6 114467983.52306        48.105 6        41.657
G08         4.000    24727534.059 6 129944077.78906     -2459.390 6        36.737                                    24727540.018 4 101255146.00604     -1916.409 4        28.626    24727540.360 6 101255142.02006     -1916.419 6        36.091
S21         5.000    38395141.330 7 201767438.52807      -513.740 7        42.328
E05         6.000    24920961.955 6 130960500.62506      2003.708 6        40.818                                                                    24920966.266 7  97795153.00307      1496.216 7        44.366    24920965.408 7 100346330.45507      1535.260 7        45.034
G20         7.000    23808445.703 6 125114104.53006     -4083.957 6        40.334                                    23808449.168 3  97491457.94603     -3182.301 3        23.238
R02         8.000    19122993.553 8 102043920.41808     -1126.826 8        51.916                                                                    19122995.005 7  79367484.47607      -876.427 7        47.276
R20         9.000    23700630.461 5 126737954.42905       271.165 5        32.030                                                                    23700638.799 6  98573986.04606       210.699 6        40.892
G24        10.000    24715939.724 6 129883110.46506      3011.712 6        37.376                                    24715942.586 4 101207626.09204      2346.802 4        27.952    24715942.634 5 101207631.07505      2346.757 5        33.760
G30        11.000    21690494.567 7 113984276.49107     -2658.058 7        46.244                                    21690496.017 7  88818895.19407     -2071.211 7        45.780    21690496.617 7  88818903.18207     -2071.259 7        42.408
S27        12.000    39089796.761 5 205418166.62905      -545.403 5        35.152
G13        13.000    19860717.843 8 104368745.17808       121.011 8        48.604                                    19860715.062 6  81326265.01706        94.296 6        40.455
S36        14.000    38164349.586 7 200555494.32007      -514.124 7        44.128
I09        15.000    39928539.098 6 156687950.02306     -1047.391 6        40.605
E09        16.000    23463847.065 8 123303333.35708        28.805 8        48.595                                                                    23463848.725 8  92077153.11108        21.513 8        50.328    23463848.278 8  94479163.26408        22.082 8        51.353
S45        17.000    63345799.677 6 332884734.43006      -561.027 6        36.469
R19        19.000    24507287.987 5 131097432.65805     -3189.130 5        32.719                                                                    24507290.235 6 101964664.27806     -2480.348 6        37.233
E21        20.000    28821835.579 5 151459618.95705     -3458.679 5        30.272                                                                    28821846.683 5 113102933.34605     -2583.111 5        34.733    28821845.450 6 116053446.13306     -2650.544 6        36.132
R03        21.000    20922288.462 8 111998607.22508      2752.705 8        50.376                                                                    20922288.791 7  87110017.70507      2141.000 7        45.079
I06        22.000    38019622.346 7 149197299.94407      -458.300 7        42.741
S28        23.000    40834787.389 5 214588100.81105      -521.969 5        34.757
S23        25.000    38097000.462 7 200201023.96907      -513.628 7        44.038
R01        26.000    21747376.109 7 116252078.73407     -4415.328 7        45.148                                                                    21747380.849 6  90418248.21606     -3434.153 6        38.766
C07        27.000                                                                                                                                    38920912.265 6 202671380.11406         7.516 6        40.222    38920911.552 7 156718354.21807         5.815 7        44.485    38920909.132 6 164687075.06306         6.341 6        41.261
C40        29.000                                                                                                                                    38924369.991 7 202689395.68907        59.374 7        43.009                                                                    38924372.376 7 164701737.81807        48.198 7        42.828
G17        30.000    24276498.820 6 127573889.96106      2462.038 6        39.751                                    24276504.761 5  99408261.71805      1918.460 5        32.964    24276505.334 6  99408258.72806      1918.562 6        37.550
G14        31.000    20466079.003 7 107549970.30407      -391.756 7        47.786                                    20466077.541 6  83805170.90606      -305.264 6        40.358    20466077.653 8  83805156.90508      -305.284 8        48.084
G23        32.000    24725541.332 6 129933555.39806      2532.478 6        38.556                                    24725540.618 3 101246903.64403      1973.363 3        22.590    24725540.718 6 101246898.63906      1973.366 6        39.327
I02        33.000    37521336.075 7 147241779.04107       129.637 7        42.339
E04        34.000    24567972.575 7 129105545.14407     -2387.013 7        45.660                                                                    24567974.974 8  96409978.72408     -1782.547 8        48.880    24567974.143 8  98925019.18408     -1829.040 8        49.573
R13        35.000    20510363.644 7 109524220.16807      2328.032 7        45.520
R12        36.000    19091915.027 8 101985566.97508     -1092.070 8        51.701                                                                    19091916.931 8  79322108.55108      -849.404 8        48.108
I01        37.000   393278926.608 5 240169885.59205     -3177.643 5        32.671
C10        38.000                                                                                                                                    38944869.114 6 202796141.61706       359.669 6        41.335    38944869.277 7 156814840.17107       278.030 7        44.197    38944866.591 6 164788464.58306       292.227 6        40.923
C19        39.000                                                                                                                                    24510752.831 7 127633810.83907     -3704.544 7        45.899                                                                    24510753.095 7 103712880.38707     -3010.190 7        45.740
E34        40.000    27943996.661 6 146846642.68406     -2119.567 6        37.059                                                                    27944000.965 6 109658191.16106     -1582.645 6        39.468    27944000.249 6 112518841.16006     -1624.160 6        40.200
G05        41.000    21995193.106 7 115585463.21207     -3039.140 7        46.429                                    21995192.518 7  90066559.46307     -2368.156 7        44.557    21995193.191 7  90066568.45607     -2368.135 7        42.808
S44        42.000    40843591.168 6 214634558.76206      -517.562 6        37.142
C36        43.000                                                                                                                                    21394330.002 8 111405865.52708      -593.772 8        51.278                                                                    21394336.015 8  90526406.23308      -482.414 8        50.029
C05        44.000                                                                                                                                    39309905.109 6 204696925.33006      -569.379 6        37.618    39309907.441 7 158284644.52007      -440.342 7        43.403    39309907.655 6 166333101.01106      -462.681 6        39.829
G18        46.000    25430025.372 6 133635643.86206     -2214.731 6        36.113                                    25430024.167 2 104131645.74602     -1725.764 2        17.283    25430024.932 5 104131635.74105     -1725.563 5        35.710
R11        47.000    22420609.212 7 119808834.39407     -4393.065 7        44.918                                                                    22420612.691 7  93184631.17607     -3416.938 7        42.988
C45        50.000                                                                                                                                    23454289.082 7 122132644.61707      1985.427 7        47.396                                                                    23454284.417 7  99242762.38807      1613.369 7        47.825
S48        51.000    77110429.979 6 405217773.24106      -502.091 6        37.853
E06        52.000    23330885.551 8 122604615.91208     -1243.956 8        48.379                                                                    23330887.994 8  91555394.56108      -928.869 8        50.319    23330887.720 8  93943795.41808      -953.076 8        51.213
C09        53.000                                                                                                                                    40863759.976 5 212788179.47205     -1137.702 5        35.890    40863765.443 6 164541267.39406      -879.769 6        39.742    40863761.535 5 172907772.37205      -924.609 5        35.414
C60        54.000                                                                                                                                    40843596.984 6 212683353.35506      -512.931 6        40.465                                                                    40843588.722 6 172822579.65106      -416.605 6        38.393
E31        55.000    23819924.254 8 125174546.82508       967.311 8        48.603                                                                    23819927.288 8  93474530.79408       722.349 8        49.629    23819926.623 8  95912992.99908       741.216 8        50.560
G07        56.000    24485374.357 6 128671387.37406     -3315.704 6        40.391                                    24485378.149 5 100263366.48305     -2583.655 5        32.060    24485378.816 5 100263375.47005     -2583.677 5        35.476
C02        57.000                                                                                                                                    40888944.576 5 212919330.18305      -560.373 5        33.072    40888950.405 6 164642677.87906      -433.305 6        36.854    40888951.227 5 173014361.24105      -455.151 5        33.305
I03        58.000    95579097.863 6 299287421.49706       846.936 6        40.331
C21        59.000                                                                                                                                    23983568.248 7 124888687.47607      1855.544 7        46.574                                                                    23983565.085 7 101482255.11407      1507.817 7        46.845
C22        60.000                                                                                                                                    21706918.220 8 113033574.48508     -1182.680 8        52.114                                                                    21706913.638 8  91849004.88408      -960.982 8        49.941
> 2025 01 02 08 31 35.0000000  0 54
E24         1.000    27360622.481 6 143781098.29706      2632.089 6        40.200                                                                    27360630.288 7 107369051.77707      1965.529 7        42.419    27360628.602 7 110169974.60407      2016.829 7        42.792
G15         2.000    21298774.300 7 111925770.68007      2092.259 7        46.742                                    21298773.060 7  87214862.88207      1630.332 7        44.932    21298773.629 7  87214857.88807      1630.310 7        43.149
E15         3.000    28427999.808 6 149390122.25606        60.263 6        36.605                                                                    28428004.053 6 111557554.49106        44.957 6        40.648    28428002.996 6 114467748.26806        46.100 6        41.588
G08         4.000    24729875.320 6 129956382.64206     -2462.255 6        37.043                                    24729881.498 4 101264734.17004     -1918.637 4        29.194    24729882.061 5 101264730.17105     -1918.606 5        35.938
S21         5.000    38395630.892 7 201770007.78007      -513.832 7        42.174
E05         6.000    24919056.044 6 130950483.88706      2003.409 6        41.015                                                                    24919060.151 7  97787672.98307      1495.885 7        44.292    24919059.289 7 100338655.30507      1534.891 7        44.996
G20         7.000    23812331.648 6 125134526.12306     -4084.386 6        39.450                                    23812335.093 3  97507370.82803     -3182.624 3        23.010
R02         8.000    19124051.406 8 102049565.42708     -1130.990 8        52.123                                                                    19124053.437 7  79371875.03207      -879.602 7        47.417
R20         9.000    23700377.232 5 126736610.91405       266.569 5        32.353                                                                    23700386.775 6  98572941.06106       207.457 6        40.524
G24        10.000    24713074.037 6 129868054.15306      3010.989 6        36.401                                    24713077.479 4 101195893.85304      2346.235 4        28.389    24713077.653 5 101195898.86605      2346.415 5        32.982
G30        11.000    21693024.387 7 113997570.84707     -2659.403 7        46.477                                    21693025.833 7  88829254.41407     -2072.258 7        46.039    21693026.427 7  88829262.42007     -2072.306 7        42.303
S27        12.000    39090318.984 5 205420893.99505      -545.392 5        35.181
G13        13.000    19860604.183 8 104368147.03308       118.412 8        48.734                                    19860601.246 6  81325798.92406        92.270 6        40.729
S36        14.000    38164841.218 7 200558066.22807      -514.272 7        43.903
I09        15.000    39929874.270 6 156693187.39106     -1047.446 6        40.694
E09        16.000    23463820.499 8 123303193.62008        27.290 8        48.660                                                                    23463822.161 8  92077048.76408        20.310 8        50.367    23463821.706 8  94479056.19908        20.856 8        51.410
S45        17.000    63346292.736 6 332887540.52506      -561.313 6        36.465
R19        19.000    24510269.353 5 131113384.56105     -3191.590 5        30.370                                                                    24510271.541 6 101977071.38506     -2482.592 6        36.079
E21        20.000    28825127.204 4 151476916.34104     -3459.860 4        29.336                                                                    28825138.278 5 113115850.14005     -2583.381 5        34.524    28825137.022 5 116066699.88105     -2650.783 5        35.890
R03        21.000    20919718.245 8 111984849.60308      2750.469 8        50.309                                                                    20919718.844 7  87099317.34407      2139.313 7        45.383
I06        22.000    38020206.260 7 149199591.92007      -458.408 7        42.859
S28        23.000    40835282.241 5 214590711.76605      -522.334 5        34.657
S23        25.000    38097489.612 7 200203592.91207      -513.872 7        43.708
R01        26.000    21751506.732 7 116274161.11907     -4417.416 7        44.098                                                                    21751512.125 6  90435423.36006     -3435.842 6        38.517
C07        27.000                                                                                                                                    38920905.844 6 202671344.98106         6.690 6        39.997    38920904.956 7 156718327.04807         5.155 7        44.634    38920902.438 6 164687046.51406         5.433 6        41.161
C40        29.000                                                                                                                                    38924313.776 7 202689102.23207        58.263 7        42.872                                                                    38924315.966 7 164701499.35407        47.258 7        42.781
G17        30.000    24274156.445 6 127561582.12806      2461.367 6        39.667                                    24274162.655 5  99398671.24205      1917.942 5        33.204    24274163.057 6  99398668.26306      1917.855 6        37.376
G14        31.000    20466453.550 7 107551937.70207      -395.001 7        47.958                                    20466451.941 6  83806703.94106      -307.792 6        40.617    20466452.070 7  83806689.93607      -307.757 7        47.987
G23        32.000    24723132.837 6 129920898.21206      2530.660 6        38.441                                    24723131.929 3 101237040.88503      1971.954 3        22.914    24723132.142 6 101237035.88206      1971.887 6        39.583
I02        33.000    37521170.758 7 147241131.51007       129.333 7        42.119
E04        34.000    24570244.746 7 129117484.01007     -2388.381 7        45.919                                                                    24570246.946 8  96418894.10208     -1783.514 8        48.853    24570246.167 8  98934167.14408     -1830.098 8        49.580
R13        35.000    20508185.624 7 109512587.14407      2325.395 7        45.830
R12        36.000    19092938.752 8 101991036.85808     -1095.708 8        51.621                                                                    19092940.483 8  79326362.90308      -852.228 8        48.119
I01        37.000   393282975.680 5 240185774.99505     -3177.949 5        32.832
C10        38.000                                                                                                                                    38944523.805 6 202794346.57406       358.718 6        41.089    38944524.704 7 156813452.14807       277.345 7        44.269    38944521.975 6 164787005.96506       291.534 6        40.927
C19        39.000                                                                                                                                    24514310.992 7 127652337.33307     -3705.823 7        45.383                                                                    24514310.590 7 103727934.65507     -3011.306 7        45.344
E34        40.000    27946014.755 6 146857245.32306     -2121.396 6        37.698                                                                    27946018.600 6 109666108.71106     -1584.264 6        39.450    27946018.144 6 112526965.24906     -1625.427 6        40.307
G05        41.000    21998086.250 7 115600665.48407     -3041.568 7        46.099                                    21998085.417 7  90078405.37307     -2370.051 7        44.811    21998085.768 7  90078414.37407     -2370.115 7        42.480
S44        42.000    40844082.452 6 214637146.91306      -517.434 6        37.062
C36        43.000                                                                                                                                    21394901.316 8 111408840.14008      -595.902 8        51.356                                                                    21394907.240 8  90528823.34708      -484.211 8        49.886
C05        44.000                                                                                                                                    39310451.689 6 204699773.67806      -569.635 6        37.754    39310454.088 7 158286847.05007      -440.507 7        43.498    39310454.454 6 166335415.53006      -462.819 6        39.898
G18        46.000    25432134.081 5 133646723.13805     -2216.955 5        35.981                                    25432132.447 2 104140278.93402     -1727.472 2        17.736    25432133.517 5 104140268.94505     -1727.436 5        35.810
R11        47.000    22424721.120 7 119830802.80507     -4394.051 7        45.666                                                                    22424723.696 7  93201717.68107     -3417.609 7        43.064
C45        50.000                                                                                                                                    23452383.958 7 122122721.52007      1983.986 7        47.719                                                                    23452378.818 7  99234699.06907      1612.173 7        47.702
S48        51.000    77110914.618 6 405220284.59806      -502.186 6        37.629
E06        52.000    23332070.096 8 122610840.04108     -1245.551 8        48.367                                                                    23332072.429 8  91560042.44908      -930.146 8        50.292    23332072.138 8  93948564.55808      -954.422 8        51.233
C09        53.000                                                                                                                                    40864852.334 5 212793868.62805     -1137.802 5        35.219    40864858.604 6 164545666.60706      -879.775 6        40.176    40864854.068 5 172912395.25005      -924.501 5        35.190
C60        54.000                                                                                                                                    40844089.430 6 212685917.96806      -512.702 6        40.470                                                                    40844081.079 6 172824663.63506      -416.838 6        38.153
E31        55.000    23819004.833 8 125169716.15708       965.133 8        48.647                                                                    23819008.005 8  93470923.48108       720.737 8        49.579    23819007.414 8  95909291.58408       739.534 8        50.521
G07        56.000    24488529.402 6 128687967.51406     -3316.143 6        40.045                                    24488533.133 5 100276286.00805     -2583.992 5        31.766    24488533.397 5 100276294.97805     -2583.985 5        35.467
C02        57.000                                                                                                                                    40889483.000 5 212922132.68805      -560.338 5        33.359    40889488.430 6 164644844.95806      -433.483 6        36.900    40889489.664 5 173016638.48805      -455.483 5        33.234
I03        58.000    95578018.914 6 299283187.07006       846.903 6        40.212
C21        59.000                                                                                                                                    23981787.888 7 124879415.05807      1853.672 7        46.502                                                                    23981784.412 7 101474720.52107      1506.196 7        46.702
C22        60.000                                                                                                                                    21708055.506 8 113039495.25908     -1185.456 8        52.267                                                                    21708050.735 8  91853815.99808      -963.276 8        49.832
> 2025 01 02 08 31 40.0000000  0 54
E24         1.000    27358118.700 6 143767939.76706      2631.530 6        39.946                                                                    27358126.228 7 107359225.61207      1965.127 7        42.728    27358124.208 7 110159892.08707      2016.389 7        42.569
G15         2.000    21296784.924 7 111915315.33407      2090.049 7        46.588                                    21296783.479 7  87206715.85807      1628.610 7        44.829    21296784.014 7  87206710.85307      1628.586 7        42.802
E15         3.000    28427943.596 6 149389827.76006        57.699 6        36.340                                                                    28427948.090 6 111557334.53606        43.266 6        40.846    28427947.040 6 114467522.57606        44.337 6        41.673
G08         4.000    24732220.150 6 129968701.48206     -2465.124 6        37.164                                    24732225.652 4 101274333.24004     -1920.864 4        28.834    24732226.974 6 101274329.21506     -1920.625 6        36.144
S21         5.000    38396116.779 7 201772577.22407      -513.739 7        42.025
E05         6.000    24917150.525 6 130940469.39806      2002.744 6        40.472                                                                    24917154.354 7  97780194.63007      1495.491 7        44.476    24917153.535 7 100330981.84907      1534.587 7        45.114
G20         7.000    23816218.741 6 125154950.59206     -4085.014 6        39.192                                    23816221.805 3  97523285.95703     -3183.107 3        23.010
R02         8.000    19125113.161 8 102055230.96608     -1135.066 8        51.679                                                                    19125114.531 7  79376281.55307      -882.868 7        47.241
R20         9.000    23700131.441 5 126735288.58405       262.321 5        31.668                                                                    23700139.398 6  98571912.54506       204.219 6        40.367
G24        10.000    24710209.202 6 129853000.21806      3010.640 6        37.157                                    24710212.806 4 101184163.48004      2345.958 4        28.379    24710213.356 5 101184168.45305      2345.863 5        33.006
G30        11.000    21695556.012 7 114010871.86307     -2660.793 7        46.420                                    21695556.927 7  88839618.82307     -2073.342 7        45.961    21695557.914 7  88839626.81607     -2073.287 7        42.377
S27        12.000    39090836.610 5 205423621.23505      -545.186 5        35.190
G13        13.000    19860492.875 8 104367561.85308       115.891 8        48.450                                    19860489.894 6  81325342.93506        90.305 6        40.610
S36        14.000    38165331.192 7 200560638.21907      -514.214 7        43.681
I09        15.000    39931208.830 6 156698425.16506     -1047.443 6        40.806
E09        16.000    23463795.463 8 123303061.84308        25.604 8        48.503                                                                    23463797.130 8  92076950.34508        19.188 8        50.567    23463796.595 8  94478955.21008        19.726 8        51.422
S45        17.000    63346782.267 6 332890347.10806      -561.209 6        36.609
R19        19.000    24513253.500 5 131129350.92505     -3194.767 5        31.645                                                                    24513254.823 5 101989489.63605     -2484.694 5        34.519
E21        20.000    28828419.721 4 151494216.07204     -3460.456 4        29.611                                                                    28828430.644 5 113128768.69805     -2583.909 5        34.390    28828429.111 5 116079955.43505     -2651.006 5        35.829
R03        21.000    20917149.665 8 111971103.37108      2748.299 8        50.424                                                                    20917150.342 7  87088625.82607      2137.604 7        45.564
I06        22.000    38020790.431 7 149201884.31807      -458.384 7        42.857
S28        23.000    40835781.828 5 214593323.14505      -522.630 5        34.352
S23        25.000    38097976.644 7 200206162.35307      -513.954 7        43.771
R01        26.000    21755638.069 7 116296253.49307     -4419.324 7        43.536                                                                    21755645.088 6  90452606.25106     -3437.303 6        38.180
C07        27.000                                                                                                                                    38920899.888 6 202671314.28006         5.914 6        40.119    38920899.219 7 156718303.30407         4.450 7        44.790    38920896.638 6 164687021.57106         4.641 6        41.232
C40        29.000                                                                                                                                    38924258.764 7 202688814.26407        57.111 7        42.698                                                                    38924260.543 7 164701265.33007        46.442 7        42.751
G17        30.000    24271814.759 6 127549277.52006      2460.768 6        39.652                                    24271821.144 5  99389083.27705      1917.473 5        33.144    24271821.343 6  99389080.29906      1917.630 6        37.282
G14        31.000    20466830.748 7 107553921.06307      -398.159 7        47.663                                    20466829.341 6  83808249.41306      -310.254 6        40.496    20466829.532 8  83808235.41508      -310.293 8        48.019
G23        32.000    24720726.372 6 129908250.40606      2528.650 6        38.381                                    24720725.244 3 101227185.42603      1970.378 3        22.914    24720725.700 6 101227180.44206      1970.383 6        39.408
I02        33.000    37521006.328 7 147240485.54907       129.097 7        42.250
E04        34.000    24572518.145 7 129129429.60807     -2389.750 7        45.774                                                                    24572520.102 8  96427814.49408     -1784.472 8        49.067    24572519.291 8  98943320.23908     -1831.089 8        49.647
R13        35.000    20506009.336 7 109500967.83607      2322.578 7        46.143
R12        36.000    19093966.200 8 101996524.77408     -1099.243 8        52.095                                                                    19093967.826 7  79330631.27407      -854.960 7        47.790
I01        37.000   393287025.337 5 240201664.47405     -3177.522 5        32.108
C10        38.000                                                                                                                                    38944179.466 6 202792555.49806       357.813 6        41.170    38944180.819 7 156812067.17007       276.749 7        44.358    38944177.999 6 164785550.55706       290.924 6        41.075
C19        39.000                                                                                                                                    24517869.586 7 127670869.95007     -3706.999 7        45.160                                                                    24517869.792 7 103742993.87707     -3012.300 7        45.503
E34        40.000    27948033.982 6 146867858.01106     -2123.468 6        37.943                                                                    27948038.064 6 109674033.74806     -1585.695 6        39.595    27948037.484 6 112535097.01806     -1626.998 6        40.369
G05        41.000    22000981.508 7 115615880.65707     -3044.289 7        46.033                                    22000980.788 7  90090261.33007     -2372.171 7        44.700    22000981.336 7  90090270.32107     -2372.237 7        42.423
S44        42.000    40844574.013 6 214639735.33806      -517.489 6        36.900
C36        43.000                                                                                                                                    21395474.647 8 111411825.64008      -598.080 8        51.514                                                                    21395480.617 8  90531249.29808      -486.054 8        49.874
C05        44.000                                                                                                                                    39310999.199 6 204702622.40706      -569.733 6        37.784    39311001.200 7 158289049.85207      -440.516 7        43.367    39311001.606 6 166337730.33206      -462.943 6        40.045
G18        46.000    25434244.642 6 133657814.05806     -2219.293 6        37.062                                    25434242.798 2 104148921.21402     -1729.341 2        16.981    25434243.718 5 104148911.22405     -1728.914 5        34.271
R11        47.000    22428832.811 7 119852775.29207     -4394.859 7        45.685                                                                    22428835.542 7  93218807.38607     -3418.310 7        43.052
C45        50.000                                                                                                                                    23450479.235 7 122112805.73407      1982.521 7        47.552                                                                    23450474.619 7  99226641.67707      1610.909 7        47.723
S48        51.000    77111394.660 6 405222796.33106      -502.183 6        37.312
E06        52.000    23333256.202 8 122617072.52708     -1247.184 8        48.155                                                                    23333258.479 8  91564696.56808      -931.338 8        50.521    23333258.123 8  93953340.08508      -955.640 8        51.341
C09        53.000                                                                                                                                    40865943.996 5 212799557.85505     -1137.446 5        34.710    40865951.803 6 164550065.85506      -879.772 6        40.513    40865946.628 5 172917018.20805      -924.674 5        35.271
C60        54.000                                                                                                                                    40844581.783 6 212688482.87906      -512.933 6        40.448                                                                    40844573.941 6 172826747.79206      -416.799 6        38.126
E31        55.000    23818087.569 8 125164896.19608       963.041 8        48.284                                                                    23818090.801 8  93467324.15608       719.219 8        49.751    23818090.215 8  95905598.36308       737.893 8        50.595
G07        56.000    24491684.736 6 128704549.49906     -3316.516 6        40.119                                    24491688.543 5 100289206.97205     -2584.287 5        31.532    24491689.128 5 100289215.94305     -2584.272 5        35.286
C02        57.000                                                                                                                                    40890020.985 5 212924935.47805      -560.542 5        33.281    40890026.961 6 164647012.22906      -433.397 6        37.112    40890027.694 5 173018915.99005      -455.755 5        33.060
I03        58.000    95576939.914 6 299278952.81906       846.823 6        40.100
C21        59.000                                                                                                                                    23980008.814 7 124870151.83807      1851.890 7        46.787                                                                    23980005.540 7 101467193.39007      1504.716 7        46.759
C22        60.000                                                                                                                                    21709195.054 8 113045430.12108     -1188.265 8        52.176                                                                    21709190.437 8  91858638.53408      -965.615 8        49.811
> 2025 01 02 08 31 45.0000000  0 54
E24         1.000    27355615.279 6 143754783.61206      2631.128 6        40.522                                                                    27355622.602 7 107349401.21307      1964.715 7        42.648    27355620.660 7 110149811.38807      2016.108 7        42.394
G15         2.000    21294797.413 7 111904870.60607      2087.917 7        46.231                                    21294795.914 7  87198577.10807      1626.947 7        44.787    21294796.214 7  87198572.10807      1626.904 7        43.147
E15         3.000    28427889.940 5 149389545.20405        55.286 5        35.833                                                                    28427894.392 6 111557123.51606        41.274 6        40.939    28427893.261 6 114467306.05506        42.387 6        41.325
G08         4.000    24734566.534 6 129981033.74806     -2467.928 6        36.801                                    24734572.315 4 101283942.74804     -1923.057 4        28.825    24734572.985 5 101283938.72605     -1922.847 5        35.881
S21         5.000    38396605.344 7 201775146.14507      -513.609 7        42.019
E05         6.000    24915245.142 6 130930456.55606      2002.466 6        40.782                                                                    24915248.979 7  97772717.50507      1495.297 7        44.477    24915248.206 7 100323309.68607      1534.326 7        45.088
G20         7.000    23820105.956 6 125175377.35406     -4085.560 6        40.100                                    23820108.902 3  97539202.86603     -3183.536 3        22.686
R02         8.000    19126178.527 8 102060916.39308     -1138.990 8        52.096                                                                    19126180.295 7  79380703.54307      -885.834 7        47.123
R20         9.000    23699886.760 5 126733986.68605       258.163 5        31.321                                                                    23699895.621 6  98570899.98706       200.999 6        40.412
G24        10.000    24707345.298 5 129837948.07005      3010.248 5        35.952                                    24707348.508 4 101172434.49004      2345.655 4        28.085    24707349.647 5 101172439.46905      2345.683 5        33.880
G30        11.000    21698088.249 7 114024178.93907     -2661.934 7        46.693                                    21698089.207 7  88849987.95807     -2074.232 7        45.970    21698089.819 7  88849995.95307     -2074.216 7        42.641
S27        12.000    39091352.872 5 205426348.72405      -545.787 5        35.262
G13        13.000    19860383.935 8 104366989.09208       113.337 8        48.491                                    19860380.911 6  81324896.62406        88.317 6        40.613
S36        14.000    38165819.292 7 200563210.78407      -514.589 7        43.636
I09        15.000    39932543.670 6 156703662.90306     -1047.465 6        41.120
E09        16.000    23463771.615 8 123302937.45708        24.163 8        48.418                                                                    23463773.386 8  92076857.45308        18.094 8        50.524    23463772.903 8  94478859.89708        18.549 8        51.403
S45        17.000    63347269.973 6 332893153.41706      -561.187 6        36.465
R19        19.000    24516240.967 5 131145330.94005     -3197.732 5        30.106                                                                    24516241.992 5 102001918.59305     -2486.776 5        35.529
E21        20.000    28831712.420 4 151511517.53004     -3460.255 4        29.744                                                                    28831722.752 5 113141688.58605     -2584.184 5        34.562    28831721.624 5 116093212.37105     -2651.482 5        35.900
R03        21.000    20914584.055 8 111957367.50108      2746.191 8        50.166                                                                    20914584.887 7  87077942.37107      2135.921 7        44.947
I06        22.000    38021374.871 7 149204176.77207      -458.413 7        42.988
S28        23.000    40836276.282 5 214595934.96205      -522.119 5        34.552
S23        25.000    38098468.133 7 200208731.60007      -513.727 7        43.926
R01        26.000    21759773.312 7 116318355.11107     -4421.207 7        43.663                                                                    21759779.862 6  90469796.36006     -3438.649 6        38.396
C07        27.000                                                                                                                                    38920894.714 6 202671287.45506         5.198 6        40.145    38920894.506 7 156718282.53607         3.937 7        44.755    38920891.594 6 164686999.76006         3.958 6        41.566
C40        29.000                                                                                                                                    38924204.924 7 202688531.20707        56.132 7        42.523                                                                    38924206.113 7 164701035.32607        45.603 7        42.891
G17        30.000    24269474.080 6 127536975.56106      2460.245 6        39.739                                    24269480.026 5  99379497.38505      1917.061 5        33.066    24269480.414 6  99379494.40906      1916.848 6        37.410
G14        31.000    20467211.041 7 107555919.82607      -401.223 7        47.858                                    20467209.706 6  83809806.89106      -312.642 6        40.446    20467209.950 8  83809792.89408      -312.744 8        48.123
G23        32.000    24718320.908 6 129895611.40706      2527.052 6        38.051                                    24718320.325 3 101217336.85303      1969.128 3        22.724    24718320.704 6 101217331.87206      1969.058 6        39.823
I02        33.000    37520841.720 7 147239840.99607       128.880 7        42.000
E04        34.000    24574792.561 7 129141381.36107     -2390.941 7        46.074                                                                    24574794.456 8  96436739.50108     -1785.433 8        49.007    24574793.676 8  98952478.06508     -1831.982 8        49.566
R13        35.000    20503836.116 7 109489361.75807      2319.962 7        45.701
R12        36.000    19094996.896 8 102002030.11308     -1102.791 8        52.001                                                                    19094998.624 8  79334913.19708      -857.713 8        48.207
I01        37.000   393291074.588 5 240217553.74505     -3177.988 5        32.635
C10        38.000                                                                                                                                    38943836.142 6 202790767.91806       357.151 6        41.073    38943837.655 7 156810684.90207       276.206 7        44.289    38943834.627 6 164784098.00906       290.212 6        41.189
C19        39.000                                                                                                                                    24521429.398 7 127689408.13107     -3708.222 7        45.455                                                                    24521430.353 7 103758057.63707     -3013.250 7        46.188
E34        40.000    27950055.170 6 146878480.17306     -2125.256 6        38.207                                                                    27950059.535 6 109681965.86106     -1586.985 6        39.556    27950058.900 6 112543236.05306     -1628.420 6        40.398
G05        41.000    22003879.139 7 115631108.15607     -3046.654 7        45.854                                    22003878.511 7  90102126.89807     -2374.009 7        44.621    22003879.085 7  90102135.88807     -2373.957 7        42.063
S44        42.000    40845068.950 6 214642323.49406      -517.705 6        36.703
C36        43.000                                                                                                                                    21396049.915 8 111414821.46508      -600.150 8        51.568                                                                    21396055.933 8  90533683.64908      -487.724 8        50.041
C05        44.000                                                                                                                                    39311546.476 6 204705470.94206      -569.674 6        37.743    39311548.289 7 158291252.51407      -440.567 7        43.069    39311548.754 6 166340044.99406      -462.930 6        40.226
G18        46.000    25436357.845 6 133668916.08106     -2221.612 6        36.420                                    25436355.497 2 104157572.14102     -1731.110 2        16.528    25436356.347 5 104157562.12905     -1730.982 5        34.933
R11        47.000    22432944.443 7 119874751.33207     -4395.588 7        45.490                                                                    22432948.188 7  93235899.81207     -3418.748 7        42.686
C45        50.000                                                                                                                                    23448576.179 7 122102896.70907      1981.155 7        47.560                                                                    23448571.655 7  99218589.78607      1609.857 7        47.884
S48        51.000    77111882.903 6 405225308.13006      -502.367 6        37.724
E06        52.000    23334443.720 8 122623312.83808     -1248.810 8        48.275                                                                    23334445.945 8  91569356.52308      -932.566 8        50.496    23334445.644 8  93958121.61108      -956.877 8        51.266
C09        53.000                                                                                                                                    40867036.731 5 212805246.66605     -1137.630 5        34.857    40867044.101 6 164554464.77006      -879.619 6        40.429    40867039.244 5 172921640.78905      -924.387 5        35.633
C60        54.000                                                                                                                                    40845074.270 6 212691047.49006      -512.855 6        40.613                                                                    40845066.495 6 172828831.74806      -416.764 6        38.523
E31        55.000    23817172.290 8 125160086.40308       960.994 8        48.159                                                                    23817175.528 8  93463732.42508       717.611 8        49.761    23817174.886 8  95901912.93308       736.336 8        50.558
G07        56.000    24494840.521 6 128721132.75406     -3316.730 6        39.829                                    24494844.278 5 100302128.92505     -2584.451 5        31.358    24494844.493 6 100302137.90106     -2584.406 6        36.329
C02        57.000                                                                                                                                    40890559.355 5 212927738.03105      -560.537 5        33.551    40890565.045 6 164649179.32206      -433.418 6        36.987    40890566.109 5 173021193.23305      -455.084 5        33.198
I03        58.000    95575861.131 6 299274718.31706       846.984 6        40.207
C21        59.000                                                                                                                                    23978231.586 7 124860897.28207      1850.075 7        46.767                                                                    23978228.289 7 101459673.30407      1503.277 7        46.787
C22        60.000                                                                                                                                    21710337.153 8 113051378.50008     -1190.987 8        52.135                                                                    21710332.755 8  91863472.07508      -967.823 8        50.041
> 2025 01 02 08 31 50.0000000  0 54
E24         1.000    27353112.384 6 143741630.38106      2630.257 6        40.336                                                                    27353119.533 7 107339578.99807      1964.200 7        42.764    27353117.798 7 110139732.94707      2015.341 7        42.629
G15         2.000    21292812.181 7 111894437.04907      2085.522 7        46.477                                    21292810.483 7  87190447.05707      1625.083 7        44.852    21292810.789 7  87190442.04807      1625.169 7        43.126
E15         3.000    28427838.085 5 149389275.14205        52.805 5        35.609                                                                    28427842.826 6 111556921.83906        39.369 6        40.765    28427842.026 6 114467099.11006        40.455 6        41.545
G08         4.000    24736916.006 6 129993379.97706     -2470.876 6        36.620                                    24736921.755 4 101293563.15504     -1925.349 4        28.882    24736922.623 6 101293559.13706     -1925.138 6        36.280
S21         5.000    38397093.529 6 201777715.11106      -513.991 6        41.733
E05         6.000    24913340.508 6 130920445.95306      2001.882 6        40.887                                                                    24913344.058 7  97765242.05907      1494.937 7        44.521    24913343.218 7 100315639.22807      1533.796 7        45.150
G20         7.000    23823994.017 6 125195806.90506     -4086.271 6        40.350                                    23823996.584 3  97555121.94903     -3184.099 3        23.314
R02         8.000    19127248.266 8 102066622.35908     -1143.305 8        51.886                                                                    19127249.152 7  79385141.50207      -889.230 7        46.924
R20         9.000    23699649.743 4 126732705.96004       254.169 4        29.886                                                                    23699657.109 6  98569903.88606       197.519 6        40.715
G24        10.000    24704481.330 6 129822898.28906      3009.683 6        36.019                                    24704484.550 4 101160707.34104      2345.216 4        27.832    24704485.278 5 101160712.32105      2345.273 5        33.982
G30        11.000    21700621.789 7 114037492.63607     -2663.480 7        46.520                                    21700622.788 7  88860362.24907     -2075.434 7        46.010    21700623.434 7  88860370.24507     -2075.494 7        42.641
S27        12.000    39091873.758 5 205429076.45205      -545.677 5        35.114
G13        13.000    19860277.267 8 104366429.28608       110.630 8        48.382                                    19860274.384 6  81324460.40606        86.206 6        40.682
S36        14.000    38166309.431 7 200565783.75807      -514.631 7        43.816
I09        15.000    39933879.030 6 156708901.01706     -1047.773 6        41.318
E09        16.000    23463749.527 8 123302821.02408        22.419 8        48.378                                                                    23463751.274 8  92076770.50508        16.741 8        50.545    23463750.745 8  94478770.68108        17.172 8        51.479
S45        17.000    63347761.561 6 332895960.15306      -561.419 6        36.257
R19        19.000    24519231.252 5 131161325.32005     -3200.198 5        32.335                                                                    24519232.882 5 102014358.65905     -2489.200 5        35.733
E21        20.000    28835004.486 4 151528821.35204     -3461.427 4        29.156                                                                    28835015.612 5 113154610.18705     -2584.524 5        34.538    28835014.401 5 116106471.09605     -2651.961 5        35.390
R03        21.000    20912020.630 8 111943642.88208      2743.759 8        50.775                                                                    20912020.701 7  87067267.65907      2134.051 7        45.106
I06        22.000    38021958.782 7 149206469.70607      -458.748 7        43.221
S28        23.000    40836773.907 5 214598547.01605      -522.659 5        34.505
S23        25.000    38098954.762 7 200211301.30307      -513.920 7        43.716
R01        26.000    21763910.424 7 116340466.58907     -4423.366 7        44.415                                                                    21763915.634 6  90486994.11806     -3440.221 6        38.147
C07        27.000                                                                                                                                    38920890.743 6 202671265.06606         4.004 6        40.074    38920889.945 7 156718265.22407         3.069 7        44.817    38920887.176 6 164686981.54306         3.079 6        41.383
C40        29.000                                                                                                                                    38924151.675 7 202688253.61707        54.953 7        42.751                                                                    38924152.835 7 164700809.75807        44.565 7        42.777
G17        30.000    24267133.539 6 127524676.86806      2459.230 6        39.757                                    24267139.583 5  99369914.02805      1916.274 5        33.048    24267140.514 6  99369911.01806      1916.622 6        37.490
G14        31.000    20467594.656 7 107557934.55107      -404.611 7        47.637                                    20467593.090 6  83811376.80206      -315.277 6        40.539    20467593.338 7  83811362.79907      -315.289 7        47.915
G23        32.000    24715917.532 6 129882981.78306      2525.178 6        37.244                                    24715917.092 3 101207495.57503      1967.684 3        22.838    24715916.858 6 101207490.60106      1967.321 6        39.679
I02        33.000    37520678.208 7 147239197.83107       128.365 7        42.152
E04        34.000    24577067.961 7 129153339.86407     -2392.423 7        45.952                                                                    24577070.153 8  96445669.53408     -1786.559 8        49.115    24577069.383 8  98961641.06208     -1833.141 8        49.597
R13        35.000    20501665.112 7 109477769.56607      2316.984 7        46.186
R12        36.000    19096030.752 8 102007553.46508     -1106.509 8        52.230                                                                    19096032.625 7  79339209.13107      -860.611 7        47.949
I01        37.000   393295123.146 5 240233443.15605     -3177.805 5        33.126
C10        38.000                                                                                                                                    38943493.592 6 202788984.35806       356.397 6        41.116    38943495.302 7 156809305.75407       275.509 7        44.457    38943492.063 6 164782648.73606       289.488 6        41.251
C19        39.000                                                                                                                                    24524990.827 7 127707952.39307     -3709.486 7        45.798                                                                    24524991.795 7 103773126.33407     -3014.379 7        46.305
E34        40.000    27952078.012 6 146889112.33806     -2127.553 6        37.584                                                                    27952082.798 6 109689905.43706     -1588.674 6        39.535    27952082.000 6 112551382.76606     -1630.153 6        40.439
G05        41.000    22006779.130 7 115646348.49307     -3049.378 7        46.338                                    22006778.649 7  90114002.46607     -2376.134 7        44.713    22006779.286 7  90114011.46007     -2376.149 7        42.318
S44        42.000    40845558.266 6 214644911.88106      -517.749 6        36.847
C36        43.000                                                                                                                                    21396627.358 8 111417828.16708      -602.483 8        51.639                                                                    21396633.354 8  90536126.82708      -489.612 8        49.978
C05        44.000                                                                                                                                    39312092.770 6 204708319.83806      -569.830 6        37.781    39312095.034 7 158293455.45407      -440.626 7        43.240    39312095.727 6 166342359.95006      -463.126 6        40.083
G18        46.000    25438471.673 6 133680029.72306     -2224.052 6        36.344                                    25438470.512 2 104166232.09802     -1733.014 2        16.755    25438470.998 5 104166222.09605     -1733.071 5        35.090
R11        47.000    22437058.107 7 119896731.46407     -4396.493 7        46.014                                                                    22437061.337 7  93252995.44007     -3419.508 7        42.085
C45        50.000                                                                                                                                    23446674.932 7 122092994.98107      1979.527 7        47.396                                                                    23446670.163 7  99210543.81807      1608.485 7        47.840
S48        51.000    77112367.162 6 405227820.22706      -502.404 6        37.769
E06        52.000    23335632.684 8 122629561.49308     -1250.617 8        48.262                                                                    23335634.990 8  91574022.72008      -933.909 8        50.540    23335634.752 8  93962909.53508      -958.277 8        51.296
C09        53.000                                                                                                                                    40868129.762 5 212810935.52405     -1137.734 5        35.524    40868136.465 6 164558863.75306      -879.845 6        40.486    40868131.680 5 172926263.45505      -924.812 5        35.838
C60        54.000                                                                                                                                    40845566.832 6 212693612.35106      -512.982 6        40.498                                                                    40845558.646 6 172830915.91906      -417.021 6        38.321
E31        55.000    23816259.175 7 125155287.28307       958.701 7        47.999                                                                    23816262.285 8  93460148.67508       715.897 8        49.761    23816261.631 8  95898235.69008       734.625 8        50.653
G07        56.000    24497996.390 6 128737717.88806     -3317.210 6        39.778                                    24498000.466 5 100315052.33005     -2584.824 5        31.449    24498000.811 6 100315061.29306     -2584.933 6        36.692
C02        57.000                                                                                                                                    40891097.797 5 212930540.87605      -560.489 5        33.431    40891103.250 6 164651346.65506      -433.474 6        36.790    40891104.242 5 173023470.79305      -455.608 5        33.198
I03        58.000    95574781.595 6 299270483.99706       846.828 6        40.424
C21        59.000                                                                                                                                    23976456.278 7 124851651.92407      1848.169 7        46.685                                                                    23976452.730 7 101452160.68207      1501.698 7        46.751
C22        60.000                                                                                                                                    21711482.340 8 113057340.94208     -1193.990 8        52.263                                                                    21711477.785 8  91868317.03308      -970.266 8        49.873
> 2025 01 02 08 31 55.0000000  0 54
E24         1.000    27350609.757 6 143728480.07606      2629.990 6        40.040                                                                    27350617.129 7 107329758.96807      1963.945 7        42.811    27350615.600 7 110129656.74807      2015.265 7        43.054
G15         2.000    21290828.882 7 111884014.67707      2083.662 7        46.336                                    21290827.179 7  87182325.72307      1623.637 7        44.847    21290827.804 7  87182320.72307      1623.594 7        43.183
E15         3.000    28427789.265 5 149389017.57405        50.456 5        35.648                                                                    28427793.581 6 111556729.48006        37.770 6        40.722    28427792.879 6 114466901.73506        38.848 6        41.197
G08         4.000    24739268.940 6 130005740.13106     -2473.141 6        36.571                                    24739273.882 4 101303194.41304     -1927.122 4        28.976    24739274.717 6 101303190.38806     -1927.163 6        36.280
S21         5.000    38397580.940 6 201780284.53206      -513.723 6        41.824
E05         6.000    24911435.895 6 130910437.56606      2001.643 6        40.584                                                                    24911439.509 7  97757768.26607      1494.803 7        44.655    24911438.648 7 100307970.46307      1533.787 7        44.992
G20         7.000    23827881.843 6 125216239.26206     -4086.419 6        40.043                                    23827885.045 3  97571043.21703     -3184.215 3        23.657
R02         8.000    19128321.161 8 102072348.68908     -1147.130 8        51.813                                                                    19128322.807 7  79389595.31707      -892.220 7        46.848
R20         9.000    23699414.115 4 126731446.47004       249.981 4        29.991                                                                    23699421.035 6  98568924.27806       194.482 6        39.757
G24        10.000    24701618.159 5 129807850.81105      3009.670 5        35.681                                    24701621.249 4 101148981.99204      2345.202 4        27.832    24701621.688 5 101148986.99205      2345.015 5        33.928
G30        11.000    21703156.447 7 114050812.97407     -2664.428 7        46.668                                    21703157.657 7  88870741.71007     -2076.173 7        45.992    21703158.376 7  88870749.69907     -2076.171 7        42.847
S27        12.000    39092389.099 5 205431804.78805      -545.575 5        35.262
G13        13.000    19860173.164 8 104365882.40708       108.376 8        48.504                                    19860170.302 6  81324034.26006        84.450 6        40.684
S36        14.000    38166797.996 7 200568356.71707      -514.212 7        43.818
I09        15.000    39935213.873 6 156714139.50106     -1047.546 6        41.275
E09        16.000    23463729.075 8 123302712.53008        21.136 8        48.433                                                                    23463730.613 8  92076689.48408        15.790 8        50.644    23463730.127 8  94478687.54808        16.212 8        51.292
S45        17.000    63348247.269 6 332898767.28706      -561.043 6        36.163
R19        19.000    24522224.412 5 131177334.12505     -3203.083 5        30.045                                                                    24522226.217 6 102026809.93706     -2491.281 6        36.756
E21        20.000    28838298.107 5 151546127.50205     -3461.360 5        30.038                                                                    28838309.082 5 113167533.53105     -2584.598 5        34.429    28838307.822 5 116119731.57605     -2652.085 5        35.267
R03        21.000    20909459.216 8 111929929.37208      2741.847 8        51.025                                                                    20909459.668 7  87056601.58507      2132.610 7        45.735
I06        22.000    38022543.232 7 149208763.05107      -458.495 7        43.026
S28        23.000    40837265.772 5 214601159.15305      -522.324 5        34.743
S23        25.000    38099443.568 7 200213871.35607      -513.828 7        43.547
R01        26.000    21768048.954 7 116362588.02007     -4425.014 7        44.488                                                                    21768054.902 6  90504199.62606     -3441.523 6        38.195
C07        27.000                                                                                                                                    38920886.728 6 202671247.12806         3.469 6        40.057    38920886.806 7 156718251.34607         2.680 7        44.915    38920884.002 6 164686966.95306         2.778 6        41.442
C40        29.000                                                                                                                                    38924099.806 7 202687981.48907        54.081 7        43.084                                                                    38924100.572 7 164700588.60707        44.059 7        42.836
G17        30.000    24264793.852 6 127512381.38606      2458.766 6        39.363                                    24264799.735 5  99360333.17305      1915.917 5        32.958    24264799.842 6  99360330.18406      1916.172 6        37.584
G14        31.000    20467981.003 7 107559965.22007      -407.549 7        47.633                                    20467979.523 6  83812959.13506      -317.569 6        40.491    20467979.851 8  83812945.12608      -317.464 8        48.185
G23        32.000    24713516.092 6 129870361.58706      2523.195 6        38.096                                    24713515.633 3 101197661.64803      1966.105 3        22.857    24713515.205 6 101197656.64906      1966.190 6        39.309
I02        33.000    37520514.592 7 147238556.30607       128.301 7        42.203
E04        34.000    24579344.755 7 129165305.09407     -2393.388 7        45.812                                                                    24579347.074 8  96454604.59508     -1787.314 8        49.176    24579346.398 8  98970809.21108     -1833.894 8        49.587
R13        35.000    20499497.210 7 109466191.18607      2314.616 7        46.473
R12        36.000    19097068.255 8 102013094.73508     -1109.782 8        52.292                                                                    19097069.614 7  79343519.00807      -863.198 7        47.922
I01        37.000   393299172.371 5 240249332.73505     -3177.734 5        33.347
C10        38.000                                                                                                                                    38943151.981 6 202787204.80206       355.831 6        40.932    38943153.173 7 156807929.70307       275.108 7        44.501    38943150.467 6 164781202.69506       289.051 6        41.256
C19        39.000                                                                                                                                    24528553.318 7 127726502.75407     -3710.489 7        45.252                                                                    24528554.145 7 103788199.97107     -3014.957 7        46.484
E34        40.000    27954102.817 6 146899754.49606     -2129.332 6        38.021                                                                    27954108.069 6 109697852.49206     -1589.975 6        39.715    27954106.927 6 112559537.13206     -1631.435 6        40.164
G05        41.000    22009681.808 7 115661601.66707     -3051.688 7        46.661                                    22009681.242 7  90125888.03407     -2377.935 7        44.710    22009682.008 7  90125897.03207     -2377.871 7        42.504
S44        42.000    40846049.067 6 214647500.52606      -517.621 6        37.025
C36        43.000                                                                                                                                    21397206.927 8 111420845.72408      -604.344 8        51.590                                                                    21397212.850 8  90538578.82908      -491.045 8        50.112
C05        44.000                                                                                                                                    39312640.025 6 204711169.09706      -569.774 6        37.732    39312642.518 7 158295658.68007      -440.441 7        43.261    39312642.817 6 166344675.18606      -462.748 6        40.236
G18        46.000    25440589.142 6 133691154.97306     -2225.829 6        36.030                                    25440587.534 2 104174901.10902     -1734.432 2        16.641    25440587.738 5 104174891.10205     -1734.503 5        35.786
R11        47.000    22441172.125 7 119918715.62307     -4397.033 7        45.857                                                                    22441175.544 7  93270094.19807     -3419.820 7        42.227
C45        50.000                                                                                                                                    23444775.021 7 122083100.55207      1978.359 7        47.500                                                                    23444769.988 7  99202503.78007      1607.584 7        47.901
S48        51.000    77112850.423 6 405230332.26706      -502.277 6        37.645
E06        52.000    23336823.118 8 122635818.50308     -1251.958 8        48.273                                                                    23336825.716 8  91578695.15408      -934.896 8        50.608    23336825.373 8  93967703.85708      -959.306 8        51.151
C09        53.000                                                                                                                                    40869222.072 5 212816624.49105     -1137.509 5        35.724    40869228.803 6 164563262.78006      -879.463 6        40.336    40869224.459 5 172930886.14605      -924.267 5        35.981
C60        54.000                                                                                                                                    40846059.368 6 212696177.46806      -512.775 6        40.446                                                                    40846051.562 6 172833000.28306      -416.825 6        38.447
E31        55.000    23815347.974 8 125150498.87808       956.906 8        48.207                                                                    23815351.114 8  93456572.91408       714.592 8        49.948    23815350.404 8  95894566.65008       733.226 8        50.478
G07        56.000    24501152.759 6 128754304.85106     -3317.217 6        39.459                                    24501157.118 5 100327977.16505     -2584.821 5        31.426    24501157.887 6 100327986.12706     -2584.897 6        36.696
C02        57.000                                                                                                                                    40891637.141 5 212933343.98505      -560.745 5        33.359    40891641.691 6 164653514.19306      -433.314 6        36.987    40891642.478 5 173025748.53205      -455.169 5        33.353
I03        58.000    95573703.120 6 299266249.82806       846.989 6        40.586
C21        59.000                                                                                                                                    23974682.414 7 124842415.79807      1846.521 7        46.718                                                                    23974679.059 7 101444655.56207      1500.487 7        46.999
C22        60.000                                                                                                                                    21712630.250 8 113063317.44208     -1196.490 8        52.183                                                                    21712625.563 8  91873173.40508      -972.169 8        50.029
