     3.04           OBSERVATION DATA    M                   RINEX VERSION / TYPE
ssrcrin-15.6.1x                         20250102 110000 UTC PGM / RUN BY / DATE 
(00000000023479385599111004) Septentrio proprietary         COMMENT             
rref                                                        MARKER NAME         
01                                                          MARKER NUMBER       
geodetic                                                    MARKER TYPE         
NFB                 CLIMERS@TUW                             OBSERVER / AGENCY   
3297213             SEPT ASTERX SB3 PROB4.14.4              REC # / TYPE / VERS 
Unknown             Unknown                                 ANT # / TYPE        
  4127832.1743  1207193.1366  4695247.8302                  APPROX POSITION XYZ 
        0.0000        0.0000        0.0000                  ANTENNA: DELTA H/E/N
G   23 X1  C1C L1C D1C S1C C1W S1W C2W L2W D2W S2W C2L L2L  SYS / # / OBS TYPES 
       D2L S2L C5Q L5Q D5Q S5Q C1L L1L D1L S1L              SYS / # / OBS TYPES 
E   21 X1  C1C L1C D1C S1C C6C L6C D6C S6C C5Q L5Q D5Q S5Q  SYS / # / OBS TYPES 
       C7Q L7Q D7Q S7Q C8Q L8Q D8Q S8Q                      SYS / # / OBS TYPES 
S    9 X1  C1C L1C D1C S1C C5I L5I D5I S5I                  SYS / # / OBS TYPES 
R   17 X1  C1C L1C D1C S1C C2P L2P D2P S2P C2C L2C D2C S2C  SYS / # / OBS TYPES 
       C3Q L3Q D3Q S3Q                                      SYS / # / OBS TYPES 
C   25 X1  C1P L1P D1P S1P C5P L5P D5P S5P C2I L2I D2I S2I  SYS / # / OBS TYPES 
       C7I L7I D7I S7I C6I L6I D6I S6I C7D L7D D7D S7D      SYS / # / OBS TYPES 
J   17 X1  C1C L1C D1C S1C C2L L2L D2L S2L C5Q L5Q D5Q S5Q  SYS / # / OBS TYPES 
       C1L L1L D1L S1L                                      SYS / # / OBS TYPES 
I    5 X1  C5A L5A D5A S5A                                  SYS / # / OBS TYPES 
SEPTENTRIO RECEIVERS OUTPUT ALIGNED CARRIER PHASES.         COMMENT             
NO FURTHER PHASE SHIFT APPLIED IN THE RINEX ENCODER.        COMMENT             
G L1C                                                       SYS / PHASE SHIFT   
G L2W                                                       SYS / PHASE SHIFT   
G L2L  0.00000                                              SYS / PHASE SHIFT   
G L5Q  0.00000                                              SYS / PHASE SHIFT   
G L1L  0.00000                                              SYS / PHASE SHIFT   
E L1C  0.00000                                              SYS / PHASE SHIFT   
E L6C  0.00000                                              SYS / PHASE SHIFT   
E L5Q  0.00000                                              SYS / PHASE SHIFT   
E L7Q  0.00000                                              SYS / PHASE SHIFT   
E L8Q  0.00000                                              SYS / PHASE SHIFT   
S L1C                                                       SYS / PHASE SHIFT   
S L5I                                                       SYS / PHASE SHIFT   
R L1C                                                       SYS / PHASE SHIFT   
R L2P  0.00000                                              SYS / PHASE SHIFT   
R L2C                                                       SYS / PHASE SHIFT   
R L3Q  0.00000                                              SYS / PHASE SHIFT   
C L1P  0.00000                                              SYS / PHASE SHIFT   
C L5P  0.00000                                              SYS / PHASE SHIFT   
C L2I                                                       SYS / PHASE SHIFT   
C L7I                                                       SYS / PHASE SHIFT   
C L6I                                                       SYS / PHASE SHIFT   
C L7D                                                       SYS / PHASE SHIFT   
J L1C                                                       SYS / PHASE SHIFT   
J L2L  0.00000                                              SYS / PHASE SHIFT   
J L5Q  0.00000                                              SYS / PHASE SHIFT   
J L1L  0.00000                                              SYS / PHASE SHIFT   
I L5A                                                       SYS / PHASE SHIFT   
  2025     1     2    11     0    0.0000000     GPS         TIME OF FIRST OBS   
 C1C    0.000 C2C    0.000 C2P    0.000                     GLONASS COD/PHS/BIS 
DBHZ                                                        SIGNAL STRENGTH UNIT
    18                                                      LEAP SECONDS        
 24 R01  1 R02 -4 R03  5 R04  6 R05  1 R06 -4 R07  5 R08  6 GLONASS SLOT / FRQ #
    R09 -2 R10 -7 R11  0 R12 -1 R13 -2 R14 -7 R15  0 R16 -1 GLONASS SLOT / FRQ #
    R17  4 R18 -3 R19  3 R20  2 R21  4 R22 -3 R23  3 R24  2 GLONASS SLOT / FRQ #
                                                            END OF HEADER       
> 2025 01 02 11 00  0.0000000  0 55
E24         1.000    23658956.701 8 124328779.94208       323.896 8        48.801                                                                    23658958.589 8  92842990.30608       241.901 8        50.527    23658957.765 8  95264970.00608       248.215 8        51.086
G15         2.000    21390956.468 7 112410156.75507     -3355.527 7        47.929                                    21390956.884 7  87592298.50207     -2614.689 7        46.438    21390957.302 7  87592293.49007     -2614.655 7        43.397
E03         3.000    26483907.716 6 139173856.45406      1985.551 6        41.099                                                                    26483915.547 7 103928535.59807      1482.643 7        44.098    26483914.347 7 106639716.42707      1521.357 7        44.733
G19         4.000    21341856.747 7 112152381.91907       740.968 7        47.124                                    21341854.673 6  87391500.37306       577.384 6        38.150
S21         5.000    38349547.330 7 201527837.44507      -498.113 7        42.525
E05         6.000    22144651.101 8 116370884.87208      -399.635 8        48.385                                                                    22144655.259 8  86900309.43608      -298.405 8        50.646    22144654.515 8  89167273.66408      -306.264 8        51.157
C29         8.000                                                                                                                                    24205478.071 7 126044278.93207      2006.789 7        45.234                                                                    24205480.633 7 102421313.55507      1630.720 7        43.898
R05         9.000    22713064.287 7 121414361.88807      3125.874 7        47.032                                                                    22713070.030 7  94433436.44207      2431.201 7        42.800
G24        10.000    20192367.788 8 106111615.01508       645.792 8        49.770                                    20192369.425 8  82684390.97808       503.212 8        52.173    20192369.841 7  82684395.98907       503.104 7        46.092
C14        11.000                                                                                                                                    25410422.358 6 132318744.92006      1462.376 6        39.880    25410427.043 7 102317273.05507      1130.895 7        46.251    25410423.392 7 107519829.58407      1188.294 7        42.999
S27        12.000    39098751.735 6 205465168.90906      -528.352 6        36.798
G13        13.000    22664621.077 7 119103282.25807     -4092.647 7        44.313                                    22664622.006 4  92807704.91804     -3189.077 4        28.436
S36        14.000    38120027.994 7 200322530.62207      -498.854 7        44.390
G02        15.000    25804313.532 6 135602581.47306     -1583.657 6        36.057                                    25804320.691 2 105664375.04902     -1233.999 2        16.453
E09        16.000    25157343.555 7 132202670.14007     -3062.876 7        46.279                                                                    25157348.967 7  98722747.71407     -2287.229 7        47.846    25157348.071 8 101298122.83708     -2346.831 8        48.797
G12        17.000    22138820.593 7 116340431.99307      2475.488 7        47.088                                    22138820.958 7  90654957.19407      1928.952 7        44.623    22138821.381 7  90654954.20807      1928.828 7        42.368
R21        18.000    24510672.582 6 131161542.02206     -3745.194 6        39.012                                                                    24510683.148 6 102014568.03206     -2913.007 6        38.553
R22        19.000    22241204.693 7 118725131.97907      -584.809 7        46.179                                                                    22241211.002 7  92341764.66007      -454.881 7        43.778
R03        21.000    20790064.352 8 111290758.97308     -3983.492 8        50.778                                                                    20790067.316 7  86559458.40907     -3098.271 7        45.535
I06        22.000    38190594.085 6 149868205.35406      -481.654 6        41.385
S28        23.000    40806253.893 5 214438155.15805      -508.749 5        35.100
S23        25.000    38054482.660 7 199977508.42907      -501.715 7        44.807
S45        26.000    63305105.265 6 332671490.15706      -554.611 6        36.541
C07        27.000                                                                                                                                    39105877.758 6 203634494.52606     -1159.189 6        39.880    39105878.701 7 157463084.28607      -896.274 7        43.189    39105875.480 6 165469675.52806      -942.014 6        40.355
R04        28.000    19950090.683 8 106831814.32808      -181.469 8        51.520                                                                    19950091.820 7  83091388.16107      -141.182 7        47.420
C40        29.000                                                                                                                                    39309957.767 7 204697202.13607     -1409.150 7        42.036                                                                    39309961.733 6 166333235.15006     -1145.057 6        41.678
G17        30.000    22174414.131 7 116527447.47307     -1820.618 7        46.595                                    22174414.965 7  90800665.92107     -1418.662 7        43.801    22174415.109 7  90800662.92407     -1418.745 7        42.650
G14        31.000    23829959.683 6 125227161.62006     -3760.752 6        40.641                                    23829965.957 4  97579575.00804     -2930.451 4        25.008    23829965.849 6  97579561.00106     -2930.312 6        39.459
G23        32.000    23723406.575 6 124667214.92506     -2580.783 6        40.443                                    23723411.876 4  97143239.08304     -2010.993 4        25.504    23723411.897 6  97143234.07306     -2010.818 6        40.322
I02        33.000    36821454.117 7 144495283.11207      -300.044 7        43.160
R15        34.000    24172350.892 6 129169702.01406      2897.665 6        40.439                                                                    24172362.508 6 100465353.75706      2253.760 6        36.771
R13        35.000    19948944.674 7 106526265.01607     -2381.246 7        46.796
R12        36.000    23280157.921 7 124358269.90207     -3924.535 7        43.869                                                                    23280169.518 6  96723063.81706     -3052.337 6        41.361
C42        37.000                                                                                                                                    24015167.437 7 125053273.83807       110.692 7        45.732                                                                    24015179.336 7 101616072.37407        89.895 7        46.436
C10        38.000                                                                                                                                    38487171.312 6 200412771.51706      -808.014 6        41.826    38487173.705 7 154971861.77007      -624.907 7        44.835    38487170.491 6 162851776.77406      -656.839 6        41.242
E25        39.000    26646335.953 6 140027536.84006      2112.711 6        41.030                                                                    26646346.109 7 104566112.58607      1577.606 7        42.646    26646344.832 7 107293912.57207      1618.746 7        43.795
C30        40.000                                                                                                                                    24431307.048 7 127220266.89507      -695.024 7        45.297                                                                    24431313.909 7 103376928.26307      -564.804 7        43.342
R23        41.000    22248683.343 7 119015513.00407      2513.044 7        44.328
S44        42.000    40761548.547 6 214203417.33106      -452.539 6        38.562
C36        43.000                                                                                                                                    23899275.346 7 124449701.64007     -2925.690 7        45.627                                                                    23899284.725 7 101125576.67507     -2377.263 7        46.183
C05        44.000                                                                                                                                    39349175.104 6 204901385.65906      -528.315 6        38.811    39349177.641 7 158442739.73107      -408.711 7        42.688    39349177.346 6 166499236.59206      -429.495 6        39.015
R14        45.000    20181373.962 8 107578183.06408      1358.374 8        51.580                                                                    20181378.123 7  83672000.56307      1056.537 7        47.157
E26        46.000    28093621.862 6 147633000.64006       198.977 6        36.544                                                                    28093634.632 6 110245484.32506       148.623 6        40.195    28093632.636 6 113121443.37306       152.609 6        40.288
G10        47.000    24259309.052 6 127483471.95006      -277.791 6        40.746                                    24259314.794 5  99337765.31005      -216.461 5        35.114    24259314.921 6  99337766.30706      -216.477 6        37.720
C45        50.000                                                                                                                                    21545732.145 8 112194298.43608      -829.709 8        50.580                                                                    21545726.201 8  91167044.92008      -674.230 8        50.044
S48        51.000    77057604.971 6 404940446.22406      -496.313 6        38.048
E06        52.000    26784112.692 6 140751333.01206     -3589.684 6        39.480                                                                    26784123.375 7 105106481.11807     -2680.754 7        43.736    26784122.445 7 107848392.45707     -2750.543 7        44.859
E33        53.000    28314908.864 6 148795887.60006      1907.677 6        36.215                                                                    28314922.782 6 111113867.07006      1424.458 6        39.526    28314920.962 6 114012480.59006      1461.582 6        40.548
C60        54.000                                                                                                                                    40761549.525 6 212256131.52206      -448.243 6        40.100                                                                    40761541.424 6 172475430.23706      -364.414 6        39.153
E31        55.000    24294919.203 7 127670639.14207     -2258.253 7        46.128                                                                    24294924.354 8  95338488.53708     -1686.385 8        48.526    24294923.575 8  97825576.57108     -1730.340 8        49.441
C26        56.000                                                                                                                                    23661409.951 7 123211233.99507      1778.768 7        45.943                                                                    23661413.067 7 100119257.39907      1445.331 7        46.459
C02        57.000                                                                                                                                    40889671.407 5                      -493.695 5        30.423    40889677.991 5 164645602.06305      -381.774 5        35.829    40889677.758 5                      -401.094 5        30.709
I03        58.000    92672941.903 5 287883027.26905       922.448 5        33.754
C21        59.000                                                                                                                                    23704265.385 7 123434241.17707     -2722.351 7        47.539                                                                    23704263.859 7 100300389.83907     -2212.162 7        47.738
C22        60.000                                                                                                                                    26021195.333 6 135498963.14006     -4003.708 6        40.555                                                                    26021199.825 6 110103935.09906     -3253.368 6        41.533
> 2025 01 02 11 00  5.0000000  0 55
E24         1.000    23658649.013 8 124327164.50908       322.299 8        48.852                                                                    23658651.184 8  92841783.97908       240.673 8        50.667    23658650.331 8  95263732.20508       246.965 8        51.142
G15         2.000    21394150.210 8 112426940.06408     -3357.819 8        48.240                                    21394150.660 7  87605376.38307     -2616.477 7        46.432    21394151.263 7  87605371.37707     -2616.501 7        43.007
E03         3.000    26482019.088 6 139163931.15906      1984.521 6        40.639                                                                    26482026.941 7 103921123.85707      1481.984 7        44.178    26482025.591 7 106632111.34207      1520.611 7        44.746
G19         4.000    21341153.567 7 112148685.12107       737.849 7        47.392                                    21341151.211 6  87388619.74406       574.949 6        38.171
S21         5.000    38350024.286 7 201530328.52507      -498.366 7        42.535
E05         6.000    22145032.644 8 116372888.80708      -401.903 8        48.439                                                                    22145036.588 8  86901805.87008      -300.071 8        50.706    22145035.830 8  89168809.13408      -307.952 8        51.217
C29         8.000                                                                                                                                    24203551.892 7 126034249.03007      2005.278 7        45.007                                                                    24203554.694 7 102413163.45207      1629.341 7        44.038
R05         9.000    22710140.754 7 121398738.87307      3123.519 7        46.149                                                                    22710147.784 7  94421285.25407      2429.363 7        43.124
G24        10.000    20191754.777 8 106108392.38408       643.369 8        50.114                                    20191756.182 8  82681879.83808       501.326 8        52.198    20191756.652 7  82681884.84607       501.318 7        46.287
C14        11.000                                                                                                                                    25409019.640 6 132311438.34106      1460.227 6        39.532    25409023.429 7 102311623.17607      1129.096 7        46.334    25409020.281 7 107513892.42107      1186.658 7        43.198
S27        12.000    39099254.090 6 205467810.85006      -528.278 6        36.741
G13        13.000    22668515.176 7 119123748.57907     -4093.844 7        44.551                                    22668516.562 4  92823652.67604     -3190.007 4        28.796
S36        14.000    38120502.974 7 200325025.52707      -499.227 7        44.385
G02        15.000    25805822.209 6 135610507.48006     -1586.527 6        36.299                                    25805828.893 2 105670551.14802     -1236.246 2        16.981
E09        16.000    25160258.336 7 132217987.85507     -3064.191 7        46.361                                                                    25160263.837 8  98734186.23908     -2288.177 8        48.081    25160262.792 8 101309859.76408     -2347.857 8        48.828
G12        17.000    22136466.006 7 116328058.83307      2473.793 7        47.077                                    22136466.429 7  90645315.79507      1927.625 7        44.691    22136466.699 7  90645312.80207      1927.717 7        42.569
R21        18.000    24514172.622 6 131180273.94806     -3747.531 6        39.009                                                                    24514183.612 6 102029137.31306     -2914.861 6        38.544
R22        19.000    22241754.360 7 118728066.68107      -589.190 7        46.039                                                                    22241759.532 7  92344047.22407      -458.220 7        42.554
R03        21.000    20793786.709 8 111310684.04108     -3986.491 8        50.395                                                                    20793789.198 7  86574955.65407     -3100.574 7        44.986
I06        22.000    38191207.599 6 149870613.14506      -481.431 6        41.275
S28        23.000    40806739.091 5 214440699.71005      -508.772 5        35.181
S23        25.000    38054957.810 7 199980016.68907      -501.430 7        44.826
S45        26.000    63305581.886 6 332674263.05106      -554.545 6        36.280
C07        27.000                                                                                                                                    39106991.128 6 203640291.50906     -1159.515 6        40.236    39106991.878 7 157467566.87507      -896.685 7        43.462    39106988.940 6 165474386.04606      -942.255 6        40.293
R04        28.000    19950262.450 8 106832733.41508      -186.154 8        51.737                                                                    19950263.906 7  83092103.01007      -144.814 7        47.174
C40        29.000                                                                                                                                    39311310.874 6 204704249.37706     -1409.673 6        41.897                                                                    39311315.212 6 166338961.60706     -1145.479 6        41.526
G17        30.000    22176147.965 7 116536557.82707     -1823.544 7        46.348                                    22176148.560 7  90807764.89007     -1420.942 7        43.835    22176148.638 7  90807761.89407     -1420.924 7        42.161
G14        31.000    23833537.686 6 125245966.24006     -3761.046 6        40.300                                    23833544.190 4  97594227.91704     -2930.669 4        24.361    23833544.323 6  97594213.90506     -2930.754 6        39.607
G23        32.000    23725863.752 6 124680124.04806     -2583.018 6        41.869                                    23725868.429 4  97153298.10804     -2012.738 4        25.549    23725867.995 6  97153293.10306     -2012.626 6        40.641
I02        33.000    36821836.607 7 144496784.01807      -300.216 7        43.208
R15        34.000    24169640.225 6 129155215.10606      2897.222 6        41.862                                                                    24169651.594 6 100454086.21606      2253.427 6        37.516
R13        35.000    19951175.354 7 106538175.36007     -2382.853 7        46.778
R12        36.000    23283832.088 7 124377892.67407     -3924.554 7        44.218                                                                    23283842.645 6  96738325.91506     -3052.448 6        41.018
C42        37.000                                                                                                                                    24015062.815 7 125052727.87607       107.810 7        45.895                                                                    24015074.541 7 101615628.74707        87.574 7        46.579
C10        38.000                                                                                                                                    38487947.536 6 200416813.38206      -808.504 6        41.838    38487949.732 7 154974987.19007      -625.228 7        44.966    38487946.634 6 162855061.12006      -657.021 6        41.347
E25        39.000    26644326.879 6 140016975.56906      2111.890 6        41.159                                                                    26644336.596 7 104558225.92207      1577.092 7        42.861    26644335.008 7 107285820.16607      1618.266 7        43.909
C30        40.000                                                                                                                                    24431976.030 7 127223748.98707      -697.760 7        45.303                                                                    24431982.611 7 103379757.75307      -566.961 7        43.378
R23        41.000    22246336.370 7 119002954.80207      2510.209 7        43.981
S44        42.000    40761976.209 6 214205679.59506      -452.486 6        38.396
C36        43.000                                                                                                                                    23902084.982 7 124464331.34907     -2926.201 7        45.059                                                                    23902094.304 7 101137464.50707     -2377.799 7        46.139
C05        44.000                                                                                                                                    39349682.499 6 204904027.55106      -528.345 6        38.667    39349685.246 7 158444782.60807      -408.573 7        42.762    39349684.727 6 166501383.35806      -429.306 6        39.003
R14        45.000    20180101.056 8 107571395.98708      1356.431 8        52.360                                                                    20180105.102 7  83666721.73507      1055.033 7        47.414
E26        46.000    28093433.283 6 147632010.38006       196.987 6        36.609                                                                    28093446.204 6 110244744.82006       147.104 6        40.143    28093444.116 6 113120684.58606       150.953 6        40.143
G10        47.000    24259574.708 6 127484868.72806      -280.885 6        40.889                                    24259580.520 5  99338853.69605      -218.873 5        34.938    24259580.485 6  99338854.70306      -218.881 6        37.917
C45        50.000                                                                                                                                    21546529.370 8 112198450.77308      -831.188 8        50.492                                                                    21546523.626 8  91170419.04308      -675.409 8        50.078
S48        51.000    77058071.258 6 404942927.95706      -496.364 6        37.921
E06        52.000    26787528.531 6 140769283.51206     -3590.465 6        39.763                                                                    26787539.347 7 105119885.67307     -2681.090 7        44.004    26787537.972 7 107862146.70807     -2751.051 7        44.775
E33        53.000    28313094.535 6 148786352.54706      1906.610 6        36.454                                                                    28313107.988 6 111106746.75606      1423.630 6        39.739    28313106.612 6 114005174.50706      1460.951 6        40.713
C60        54.000                                                                                                                                    40761980.048 6 212258373.23006      -448.349 6        40.133                                                                    40761971.835 6 172477251.81206      -364.205 6        39.063
E31        55.000    24297068.300 7 127681933.08507     -2259.277 7        46.175                                                                    24297073.533 8  95346922.31608     -1687.135 8        48.560    24297072.759 8  97834230.36108     -1731.169 8        49.545
C26        56.000                                                                                                                                    23659702.621 7 123202342.27607      1777.918 7        45.910                                                                    23659705.484 7 100112032.16707      1444.753 7        46.512
C02        57.000                                                                                                                                    40890145.949 4                      -493.639 4        29.962    40890151.836 5 164647511.02505      -381.613 5        35.962    40890152.162 5                      -400.898 5        30.400
I03        58.000    92671766.769 5 287878415.42705       922.427 5        33.838
C21        59.000                                                                                                                                    23706880.441 7 123447858.17307     -2724.444 7        47.515                                                                    23706878.933 7 100311454.75707     -2213.795 7        47.847
C22        60.000                                                                                                                                    26025039.421 6 135518981.36006     -4003.488 6        40.548                                                                    26025044.160 6 110120201.44906     -3253.288 6        41.628
> 2025 01 02 11 00 10.0000000  0 55
E24         1.000    23658343.156 8 124325557.29008       320.837 8        48.818                                                                    23658345.324 8  92840583.78208       239.606 8        50.812    23658344.530 8  95262500.69708       245.886 8        51.206
G15         2.000    21397346.311 8 112443735.15308     -3359.927 8        48.387                                    21397346.690 7  87618463.44207     -2618.122 7        46.623    21397347.188 7  87618458.43707     -2618.198 7        43.562
E03         3.000    26480131.074 6 139154011.44506      1983.476 6        40.327                                                                    26480139.147 7 103913716.28907      1481.282 7        44.474    26480137.954 7 106624510.52607      1519.927 7        44.948
G19         4.000    21340452.967 7 112145004.12007       734.872 7        47.870                                    21340450.736 6  87385751.42106       572.629 6        38.375
S21         5.000    38350494.996 7 201532819.79707      -498.075 7        42.275
E05         6.000    22145416.183 8 116374904.08508      -403.984 8        48.349                                                                    22145420.073 8  86903310.77808      -301.638 8        50.863    22145419.342 8  89170353.29808      -309.512 8        51.299
C29         8.000                                                                                                                                    24201627.575 7 126024226.99007      2003.959 7        44.730                                                                    24201630.226 7 102405019.72507      1628.343 7        44.150
R05         9.000    22707220.311 7 121383128.24207      3121.157 7        46.937                                                                    22707227.067 7  94409143.66607      2427.458 7        43.536
G24        10.000    20191143.636 8 106105181.83008       641.074 8        50.124                                    20191145.242 8  82679378.10708       499.539 8        52.385    20191145.574 7  82679383.11407       499.529 7        46.191
C14        11.000                                                                                                                                    25407619.313 6 132304143.28206      1458.078 6        39.847    25407622.394 7 102305982.19207      1127.482 7        46.410    25407619.264 7 107507964.59707      1184.925 7        42.959
S27        12.000    39099753.025 6 205470453.36406      -528.277 6        36.715
G13        13.000    22672410.979 7 119144221.09307     -4094.903 7        44.253                                    22672412.709 4  92839605.25304     -3190.823 4        29.374
S36        14.000    38120977.552 7 200327520.41907      -498.680 7        44.524
G02        15.000    25807333.467 5 135618446.41505     -1588.851 5        35.538                                    25807339.787 2 105676737.32202     -1238.067 2        16.717
E09        16.000    25163174.509 7 132233312.48407     -3065.430 7        46.123                                                                    25163180.011 8  98745629.93308     -2289.097 8        48.217    25163178.818 8 101321601.99408     -2348.752 8        48.810
G12        17.000    22134112.771 7 116315693.89707      2472.341 7        47.026                                    22134113.475 7  90635680.80807      1926.494 7        44.913    22134113.906 7  90635677.81707      1926.597 7        42.389
R21        18.000    24517676.105 6 131199018.64606     -3749.967 6        38.922                                                                    24517686.411 6 102043716.46406     -2916.605 6        37.758
R22        19.000    22242307.742 7 118731023.41807      -593.379 7        44.930                                                                    22242313.473 7  92346346.91107      -461.446 7        42.652
R03        21.000    20797511.312 8 111330623.80108     -3989.135 8        50.363                                                                    20797514.481 7  86590464.33307     -3102.705 7        45.347
I06        22.000    38191821.518 6 149873021.01706      -481.436 6        41.302
S28        23.000    40807226.266 5 214443244.32305      -508.617 5        34.838
S23        25.000    38055437.499 7 199982524.99607      -501.502 7        44.677
S45        26.000    63306063.202 6 332677036.09006      -554.496 6        36.121
C07        27.000                                                                                                                                    39108104.877 6 203646090.67806     -1159.795 6        40.286    39108105.544 7 157472051.14607      -896.848 7        43.634    39108102.404 6 165479098.32506      -942.171 6        40.348
R04        28.000    19950438.893 8 106833676.17008      -190.606 8        52.071                                                                    19950439.795 7  83092836.25507      -148.301 7        47.559
C40        29.000                                                                                                                                    39312665.325 6 204711299.20606     -1409.994 6        41.797                                                                    39312669.005 6 166344690.14106     -1145.631 6        41.359
G17        30.000    22177884.248 7 116545682.80807     -1826.247 7        45.758                                    22177884.954 7  90814875.26207     -1423.047 7        43.979    22177885.143 6  90814872.26406     -1422.984 6        41.681
G14        31.000    23837116.720 6 125264772.97906     -3761.329 6        40.174                                    23837122.870 4  97608882.48504     -2930.897 4        24.571    23837123.295 6  97608868.45906     -2930.851 6        39.868
G23        32.000    23728322.666 6 124693044.37106     -2584.932 6        41.449                                    23728327.164 4  97163365.86904     -2014.231 4        26.060    23728327.027 6  97163360.86606     -2014.412 6        40.076
I02        33.000    36822219.311 7 144498286.14307      -300.369 7        43.071
R15        34.000    24166931.023 6 129140730.39406      2896.901 6        41.776                                                                    24166940.297 6 100442820.35506      2253.243 6        36.662
R13        35.000    19953406.899 7 106550094.41907     -2384.374 7        46.646
R12        36.000    23287505.569 7 124397515.93807     -3924.508 7        44.158                                                                    23287515.750 6  96753588.40806     -3052.284 6        41.416
C42        37.000                                                                                                                                    24014960.733 7 125052196.34307       105.108 7        46.011                                                                    24014972.454 7 101615196.82307        85.426 7        46.475
C10        38.000                                                                                                                                    38488724.429 7 200420857.79907      -808.984 7        42.042    38488726.321 7 154978114.58207      -625.564 7        45.061    38488723.261 6 162858347.53306      -657.420 6        41.344
E25        39.000    26642317.184 6 140006417.99206      2111.383 6        40.973                                                                    26642327.454 7 104550342.02507      1576.676 7        43.005    26642326.014 7 107277730.60607      1617.846 7        43.829
C30        40.000                                                                                                                                    24432647.294 7 127227245.27207      -700.502 7        45.068                                                                    24432654.091 7 103382598.76207      -569.178 7        43.289
R23        41.000    22243991.445 7 118990411.07207      2507.518 7        44.519
S44        42.000    40762411.610 6 214207941.79006      -452.168 6        38.565
C36        43.000                                                                                                                                    23904894.656 7 124478964.22507     -2926.604 7        44.828                                                                    23904904.271 7 101149354.87907     -2378.095 7        46.012
C05        44.000                                                                                                                                    39350189.420 6 204906669.37206      -528.129 6        38.715    39350192.485 7 158446825.45107      -408.370 7        42.811    39350192.002 6 166503530.05806      -429.102 6        39.108
R14        45.000    20178829.735 8 107564618.82808      1354.720 8        52.321                                                                    20178833.610 7  83661450.61907      1053.719 7        47.222
E26        46.000    28093247.056 6 147631031.86506       194.803 6        36.684                                                                    28093260.017 6 110244014.09706       145.422 6        40.260    28093257.938 6 113119934.80506       149.306 6        40.010
G10        47.000    24259844.121 6 127486281.21606      -283.751 6        41.397                                    24259849.341 5  99339954.33505      -221.105 5        35.286    24259849.612 6  99339955.35406      -221.328 6        38.183
C45        50.000                                                                                                                                    21547328.209 8 112202610.66408      -832.537 8        50.557                                                                    21547322.547 8  91173799.28808      -676.419 8        49.989
S48        51.000    77058547.732 6 404945409.39306      -496.077 6        38.141
E06        52.000    26790945.134 6 140787236.98406     -3590.771 6        39.958                                                                    26790955.831 7 105133292.47107     -2681.460 7        44.125    26790954.067 7 107875903.24407     -2751.308 7        44.462
E33        53.000    28311281.513 6 148776822.74206      1905.698 6        36.450                                                                    28311294.647 6 111099630.31606      1423.156 6        39.772    28311293.284 6 113997872.44506      1460.410 6        40.818
C60        54.000                                                                                                                                    40762410.634 6 212260614.85306      -448.162 6        40.181                                                                    40762402.318 6 172479073.30706      -364.059 6        38.979
E31        55.000    24299218.637 7 127693232.37107     -2260.156 7        46.120                                                                    24299223.682 8  95355360.08708     -1687.791 8        48.685    24299222.925 8  97842888.24908     -1731.758 8        49.623
C26        56.000                                                                                                                                    23657995.846 7 123193454.91207      1777.263 7        45.922                                                                    23657998.734 7 100104810.46007      1444.246 7        46.420
C02        57.000                                                                                                                                    40890620.093 5                      -493.619 5        30.008    40890625.702 6 164649419.95806      -381.585 6        36.253    40890626.619 4                      -400.957 4        29.763
I03        58.000    92670591.873 5 287873803.40605       922.652 5        34.024
C21        59.000                                                                                                                                    23709497.160 7 123461485.82407     -2726.403 7        47.436                                                                    23709496.003 7 100322528.32207     -2215.359 7        47.757
C22        60.000                                                                                                                                    26028883.747 6 135538998.93906     -4003.168 6        40.298                                                                    26028888.493 6 110136467.26006     -3252.825 6        41.492
> 2025 01 02 11 00 15.0000000  0 55
E24         1.000    23658038.915 8 124323958.20708       319.053 8        48.932                                                                    23658041.082 8  92839389.66908       238.244 8        50.912    23658040.223 8  95261275.43308       244.481 8        51.249
G15         2.000    21400544.558 8 112460541.93808     -3362.473 8        48.283                                    21400544.959 7  87631559.61807     -2620.106 7        46.614    21400545.216 7  87631554.61207     -2620.176 7        43.206
E03         3.000    26478244.979 6 139144097.15806      1982.608 6        40.749                                                                    26478252.537 7 103906312.78607      1480.349 7        44.524    26478251.350 7 106616913.89507      1518.897 7        44.892
G19         4.000    21339755.505 7 112141338.78807       731.598 7        47.650                                    21339753.234 6  87382895.30606       570.079 6        38.387
S21         5.000    38350973.558 7 201535311.19207      -498.427 7        42.679
E05         6.000    22145801.919 8 116376930.59408      -406.267 8        48.339                                                                    22145805.675 8  86904824.07208      -303.408 8        50.963    22145804.952 8  89171906.07108      -311.304 8        51.362
C29         8.000                                                                                                                                    24199704.787 7 126014212.74307      2002.152 7        44.646                                                                    24199707.216 7 102396882.33307      1626.891 7        44.275
R05         9.000    22704302.757 7 121367529.56607      3118.694 7        46.465                                                                    22704309.306 7  94397011.37007      2425.613 7        43.092
G24        10.000    20190535.234 8 106101983.22008       638.641 8        50.132                                    20190536.583 8  82676885.68408       497.643 8        52.380    20190536.886 7  82676890.68407       497.698 7        46.253
C14        11.000                                                                                                                                    25406220.815 6 132296859.67206      1455.651 6        40.291    25406224.022 7 102300350.06207      1125.601 7        46.723    25406220.606 7 107502046.09007      1182.778 7        43.056
S27        12.000    39100258.631 6 205473095.46506      -528.119 6        36.760
G13        13.000    22676307.655 7 119164699.65407     -4096.166 7        44.229                                    22676309.974 4  92855562.54704     -3191.813 4        29.469
S36        14.000    38121452.260 7 200330014.73307      -498.548 7        44.412
G02        15.000    25808845.807 5 135626398.16605     -1591.697 5        35.529                                    25808853.015 2 105682933.48202     -1240.278 2        17.057
E09        16.000    25166092.079 7 132248643.91207     -3066.913 7        46.244                                                                    25166097.477 8  98757078.69708     -2290.191 8        48.285    25166096.258 8 101333349.42308     -2349.951 8        48.784
G12        17.000    22131761.354 7 116303337.13307      2470.604 7        46.789                                    22131762.045 7  90626052.18507      1925.140 7        44.864    22131762.059 7  90626049.18907      1925.035 7        42.049
R21        18.000    24521181.455 6 131217775.78906     -3752.447 6        39.246                                                                    24521192.115 6 102058305.24706     -2918.425 6        37.157
R22        19.000    22242865.835 7 118734002.05507      -597.759 7        46.049                                                                    22242872.087 7  92348663.65507      -464.978 7        43.917
R03        21.000    20801238.789 8 111350577.98808     -3992.225 8        50.137                                                                    20801242.164 7  86605984.21907     -3105.002 7        45.574
I06        22.000    38192435.446 6 149875428.87206      -481.364 6        41.266
S28        23.000    40807705.668 5 214445788.92305      -508.815 5        35.090
S23        25.000    38055913.280 7 199985033.25907      -501.416 7        44.635
S45        26.000    63306542.636 6 332678109.02716      -554.360 6        36.299
C07        27.000                                                                                                                                    39109218.692 6 203651891.85906     -1160.216 6        40.100    39109219.666 7 157476536.99107      -897.251 7        43.791    39109216.585 6 165483812.27506      -942.925 6        40.498
R04        28.000    19950618.324 8 106834642.31208      -195.451 8        52.001                                                                    19950620.178 7  83093587.70307      -152.072 7        47.295
C40        29.000                                                                                                                                    39314019.489 6 204718351.52106     -1410.655 6        41.795                                                                    39314023.468 6 166350420.72906     -1146.317 6        41.418
G17        30.000    22179623.168 7 116554822.31107     -1829.271 7        46.182                                    22179624.111 7  90821996.93907     -1425.401 7        43.922    22179624.721 7  90821993.94607     -1425.366 7        42.129
G14        31.000    23840696.257 6 125283581.70206     -3761.824 6        40.276                                    23840702.005 4  97623538.59704     -2931.280 4        24.767    23840702.306 6  97623524.57606     -2931.299 6        40.231
G23        32.000    23730783.201 6 124705975.79306     -2587.262 6        40.732                                    23730787.845 4  97173442.25904     -2016.036 4        25.714    23730787.904 6  97173437.25706     -2015.930 6        39.601
I02        33.000    36822602.141 7 144499789.32907      -300.804 7        42.936
R15        34.000    24164219.737 7 129126247.81707      2896.386 7        42.258                                                                    24164230.434 6 100431556.14806      2252.862 6        37.051
R13        35.000    19955640.504 7 106562021.85607     -2386.205 7        46.592
R12        36.000    23291178.119 7 124417139.51207     -3924.673 7        43.308                                                                    23291189.657 6  96768851.15106     -3052.499 6        41.256
C42        37.000                                                                                                                                    24014861.285 7 125051679.14607       102.036 7        45.904                                                                    24014873.134 7 101614776.55707        82.867 7        46.410
C10        38.000                                                                                                                                    38489501.837 7 200424904.55307      -809.442 7        42.044    38489503.794 7 154981243.78907      -625.958 7        45.154    38489500.463 6 162861635.85306      -657.889 6        41.154
E25        39.000    26640308.865 6 139995864.01906      2110.585 6        41.020                                                                    26640319.054 7 104542460.81107      1576.109 7        43.077    26640317.673 7 107269643.79607      1617.169 7        43.907
C30        40.000                                                                                                                                    24433321.494 7 127230755.63607      -703.383 7        44.754                                                                    24433328.123 7 103385451.21507      -571.673 7        43.132
R23        41.000    22241649.534 7 118977881.64507      2504.583 7        44.029
S44        42.000    40762839.750 6 214210203.81506      -452.393 6        38.396
C36        43.000                                                                                                                                    23907705.392 7 124493600.12607     -2927.460 7        45.204                                                                    23907714.982 7 101161247.73207     -2378.888 7        45.952
C05        44.000                                                                                                                                    39350696.828 6 204909311.04806      -528.289 6        38.610    39350699.969 7 158448868.17007      -408.495 7        42.827    39350699.517 6 166505676.64906      -429.266 6        38.937
R14        45.000    20177560.075 8 107557851.18908      1352.583 8        52.091                                                                    20177564.078 7  83656186.90107      1051.980 7        47.572
E26        46.000    28093063.278 6 147630064.98906       192.250 6        36.503                                                                    28093075.896 6 110243292.05206       143.455 6        40.081    28093073.898 6 113119193.92606       147.338 6        39.904
G10        47.000    24260115.679 6 127487709.36106      -287.255 6        40.675                                    24260121.189 5  99341067.17105      -223.828 5        35.219    24260121.414 6  99341068.15806      -223.698 6        38.393
C45        50.000                                                                                                                                    21548128.629 8 112206778.01108      -834.116 8        50.487                                                                    21548122.863 8  91177185.60208      -677.897 8        50.011
S48        51.000    77059017.659 6 404947890.60306      -496.196 6        37.924
E06        52.000    26794361.920 6 140805193.34506     -3591.396 6        40.105                                                                    26794372.774 7 105146701.41607     -2681.927 7        44.298    26794370.938 7 107889661.99507     -2751.835 7        44.316
E33        53.000    28309468.712 6 148767298.05106      1904.409 6        36.711                                                                    28309482.487 6 111092517.70206      1422.413 6        40.143    28309480.655 6 113990574.29406      1459.309 6        40.932
C60        54.000                                                                                                                                    40762841.153 6 212262856.31406      -448.122 6        39.970                                                                    40762832.837 6 172480894.69406      -364.457 6        39.093
E31        55.000    24301369.647 7 127704536.88007     -2261.394 7        46.166                                                                    24301374.887 8  95363801.75208     -1688.688 8        48.766    24301374.148 8  97851550.13708     -1732.761 8        49.587
C26        56.000                                                                                                                                    23656290.083 7 123184571.78107      1776.380 7        46.112                                                                    23656292.899 7 100097592.20507      1443.378 7        46.371
C02        57.000                                                                                                                                    40891094.581 5                      -493.693 5        30.000    40891099.797 5 164651328.68905      -381.433 5        35.862    40891100.235 4                      -401.126 4        29.934
I03        58.000    92669416.488 5 287869191.14105       922.770 5        33.748
C21        59.000                                                                                                                                    23712116.444 7 123475124.02607     -2728.532 7        47.585                                                                    23712115.043 7 100333610.48207     -2217.308 7        47.689
C22        60.000                                                                                                                                    26032727.904 6 135559015.78706     -4003.244 6        40.238                                                                    26032732.593 6 110152732.49606     -3252.942 6        41.661
> 2025 01 02 11 00 20.0000000  0 55
E24         1.000    23657736.177 8 124322367.53008       317.273 8        48.898                                                                    23657738.351 8  92838201.83108       236.904 8        50.840    23657737.520 8  95260056.60708       243.073 8        51.211
G15         2.000    21403744.945 8 112477360.70808     -3365.013 8        48.295                                    21403745.496 7  87644665.13407     -2622.083 7        46.606    21403745.845 7  87644660.13407     -2622.037 7        43.628
E03         3.000    26476359.627 6 139134188.67206      1981.117 6        41.211                                                                    26476366.993 7 103898913.59307      1479.420 7        44.415    26476365.714 7 106609321.67407      1517.926 7        44.921
G19         4.000    21339060.600 7 112137689.41607       728.290 7        47.546                                    21339058.814 6  87380051.63306       567.498 6        38.396
S21         5.000    38351447.769 7 201537802.80407      -498.390 7        42.641
E05         6.000    22146189.612 8 116378968.64508      -408.818 8        48.391                                                                    22146193.506 8  86906345.98108      -305.259 8        50.932    22146192.771 8  89173467.68508      -313.314 8        51.288
C29         8.000                                                                                                                                    24197783.724 7 126004206.58607      2000.489 7        45.687                                                                    24197785.452 7 102388751.51707      1625.534 7        44.397
R05         9.000    22701386.236 7 121351943.21107      3115.989 7        45.493                                                                    22701393.371 7  94384888.69807      2423.456 7        42.279
G24        10.000    20189928.654 8 106098796.87208       636.134 8        50.183                                    20189930.244 8  82674402.81708       495.689 8        52.374    20189930.555 7  82674407.82207       495.674 7        46.636
C14        11.000                                                                                                                                    25404824.014 6 132289587.75606      1453.184 6        39.961    25404827.555 7 102294726.96407      1123.715 7        46.796    25404824.011 7 107496137.07307      1180.875 7        43.054
S27        12.000    39100759.520 6 205475737.92706      -528.644 6        36.692
G13        13.000    22680206.147 7 119185184.58307     -4097.640 7        44.760                                    22680208.236 4  92871524.79604     -3192.963 4        29.393
S36        14.000    38121923.202 7 200332508.98907      -498.807 7        44.269
G02        15.000    25810362.313 5 135634363.03905     -1594.249 5        35.348                                    25810368.623 2 105689139.86902     -1242.284 2        16.868
E09        16.000    25169010.900 7 132263982.40107     -3068.402 7        46.537                                                                    25169016.260 8  98768532.74908     -2291.333 8        48.278    25169015.176 8 101345102.27608     -2351.040 8        48.721
G12        17.000    22129411.568 7 116290988.82307      2468.855 7        46.775                                    22129412.203 7  90616430.15107      1923.781 7        44.837    22129413.007 7  90616427.16407      1923.844 7        42.870
R21        18.000    24524689.673 6 131236546.09906     -3755.439 6        38.853                                                                    24524700.282 6 102072904.33606     -2920.950 6        38.138
R22        19.000    22243428.909 7 118737002.89307      -602.481 7        46.014                                                                    22243434.522 7  92350997.62107      -468.659 7        44.090
R03        21.000    20804969.211 8 111370546.84208     -3995.242 8        49.825                                                                    20804972.564 7  86621515.53107     -3107.443 7        45.568
I06        22.000    38193049.059 6 149877836.97606      -481.592 6        41.402
S28        23.000    40808189.641 5 214448333.74905      -508.884 5        35.376
S23        25.000    38056390.053 7 199987541.74507      -501.687 7        44.603
S45        26.000    63307019.097 6 332680882.34706      -554.762 6        36.117
C07        27.000                                                                                                                                    39110333.500 6 203657695.38206     -1160.910 6        40.472    39110334.222 7 157481024.62907      -897.806 7        44.125    39110331.093 6 165488528.08706      -943.335 6        40.343
R04        28.000    19950803.034 8 106835632.26108      -200.377 8        51.799                                                                    19950805.290 7  83094357.66707      -155.868 7        47.694
C40        29.000                                                                                                                                    39315374.200 6 204725406.61406     -1411.121 6        41.862                                                                    39315378.236 6 166356153.55206     -1146.699 6        41.433
G17        30.000    22181365.251 7 116563976.59707     -1832.356 7        46.418                                    22181366.058 7  90829130.14407     -1427.809 7        43.901    22181366.317 7  90829127.14407     -1427.732 7        42.248
G14        31.000    23844276.259 6 125302392.72506     -3762.473 6        40.138                                    23844281.928 4  97638196.49504     -2931.782 4        25.083    23844282.855 6  97638182.47006     -2931.792 6        40.372
G23        32.000    23733245.965 6 124718918.53206     -2589.707 6        41.623                                    23733250.761 4  97183527.49004     -2017.951 4        25.699    23733250.806 6  97183522.50606     -2017.901 6        39.763
I02        33.000    36822985.441 7 144501293.91807      -300.963 7        43.009
R15        34.000    24161509.662 6 129111767.65306      2895.703 6        41.030                                                                    24161521.257 6 100420293.87606      2252.158 6        38.727
R13        35.000    19957875.935 7 106573958.14407     -2388.159 7        46.296
R12        36.000    23294851.455 7 124436763.75307     -3924.932 7        42.499                                                                    23294863.281 6  96784114.40806     -3052.753 6        41.077
C42        37.000                                                                                                                                    24014764.466 7 125051176.54807        99.094 7        45.929                                                                    24014776.654 7 101614368.15107        80.456 7        46.569
C10        38.000                                                                                                                                    38490279.727 7 200428954.04507      -810.146 7        42.178    38490281.372 7 154984375.11307      -626.499 7        45.436    38490278.195 6 162864926.39206      -658.256 6        41.375
E25        39.000    26638301.506 6 139985313.94606      2109.748 6        41.247                                                                    26638311.480 7 104534582.50907      1575.456 7        43.227    26638310.103 7 107261559.97907      1616.392 7        43.843
C30        40.000                                                                                                                                    24433998.660 7 127234280.34607      -706.289 7        44.993                                                                    24434004.975 7 103388315.33007      -573.949 7        43.253
R23        41.000    22239308.934 7 118965366.89807      2501.511 7        44.277
S44        42.000    40763268.481 6 214212465.95506      -452.632 6        38.426
C36        43.000                                                                                                                                    23910516.958 7 124508239.34607     -2928.140 7        45.529                                                                    23910526.325 7 101173143.28207     -2379.375 7        46.094
C05        44.000                                                                                                                                    39351204.983 6 204911952.87906      -528.322 6        38.862    39351207.199 7 158450911.01307      -408.614 7        42.923    39351206.729 6 166507823.35706      -429.397 6        38.985
R14        45.000    20176292.410 8 107551093.43708      1350.587 8        52.307                                                                    20176296.248 7  83650930.88907      1050.426 7        47.788
E26        46.000    28092881.494 6 147629110.02306       190.067 6        36.072                                                                    28092894.217 6 110242578.91106       141.773 6        39.580    28092892.064 6 113118462.19406       145.312 6        39.541
G10        47.000    24260389.838 6 127489153.34106      -290.396 6        41.023                                    24260396.032 5  99342192.33705      -226.280 5        35.033    24260395.529 6  99342193.33306      -226.153 6        38.117
C45        50.000                                                                                                                                    21548930.453 8 112210953.09108      -835.728 8        50.613                                                                    21548924.613 8  91180578.18708      -679.167 8        50.098
S48        51.000    77059486.200 6 404950372.23806      -496.400 6        37.807
E06        52.000    26797779.403 6 140823152.86506     -3592.366 6        39.967                                                                    26797790.284 7 105160112.70907     -2682.461 7        44.084    26797788.697 7 107903423.16007     -2752.555 7        44.072
E33        53.000    28307656.770 6 148757778.77406      1903.279 6        36.896                                                                    28307670.993 6 111085409.16406      1421.239 6        40.184    28307669.106 6 113983280.31006      1458.287 6        40.772
C60        54.000                                                                                                                                    40763271.573 6 212265097.88406      -448.311 6        40.210                                                                    40763263.177 6 172482716.14206      -364.330 6        39.036
E31        55.000    24303521.899 7 127715846.88607     -2262.539 7        46.072                                                                    24303527.131 8  95372247.53808     -1689.561 8        48.740    24303526.405 8  97860216.24608     -1733.682 8        49.599
C26        56.000                                                                                                                                    23654585.035 7 123175693.16807      1775.269 7        46.432                                                                    23654587.899 7 100090377.61607      1442.484 7        46.465
C02        57.000                                                                                                                                    40891568.886 5                      -494.231 5        30.000    40891574.066 6 164653237.49606      -381.904 6        36.034    40891574.138 5                      -401.443 5        30.234
I03        58.000    92668241.557 5 287864578.85805       922.283 5        33.874
C21        59.000                                                                                                                                    23714737.644 7 123488773.06407     -2730.840 7        47.510                                                                    23714736.226 7 100344701.41907     -2219.089 7        47.786
C22        60.000                                                                                                                                    26036571.879 6 135579032.15806     -4003.293 6        40.644                                                                    26036576.665 6 110168997.34606     -3252.874 6        41.573
> 2025 01 02 11 00 25.0000000  0 55
E24         1.000    23657435.253 8 124320785.15108       315.507 8        48.976                                                                    23657437.208 8  92837020.18408       235.600 8        50.797    23657436.441 8  95258844.13808       241.767 8        51.045
G15         2.000    21406947.806 7 112494191.33307     -3367.333 7        47.414                                    21406948.292 7  87657779.88407     -2623.890 7        46.423    21406948.610 7  87657774.86707     -2623.972 7        43.839
E03         3.000    26474474.730 6 139124285.82806      1979.933 6        40.856                                                                    26474482.553 7 103891518.63807      1478.531 7        44.442    26474481.322 7 106601733.80307      1516.997 7        44.811
G19         4.000    21338369.276 7 112134055.84307       725.035 7        47.472                                    21338367.407 6  87377220.26606       564.964 6        38.261
S21         5.000    38351922.056 7 201540294.85407      -498.445 7        42.508
E05         6.000    22146579.580 8 116381018.10808      -411.102 8        48.330                                                                    22146583.574 8  86907876.42708      -307.012 8        50.846    22146582.830 8  89175038.04908      -314.973 8        51.131
C29         8.000                                                                                                                                    24195863.567 7 125994208.41107      1998.688 7        45.953                                                                    24195865.374 7 102380627.19407      1624.110 7        44.641
R05         9.000    22698472.406 7 121336369.20207      3113.508 7        46.149                                                                    22698479.801 6  94372775.56606      2421.688 6        41.990
G24        10.000    20189324.319 8 106095622.69108       633.592 8        49.619                                    20189326.213 8  82671929.42608       493.708 8        52.228    20189326.440 7  82671934.43607       493.759 7        46.736
C14        11.000                                                                                                                                    25403429.093 6 132282327.47806      1450.827 6        40.381    25403433.022 7 102289112.86507      1121.843 7        46.828    25403429.654 7 107490237.50507      1178.886 7        43.134
S27        12.000    39101264.916 6 205478380.29306      -528.591 6        36.794
G13        13.000    22684105.405 7 119205675.73007     -4098.970 7        44.172                                    22684107.388 4  92887491.89404     -3193.996 4        28.957
S36        14.000    38122398.620 7 200335003.93607      -499.111 7        44.224
G02        15.000    25811879.399 5 135642340.91605     -1597.058 5        34.471                                    25811886.734 2 105695356.38002     -1244.455 2        16.868
E09        16.000    25171931.145 7 132279327.87307     -3069.891 7        46.337                                                                    25171936.506 8  98779992.00308     -2292.449 8        48.254    25171935.503 8 101356860.47008     -2352.219 8        48.568
G12        17.000    22127063.199 7 116278648.87207      2467.090 7        46.856                                    22127063.940 7  90606814.63107      1922.405 7        44.670    22127064.569 7  90606811.63907      1922.458 7        42.557
R21        18.000    24528197.420 6 131255329.40606     -3758.156 6        38.282                                                                    24528210.342 6 102087513.65106     -2923.175 6        37.985
R22        19.000    22243994.649 7 118740025.83707      -606.924 7        46.093                                                                    22244000.581 7  92353348.82907      -472.044 7        43.748
R03        21.000    20808702.502 8 111390530.36808     -3998.267 8        50.369                                                                    20808705.298 7  86637058.24207     -3109.785 7        45.499
I06        22.000    38193662.861 6 149880245.21806      -481.804 6        41.473
S28        23.000    40808679.270 5 214450878.39305      -509.158 5        34.771
S23        25.000    38056867.041 7 199990050.23507      -501.898 7        44.512
S45        26.000    63307498.651 6 332683655.73406      -554.797 6        36.227
C07        27.000                                                                                                                                    39111448.558 6 203663501.12906     -1161.390 6        40.543    39111448.888 7 157485513.99307      -898.063 7        44.099    39111446.079 6 165493245.74706      -943.818 6        40.474
R04        28.000    19950992.406 8 106836645.86708      -205.197 8        51.396                                                                    19950994.502 7  83095146.02707      -159.524 7        47.968
C40        29.000                                                                                                                                    39316729.639 6 204732464.38406     -1411.918 6        41.886                                                                    39316733.609 6 166361888.55906     -1147.386 6        41.425
G17        30.000    22183110.169 7 116573145.55907     -1835.373 7        46.317                                    22183110.796 7  90836274.78207     -1430.158 7        43.664    22183111.104 7  90836271.78207     -1430.186 7        42.229
G14        31.000    23847856.104 6 125321205.91806     -3762.931 6        40.212                                    23847862.196 4  97652856.08304     -2932.144 4        25.534    23847862.890 6  97652842.05706     -2932.155 6        40.839
G23        32.000    23735711.148 6 124731872.52506     -2592.044 6        41.175                                    23735715.863 4  97193621.48604     -2019.773 4        25.534    23735716.570 6  97193616.47906     -2019.843 6        40.539
I02        33.000    36823369.456 7 144502799.62507      -301.288 7        42.954
R15        34.000    24158798.946 6 129097289.81706      2895.187 6        40.934                                                                    24158811.289 6 100409033.35906      2251.877 6        38.553
R13        35.000    19960112.501 7 106585903.02807     -2389.980 7        46.319
R12        36.000    23298525.965 7 124456388.55007     -3925.182 7        42.698                                                                    23298536.809 6  96799378.05806     -3052.796 6        40.274
C42        37.000                                                                                                                                    24014671.063 7 125050688.46507        96.129 7        45.744                                                                    24014682.951 7 101613971.55407        77.968 7        46.545
C10        38.000                                                                                                                                    38491057.502 7 200433006.06207      -810.777 7        42.100    38491059.467 7 154987508.38907      -626.952 7        45.278    38491056.249 6 162868218.99806      -658.914 6        41.411
E25        39.000    26636294.708 6 139974767.67306      2108.670 6        41.468                                                                    26636304.622 7 104526707.05107      1574.660 7        43.090    26636303.133 7 107253479.06407      1615.816 7        43.736
C30        40.000                                                                                                                                    24434678.429 7 127237819.34307      -709.398 7        45.019                                                                    24434684.740 7 103391191.04307      -576.436 7        43.340
R23        41.000    22236972.108 7 118952866.91807      2498.455 7        44.546
S44        42.000    40763701.173 6 214214728.10206      -452.690 6        38.219
C36        43.000                                                                                                                                    23913328.704 7 124522881.80507     -2928.962 7        45.398                                                                    23913338.332 7 101185041.46107     -2380.105 7        46.160
C05        44.000                                                                                                                                    39351711.989 6 204914594.72306      -528.550 6        38.871    39351714.522 7 158452953.86507      -408.571 7        42.844    39351713.994 6 166509970.08406      -429.479 6        39.165
R14        45.000    20175026.407 8 107544345.51008      1348.552 8        52.111                                                                    20175030.021 7  83645682.50907      1048.800 7        47.690
E26        46.000    28092702.116 6 147628166.90806       187.533 6        36.881                                                                    28092714.910 6 110241874.60706       139.778 6        39.592    28092712.598 6 113117739.50806       143.543 6        39.477
G10        47.000    24260668.111 6 127490613.16006      -293.609 6        40.336                                    24260673.886 5  99343329.85405      -228.783 5        34.957    24260673.487 6  99343330.85406      -228.808 6        38.096
C45        50.000                                                                                                                                    21549733.689 8 112215135.81408      -837.398 8        50.583                                                                    21549727.860 8  91183976.99608      -680.510 8        50.179
S48        51.000    77059962.661 6 404952854.01406      -496.479 6        37.735
E06        52.000    26801197.349 6 140841115.43806     -3592.921 6        40.284                                                                    26801208.434 7 105173526.29407     -2683.026 7        43.943    26801207.042 7 107917186.66407     -2753.027 7        43.901
E33        53.000    28305846.577 6 148748264.80806      1902.098 6        36.975                                                                    28305860.455 6 111078304.58306      1420.465 6        40.250    28305858.630 6 113975990.39306      1457.418 6        40.505
C60        54.000                                                                                                                                    40763701.962 6 212267339.46406      -448.376 6        40.210                                                                    40763693.674 6 172484537.62306      -364.407 6        39.225
E31        55.000    24305675.196 7 127727162.31107     -2263.724 7        46.197                                                                    24305680.377 8  95380697.35908     -1690.466 8        48.640    24305679.615 8  97868886.49908     -1734.556 8        49.442
C26        56.000                                                                                                                                    23652880.635 7 123166818.98707      1774.252 7        46.390                                                                    23652883.705 7 100083166.62707      1441.738 7        46.571
C02        57.000                                                                                                                                    40892041.970 5                      -493.681 5        30.249    40892048.112 6 164655146.26306      -381.777 6        36.185    40892047.767 5                      -401.371 5        30.340
I03        58.000    92667066.410 5 287859966.45905       922.213 5        34.019
C21        59.000                                                                                                                                    23717360.796 7 123502432.81307     -2733.083 7        47.485                                                                    23717359.468 7 100355801.07207     -2220.864 7        47.921
C22        60.000                                                                                                                                    26040415.777 6 135599047.94206     -4003.092 6        40.520                                                                    26040420.511 6 110185261.72706     -3252.955 6        41.573
> 2025 01 02 11 00 30.0000000  0 55
E24         1.000    23657135.734 8 124319211.02308       314.102 8        48.855                                                                    23657137.703 8  92835844.70308       234.584 8        50.833    23657136.873 8  95257637.99108       240.715 8        51.140
G15         2.000    21410152.790 7 112511033.72807     -3369.558 7        47.757                                    21410153.327 7  87670903.80607     -2625.626 7        46.510    21410153.600 7  87670898.79907     -2625.653 7        43.306
E03         3.000    26472591.136 6 139114388.63306      1978.854 6        40.849                                                                    26472599.074 7 103884127.88107      1477.769 7        44.495    26472597.948 7 106594150.24507      1516.276 7        44.843
G19         4.000    21337680.941 7 112130438.08807       721.985 7        47.412                                    21337679.019 6  87374401.23006       562.586 6        38.483
S21         5.000    38352393.450 7 201542787.06307      -498.398 7        42.229
E05         6.000    22146971.913 8 116383078.96708      -413.264 8        48.290                                                                    22146975.757 8  86909415.37608      -308.567 8        50.932    22146975.011 8  89176617.14708      -316.637 8        51.224
C29         8.000                                                                                                                                    24193944.373 7 125984218.21207      1997.266 7        45.335                                                                    24193946.868 7 102372509.31507      1623.090 7        44.640
R05         9.000    22695561.952 7 121320807.34507      3111.209 7        46.453                                                                    22695569.297 7  94360671.92607      2419.820 7        42.210
G24        10.000    20188722.834 8 106092460.64408       631.236 8        49.728                                    20188724.502 8  82669465.49508       491.871 8        52.403    20188724.630 7  82669470.49607       491.947 7        46.418
C14        11.000                                                                                                                                    25402038.733 6 132275078.75206      1448.651 6        40.930    25402041.354 7 102283507.70807      1120.166 7        46.932    25402037.724 7 107484347.31107      1177.308 7        43.003
S27        12.000    39101766.981 6 205481022.92206      -528.354 6        36.662
G13        13.000    22688005.856 7 119226173.07707     -4100.030 7        43.863                                    22688007.716 4  92903463.82904     -3194.820 4        28.645
S36        14.000    38122876.064 7 200337499.05207      -499.107 7        44.175
G02        15.000    25813400.335 5 135650331.84805     -1599.495 5        34.510                                    25813407.318 2 105701583.08202     -1246.345 2        16.528
E09        16.000    25174852.417 7 132294680.26007     -3071.098 7        45.968                                                                    25174857.881 8  98791456.42808     -2293.359 8        48.267    25174857.090 8 101368623.96808     -2353.195 8        48.710
G12        17.000    22124716.483 7 116266317.21607      2465.590 7        46.724                                    22124717.246 7  90597205.57407      1921.232 7        44.832    22124717.972 7  90597202.58807      1921.225 7        42.588
R21        18.000    24531711.405 6 131274125.29606     -3760.305 6        39.973                                                                    24531721.177 6 102102132.69206     -2924.731 6        38.489
R22        19.000    22244564.952 7 118743070.85507      -611.117 7        45.691                                                                    22244570.654 7  92355717.19107      -475.353 7        44.161
R03        21.000    20812439.069 8 111410528.59008     -4001.048 8        50.666                                                                    20812440.988 7  86652612.37807     -3111.881 7        44.814
I06        22.000    38194276.231 6 149882653.56006      -481.585 6        41.573
S28        23.000    40809157.421 5 214453423.32405      -508.831 5        34.914
S23        25.000    38057345.728 7 199992558.78907      -501.610 7        44.466
S45        26.000    63307978.501 5 332686429.23005      -554.672 5        35.976
C07        27.000                                                                                                                                    39112563.643 6 203669309.04006     -1161.711 6        40.691    39112564.239 7 157490005.02707      -898.243 7        44.299    39112561.500 6 165497965.11706      -943.964 6        40.527
R04        28.000    19951186.304 8 106837683.14308      -209.743 8        51.496                                                                    19951188.115 7  83095952.79207      -163.106 7        47.993
C40        29.000                                                                                                                                    39318085.768 7 204739524.76107     -1412.245 7        42.108                                                                    39318089.377 6 166367625.65306     -1147.518 6        41.282
G17        30.000    22184857.667 7 116582329.14607     -1838.122 7        46.734                                    22184858.337 7  90843430.81607     -1432.302 7        43.848    22184859.104 7  90843427.81907     -1432.280 7        42.389
G14        31.000    23851436.748 6 125340021.24006     -3763.160 6        40.350                                    23851442.704 4  97667517.32904     -2932.319 4        26.084    23851443.052 6  97667503.30606     -2932.422 6        40.579
G23        32.000    23738178.361 6 124744837.69806     -2594.104 6        41.092                                    23738183.050 4  97203724.18604     -2021.368 4        25.880    23738183.933 6  97203719.17906     -2021.378 6        40.584
I02        33.000    36823753.746 7 144504306.41207      -301.478 7        43.122
R15        34.000    24156090.761 6 129082814.38906      2894.921 6        41.089                                                                    24156103.069 6 100397774.72006      2251.704 6        38.294
R13        35.000    19962351.670 7 106597856.58207     -2391.537 7        46.746
R12        36.000    23302201.056 7 124476013.82307     -3925.043 7        43.118                                                                    23302210.414 6  96814642.13406     -3052.750 6        40.651
C42        37.000                                                                                                                                    24014580.479 7 125050214.87407        93.377 7        45.895                                                                    24014591.996 7 101613586.68107        75.898 7        46.533
C10        38.000                                                                                                                                    38491836.262 6 200437060.61806      -811.105 6        41.998    38491838.168 7 154990643.61707      -627.171 7        45.454    38491834.826 6 162871513.62306      -659.005 6        41.368
E25        39.000    26634288.067 6 139964225.13706      2108.335 6        41.042                                                                    26634298.526 7 104518834.39107      1574.224 7        43.208    26634297.018 7 107245401.03207      1615.398 7        43.941
C30        40.000                                                                                                                                    24435360.668 7 127241372.52507      -711.944 7        45.183                                                                    24435367.226 7 103394078.27607      -578.503 7        43.460
R23        41.000    22234639.021 7 118940381.35407      2495.739 7        44.740
S44        42.000    40764133.279 6 214216990.21106      -452.337 6        38.279
C36        43.000                                                                                                                                    23916141.278 7 124537527.43107     -2929.393 7        45.314                                                                    23916150.986 7 101196942.18507     -2380.292 7        46.244
C05        44.000                                                                                                                                    39352219.214 6 204917236.55106      -528.250 6        38.940    39352221.810 7 158454996.70607      -408.518 7        42.963    39352221.380 6 166512116.76806      -429.118 6        39.093
R14        45.000    20173762.096 8 107537607.06608      1346.734 8        51.949                                                                    20173766.062 7  83640441.49807      1047.437 7        47.594
E26        46.000    28092524.958 6 147627235.58006       185.080 6        36.809                                                                    28092537.565 6 110241179.09306       138.329 6        39.513    28092535.654 6 113117025.85906       141.830 6        39.685
G10        47.000    24260948.789 6 127492088.76106      -296.762 6        40.539                                    24260954.663 5  99344479.66405      -231.245 5        35.181    24260954.317 6  99344480.67006      -231.317 6        38.081
C45        50.000                                                                                                                                    21550538.353 8 112219326.11708      -838.742 8        50.605                                                                    21550532.613 8  91187381.93208      -681.507 8        50.103
S48        51.000    77060428.371 6 404955336.05706      -496.470 6        37.508
E06        52.000    26804616.062 6 140859081.00606     -3593.447 6        40.203                                                                    26804627.283 7 105186942.10607     -2683.250 7        43.901    26804626.153 7 107930952.46707     -2753.387 7        44.169
E33        53.000    28304037.419 6 148738756.12206      1901.412 6        36.560                                                                    28304051.159 6 111071203.95006      1419.741 6        40.243    28304049.230 6 113968704.51006      1456.807 6        40.312
C60        54.000                                                                                                                                    40764132.598 6 212269581.01906      -448.216 6        40.181                                                                    40764124.322 6 172486359.04406      -364.220 6        39.027
E31        55.000    24307829.425 7 127738483.08707     -2264.604 7        46.164                                                                    24307834.683 8  95389151.18408     -1691.126 8        48.707    24307833.897 8  97877560.85508     -1735.190 8        49.524
C26        56.000                                                                                                                                    23651177.129 7 123157949.18007      1773.636 7        46.285                                                                    23651180.336 7 100075959.17107      1441.217 7        46.463
C02        57.000                                                                                                                                    40892516.767 5                      -493.685 5        30.498    40892521.903 6 164657054.99606      -381.719 6        36.189    40892522.126 5                      -401.036 5        30.211
I03        58.000    92665889.966 5 287855353.90005       922.763 5        33.856
C21        59.000                                                                                                                                    23719985.854 8 123516103.21708     -2735.026 8        48.001                                                                    23719984.776 7 100366909.37507     -2222.414 7        47.866
C22        60.000                                                                                                                                    26044259.498 6 135619063.11206     -4002.928 6        40.427                                                                    26044264.397 6 110201525.55606     -3252.509 6        41.409
> 2025 01 02 11 00 35.0000000  0 55
E24         1.000    23656837.646 8 124317644.94108       312.313 8        48.770                                                                    23656839.633 8  92834675.22808       233.228 8        50.841    23656838.824 8  95256438.00808       239.296 8        51.088
G15         2.000    21413360.046 7 112527887.70307     -3371.901 7        47.553                                    21413360.522 7  87684036.75307     -2627.452 7        46.516    21413360.731 7  87684031.75307     -2627.464 7        43.270
E03         3.000    26470708.906 6 139104496.83206      1977.807 6        40.684                                                                    26470716.801 7 103876741.16307      1476.931 7        44.524    26470715.560 7 106586570.83107      1515.362 7        44.796
G19         4.000    21336995.586 7 112126835.96707       718.802 7        47.482                                    21336993.599 6  87371594.37206       560.110 6        38.474
S21         5.000    38352867.505 7 201545279.05907      -498.413 7        42.216
E05         6.000    22147365.996 8 116385150.99308      -415.560 8        48.438                                                                    22147370.043 8  86910962.65808      -310.326 8        50.859    22147369.269 8  89178204.79508      -318.438 8        51.205
C29         8.000                                                                                                                                    24192027.102 7 125974235.76607      1995.631 7        45.251                                                                    24192029.842 7 102364397.78307      1621.573 7        44.519
R05         9.000    22692653.248 7 121305257.66307      3108.692 7        46.143                                                                    22692659.394 7  94348577.74907      2417.810 7        42.150
G24        10.000    20188123.465 8 106089310.47808       628.711 8        49.684                                    20188125.046 8  82667010.82108       489.905 8        52.397    20188125.095 7  82667015.82107       490.049 7        46.564
C14        11.000                                                                                                                                    25400649.784 6 132267841.43006      1446.253 6        40.813    25400651.479 7 102277911.35607      1118.260 7        46.855    25400647.835 7 107478466.42007      1175.144 7        43.029
S27        12.000    39102272.225 6 205483665.24406      -528.505 6        36.631
G13        13.000    22691907.547 7 119246676.40007     -4101.319 7        44.144                                    22691909.180 4  92919440.41404     -3195.831 4        28.654
S36        14.000    38123350.803 7 200339993.29307      -498.819 7        44.140
G02        15.000    25814923.908 5 135658335.50305     -1601.965 5        35.567                                    25814930.398 2 105707819.74202     -1248.291 2        15.952
E09        16.000    25177775.240 7 132310039.35307     -3072.548 7        46.190                                                                    25177780.594 8  98802925.84508     -2294.435 8        48.211    25177779.917 8 101380392.59608     -2354.299 8        48.707
G12        17.000    22122371.609 7 116253993.63007      2463.859 7        46.570                                    22122372.099 7  90587602.80607      1919.885 7        44.811    22122372.792 7  90587599.81807      1919.895 7        42.792
R21        18.000    24535226.638 6 131292933.62506     -3762.832 6        40.288                                                                    24535236.993 6 102116761.32006     -2926.626 6        38.676
R22        19.000    22245139.082 7 118746137.71707      -615.661 7        45.591                                                                    22245145.820 7  92358102.55307      -478.864 7        44.027
R03        21.000    20816177.118 8 111430541.04208     -4003.933 8        50.792                                                                    20816179.868 7  86668177.58707     -3114.167 7        45.159
I06        22.000    38194889.891 6 149885061.85106      -481.808 6        41.499
S28        23.000    40809645.941 5 214455968.42005      -509.054 5        35.019
S23        25.000    38057826.419 7 199995067.23607      -501.734 7        44.503
S45        26.000    63308454.564 6 332689202.74806      -554.797 6        36.174
C07        27.000                                                                                                                                    39113679.582 6 203675118.89006     -1162.140 6        40.539    39113679.960 7 157494497.56807      -898.655 7        44.296    39113677.052 6 165502686.08406      -944.270 6        40.353
R04        28.000    19951384.277 8 106838743.69008      -214.560 8        51.901                                                                    19951385.840 7  83096777.67507      -166.895 7        47.660
C40        29.000                                                                                                                                    39319441.784 7 204746587.54907     -1412.913 7        42.309                                                                    39319445.737 6 166373364.75206     -1148.083 6        41.254
G17        30.000    22186607.749 7 116591527.18607     -1841.135 7        46.097                                    22186608.606 7  90850598.11107     -1434.649 7        43.816    22186609.097 7  90850595.10407     -1434.684 7        42.055
G14        31.000    23855017.432 6 125358838.44406     -3763.697 6        40.534                                    23855023.772 4  97682180.03604     -2932.742 4        26.024    23855023.500 6  97682166.02606     -2932.733 6        40.505
G23        32.000    23740647.711 6 124757813.79706     -2596.333 6        40.930                                    23740652.441 4  97213835.40804     -2023.119 4        25.519    23740652.076 6  97213830.39006     -2023.140 6        40.110
I02        33.000    36824137.837 7 144505814.06407      -301.616 7        43.082
R15        34.000    24153382.813 6 129068340.93006      2894.412 6        41.871                                                                    24153393.624 6 100386517.57706      2251.230 6        37.860
R13        35.000    19964591.435 7 106609818.65707     -2393.331 7        46.269
R12        36.000    23305874.358 7 124495639.37307     -3925.312 7        42.940                                                                    23305884.853 6  96829906.38406     -3052.871 6        40.951
C42        37.000                                                                                                                                    24014492.306 7 125049755.51307        90.399 7        46.017                                                                    24014503.768 7 101613213.42407        73.428 7        46.497
C10        38.000                                                                                                                                    38492615.400 6 200441117.49506      -811.669 6        41.998    38492617.444 7 154993780.64407      -627.564 7        45.523    38492613.977 6 162874810.17006      -659.587 6        41.371
E25        39.000    26632282.610 6 139953686.14206      2107.405 6        41.035                                                                    26632292.812 7 104510964.35407      1573.665 7        43.223    26632291.392 7 107237325.69107      1614.748 7        43.863
C30        40.000                                                                                                                                    24436045.530 7 127244939.71907      -714.881 7        45.278                                                                    24436052.342 7 103396976.92307      -580.919 7        43.397
R23        41.000    22232307.887 7 118927910.13607      2492.773 7        44.888
S44        42.000    40764561.088 6 214219252.07806      -452.327 6        38.189
C36        43.000                                                                                                                                    23918954.421 7 124552176.01607     -2930.080 7        45.126                                                                    23918964.110 7 101208845.34007     -2380.919 7        46.103
C05        44.000                                                                                                                                    39352725.997 6 204919878.14106      -528.307 6        38.751    39352729.048 7 158457039.37207      -408.537 7        42.963    39352728.605 6 166514263.31006      -429.389 6        39.120
R14        45.000    20172499.640 8 107530878.18008      1344.743 8        52.269                                                                    20172503.639 7  83635207.92907      1045.911 7        47.482
E26        46.000    28092350.209 6 147626315.78506       182.746 6        36.457                                                                    28092362.366 6 110240492.21606       136.431 6        39.246    28092360.776 6 113116321.06306       140.058 6        39.736
G10        47.000    24261232.775 6 127493579.85706      -299.975 6        41.142                                    24261238.428 5  99345641.55605      -233.748 5        35.100    24261238.243 6  99345642.53706      -233.491 6        38.114
C45        50.000                                                                                                                                    21551344.492 8 112223523.80108      -840.328 8        50.489                                                                    21551338.698 8  91190792.90408      -682.915 8        50.072
S48        51.000    77060899.716 6 404957818.03206      -496.533 6        37.505
E06        52.000    26808035.573 6 140877049.33806     -3594.021 6        40.515                                                                    26808046.535 7 105200360.00207     -2683.824 7        44.119    26808045.568 7 107944720.38307     -2753.843 7        44.394
E33        53.000    28302228.973 6 148729252.54506      1900.050 6        36.586                                                                    28302242.648 6 111064107.11506      1418.798 6        40.107    28302240.597 6 113961422.54006      1455.977 6        40.064
C60        54.000                                                                                                                                    40764563.090 6 212271822.33206      -448.261 6        40.136                                                                    40764554.618 6 172488180.30606      -364.240 6        39.141
E31        55.000    24309984.832 7 127749808.99307     -2265.828 7        46.037                                                                    24309989.886 8  95397608.82808     -1692.012 8        48.621    24309989.126 8  97886239.13808     -1736.171 8        49.521
C26        56.000                                                                                                                                    23649474.364 7 123149083.55407      1772.702 7        46.123                                                                    23649477.730 7 100068755.14507      1440.365 7        46.447
C02        57.000                                                                                                                                    40892991.269 5                      -493.548 5        30.234    40892995.989 6 164658963.53506      -381.624 6        36.200    40892995.877 5                      -401.193 5        30.491
I03        58.000    92664714.176 5 287850741.04605       922.713 5        33.659
C21        59.000                                                                                                                                    23722613.566 7 123529784.06107     -2737.252 7        47.785                                                                    23722612.122 7 100378026.17907     -2224.317 7        47.742
C22        60.000                                                                                                                                    26048103.000 6 135639077.40106     -4002.859 6        40.677                                                                    26048107.957 6 110217788.73206     -3252.645 6        41.442
> 2025 01 02 11 00 40.0000000  0 55
E24         1.000    23656541.168 8 124316087.44508       310.833 8        48.768                                                                    23656543.264 8  92833512.16308       232.085 8        50.859    23656542.457 8  95255244.60308       238.136 8        51.052
G15         2.000    21416569.563 8 112544753.78408     -3374.262 8        48.178                                    21416570.021 7  87697179.13407     -2629.287 7        46.332    21416570.441 7  87697174.12807     -2629.393 7        43.989
E03         3.000    26468827.455 6 139094611.02406      1976.750 6        40.868                                                                    26468835.591 7 103869358.92007      1476.164 7        44.462    26468834.286 7 106578996.00607      1514.596 7        44.777
G19         4.000    21336313.103 7 112123250.03207       715.743 7        47.531                                    21336311.288 6  87368800.12806       557.727 6        38.258
S21         5.000    38353343.791 7 201547771.33107      -498.227 7        42.595
E05         6.000    22147762.475 8 116387234.75408      -417.816 8        48.315                                                                    22147766.532 8  86912518.70708      -312.010 8        50.892    22147765.777 8  89179801.43608      -320.127 8        51.149
C29         8.000                                                                                                                                    24190111.858 7 125964261.63507      1994.082 7        45.491                                                                    24190114.512 7 102356292.99707      1620.368 7        44.749
R05         9.000    22689746.868 7 121289720.45507      3106.253 7        45.663                                                                    22689753.414 7  94336493.29807      2415.984 7        42.260
G24        10.000    20187526.447 8 106086172.80408       626.426 8        49.629                                    20187527.963 8  82664565.87708       488.123 8        52.233    20187528.164 7  82664570.88107       488.132 7        46.533
C14        11.000                                                                                                                                    25399260.911 6 132260616.04506      1443.922 6        40.596    25399263.537 7 102272324.23507      1116.690 7        46.785    25399260.341 7 107472595.21507      1173.317 7        43.062
S27        12.000    39102774.693 6 205486308.14506      -528.273 6        36.828
G13        13.000    22695810.638 7 119267186.20207     -4102.488 7        44.516                                    22695812.070 4  92935422.05404     -3196.734 4        28.464
S36        14.000    38123824.415 7 200342488.40707      -498.942 7        44.205
G02        15.000    25816449.660 5 135666352.43005     -1604.392 5        35.824                                    25816456.062 2 105714066.68102     -1250.175 2        16.528
E09        16.000    25180699.447 7 132325405.67807     -3073.871 7        46.201                                                                    25180704.688 8  98814400.67608     -2295.383 8        48.189    25180704.059 8 101392166.77508     -2355.287 8        48.678
G12        17.000    22120028.054 7 116241678.69407      2462.268 7        46.935                                    22120028.588 7  90578006.77707      1918.646 7        44.641    22120029.216 7  90578003.79707      1918.676 7        43.098
R21        18.000    24538742.235 6 131311755.04406     -3765.453 6        39.129                                                                    24538754.764 6 102131400.19306     -2928.616 6        37.425
R22        19.000    22245717.471 7 118749226.97507      -619.829 7        46.169                                                                    22245723.883 7  92360505.33207      -482.118 7        43.628
R03        21.000    20819917.846 8 111450568.37208     -4006.766 8        50.564                                                                    20819921.605 7  86683754.37107     -3116.411 7        45.839
I06        22.000    38195503.808 6 149887470.49706      -481.694 6        41.473
S28        23.000    40810127.879 5 214458513.71905      -509.121 5        34.805
S23        25.000    38058302.919 7 199997576.09207      -501.731 7        44.698
S45        26.000    63308936.636 6 332691976.75806      -554.891 6        36.310
C07        27.000                                                                                                                                    39114796.053 6 203680931.29806     -1162.691 6        40.667    39114796.127 7 157498992.05907      -898.900 7        44.188    39114793.293 6 165507409.13106      -944.650 6        40.503
R04        28.000    19951587.151 8 106839828.33308      -219.150 8        51.934                                                                    19951588.624 7  83097621.26607      -170.457 7        47.405
C40        29.000                                                                                                                                    39320798.753 7 204753653.28307     -1413.304 7        42.643                                                                    39320802.731 6 166379106.24206     -1148.470 6        41.366
G17        30.000    22188361.108 7 116600740.19907     -1843.948 7        46.453                                    22188361.760 7  90857777.07307     -1436.842 7        43.591    22188362.529 7  90857774.06807     -1436.779 7        42.256
G14        31.000    23858598.481 6 125377658.09506     -3763.840 6        41.166                                    23858605.121 4  97696844.66904     -2932.865 4        25.654    23858605.074 6  97696830.66606     -2933.047 6        40.036
G23        32.000    23743118.813 6 124770801.41506     -2598.503 6        41.630                                    23743123.978 4  97223955.59504     -2024.802 4        25.774    23743124.344 6  97223950.57006     -2024.729 6        40.682
I02        33.000    36824522.164 7 144507323.25307      -301.847 7        42.899
R15        34.000    24150675.214 6 129053870.13206      2894.077 6        41.142                                                                    24150685.596 6 100375262.55406      2250.871 6        38.342
R13        35.000    19966832.904 7 106621789.46507     -2394.979 7        46.194
R12        36.000    23309548.185 7 124515265.79407     -3925.258 7        43.225                                                                    23309558.969 6  96845171.32806     -3052.848 6        41.106
C42        37.000                                                                                                                                    24014406.742 7 125049310.97607        87.636 7        46.328                                                                    24014418.400 7 101612852.21607        71.088 7        46.538
C10        38.000                                                                                                                                    38493394.965 6 200445177.25306      -812.106 6        41.969    38493396.907 7 154996919.90107      -627.992 7        45.133    38493393.620 6 162878109.05306      -659.972 6        41.435
E25        39.000    26630278.391 6 139943151.25606      2106.671 6        41.032                                                                    26630288.075 7 104503097.38607      1573.268 7        43.192    26630286.670 7 107229253.50807      1614.256 7        43.846
C30        40.000                                                                                                                                    24436733.196 7 127248521.47407      -717.680 7        44.859                                                                    24436740.193 7 103399887.38507      -583.142 7        43.585
R23        41.000    22229979.017 7 118915453.89407      2489.948 7        44.515
S44        42.000    40764992.980 6 214221514.26606      -452.207 6        38.180
C36        43.000                                                                                                                                    23921767.827 7 124566828.11107     -2930.591 7        45.383                                                                    23921777.908 7 101220751.35607     -2381.399 7        46.233
C05        44.000                                                                                                                                    39353233.343 6 204922520.08106      -528.293 6        38.895    39353236.439 7 158459082.29307      -408.555 7        42.813    39353236.014 6 166516410.11906      -429.415 6        39.261
R14        45.000    20171239.550 8 107524159.37408      1342.922 8        52.166                                                                    20171243.321 7  83629982.19207      1044.543 7        47.704
E26        46.000    28092177.077 6 147625408.12806       180.537 6        36.408                                                                    28092189.755 6 110239814.39306       134.974 6        39.228    28092188.243 6 113115625.58006       138.399 6        39.931
G10        47.000    24261520.135 6 127495087.07106      -302.966 6        40.942                                    24261525.224 5  99346816.00405      -236.075 5        35.048    24261525.705 6  99346817.00706      -236.099 6        38.327
C45        50.000                                                                                                                                    21552152.079 8 112227729.41308      -841.769 8        50.642                                                                    21552146.361 8  91194210.30908      -684.051 8        50.186
S48        51.000    77061377.522 6 404960300.42406      -496.630 6        37.924
E06        52.000    26811455.612 6 140895020.99906     -3594.528 6        40.706                                                                    26811466.480 7 105213780.36907     -2684.238 7        43.987    26811465.566 7 107958490.85107     -2754.199 7        44.596
E33        53.000    28300421.499 6 148719754.59106      1899.248 6        36.144                                                                    28300435.290 6 111057014.50006      1418.187 6        39.886    28300433.261 6 113954144.89306      1455.173 6        39.820
C60        54.000                                                                                                                                    40764993.662 6 212274063.95206      -448.353 6        40.360                                                                    40764985.123 6 172490001.80406      -364.338 6        39.051
E31        55.000    24312141.021 7 127761140.57207     -2266.683 7        45.959                                                                    24312146.250 8  95406070.71408     -1692.646 8        48.675    24312145.416 8  97894921.77408     -1736.839 8        49.416
C26        56.000                                                                                                                                    23647772.968 7 123140222.64907      1771.886 7        46.050                                                                    23647776.052 7 100061554.93807      1439.703 7        46.568
C02        57.000                                                                                                                                    40893463.705 5                      -493.548 5        30.264    40893469.958 5 164660872.27205      -381.685 5        35.924    40893470.369 5                      -401.057 5        30.694
I03        58.000    92663539.360 5 287846128.25905       922.765 5        33.910
C21        59.000                                                                                                                                    23725242.846 8 123543475.88908     -2739.321 8        48.202                                                                    23725241.476 7 100389151.90107     -2225.975 7        47.919
C22        60.000                                                                                                                                    26051946.364 6 135659091.38606     -4002.613 6        40.777                                                                    26051951.485 6 110234051.65206     -3252.535 6        41.626
> 2025 01 02 11 00 45.0000000  0 55
E24         1.000    23656246.167 8 124314537.91108       308.977 8        48.609                                                                    23656248.407 8  92832355.04908       230.716 8        50.917    23656247.573 8  95254057.30008       236.759 8        51.203
G15         2.000    21419781.488 8 112561631.32008     -3376.892 8        48.069                                    21419781.710 7  87710330.44107     -2631.341 7        46.308    21419782.212 7  87710325.42707     -2631.176 7        44.105
E03         3.000    26466947.300 6 139084730.58506      1975.384 6        40.541                                                                    26466955.295 7 103861980.66907      1475.179 7        44.500    26466954.179 7 106571425.28207      1513.630 7        44.904
G19         4.000    21335633.545 7 112119679.65007       712.335 7        47.293                                    21335631.937 6  87366018.00106       555.066 6        38.246
S21         5.000    38353817.501 7 201550263.49707      -498.591 7        42.474
E05         6.000    22148161.297 7 116389329.60007      -420.205 7        47.932                                                                    22148165.189 8  86914083.03508      -313.760 8        50.964    22148164.467 8  89181406.57308      -321.991 8        51.289
C29         8.000                                                                                                                                    24188198.090 7 125954295.18707      1992.373 7        45.941                                                                    24188200.508 7 102348194.43107      1618.878 7        44.816
R05         9.000    22686841.752 7 121274195.31107      3103.721 7        45.931                                                                    22686849.195 7  94324418.20207      2413.901 7        42.045
G24        10.000    20186931.418 8 106083046.94908       623.908 8        49.570                                    20186933.135 8  82662130.14908       486.160 8        52.207    20186933.420 7  82662135.15907       486.114 7        46.661
C14        11.000                                                                                                                                    25397874.328 6 132253401.95106      1441.474 6        40.081    25397878.696 7 102266745.86107      1114.711 7        47.129    25397874.945 7 107466733.15807      1171.389 7        43.166
S27        12.000    39103277.178 6 205488950.52406      -528.658 6        36.609
G13        13.000    22699714.610 7 119287701.86407     -4103.890 7        44.575                                    22699716.087 4  92951408.24804     -3197.829 4        28.578
S36        14.000    38124299.207 7 200344983.27307      -499.075 7        44.263
G02        15.000    25817977.781 6 135674382.00806     -1607.259 6        36.049                                    25817984.046 2 105720323.51302     -1252.385 2        16.830
E09        16.000    25183624.846 7 132340778.60507     -3075.339 7        45.952                                                                    25183630.180 8  98825880.43908     -2296.557 8        48.230    25183629.316 8 101403946.00308     -2356.405 8        48.782
G12        17.000    22117686.107 7 116229371.77507      2460.372 7        46.782                                    22117686.621 7  90568416.99607      1917.168 7        44.631    22117687.266 7  90568414.00407      1917.264 7        42.990
R21        18.000    24542261.712 6 131330589.06906     -3768.131 6        39.901                                                                    24542273.547 6 102146048.95606     -2930.832 6        38.102
R22        19.000    22246301.810 7 118752338.01707      -624.520 7        46.534                                                                    22246306.766 7  92362925.01207      -485.747 7        43.045
R03        21.000    20823661.930 8 111470609.87808     -4009.883 8        50.447                                                                    20823665.151 7  86699342.16807     -3118.746 7        45.383
I06        22.000    38196117.845 6 149889879.02306      -481.811 6        41.456
S28        23.000    40810611.606 5 214461058.91605      -509.101 5        34.767
S23        25.000    38058779.478 7 200000084.71507      -501.765 7        44.665
S45        26.000    63309415.797 6 332694750.49906      -554.656 6        36.295
C07        27.000                                                                                                                                    39115912.300 6 203686745.56006     -1163.115 6        40.479    39115912.654 7 157503488.01407      -899.416 7        44.175    39115909.918 6 165512133.68506      -945.259 6        40.467
R04        28.000    19951793.659 8 106840936.33308      -224.058 8        51.281                                                                    19951795.388 7  83098483.03807      -174.255 7        47.517
C40        29.000                                                                                                                                    39322156.673 7 204760721.34707     -1413.984 7        42.745                                                                    39322160.028 6 166384849.59406     -1149.025 6        41.437
G17        30.000    22190116.914 7 116609967.53907     -1847.047 7        46.295                                    22190117.645 7  90864967.19607     -1439.254 7        43.522    22190118.455 7  90864964.19407     -1439.310 7        42.499
G14        31.000    23862180.058 6 125396479.56106     -3764.569 6        40.663                                    23862186.529 4  97711510.71104     -2933.434 4        25.414    23862187.150 6  97711496.70006     -2933.445 6        39.664
G23        32.000    23745592.642 7 124783799.85007     -2600.956 7        42.051                                    23745597.644 4  97234084.22104     -2026.723 4        25.549    23745597.959 6  97234079.21506     -2026.637 6        40.605
I02        33.000    36824907.216 7 144508833.45407      -302.257 7        43.143
R15        34.000    24147966.640 6 129039401.29706      2893.430 6        41.287                                                                    24147977.966 6 100364009.01806      2250.181 6        37.822
R13        35.000    19969076.841 7 106633768.77507     -2396.820 7        46.882
R12        36.000    23313222.974 7 124534892.31707     -3925.447 7        43.295                                                                    23313233.542 6  96860436.37606     -3053.136 6        41.333
C42        37.000                                                                                                                                    24014324.036 7 125048880.62307        84.545 7        46.066                                                                    24014335.751 7 101612502.49607        68.708 7        46.616
C10        38.000                                                                                                                                    38494174.498 6 200449239.24406      -812.798 6        41.754    38494176.790 7 155000060.88707      -628.540 7        45.141    38494173.728 6 162881409.73306      -660.469 6        41.445
E25        39.000    26628274.188 6 139932619.81206      2105.778 6        40.524                                                                    26628284.198 7 104495233.01307      1572.466 7        43.283    26628282.559 7 107221183.96607      1613.496 7        43.996
C30        40.000                                                                                                                                    24437423.593 7 127252117.14507      -720.653 7        44.772                                                                    24437430.744 7 103402809.12807      -585.558 7        43.670
R23        41.000    22227653.240 7 118903011.93007      2486.821 7        44.903
S44        42.000    40765424.643 6 214223776.10706      -452.352 6        38.387
C36        43.000                                                                                                                                    23924581.947 7 124581483.07707     -2931.484 7        45.163                                                                    23924592.287 7 101232659.67307     -2382.050 7        46.326
C05        44.000                                                                                                                                    39353740.693 6 204925161.70006      -528.325 6        38.865    39353743.821 7 158461124.97307      -408.598 7        42.872    39353743.364 6 166518556.63406      -429.335 6        39.324
R14        45.000    20169980.753 8 107517449.93608      1340.767 8        52.206                                                                    20169984.624 7  83624763.75507      1042.831 7        47.449
E26        46.000    28092006.714 5 147624511.99305       177.947 5        35.886                                                                    28092019.306 6 110239145.17506       132.889 6        39.598    28092017.568 6 113114938.88306       136.382 6        40.067
G10        47.000    24261809.248 6 127496609.73306      -306.144 6        40.594                                    24261814.954 5  99348002.47905      -238.552 5        35.090    24261814.432 6  99348003.48606      -238.608 6        38.243
C45        50.000                                                                                                                                    21552961.149 8 112231942.31008      -843.478 8        50.579                                                                    21552955.391 8  91197633.61208      -685.420 8        50.233
S48        51.000    77061849.113 6 404962783.01506      -496.658 6        37.769
E06        52.000    26814876.371 6 140912995.33806     -3595.308 6        40.996                                                                    26814886.922 7 105227202.73707     -2684.677 7        44.056    26814885.899 7 107972263.37507     -2754.776 7        44.680
E33        53.000    28298615.173 5 148710261.67905      1897.897 5        35.743                                                                    28298628.672 6 111049925.62806      1417.312 6        39.766    28298626.894 6 113946871.08806      1454.220 6        40.079
C60        54.000                                                                                                                                    40765423.850 6 212276305.24206      -448.473 6        40.296                                                                    40765415.530 6 172491823.01006      -364.391 6        39.348
E31        55.000    24314298.209 7 127772477.20207     -2267.969 7        45.535                                                                    24314303.484 8  95414536.37208     -1693.586 8        48.722    24314302.740 8  97903608.27208     -1737.775 8        49.573
C26        56.000                                                                                                                                    23646072.193 7 123131365.83907      1770.779 7        46.088                                                                    23646075.131 7 100054358.04607      1438.872 7        46.641
C02        57.000                                                                                                                                    40893937.840 5                      -494.051 5        30.053    40893943.758 5 164662780.71805      -381.749 5        35.967    40893943.811 5                      -400.941 5        30.521
I03        58.000    92662364.145 5 287841515.15005       922.536 5        33.623
C21        59.000                                                                                                                                    23727874.397 7 123557178.04607     -2741.622 7        47.744                                                                    23727872.771 7 100400285.99607     -2227.852 7        47.947
C22        60.000                                                                                                                                    26055789.829 6 135679104.38906     -4002.608 6        40.970                                                                    26055794.899 6 110250313.74006     -3252.428 6        41.476
> 2025 01 02 11 00 50.0000000  0 55
E24         1.000    23655953.099 8 124312997.07608       307.475 8        48.868                                                                    23655955.140 8  92831204.42908       229.565 8        50.842    23655954.316 8  95252876.66608       235.584 8        51.204
G15         2.000    21422995.354 8 112578521.04108     -3379.012 8        48.375                                    21422995.733 7  87723491.23907     -2632.995 7        46.408    21422995.907 7  87723486.23507     -2633.044 7        43.685
E03         3.000    26465068.514 6 139074856.24206      1974.447 6        40.386                                                                    26465076.343 7 103854607.00207      1474.359 7        44.432    26465075.159 7 106563859.24507      1512.782 7        44.874
G19         4.000    21334957.312 7 112116125.58507       709.309 7        47.303                                    21334955.742 6  87363248.59106       552.707 6        38.312
S21         5.000    38354289.329 7 201552756.00507      -498.503 7        42.246
E05         6.000    22148562.311 8 116391436.31008      -422.422 8        48.062                                                                    22148566.065 8  86915656.21608      -315.393 8        50.903    22148565.331 8  89183020.79908      -323.664 8        51.275
C29         8.000                                                                                                                                    24186285.568 7 125944337.19607      1990.900 7        45.649                                                                    24186288.060 7 102340102.76907      1617.702 7        44.400
R05         9.000    22683940.916 7 121258683.00707      3101.218 7        47.167                                                                    22683947.057 7  94312353.10607      2412.020 7        42.298
G24        10.000    20186339.127 8 106079933.71108       621.533 8        49.721                                    20186340.712 8  82659704.24808       484.308 8        52.309    20186340.985 7  82659709.25907       484.254 7        46.507
C14        11.000                                                                                                                                    25396490.950 6 132246199.96006      1439.224 6        40.067    25396495.766 7 102261176.84307      1112.928 7        47.407    25396491.750 7 107460880.98507      1169.513 7        43.183
S27        12.000    39103779.256 6 205491593.65506      -528.637 6        36.915
G13        13.000    22703620.122 7 119308224.12507     -4104.990 7        44.144                                    22703621.477 4  92967399.59804     -3198.690 4        28.882
S36        14.000    38124774.049 7 200347478.10507      -498.986 7        44.215
G02        15.000    25819507.426 5 135682424.96205     -1609.794 5        35.386                                    25819514.620 2 105726590.74002     -1254.372 2        16.415
E09        16.000    25186551.723 7 132356158.88307     -3076.658 7        46.241                                                                    25186556.931 8  98837365.69108     -2297.517 8        48.146    25186555.954 8 101415730.88008     -2357.441 8        48.785
G12        17.000    22115345.690 7 116217073.63607      2458.938 7        46.756                                    22115346.335 7  90558834.05507      1916.048 7        44.727    22115346.967 7  90558831.06607      1915.992 7        43.302
R21        18.000    24545784.647 6 131349436.11006     -3770.475 6        40.458                                                                    24545796.162 6 102160707.79506     -2932.639 6        38.931
R22        19.000    22246888.475 7 118755471.56407      -628.773 7        46.022                                                                    22246893.839 7  92365362.24307      -489.016 7        43.122
R03        21.000    20827408.562 8 111490666.43408     -4012.700 8        50.153                                                                    20827411.532 7  86714941.68507     -3120.925 7        45.306
I06        22.000    38196731.304 6 149892287.99906      -481.578 6        41.566
S28        23.000    40811095.659 5 214463604.42605      -509.237 5        34.986
S23        25.000    38059256.144 7 200002593.91307      -501.763 7        44.650
S45        26.000    63309895.906 6 332695924.97116      -554.814 6        36.140
C07        27.000                                                                                                                                    39117029.616 6 203692562.44006     -1163.551 6        40.424    39117029.442 7 157507985.98907      -899.666 7        44.301    39117026.926 6 165516860.38206      -945.398 6        40.350
R04        28.000    19952005.079 8 106842068.28008      -228.732 8        51.399                                                                    19952006.659 7  83099363.45507      -177.905 7        46.800
C40        29.000                                                                                                                                    39323514.489 7 204767792.47607     -1414.308 7        42.580                                                                    39323518.032 6 166390595.47406     -1149.353 6        41.402
G17        30.000    22191875.826 7 116619209.96007     -1849.848 7        46.631                                    22191876.397 7  90872169.07107     -1441.441 7        43.664    22191877.114 7  90872166.07807     -1441.487 7        42.328
G14        31.000    23865762.036 6 125415303.58406     -3764.981 6        40.281                                    23865768.598 4  97726178.73804     -2933.743 4        25.263    23865769.092 6  97726164.72906     -2933.736 6        39.538
G23        32.000    23748067.895 6 124796809.86306     -2603.004 6        41.993                                    23748073.461 4  97244221.86104     -2028.309 4        25.504    23748073.108 6  97244216.85506     -2028.316 6        40.129
I02        33.000    36825292.187 7 144510344.90207      -302.384 7        43.191
R15        34.000    24145260.897 6 129024935.16706      2892.969 6        41.194                                                                    24145271.424 6 100352757.61806      2250.099 6        38.592
R13        35.000    19971321.815 7 106645757.07207     -2398.472 7        46.452
R12        36.000    23316896.848 7 124554519.80007     -3925.511 7        42.739                                                                    23316907.254 6  96875702.14306     -3053.162 6        41.225
C42        37.000                                                                                                                                    24014244.151 7 125048465.21507        81.665 7        45.803                                                                    24014255.911 7 101612164.95307        66.320 7        46.399
C10        38.000                                                                                                                                    38494955.283 6 200453304.20406      -813.166 6        41.683    38494957.411 7 155003204.16307      -628.763 7        45.234    38494954.391 6 162884712.86006      -660.730 6        41.406
E25        39.000    26626270.717 6 139922092.59106      2105.147 6        40.565                                                                    26626280.896 7 104487371.78007      1571.955 7        43.166    26626279.301 7 107213117.64507      1613.071 7        43.924
C30        40.000                                                                                                                                    24438117.220 7 127255727.48207      -723.393 7        44.539                                                                    24438123.998 7 103405742.84307      -587.866 7        43.494
R23        41.000    22225330.455 7 118890585.16507      2483.988 7        44.542
S44        42.000    40765854.666 6 214226038.41206      -452.625 6        38.258
C36        43.000                                                                                                                                    23927397.246 7 124596141.64907     -2931.940 7        45.269                                                                    23927407.222 7 101244570.96407     -2382.497 7        46.078
C05        44.000                                                                                                                                    39354248.285 6 204927803.78706      -528.397 6        38.787    39354251.247 7 158463168.00107      -408.590 7        42.900    39354250.630 6 166520703.56506      -429.324 6        39.021
R14        45.000    20168724.181 8 107510750.66008      1338.946 8        52.135                                                                    20168728.127 7  83619553.21507      1041.359 7        47.665
E26        46.000    28091838.492 6 147623628.07806       175.752 6        36.038                                                                    28091851.144 6 110238485.07806       131.218 6        39.417    28091849.210 6 113114261.59006       134.521 6        40.229
G10        47.000    24262101.862 6 127498148.63706      -309.392 6        41.263                                    24262107.796 5  99349201.62105      -241.083 5        35.148    24262107.564 6  99349202.62006      -241.074 6        38.003
C45        50.000                                                                                                                                    21553771.739 8 112236163.24108      -844.874 8        50.532                                                                    21553765.956 8  91201063.48308      -686.590 8        50.067
S48        51.000    77062320.431 6 404965266.28006      -496.550 6        37.414
E06        52.000    26818297.401 6 140930973.11006     -3595.748 6        41.247                                                                    26818308.080 7 105240627.66607     -2685.043 7        44.173    26818306.857 7 107986038.53007     -2755.199 7        44.712
E33        53.000    28296809.752 6 148700774.52906      1896.984 6        36.412                                                                    28296823.325 6 111042841.07306      1416.507 6        39.757    28296821.513 6 113939601.72806      1453.410 6        40.076
C60        54.000                                                                                                                                    40765854.619 6 212278546.94406      -448.195 6        40.298                                                                    40765846.045 6 172493644.60406      -364.218 6        39.111
E31        55.000    24316456.773 7 127783819.61307     -2268.998 7        45.926                                                                    24316461.952 8  95423006.34908     -1694.326 8        48.581    24316461.188 8  97912299.20108     -1738.513 8        49.531
C26        56.000                                                                                                                                    23644372.348 7 123122513.86507      1769.989 7        45.998                                                                    23644375.291 7 100047165.11607      1438.218 7        46.499
C02        57.000                                                                                                                                    40894411.962 5                      -493.582 5        30.438    40894417.741 6 164664689.42306      -381.696 6        36.491    40894417.946 5                      -400.753 5        30.430
I03        58.000    92661189.068 5 287836902.21405       922.545 5        33.695
C21        59.000                                                                                                                                    23730507.608 7 123570891.28907     -2743.689 7        47.675                                                                    23730506.263 7 100411429.12707     -2229.446 7        47.797
C22        60.000                                                                                                                                    26059633.045 6 135699117.17706     -4002.344 6        40.851                                                                    26059638.253 6 110266575.70406     -3252.267 6        41.437
> 2025 01 02 11 00 55.0000000  0 55
E24         1.000    23655661.598 8 124311464.58808       305.788 8        48.960                                                                    23655663.534 8  92830060.04208       228.314 8        50.875    23655662.705 8  95251702.42408       234.287 8        51.131
G15         2.000    21426211.386 8 112595422.57908     -3381.306 8        48.163                                    21426212.006 7  87736661.24507     -2634.779 7        46.445    21426211.839 7  87736656.24207     -2634.853 7        43.663
E03         3.000    26463190.936 6 139064987.69106      1973.127 6        40.861                                                                    26463198.342 7 103847237.62607      1473.617 7        44.498    26463197.276 7 106556297.63307      1511.974 7        44.844
G19         4.000    21334284.054 7 112112587.45707       706.054 7        47.192                                    21334282.531 6  87360491.59806       550.174 6        38.348
S21         5.000    38354764.917 7 201555248.71907      -498.398 7        42.565
E05         6.000    22148965.322 8 116393554.49908      -424.707 8        48.486                                                                    22148969.181 8  86917237.97708      -317.186 8        50.903    22148968.466 8  89184643.82008      -325.436 8        51.187
C29         8.000                                                                                                                                    24184374.473 7 125934387.31007      1989.289 7        45.544                                                                    24184377.055 7 102332017.67107      1616.325 7        44.373
R05         9.000    22681043.176 7 121243183.19707      3098.845 7        47.339                                                                    22681048.055 7  94300297.71407      2410.258 7        43.046
G24        10.000    20185749.105 8 106076832.69408       619.121 8        49.920                                    20185750.614 8  82657287.87708       482.432 8        52.339    20185750.880 7  82657292.88307       482.376 7        46.292
C14        11.000                                                                                                                                    25395110.747 6 132239009.66806      1437.083 6        40.279    25395114.643 7 102255616.86607      1111.196 7        47.211    25395110.887 7 107455038.28407      1167.597 7        43.153
S27        12.000    39104282.475 6 205494237.00906      -528.486 6        36.896
G13        13.000    22707526.435 7 119328752.62807     -4106.209 7        44.579                                    22707528.003 4  92983395.79804     -3199.638 4        29.062
S36        14.000    38125249.450 7 200349972.88007      -498.787 7        44.503
G02        15.000    25821040.120 5 135690480.96305     -1612.377 5        34.376                                    25821047.689 2 105732868.13902     -1256.406 2        15.571
E09        16.000    25189479.792 7 132371546.15907     -3078.062 7        46.055                                                                    25189485.152 8  98848856.15808     -2298.555 8        48.182    25189483.974 8 101427521.10308     -2358.522 8        48.656
G12        17.000    22113007.150 7 116204783.96607      2457.270 7        46.714                                    22113007.640 7  90549257.71107      1914.748 7        44.737    22113008.149 7  90549254.73307      1914.698 7        43.090
R21        18.000    24549308.916 6 131368295.79506     -3773.108 6        40.689                                                                    24549320.948 6 102175376.40106     -2934.556 6        38.745
R22        19.000    22247478.877 7 118758627.28107      -633.388 7        45.747                                                                    22247484.804 7  92367816.70707      -492.497 7        42.768
R03        21.000    20831157.699 8 111510737.23508     -4015.474 8        49.902                                                                    20831161.097 7  86730552.28007     -3123.211 7        45.357
I06        22.000    38197344.951 6 149894697.17806      -481.778 6        41.461
S28        23.000    40811585.436 5 214466150.38105      -508.622 5        34.890
S23        25.000    38059734.218 7 200005103.28507      -501.781 7        44.926
S45        26.000    63310373.525 6 332698699.70506      -554.819 6        36.355
C07        27.000                                                                                                                                    39118146.887 6 203698381.60706     -1163.950 6        40.281    39118147.129 7 157512485.73507      -900.072 7        44.248    39118144.544 6 165521588.92806      -945.935 6        40.567
R04        28.000    19952221.031 8 106843224.06008      -233.422 8        51.488                                                                    19952223.167 7  83100262.38607      -181.546 7        47.298
C40        29.000                                                                                                                                    39324873.055 7 204774866.30607     -1414.913 7        42.605                                                                    39324876.535 6 166396343.50606     -1149.782 6        41.430
G17        30.000    22193637.352 7 116628467.06807     -1852.756 7        46.298                                    22193637.979 7  90879382.39107     -1443.704 7        43.668    22193638.658 7  90879379.39307     -1443.722 7        42.159
G14        31.000    23869344.669 6 125434129.77306     -3765.324 6        40.055                                    23869351.114 4  97740848.46404     -2934.005 4        24.662    23869352.040 6  97740834.44806     -2934.017 6        39.742
G23        32.000    23750546.039 6 124809831.11606     -2605.339 6        41.569                                    23750551.218 4  97254368.27604     -2030.124 4        25.549    23750551.327 6  97254363.25306     -2029.983 6        39.667
I02        33.000    36825677.803 7 144511857.85207      -302.661 7        43.240
R15        34.000    24142553.045 7 129010471.56207      2892.620 7        42.114                                                                    24142565.009 6 100341508.17506      2249.882 6        37.550
R13        35.000    19973568.509 7 106657754.17907     -2400.155 7        46.479
R12        36.000    23320570.809 7 124574147.88707     -3925.609 7        42.694                                                                    23320581.806 6  96890968.37306     -3053.167 6        41.340
C42        37.000                                                                                                                                    24014167.292 7 125048064.37207        78.792 7        45.717                                                                    24014178.972 7 101611839.22507        63.914 7        46.593
C10        38.000                                                                                                                                    38495736.378 6 200457371.76406      -813.667 6        41.721    38495738.597 7 155006349.44707      -629.087 7        45.344    38495735.491 6 162888018.08106      -661.359 6        41.311
E25        39.000    26624268.468 6 139911569.21806      2104.480 6        40.961                                                                    26624278.384 7 104479513.41907      1571.430 7        43.263    26624276.787 7 107205054.29007      1612.502 7        43.736
C30        40.000                                                                                                                                    24438813.395 7 127259352.12107      -726.274 7        44.065                                                                    24438820.096 7 103408688.13507      -590.156 7        43.539
R23        41.000    22223009.170 7 118878173.10807      2481.081 7        44.623
S44        42.000    40766284.402 6 214228300.72906      -452.310 6        38.489
C36        43.000                                                                                                                                    23930213.418 7 124610803.47407     -2932.532 7        45.321                                                                    23930222.913 7 101256484.87507     -2383.168 7        46.171
C05        44.000                                                                                                                                    39354755.765 6 204930445.93906      -528.317 6        38.922    39354758.459 7 158465211.10207      -408.591 7        42.900    39354757.962 6 166522850.54606      -429.542 6        39.027
R14        45.000    20167469.054 8 107504061.18708      1337.063 8        52.364                                                                    20167473.253 7  83614350.28507      1039.991 7        47.655
E26        46.000    28091672.337 6 147622756.06906       173.234 6        36.276                                                                    28091685.128 6 110237833.88606       129.426 6        39.646    28091683.350 6 113113593.39006       132.932 6        40.181
G10        47.000    24262398.145 6 127499703.34806      -312.450 6        40.818                                    24262403.639 5  99350413.08105      -243.463 5        34.929    24262403.376 6  99350414.06406      -243.237 6        37.822
C45        50.000                                                                                                                                    21554583.825 8 112240391.85108      -846.325 8        50.551                                                                    21554578.042 8  91204499.56108      -687.880 8        50.197
S48        51.000    77062792.643 6 404967749.49806      -496.545 6        37.747
E06        52.000    26821718.720 6 140948953.93106     -3596.283 6        40.884                                                                    26821729.720 7 105254054.88607     -2685.620 7        44.110    26821728.442 7 107999816.03007     -2755.730 7        44.588
E33        53.000    28295005.365 6 148691292.79606      1895.950 6        36.650                                                                    28295018.870 6 111035760.56206      1415.839 6        39.592    28295017.105 6 113932336.51506      1452.633 6        40.262
C60        54.000                                                                                                                                    40766284.995 6 212280788.71806      -448.308 6        40.398                                                                    40766276.550 6 172495466.21406      -364.300 6        39.243
E31        55.000    24318616.451 7 127795167.44007     -2269.988 7        46.227                                                                    24318621.376 8  95431480.37008     -1695.166 8        48.671    24318620.580 8  97920994.29008     -1739.390 8        49.513
C26        56.000                                                                                                                                    23642673.312 7 123113666.36907      1769.174 7        46.088                                                                    23642676.116 7 100039975.80307      1437.397 7        46.594
C02        57.000                                                                                                                                    40894885.654 5                      -493.769 5        30.340    40894891.876 6 164666598.17206      -381.676 6        36.302    40894892.010 5                      -400.854 5        30.196
I03        58.000    92660011.991 5 287832289.19205       922.686 5        33.647
C21        59.000                                                                                                                                    23733143.281 7 123584615.22607     -2745.761 7        47.358                                                                    23733141.827 7 100422580.92307     -2231.291 7        47.902
C22        60.000                                                                                                                                    26063476.601 6 135719129.38906     -4002.251 6        41.137                                                                    26063481.473 6 110282837.15806     -3252.307 6        41.573
> 2025 01 02 11 01  0.0000000  0 55
E24         1.000    23655371.377 8 124309940.41908       303.837 8        49.085                                                                    23655373.530 8  92828921.86608       226.915 8        50.872    23655372.671 8  95250534.55708       232.795 8        51.270
G15         2.000    21429429.829 8 112612335.89908     -3383.966 8        48.468                                    21429430.523 7  87749840.43507     -2636.854 7        46.439    21429430.863 7  87749835.43507     -2636.920 7        43.697
E03         3.000    26461314.056 6 139055124.84906      1971.796 6        40.713                                                                    26461321.465 7 103839872.54007      1472.444 7        44.432    26461320.401 7 106548740.40507      1510.928 7        45.002
G19         4.000    21333614.024 7 112109065.24007       702.676 7        47.236                                    21333612.351 6  87357747.00606       547.539 6        38.315
S21         5.000    38355239.115 7 201557741.58007      -498.682 7        42.455
E05         6.000    22149370.383 8 116395684.15908      -427.274 8        48.347                                                                    22149374.466 8  86918828.30008      -319.070 8        50.945    22149373.704 8  89186275.63208      -327.372 8        51.323
C29         8.000                                                                                                                                    24182465.598 7 125924445.53207      1987.397 7        46.115                                                                    24182467.932 7 102323939.17607      1614.984 7        44.275
R05         9.000    22678143.669 7 121227695.80907      3096.006 7        46.851                                                                    22678150.572 7  94288252.00607      2407.972 7        42.885
G24        10.000    20185161.370 8 106073743.90008       616.378 8        50.056                                    20185162.842 8  82654881.02608       480.292 8        52.332    20185163.140 7  82654886.03507       480.278 7        46.399
C14        11.000                                                                                                                                    25393732.081 6 132231831.11506      1434.293 6        40.360    25393735.695 7 102250065.95207      1109.189 7        46.562    25393732.325 7 107449205.14007      1165.606 7        43.086
S27        12.000    39104787.231 6 205496880.62406      -528.459 6        36.658
G13        13.000    22711434.111 7 119349287.31507     -4107.698 7        44.719                                    22711435.642 4  92999396.82304     -3200.803 4        29.100
S36        14.000    38125723.580 7 200352467.37707      -499.188 7        44.337
G02        15.000    25822575.736 5 135698549.97905     -1615.062 5        34.881                                    25822583.048 2 105739155.69502     -1258.506 2        15.524
E09        16.000    25192409.322 7 132386940.38207     -3079.685 7        46.255                                                                    25192414.614 8  98860351.81808     -2299.735 8        48.164    25192413.354 8 101439316.65708     -2359.776 8        48.719
G12        17.000    22110670.167 7 116192502.69207      2455.242 7        46.813                                    22110670.573 7  90539687.91507      1913.171 7        44.770    22110670.714 7  90539684.92407      1913.188 7        42.730
R21        18.000    24552835.318 6 131387168.12406     -3775.852 6        40.417                                                                    24552847.404 6 102190054.85106     -2936.687 6        37.694
R22        19.000    22248073.867 7 118761805.13907      -637.956 7        45.685                                                                    22248080.364 7  92370288.39307      -496.170 7        43.077
R03        21.000    20834910.596 8 111530822.75108     -4018.774 8        50.222                                                                    20834913.169 7  86746174.32407     -3125.704 7        45.059
I06        22.000    38197959.428 6 149897106.47506      -482.047 6        41.402
S28        23.000    40812069.520 5 214468696.22405      -509.287 5        35.038
S23        25.000    38060212.870 7 200007612.90807      -502.257 7        44.804
S45        26.000    63310851.474 6 332701474.53806      -554.991 6        36.284
C07        27.000                                                                                                                                    39119264.322 6 203704202.97606     -1164.603 6        40.429    39119265.140 7 157516987.17707      -900.652 7        44.033    39119262.521 6 165526319.25006      -946.197 6        40.424
R04        28.000    19952441.506 8 106844403.45208      -238.439 8        51.287                                                                    19952443.019 7  83101179.70307      -185.461 7        47.619
C40        29.000                                                                                                                                    39326232.133 7 204781942.80807     -1415.709 7        42.652                                                                    39326235.506 6 166402093.73706     -1150.266 6        41.464
G17        30.000    22195401.766 7 116637738.86507     -1855.963 7        46.422                                    22195402.374 7  90886607.15507     -1446.200 7        43.666    22195403.061 7  90886604.16507     -1446.187 7        42.290
G14        31.000    23872927.705 6 125452958.11906     -3765.992 6        40.155                                    23872934.136 4  97755519.86404     -2934.539 4        24.541    23872934.789 6  97755505.84006     -2934.543 6        40.541
G23        32.000    23753025.633 6 124822863.52006     -2607.904 6        41.974                                    23753031.193 4  97264523.36704     -2032.127 4        25.654    23753031.748 6  97264518.34206     -2031.941 6        39.544
I02        33.000    36826063.974 7 144513371.98907      -303.024 7        43.426
R15        34.000    24139848.626 7 128996010.14707      2891.873 7        42.508                                                                    24139858.641 6 100330260.39906      2249.312 6        37.006
R13        35.000    19975816.968 7 106669759.76507     -2402.128 7        46.678
R12        36.000    23324245.758 7 124593776.52207     -3925.982 7        43.058                                                                    23324257.148 6  96906235.06006     -3053.513 6        41.778
C42        37.000                                                                                                                                    24014093.020 7 125047678.08507        75.661 7        45.782                                                                    24014104.795 7 101611525.35107        61.481 7        46.500
C10        38.000                                                                                                                                    38496517.807 6 200461441.94406      -814.534 6        41.886    38496520.439 7 155009496.76707      -629.872 7        45.263    38496517.073 6 162891325.42606      -661.681 6        41.328
E25        39.000    26622266.706 6 139901049.67806      2103.424 6        40.896                                                                    26622276.459 7 104471657.92607      1570.551 7        43.191    26622274.948 7 107196993.87207      1611.640 7        43.917
C30        40.000                                                                                                                                    24439512.410 7 127262991.03007      -729.340 7        44.283                                                                    24439518.814 7 103411645.07407      -592.592 7        43.526
R23        41.000    22220692.031 7 118865775.75607      2477.875 7        44.412
S44        42.000    40766716.437 6 214230563.09206      -452.660 6        38.276
C36        43.000                                                                                                                                    23933029.954 7 124625468.55007     -2933.516 7        44.998                                                                    23933039.283 7 101268401.41807     -2383.590 7        46.063
C05        44.000                                                                                                                                    39355263.043 6 204933088.13506      -528.639 6        39.081    39355265.813 7 158467254.22707      -408.781 7        42.912    39355265.473 6 166524997.55906      -429.453 6        39.120
R14        45.000    20166215.898 8 107497381.39608      1334.757 8        52.407                                                                    20166219.996 7  83609154.91807      1038.140 7        47.851
E26        46.000    28091508.991 6 147621895.93906       170.740 6        37.025                                                                    28091521.572 6 110237191.54906       127.475 6        39.532    28091519.767 6 113112934.31806       130.633 6        40.288
G10        47.000    24262696.831 6 127501273.90006      -315.891 6        41.023                                    24262702.473 5  99351636.87705      -246.149 5        34.995    24262702.419 6  99351637.87406      -246.208 6        37.834
C45        50.000                                                                                                                                    21555397.201 8 112244628.10808      -848.187 8        50.855                                                                    21555391.553 8  91207941.87408      -689.124 8        50.149
S48        51.000    77063265.303 6 404970232.96606      -496.710 6        37.645
E06        52.000    26825141.101 6 140966937.79906     -3597.235 6        40.377                                                                    26825151.982 7 105267484.36407     -2686.202 7        44.107    26825150.685 7 108013595.84707     -2756.310 7        44.758
E33        53.000    28293202.255 6 148681816.48306      1894.771 6        36.333                                                                    28293215.629 6 111028684.10506      1414.868 6        39.631    28293213.888 6 113925075.46106      1451.481 6        40.634
C60        54.000                                                                                                                                    40766715.514 6 212283030.51606      -448.574 6        40.389                                                                    40766707.114 6 172497287.86406      -364.331 6        39.180
E31        55.000    24320776.836 7 127806520.66107     -2271.397 7        45.908                                                                    24320781.814 8  95439958.41508     -1696.151 8        48.643    24320781.053 8  97929693.50308     -1740.416 8        49.622
C26        56.000                                                                                                                                    23640975.038 7 123104823.34307      1767.989 7        46.406                                                                    23640977.807 7 100032790.13207      1436.711 7        46.506
C02        57.000                                                                                                                                    40895361.591 5                      -493.884 5        31.011    40895365.989 6 164668506.91506      -381.847 6        36.367    40895366.127 5                      -401.883 5        30.460
I03        58.000    92658837.181 5 287827676.06805       922.620 5        33.964
C21        59.000                                                                                                                                    23735780.651 7 123598349.82807     -2748.136 7        47.615                                                                    23735779.436 7 100433741.40807     -2232.996 7        47.741
C22        60.000                                                                                                                                    26067319.882 6 135739140.96006     -4002.355 6        41.330                                                                    26067324.550 6 110299098.10306     -3252.129 6        41.530
> 2025 01 02 11 01  5.0000000  0 55
E24         1.000    23655082.878 8 124308424.50408       302.322 8        48.940                                                                    23655085.082 8  92827789.85408       225.736 8        50.948    23655084.235 8  95249373.01008       231.674 8        51.229
G15         2.000    21432650.633 7 112629260.93507     -3386.193 7        47.809                                    21432651.268 7  87763028.75407     -2638.587 7        46.475    21432651.579 7  87763023.75307     -2638.582 7        43.562
E03         3.000    26459437.999 6 139045267.70206      1970.925 6        40.722                                                                    26459445.801 7 103832511.69707      1471.732 7        44.551    26459444.661 7 106541187.54007      1510.046 7        44.977
G19         4.000    21332946.792 7 112105558.90107       699.697 7        46.995                                    21332945.095 6  87355014.78606       545.219 6        38.375
S21         5.000    38355714.936 7 201560234.62407      -498.607 7        42.504
E05         6.000    22149777.973 8 116397825.23208      -429.409 8        48.273                                                                    22149781.887 8  86920427.14208      -320.643 8        51.027    22149781.172 8  89187916.18408      -329.025 8        51.292
C29         8.000                                                                                                                                    24180558.195 7 125914511.77207      1985.903 7        46.373                                                                    24180560.330 7 102315867.18607      1613.815 7        44.310
R05         9.000    22675248.230 7 121212220.70607      3093.751 7        46.426                                                                    22675254.877 7  94276215.84907      2406.254 7        42.624
G24        10.000    20184575.745 8 106070667.29408       613.984 8        49.631                                    20184577.386 8  82652483.67008       478.429 8        52.374    20184577.847 7  82652488.67307       478.466 7        46.522
C14        11.000                                                                                                                                    25392354.552 6 132224664.18106      1432.108 6        39.850    25392359.021 7 102244524.03307      1107.478 7        46.185    25392355.937 7 107443381.43207      1163.737 7        42.976
S27        12.000    39105290.267 6 205499523.72606      -528.976 6        36.873
G13        13.000    22715342.823 7 119369828.11807     -4108.768 7        43.903                                    22715344.417 4  93015402.61104     -3201.637 4        28.957
S36        14.000    38126199.142 7 200354962.08007      -498.860 7        44.429
G02        15.000    25824114.089 5 135706631.88205     -1617.546 5        35.986                                    25824120.928 2 105745453.29002     -1260.427 2        16.113
E09        16.000    25195340.021 7 132402341.48207     -3080.926 7        45.800                                                                    25195345.498 8  98871852.61808     -2300.665 8        48.245    25195344.293 8 101451117.47908     -2360.705 8        48.643
G12        17.000    22108334.690 7 116180229.74007      2453.740 7        46.826                                    22108335.081 7  90530124.59907      1912.002 7        44.844    22108335.436 7  90530121.61607      1911.952 7        42.946
R21        18.000    24556365.057 6 131406053.09806     -3778.239 6        39.886                                                                    24556375.647 6 102204743.04306     -2938.672 6        37.028
R22        19.000    22248674.019 7 118765005.05607      -642.174 7        45.973                                                                    22248679.748 7  92372777.21807      -499.541 7        43.270
R03        21.000    20838665.665 8 111550922.65008     -4021.408 8        50.407                                                                    20838668.357 7  86761807.54507     -3127.788 7        45.669
I06        22.000    38198573.611 6 149899515.90406      -481.927 6        41.676
S28        23.000    40812550.850 5 214471242.19505      -509.326 5        35.138
S23        25.000    38060691.038 7 200010122.67407      -501.926 7        44.783
S45        26.000    63311333.801 6 332704249.56106      -555.019 6        36.386
C07        27.000                                                                                                                                    39120382.758 6 203710026.51006     -1164.958 6        40.498    39120383.124 7 157521490.28407      -900.801 7        43.577    39120380.811 6 165531051.35406      -946.531 6        40.470
R04        28.000    19952666.229 8 106845606.53808      -242.990 8        51.986                                                                    19952667.474 7  83102115.42707      -189.026 7        47.268
C40        29.000                                                                                                                                    39327591.647 7 204789021.92507     -1416.050 7        42.536                                                                    39327595.054 6 166407846.08306     -1150.609 6        41.423
G17        30.000    22197169.135 7 116647025.30807     -1858.808 7        46.072                                    22197169.577 7  90893843.33307     -1448.419 7        43.674    22197170.321 7  90893840.32107     -1448.313 7        42.231
G14        31.000    23876511.229 6 125471788.54406     -3766.255 6        40.014                                    23876517.542 4  97770192.87904     -2934.730 4        24.902    23876517.968 6  97770178.87906     -2934.808 6        40.808
G23        32.000    23755508.155 7 124835906.98007     -2609.799 7        42.245                                    23755513.239 4  97274687.07304     -2033.608 4        25.714    23755513.663 6  97274682.09606     -2033.633 6        39.577
I02        33.000    36826450.169 7 144514887.17007      -303.019 7        43.344
R15        34.000    24137141.742 7 128981551.17307      2891.500 7        42.106                                                                    24137152.609 6 100319014.52606      2249.015 6        37.735
R13        35.000    19978066.747 7 106681773.99707     -2403.728 7        46.787
R12        36.000    23327920.260 7 124613405.61607     -3925.902 7        43.020                                                                    23327931.495 6  96921502.08506     -3053.403 6        41.144
C42        37.000                                                                                                                                    24014021.826 7 125047306.29707        72.853 7        46.072                                                                    24014033.339 7 101611223.23307        59.184 7        46.525
C10        38.000                                                                                                                                    38497299.813 7 200465514.59007      -814.895 7        42.167    38497302.490 7 155012645.98307      -629.959 7        45.169    38497299.222 6 162894634.79106      -662.004 6        41.359
E25        39.000    26620265.180 6 139890533.89806      2102.887 6        40.870                                                                    26620275.392 7 104463805.24107      1570.261 7        43.281    26620274.037 7 107188936.33207      1611.296 7        43.960
C30        40.000                                                                                                                                    24440214.430 7 127266644.17007      -732.218 7        44.694                                                                    24440220.399 7 103414613.53307      -594.816 7        43.549
R23        41.000    22218377.304 7 118853393.12307      2475.033 7        45.076
S44        42.000    40767144.335 6 214232825.44806      -452.598 6        38.336
C36        43.000                                                                                                                                    23935846.433 7 124640136.77407     -2933.982 7        45.058                                                                    23935856.206 7 101280320.52907     -2384.041 7        45.986
C05        44.000                                                                                                                                    39355770.568 6 204935730.33906      -528.564 6        39.471    39355773.343 7 158469297.35507      -408.650 7        42.694    39355772.756 6 166527144.56806      -429.304 6        39.141
R14        45.000    20164964.482 8 107490711.27308      1332.989 8        52.229                                                                    20164968.338 7  83603967.05007      1036.748 7        47.896
E26        46.000    28091347.532 6 147621047.62606       168.498 6        37.013                                                                    28091360.145 6 110236558.03506       125.752 6        39.667    28091358.357 6 113112284.27306       129.072 6        40.276
G10        47.000    24262998.394 6 127502860.19906      -318.922 6        41.120                                    24263004.303 5  99352872.94705      -248.508 5        35.090    24263004.484 6  99352873.94306      -248.363 6        37.422
C45        50.000                                                                                                                                    21556212.337 8 112248871.94708      -849.564 8        51.012                                                                    21556206.584 8  91211390.33708      -690.265 8        50.118
S48        51.000    77063740.189 6 404972716.88106      -496.829 6        37.864
E06        52.000    26828564.053 6 140984924.60806     -3597.587 6        40.279                                                                    26828574.681 7 105280916.04307     -2686.522 7        44.108    26828573.541 7 108027377.91607     -2756.655 7        44.745
E33        53.000    28291399.542 6 148672345.54706      1893.575 6        36.197                                                                    28291413.414 6 111021611.63206      1414.073 6        39.637    28291411.510 6 113917818.47606      1451.090 6        40.653
C60        54.000                                                                                                                                    40767146.167 6 212285272.29006      -448.449 6        40.579                                                                    40767137.445 6 172499109.48506      -364.227 6        38.934
E31        55.000    24322938.111 7 127817879.18707     -2272.220 7        45.952                                                                    24322943.295 8  95448440.42808     -1696.806 8        48.706    24322942.502 8  97938396.78108     -1741.036 8        49.587
C26        56.000                                                                                                                                    23639277.536 7 123095984.71807      1767.255 7        46.708                                                                    23639280.519 7 100025608.03007      1436.118 7        46.545
C02        57.000                                                                                                                                    40895835.042 5                      -493.730 5        30.566    40895839.874 6 164670415.61406      -381.690 6        36.355    40895839.806 5                      -401.524 5        30.241
I03        58.000    92657662.409 5 287823062.82505       922.454 5        33.737
C21        59.000                                                                                                                                    23738420.153 7 123612095.03207     -2750.140 7        47.926                                                                    23738419.068 7 100444910.50307     -2234.612 7        47.751
C22        60.000                                                                                                                                    26071162.678 6 135759151.83106     -4002.096 6        41.616                                                                    26071167.557 6 110315358.48006     -3251.979 6        41.430
> 2025 01 02 11 01 10.0000000  0 55
E24         1.000    23654795.873 8 124306916.80208       300.802 8        48.674                                                                    23654798.133 8  92826663.97708       224.658 8        50.800    23654797.349 8  95248217.76608       230.465 8        51.171
G15         2.000    21435873.478 7 112646197.62907     -3388.487 7        47.742                                    21435874.239 7  87776226.15607     -2640.376 7        46.448    21435874.679 7  87776221.14607     -2640.344 7        42.914
E03         3.000    26457563.807 6 139035416.22806      1969.783 6        41.025                                                                    26457571.094 7 103825155.08207      1470.948 7        44.480    26457569.982 7 106533639.01707      1509.271 7        44.993
G19         4.000    21332282.808 7 112102068.37407       696.601 7        47.205                                    21332280.849 6  87352294.88806       542.803 6        38.405
S21         5.000    38356188.154 7 201562727.75307      -498.511 7        42.591
E05         6.000    22150187.585 8 116399977.66608      -431.514 8        48.158                                                                    22150191.486 8  86922034.47508      -322.230 8        50.884    22150190.738 8  89189565.44908      -330.647 8        51.271
C29         8.000                                                                                                                                    24178651.999 7 125904586.05007      1984.394 7        46.795                                                                    24178654.299 7 102307801.71807      1612.513 7        44.527
R05         9.000    22672355.726 7 121196757.92507      3091.300 7        46.279                                                                    22672362.585 7  94264189.25007      2404.481 7        42.895
G24        10.000    20183992.569 8 106067602.78208       611.718 8        49.803                                    20183994.232 8  82650095.74608       476.666 8        52.420    20183994.612 7  82650100.75107       476.692 7        46.426
C14        11.000                                                                                                                                    25390979.709 6 132217508.84206      1429.967 6        39.700    25390985.300 7 102238991.10207      1105.765 7        46.237    25390981.781 7 107437567.14307      1161.946 7        43.312
S27        12.000    39105793.042 6 205502167.18506      -528.754 6        36.896
G13        13.000    22719252.557 7 119390374.96407     -4109.880 7        44.153                                    22719254.234 4  93031413.11004     -3202.507 4        28.825
S36        14.000    38126674.279 7 200357456.96107      -498.891 7        44.427
G02        15.000    25825654.791 6 135714726.67606     -1620.228 6        36.125                                    25825661.357 2 105751760.91802     -1262.524 2        15.810
E09        16.000    25198271.870 7 132417749.42907     -3082.163 7        45.597                                                                    25198277.499 8  98883358.52808     -2301.590 8        48.236    25198276.437 8 101462923.54108     -2361.663 8        48.622
G12        17.000    22106000.800 7 116167965.11807      2452.152 7        46.892                                    22106001.184 7  90520567.77707      1910.763 7        44.904    22106001.554 7  90520564.77907      1910.720 7        42.548
R21        18.000    24559896.249 6 131424950.68406     -3780.642 6        39.402                                                                    24559907.680 6 102219441.13006     -2940.826 6        37.308
R22        19.000    22249277.738 7 118768227.01307      -646.507 7        45.497                                                                    22249283.330 7  92375283.19007      -502.802 7        43.145
R03        21.000    20842423.072 8 111571036.93908     -4024.219 8        49.925                                                                    20842426.277 7  86777451.98107     -3129.930 7        45.910
I06        22.000    38199187.080 6 149901925.42306      -481.915 6        41.480
S28        23.000    40813034.783 5 214473788.57205      -509.128 5        35.095
S23        25.000    38061168.201 7 200012632.47607      -501.954 7        44.909
S45        26.000    63311813.414 6 332707024.68906      -554.901 6        36.325
C07        27.000                                                                                                                                    39121501.806 6 203715852.17406     -1165.265 6        40.191    39121501.828 7 157525995.05507      -901.052 7        43.363    39121499.575 6 165535785.17306      -946.980 6        40.594
R04        28.000    19952895.690 8 106846833.32708      -247.640 8        52.374                                                                    19952896.676 7  83103069.59607      -192.608 7        47.481
C40        29.000                                                                                                                                    39328951.445 7 204796103.60207     -1416.504 7        42.258                                                                    39328954.994 6 166413600.49606     -1150.969 6        41.836
G17        30.000    22198939.007 7 116656326.30407     -1861.568 7        45.986                                    22198939.571 7  90901090.85307     -1450.567 7        43.708    22198940.237 7  90901087.84307     -1450.497 7        42.089
G14        31.000    23880094.775 6 125490621.01206     -3766.673 6        39.925                                    23880101.378 4  97784867.48304     -2935.056 4        24.977    23880101.310 6  97784853.47106     -2935.060 6        40.682
G23        32.000    23757992.103 6 124848961.52006     -2611.966 6        41.254                                    23757997.418 4  97284859.42204     -2035.296 4        25.895    23757997.917 6  97284854.42306     -2035.245 6        39.670
I02        33.000    36826836.592 7 144516403.69507      -303.413 7        43.306
R15        34.000    24134435.172 6 128967094.44906      2891.132 6        41.244                                                                    24134447.568 6 100307770.44806      2248.696 6        37.482
R13        35.000    19980317.887 7 106693796.80707     -2405.292 7        46.515
R12        36.000    23331595.217 7 124633035.07407     -3925.941 7        43.380                                                                    23331605.604 6  96936769.40006     -3053.463 6        41.495
C42        37.000                                                                                                                                    24013953.613 7 125046948.96307        70.123 7        46.102                                                                    24013964.735 7 101610932.85907        56.978 7        46.711
C10        38.000                                                                                                                                    38498082.680 7 200469589.74107      -815.227 7        42.136    38498085.067 7 155015797.15407      -630.354 7        45.121    38498081.810 6 162897946.18406      -662.457 6        41.490
E25        39.000    26618265.204 6 139880021.89106      2102.099 6        41.678                                                                    26618274.902 7 104455955.36507      1569.777 7        43.101    26618273.621 7 107180881.67907      1610.714 7        43.924
C30        40.000                                                                                                                                    24440919.205 7 127270311.47707      -734.806 7        44.971                                                                    24440924.644 7 103417593.51907      -597.155 7        43.742
R23        41.000    22216065.983 7 118841025.32907      2472.137 7        44.927
S44        42.000    40767573.714 6 214235087.71106      -452.345 6        38.297
C36        43.000                                                                                                                                    23938663.872 7 124654808.10107     -2934.543 7        45.598                                                                    23938673.668 7 101292242.16207     -2384.483 7        46.201
C05        44.000                                                                                                                                    39356277.749 6 204938372.48706      -528.253 6        39.231    39356280.612 7 158471340.44707      -408.482 7        42.726    39356280.147 6 166529291.53306      -429.206 6        39.237
R14        45.000    20163715.077 8 107484051.07908      1331.155 8        52.292                                                                    20163719.011 7  83598786.89907      1035.316 7        47.963
E26        46.000    28091188.125 6 147620211.06206       166.248 6        36.537                                                                    28091201.162 6 110235933.31306       124.040 6        39.523    28091199.258 6 113111643.25406       127.442 6        40.474
G10        47.000    24263303.302 6 127504462.25006      -322.083 6        40.942                                    24263309.089 5  99354121.29205      -250.972 5        35.109    24263309.543 6  99354122.27706      -250.867 6        37.323
C45        50.000                                                                                                                                    21557028.767 8 112253123.33508      -850.916 8        50.788                                                                    21557023.025 8  91214844.93008      -691.503 8        50.326
S48        51.000    77064210.519 6 404975200.96606      -496.511 6        37.996
E06        52.000    26831987.283 6 141002914.35206     -3598.053 6        40.191                                                                    26831998.052 7 105294349.92307     -2686.932 7        43.996    26831996.973 7 108041162.25007     -2757.111 7        44.849
E33        53.000    28289598.270 6 148662879.91906      1892.807 6        36.057                                                                    28289612.195 6 111014543.16506      1413.426 6        39.550    28289610.190 6 113910565.61206      1450.300 6        40.753
C60        54.000                                                                                                                                    40767576.547 6 212287514.00206      -448.316 6        40.420                                                                    40767568.075 6 172500931.05706      -364.267 6        39.198
E31        55.000    24325100.705 7 127829243.00807     -2273.170 7        45.803                                                                    24325105.724 8  95456926.39408     -1697.512 8        48.571    24325104.977 8  97947104.11908     -1741.757 8        49.575
C26        56.000                                                                                                                                    23637581.349 7 123087150.45007      1766.482 7        46.757                                                                    23637583.981 7 100018429.46807      1435.327 7        46.673
C02        57.000                                                                                                                                    40896307.532 5                      -493.740 5        30.732    40896313.816 6 164672324.25206      -381.704 6        36.155    40896313.861 5                      -401.302 5        30.400
I03        58.000    92656485.851 5 287818449.39505       922.931 5        33.778
C21        59.000                                                                                                                                    23741062.179 7 123625850.77107     -2752.139 7        47.962                                                                    23741060.732 7 100456088.15707     -2236.375 7        47.934
C22        60.000                                                                                                                                    26075005.508 6 135779161.96106     -4002.022 6        41.514                                                                    26075010.551 6 110331618.24406     -3251.886 6        41.609
> 2025 01 02 11 01 15.0000000  0 55
E24         1.000    23654510.592 8 124305417.67208       299.042 8        48.985                                                                    23654512.865 8  92825544.49408       223.316 8        50.869    23654512.047 8  95247069.08008       229.126 8        51.123
G15         2.000    21439099.128 7 112663146.31307     -3391.013 7        47.271                                    21439099.495 7  87789432.90107     -2642.344 7        46.379    21439100.133 7  87789427.89507     -2642.368 7        43.427
E03         3.000    26455690.044 6 139025570.76106      1968.445 6        41.251                                                                    26455697.649 7 103817802.96207      1470.019 7        44.476    26455696.446 7 106526095.09407      1508.366 7        44.858
G19         4.000    21331621.695 7 112098594.02907       693.343 7        47.271                                    21331619.675 6  87349587.59606       540.269 6        38.414
S21         5.000    38356664.668 7 201565221.38507      -498.636 7        42.610
E05         6.000    22150599.345 8 116402141.82808      -433.994 8        48.498                                                                    22150603.328 8  86923650.56508      -324.091 8        50.977    22150602.594 8  89191223.69908      -332.545 8        51.137
C29         8.000                                                                                                                                    24176747.150 7 125894668.68807      1982.760 7        46.451                                                                    24176749.612 7 102299743.04107      1611.120 7        44.257
R05         9.000    22669465.898 7 121181307.86707      3088.765 7        46.628                                                                    22669472.472 7  94252172.58207      2402.476 7        43.223
G24        10.000    20183412.005 8 106064550.78208       609.250 8        49.649                                    20183413.471 8  82647717.56408       474.740 8        52.390    20183413.959 7  82647722.57207       474.660 7        46.257
C14        11.000                                                                                                                                    25389609.381 6 132210365.47906      1427.566 6        40.141    25389613.911 7 102233467.42307      1103.823 7        46.519    25389609.888 7 107431762.57007      1160.042 7        43.143
S27        12.000    39106292.907 6 205504810.94506      -528.689 6        36.783
G13        13.000    22723163.677 7 119410928.18607     -4111.263 7        43.820                                    22723165.397 4  93047428.57904     -3203.583 4        28.673
S36        14.000    38127147.940 7 200359952.84107      -499.287 7        44.305
G02        15.000    25827197.504 5 135722834.71005     -1622.990 5        34.881                                    25827204.268 2 105758078.85202     -1264.680 2        15.857
E09        16.000    25201205.643 7 132433164.54307     -3083.677 7        45.896                                                                    25201210.816 8  98894869.80108     -2302.711 8        48.206    25201209.956 8 101474735.11308     -2362.833 8        48.595
G12        17.000    22103668.608 7 116155709.14407      2450.348 7        46.396                                    22103668.934 7  90511017.69307      1909.356 7        44.832    22103669.354 7  90511014.70207      1909.469 7        42.167
R21        18.000    24563430.315 6 131443861.28106     -3783.336 6        40.420                                                                    24563440.865 6 102234149.38606     -2942.675 6        37.096
R22        19.000    22249885.095 7 118771471.35807      -650.997 7        45.183                                                                    22249891.299 7  92377806.60107      -506.320 7        44.205
R03        21.000    20846183.263 8 111591165.93808     -4027.193 8        50.464                                                                    20846186.403 7  86793107.84207     -3132.278 7        46.065
I06        22.000    38199801.560 6 149904335.27206      -481.905 6        41.549
S28        23.000    40813521.362 5 214476335.18205      -509.417 5        35.038
S23        25.000    38061645.309 7 200015142.77807      -502.075 7        44.883
S45        26.000    63312290.549 6 332709800.30106      -554.995 6        36.049
C07        27.000                                                                                                                                    39122620.923 6 203721680.31306     -1165.823 6        40.217    39122621.101 7 157530501.73907      -901.502 7        43.191    39122618.857 6 165540521.00306      -947.251 6        40.431
R04        28.000    19953128.729 8 106848084.08808      -252.458 8        51.935                                                                    19953130.131 7  83104042.41007      -196.392 7        47.005
C40        29.000                                                                                                                                    39330311.829 7 204803188.20807     -1417.177 7        42.027                                                                    39330315.561 6 166419357.28606     -1151.502 6        41.609
G17        30.000    22200711.709 7 116665642.16407     -1864.586 7        45.664                                    22200712.386 7  90908349.95007     -1452.922 7        43.697    22200712.942 7  90908346.94707     -1452.925 7        42.025
G14        31.000    23883679.207 6 125509455.84806     -3767.227 6        40.136                                    23883685.446 4  97799543.94704     -2935.500 4        24.932    23883685.568 6  97799529.92806     -2935.437 6        40.329
G23        32.000    23760478.398 6 124862027.42506     -2614.314 6        41.080                                    23760483.944 4  97295040.61704     -2037.116 4        25.699    23760483.810 6  97295035.60706     -2037.042 6        39.985
I02        33.000    36827223.146 7 144517921.46007      -303.678 7        43.363
R15        34.000    24131730.869 6 128952640.24606      2890.863 6        40.286                                                                    24131742.403 6 100296528.30406      2248.224 6        36.624
R13        35.000    19982570.819 7 106705828.52307     -2407.170 7        46.518
R12        36.000    23335269.942 7 124652665.37807     -3926.068 7        43.503                                                                    23335280.827 6  96952037.36706     -3053.584 6        41.395
C42        37.000                                                                                                                                    24013887.629 7 125046606.44607        66.941 7        46.081                                                                    24013898.960 7 101610654.51007        54.612 7        46.653
C10        38.000                                                                                                                                    38498866.219 7 200473667.77307      -815.809 7        42.190    38498867.976 7 155018950.54007      -630.858 7        45.141    38498864.826 6 162901259.88906      -662.946 6        41.414
E25        39.000    26616265.585 6 139869513.94906      2101.242 6        41.971                                                                    26616275.286 7 104448108.53307      1569.085 7        43.117    26616273.988 7 107172830.14607      1610.034 7        43.763
C30        40.000                                                                                                                                    24441625.703 7 127273993.30407      -737.747 7        45.043                                                                    24441631.669 7 103420585.29807      -599.470 7        43.501
R23        41.000    22213756.242 7 118828672.43207      2469.131 7        44.649
S44        42.000    40768007.515 6 214237350.28006      -452.557 6        38.195
C36        43.000                                                                                                                                    23941482.056 7 124669482.88807     -2935.239 7        45.657                                                                    23941491.803 7 101304166.60207     -2385.089 7        46.109
C05        44.000                                                                                                                                    39356784.866 6 204941014.94106      -528.566 6        39.255    39356787.922 7 158473383.76807      -408.624 7        42.770    39356787.703 6 166531438.75206      -429.453 6        39.132
R14        45.000    20162467.285 8 107477400.77008      1329.063 8        52.485                                                                    20162471.625 7  83593614.44807      1033.667 7        47.969
E26        46.000    28091031.121 6 147619386.66106       163.843 6        36.491                                                                    28091044.383 6 110235317.64206       122.325 6        39.847    28091042.465 6 113111011.54206       125.396 6        40.353
G10        47.000    24263611.096 6 127506080.32806      -325.107 6        40.772                                    24263616.938 5  99355382.12505      -253.330 5        35.095    24263617.110 6  99355383.13306      -253.298 6        36.866
C45        50.000                                                                                                                                    21557846.660 8 112257382.61308      -852.560 8        50.770                                                                    21557840.916 8  91218305.92108      -692.713 8        50.153
S48        51.000    77064684.605 6 404977684.74306      -496.622 6        37.667
E06        52.000    26835411.150 6 141020907.34706     -3598.863 6        40.284                                                                    26835422.055 7 105307786.21707     -2687.459 7        44.032    26835421.025 7 108054949.06007     -2757.611 7        44.700
E33        53.000    28287798.299 6 148653419.96806      1891.579 6        36.333                                                                    28287812.224 6 111007478.93906      1412.403 6        39.859    28287810.064 6 113903317.09806      1449.399 6        40.760
C60        54.000                                                                                                                                    40768007.352 6 212289755.99706      -448.359 6        40.515                                                                    40767998.590 6 172502752.84006      -364.215 6        38.988
E31        55.000    24327264.139 7 127840612.44207     -2274.312 7        45.968                                                                    24327269.306 8  95465416.55108     -1698.364 8        48.661    24327268.494 8  97955815.77008     -1742.698 8        49.438
C26        56.000                                                                                                                                    23635885.702 7 123078320.89707      1765.500 7        46.903                                                                    23635888.299 7 100011254.72607      1434.663 7        46.557
C02        57.000                                                                                                                                    40896782.888 5                      -493.704 5        30.513    40896788.179 6 164674233.09006      -381.906 6        36.163    40896788.018 5                      -401.217 5        30.362
I03        58.000    92655309.557 5 287813836.02505       922.757 5        33.952
C21        59.000                                                                                                                                    23743705.824 8 123639617.38708     -2754.320 8        48.472                                                                    23743704.485 7 100467274.64007     -2238.083 7        47.791
C22        60.000                                                                                                                                    26078848.159 6 135799171.64806     -4001.829 6        41.342                                                                    26078853.185 6 110347877.66106     -3251.821 6        41.578
> 2025 01 02 11 01 20.0000000  0 55
E24         1.000    23654226.923 8 124303926.90208       297.225 8        48.841                                                                    23654229.212 8  92824431.25908       221.969 8        50.855    23654228.330 8  95245926.80108       227.802 8        51.179
G15         2.000    21442326.367 7 112680106.78507     -3393.404 7        46.959                                    21442327.005 7  87802648.82907     -2644.206 7        46.239    21442327.458 7  87802643.81307     -2644.188 7        43.911
E03         3.000    26453817.276 6 139015731.09406      1967.354 6        40.801                                                                    26453825.056 7 103810455.19007      1469.028 7        44.561    26453824.015 7 106518555.63607      1507.418 7        44.886
G19         4.000    21330963.254 7 112095135.67607       689.986 7        46.946                                    21330961.497 6  87346892.76706       537.658 6        38.315
S21         5.000    38357138.030 7 201567715.14407      -498.776 7        42.654
E05         6.000    22151013.427 8 116404317.51608      -436.359 8        48.380                                                                    22151017.374 8  86925275.25608      -325.821 8        50.908    22151016.603 8  89192890.77508      -334.331 8        51.247
C29         8.000                                                                                                                                    24174843.327 7 125884759.52607      1980.961 7        45.846                                                                    24174846.544 7 102291691.05407      1609.717 7        44.099
R05         9.000    22666577.996 7 121165870.48907      3086.145 7        46.348                                                                    22666583.881 7  94240165.74107      2400.287 7        42.957
G24        10.000    20182833.380 8 106061511.05908       606.638 8        49.356                                    20182835.031 8  82645348.95208       472.706 8        52.310    20182835.237 7  82645353.95907       472.610 7        46.582
C14        11.000                                                                                                                                    25388241.233 6 132203233.89906      1425.020 6        40.579    25388244.322 7 102227952.82707      1102.001 7        46.255    25388240.493 7 107425967.61307      1157.960 7        43.118
S27        12.000    39106799.945 6 205507455.33606      -528.899 6        36.692
G13        13.000    22727076.371 7 119431487.63307     -4112.635 7        43.998                                    22727077.704 4  93063448.90304     -3204.652 4        28.635
S36        14.000    38127622.316 7 200362449.35507      -499.467 7        44.336
G02        15.000    25828742.749 5 135730955.78505     -1625.561 5        34.905                                    25828749.666 2 105764406.95302     -1266.673 2        14.810
E09        16.000    25204140.294 7 132448586.66407     -3085.233 7        46.026                                                                    25204145.581 8  98906386.29008     -2303.941 8        48.100    25204144.710 8 101486552.03008     -2363.980 8        48.716
G12        17.000    22101337.639 7 116143461.68707      2448.540 7        46.082                                    22101338.311 7  90501474.24007      1907.945 7        44.707    22101338.819 7  90501471.24207      1907.970 7        42.427
R21        18.000    24566966.270 6 131462784.68806     -3785.964 6        40.262                                                                    24566977.658 6 102248867.59906     -2944.577 6        38.162
R22        19.000    22250496.464 7 118774737.89507      -655.646 7        45.242                                                                    22250503.816 7  92380347.25307      -509.844 7        44.289
R03        21.000    20849946.509 8 111611309.55108     -4030.224 8        50.381                                                                    20849948.986 7  86808775.04307     -3134.553 7        45.776
I06        22.000    38200415.472 6 149906745.31106      -482.083 6        41.864
S28        23.000    40814006.663 5 214478881.94805      -509.459 5        34.876
S23        25.000    38062124.122 7 200017653.47407      -502.207 7        44.889
S45        26.000    63312767.663 6 332710975.98316      -555.425 6        36.306
C07        27.000                                                                                                                                    39123740.254 6 203727510.72306     -1166.475 6        40.057    39123740.800 7 157535010.16407      -901.914 7        42.967    39123738.544 6 165545258.70306      -947.780 6        40.629
R04        28.000    19953366.069 8 106849358.60008      -257.376 8        51.273                                                                    19953368.305 7  83105033.69807      -200.170 7        47.234
C40        29.000                                                                                                                                    39331672.933 6 204810275.53106     -1417.746 6        41.764                                                                    39331676.672 6 166425116.32606     -1152.043 6        41.886
G17        30.000    22202487.462 7 116674972.72907     -1867.637 7        45.299                                    22202487.995 7  90915620.50707     -1455.299 7        43.609    22202488.275 7  90915617.50407     -1455.324 7        42.504
G14        31.000    23887263.861 6 125528292.86106     -3767.683 6        40.615                                    23887269.894 4  97814222.10104     -2935.852 4        24.797    23887269.553 6  97814208.09006     -2935.867 6        40.572
G23        32.000    23762967.383 6 124875104.47906     -2616.602 6        41.480                                    23762972.366 4  97305230.50604     -2038.915 4        25.699    23762973.017 6  97305225.50606     -2038.726 6        39.886
I02        33.000    36827610.286 7 144519440.46907      -304.020 7        43.524
R15        34.000    24129026.368 6 128938188.61006      2890.051 6        41.456                                                                    24129038.251 6 100285288.14806      2247.734 6        37.732
R13        35.000    19984826.008 7 106717868.86807     -2409.030 7        46.488
R12        36.000    23338945.362 7 124672296.20307     -3926.211 7        43.845                                                                    23338955.496 6  96967305.75506     -3053.825 6        40.703
C42        37.000                                                                                                                                    24013824.529 7 125046278.51807        64.070 7        45.934                                                                    24013836.037 7 101610388.07807        52.078 7        46.653
C10        38.000                                                                                                                                    38499649.394 6 200477748.39906      -816.442 6        41.988    38499651.608 7 155022105.92207      -631.344 7        44.974    38499648.584 6 162904575.74606      -663.344 6        41.447
E25        39.000    26614266.364 6 139859009.89806      2100.377 6        41.459                                                                    26614276.479 7 104440264.61407      1568.451 7        43.227    26614275.156 7 107164781.59807      1609.378 7        43.852
C30        40.000                                                                                                                                    24442335.471 7 127277689.48507      -740.772 7        45.007                                                                    24442341.575 7 103423588.77007      -601.940 7        43.534
R23        41.000    22211449.201 7 118816334.56907      2466.008 7        44.120
S44        42.000    40768436.518 6 214239612.93006      -452.512 6        38.387
C36        43.000                                                                                                                                    23944300.712 7 124684160.96007     -2935.973 7        45.619                                                                    23944310.592 7 101316093.73707     -2385.723 7        46.182
C05        44.000                                                                                                                                    39357293.084 6 204943657.50806      -528.594 6        38.991    39357295.434 7 158475427.18607      -408.790 7        42.709    39357295.062 6 166533586.08306      -429.480 6        39.279
R14        45.000    20161222.204 8 107470760.43408      1327.031 8        52.434                                                                    20161225.751 7  83588449.74407      1032.109 7        47.823
E26        46.000    28090876.466 6 147618574.19106       161.307 6        36.147                                                                    28090889.751 6 110234710.89806       120.409 6        39.934    28090887.835 6 113110388.96806       123.520 6        40.429
G10        47.000    24263921.862 6 127507714.28106      -328.468 6        41.476                                    24263927.823 5  99356655.32905      -255.949 5        35.062    24263927.975 6  99356656.32606      -255.822 6        37.123
C45        50.000                                                                                                                                    21558666.119 8 112261649.59008      -854.259 8        50.828                                                                    21558660.389 8  91221773.21408      -694.128 8        50.312
S48        51.000    77065154.134 6 404980168.91306      -497.014 6        37.739
E06        52.000    26838835.520 6 141038903.39606     -3599.516 6        40.005                                                                    26838846.537 7 105321224.80207     -2687.978 7        44.066    26838845.464 7 108068738.21507     -2758.087 7        44.814
E33        53.000    28285999.030 6 148643965.56606      1890.180 6        36.348                                                                    28286013.186 6 111000418.80306      1411.552 6        40.129    28286011.185 6 113896072.79706      1448.349 6        41.027
C60        54.000                                                                                                                                    40768437.724 6 212291998.08106      -448.486 6        40.615                                                                    40768429.118 6 172504574.75506      -364.470 6        39.060
E31        55.000    24329428.687 7 127851987.30907     -2275.514 7        45.923                                                                    24329433.858 8  95473910.76308     -1699.315 8        48.644    24329433.080 8  97964531.56308     -1743.615 8        49.511
C26        56.000                                                                                                                                    23634191.039 7 123069495.87207      1764.510 7        46.875                                                                    23634193.640 7 100004083.69507      1433.875 7        46.674
C02        57.000                                                                                                                                    40897255.408 5                      -493.861 5        30.174    40897262.100 6 164676141.94106      -381.918 6        36.295    40897261.688 5                      -401.524 5        30.355
I03        58.000    92654134.833 5 287809222.63705       922.662 5        33.689
C21        59.000                                                                                                                                    23746351.886 8 123653394.71208     -2756.601 8        48.164                                                                    23746350.256 7 100478469.85407     -2239.921 7        47.973
C22        60.000                                                                                                                                    26082691.059 6 135819180.74206     -4001.741 6        41.333                                                                    26082695.815 6 110364136.61706     -3251.875 6        41.566
> 2025 01 02 11 01 25.0000000  0 55
E24         1.000    23653944.888 8 124302443.85508       295.793 8        49.017                                                                    23653946.935 8  92823323.80008       220.852 8        51.058    23653946.096 8  95244790.45008       226.650 8        51.272
G15         2.000    21445556.214 7 112697078.38707     -3395.411 7        47.498                                    21445556.630 7  87815873.43407     -2645.770 7        46.209    21445556.971 7  87815868.42507     -2645.816 7        43.611
E03         3.000    26451945.810 6 139005896.64106      1966.399 6        40.844                                                                    26451953.704 7 103803111.29707      1468.259 7        44.615    26451952.650 7 106511020.16207      1506.658 7        44.889
G19         4.000    21330307.785 7 112091692.68807       687.034 7        47.087                                    21330306.270 6  87344209.90506       535.352 6        38.252
S21         5.000    38357614.123 7 201570208.40207      -498.533 7        42.728
E05         6.000    22151429.361 8 116406504.10008      -438.456 8        48.398                                                                    22151433.500 8  86926908.09008      -327.445 8        51.023    22151432.687 8  89194566.20408      -335.985 8        51.237
C29         8.000                                                                                                                                    24172942.361 7 125874857.92807      1979.541 7        45.777                                                                    24172944.883 7 102283645.18807      1608.464 7        44.020
R05         9.000    22663691.521 7 121150445.08107      3083.855 7        46.331                                                                    22663698.800 7  94228168.23307      2398.525 7        42.935
G24        10.000    20182257.078 8 106058483.01408       604.328 8        49.332                                    20182258.813 8  82642989.43908       470.907 8        52.305    20182258.959 7  82642994.44307       470.976 7        46.557
C14        11.000                                                                                                                                    25386873.965 6 132196113.48006      1422.862 6        40.801    25386876.284 7 102222446.87807      1100.299 7        45.761    25386873.133 7 107420181.67607      1156.210 7        43.276
S27        12.000    39107301.710 6 205510099.11506      -528.729 6        36.957
G13        13.000    22730989.873 7 119452052.63707     -4113.633 7        43.873                                    22730991.304 4  93079473.54704     -3205.419 4        28.711
S36        14.000    38128097.788 7 200364945.13607      -499.027 7        44.387
G02        15.000    25830291.184 5 135739089.27805     -1628.018 5        34.971                                    25830297.442 2 105770744.76502     -1268.594 2        15.286
E09        16.000    25207076.239 7 132464015.11807     -3086.361 7        45.758                                                                    25207081.512 8  98917907.51308     -2304.742 8        48.282    25207080.684 8 101498373.81208     -2364.895 8        48.714
G12        17.000    22099008.528 7 116131222.10307      2447.107 7        46.361                                    22099009.190 7  90491936.92907      1906.832 7        44.743    22099009.919 7  90491933.93907      1906.903 7        42.952
R21        18.000    24570504.485 6 131481719.91906     -3788.248 6        40.179                                                                    24570516.794 6 102263594.99106     -2946.449 6        37.539
R22        19.000    22251113.014 7 118778025.95907      -659.838 7        45.794                                                                    22251119.033 7  92382904.64807      -513.180 7        44.685
R03        21.000    20853712.008 8 111631466.79008     -4032.858 8        50.933                                                                    20853714.818 7  86824452.87507     -3136.695 7        45.630
I06        22.000    38201029.796 6 149909155.08206      -481.884 6        41.871
S28        23.000    40814489.513 5 214481428.15305      -509.098 5        34.843
S23        25.000    38062600.958 7 200020163.92607      -502.167 7        44.927
S45        26.000    63313249.489 6 332713751.29806      -555.187 6        36.193
C07        27.000                                                                                                                                    39124860.337 6 203733342.78406     -1166.647 6        40.017    39124861.031 7 157539519.88507      -902.103 7        42.694    39124858.406 6 165549997.71806      -947.952 6        40.532
R04        28.000    19953608.515 8 106850656.17008      -261.830 8        51.204                                                                    19953610.801 7  83106042.92507      -203.639 7        47.553
C40        29.000                                                                                                                                    39333034.789 6 204817364.93206     -1418.224 6        41.440                                                                    39333038.140 6 166430877.02206     -1152.321 6        41.771
G17        30.000    22204265.589 7 116684317.33707     -1870.340 7        45.698                                    22204266.284 7  90922902.00907     -1457.402 7        43.577    22204266.560 7  90922899.00907     -1457.500 7        42.324
G14        31.000    23890848.336 6 125547131.41006     -3767.887 6        41.070                                    23890854.669 4  97828901.44804     -2936.015 4        25.128    23890854.421 6  97828887.43706     -2936.035 6        40.627
G23        32.000    23765457.789 6 124888192.07306     -2618.661 6        41.349                                    23765462.944 4  97315428.60404     -2040.508 4        25.564    23765462.590 6  97315423.58806     -2040.303 6        39.387
I02        33.000    36827997.591 7 144520960.29607      -304.244 7        43.712
R15        34.000    24126323.257 7 128923738.84607      2889.723 7        42.358                                                                    24126334.012 6 100274049.43206      2247.589 6        37.664
R13        35.000    19987082.314 7 106729917.32907     -2410.553 7        46.221
R12        36.000    23342620.465 7 124691926.94807     -3926.207 7        43.545                                                                    23342630.493 6  96982574.07306     -3053.668 6        39.997
C42        37.000                                                                                                                                    24013764.184 7 125045964.60407        61.284 7        45.669                                                                    24013775.737 7 101610132.98007        49.820 7        46.637
C10        38.000                                                                                                                                    38500433.267 6 200481831.04106      -816.779 6        41.857    38500435.869 7 155025262.88007      -631.548 7        44.703    38500432.552 6 162907893.21706      -663.723 6        41.447
E25        39.000    26612267.964 6 139848509.11406      2099.814 6        41.602                                                                    26612278.398 7 104432423.13007      1568.063 7        43.319    26612276.994 7 107156735.56607      1608.812 7        44.057
C30        40.000                                                                                                                                    24443047.821 7 127281399.35107      -743.455 7        45.037                                                                    24443053.977 7 103426603.33007      -604.091 7        43.465
R23        41.000    22209144.528 7 118804010.85207      2463.230 7        43.443
S44        42.000    40768866.335 6 214241875.04006      -452.342 6        38.231
C36        43.000                                                                                                                                    23947120.012 7 124698841.66407     -2936.376 7        45.576                                                                    23947129.911 7 101328022.98107     -2386.066 7        46.118
C05        44.000                                                                                                                                    39357799.987 6 204946299.55306      -528.334 6        38.997    39357802.967 7 158477470.19707      -408.655 7        42.631    39357802.582 6 166535732.95006      -429.463 6        39.099
R14        45.000    20159977.851 8 107464129.20208      1325.207 8        52.346                                                                    20159982.003 7  83583292.12307      1030.721 7        47.688
E26        46.000    28090724.478 6 147617773.02406       159.098 6        36.049                                                                    28090737.350 6 110234112.60506       118.830 6        40.191    28090735.383 6 113109775.07006       121.844 6        40.322
G10        47.000    24264236.081 6 127509363.47606      -331.498 6        40.729                                    24264241.641 5  99357940.40505      -258.311 5        34.986    24264241.708 6  99357941.39506      -258.172 6        37.970
C45        50.000                                                                                                                                    21559486.880 8 112265923.62708      -855.550 8        50.679                                                                    21559481.217 8  91225246.20508      -695.186 8        50.189
S48        51.000    77065628.036 6 404982652.92606      -496.764 6        37.694
E06        52.000    26842260.558 6 141056901.86906     -3599.937 6        39.529                                                                    26842271.518 7 105334665.19107     -2688.302 7        44.143    26842270.407 7 108082529.22907     -2758.486 7        44.924
E33        53.000    28284200.874 6 148634516.01606      1889.347 6        36.412                                                                    28284214.846 6 110993362.31606      1410.970 6        40.384    28284212.976 6 113888832.23806      1447.698 6        41.464
C60        54.000                                                                                                                                    40768868.243 6 212294239.62506      -448.310 6        40.353                                                                    40768859.551 6 172506396.18106      -364.341 6        39.006
E31        55.000    24331594.199 7 127863366.94607     -2276.496 7        46.188                                                                    24331599.253 8  95482408.53908     -1700.009 8        48.765    24331598.515 8  97973251.01708     -1744.294 8        49.614
C26        56.000                                                                                                                                    23632496.667 7 123060674.73707      1763.747 7        46.502                                                                    23632499.607 7  99996915.80307      1433.238 7        46.597
C02        57.000                                                                                                                                    40897729.123 5                      -493.326 5        30.370    40897736.070 5 164678050.31605      -381.610 5        35.943    40897735.975 5                      -401.583 5        30.664
I03        58.000    92652957.994 5 287804608.70705       922.905 5        33.725
C21        59.000                                                                                                                                    23748999.158 7 123667182.06207     -2758.531 7        47.986                                                                    23748997.974 7 100489673.17907     -2241.540 7        47.779
C22        60.000                                                                                                                                    26086533.473 6 135839188.57206     -4001.463 6        41.023                                                                    26086538.251 6 110380394.50206     -3251.437 6        41.421
> 2025 01 02 11 01 30.0000000  0 55
E24         1.000    23653664.072 8 124300969.21308       294.144 8        48.909                                                                    23653666.365 8  92822222.60808       219.640 8        50.978    23653665.513 8  95243660.53108       225.395 8        51.238
G15         2.000    21448788.012 8 112714061.80508     -3397.804 8        48.080                                    21448788.495 7  87829107.24507     -2647.635 7        46.207    21448788.554 7  87829102.23907     -2647.654 7        43.793
E03         3.000    26450075.532 6 138996068.08406      1965.211 6        40.861                                                                    26450083.364 7 103795771.78307      1467.489 7        44.576    26450082.184 7 106503489.18307      1505.806 7        44.880
G19         4.000    21329655.912 7 112088265.76907       683.848 7        47.279                                    21329654.102 6  87341539.57106       532.868 6        38.219
S21         5.000    38358083.894 7 201572701.81407      -498.457 7        42.711
E05         6.000    22151847.598 8 116408702.24408      -440.788 8        48.392                                                                    22151851.756 8  86928549.55108      -329.095 8        51.028    22151850.999 8  89196250.48708      -337.675 8        51.226
C29         8.000                                                                                                                                    24171042.599 7 125864964.57507      1977.901 7        45.836                                                                    24171045.022 7 102275606.03007      1607.129 7        44.175
R05         9.000    22660809.023 7 121135032.23407      3081.359 7        45.612                                                                    22660815.022 7  94216180.50007      2396.539 7        42.827
G24        10.000    20181683.274 8 106055467.28508       601.898 8        49.808                                    20181684.943 8  82640639.52708       469.013 8        52.273    20181685.264 7  82640644.52907       469.067 7        46.613
C14        11.000                                                                                                                                    25385508.296 6 132189004.86906      1420.578 6        40.343    25385510.717 7 102216950.06207      1098.522 7        46.043    25385508.004 7 107414405.37007      1154.272 7        43.234
S27        12.000    39107806.453 6 205512742.78406      -528.951 6        36.877
G13        13.000    22734904.335 7 119472623.87407     -4114.878 7        43.947                                    22734906.031 4  93095503.05404     -3206.386 4        28.635
S36        14.000    38128574.647 7 200367441.24407      -499.068 7        44.582
G02        15.000    25831841.118 5 135747235.85705     -1630.786 5        35.157                                    25831847.677 2 105777092.74502     -1270.742 2        15.238
E09        16.000    25210013.294 7 132479450.57207     -3087.708 7        45.747                                                                    25210018.795 8  98929433.96508     -2305.740 8        48.273    25210017.790 8 101510200.95808     -2365.951 8        48.674
G12        17.000    22096681.463 7 116118991.03307      2445.411 7        46.978                                    22096681.706 7  90482406.25307      1905.515 7        44.746    22096682.086 7  90482403.26307      1905.495 7        42.711
R21        18.000    24574046.990 6 131500668.10306     -3790.950 6        40.203                                                                    24574056.558 6 102278332.50806     -2948.526 6        37.323
R22        19.000    22251733.622 7 118781336.29607      -664.246 7        46.519                                                                    22251739.441 7  92385479.37107      -516.762 7        44.385
R03        21.000    20857480.162 8 111651638.62408     -4035.762 8        50.398                                                                    20857482.990 7  86840142.04207     -3138.981 7        45.637
I06        22.000    38201643.851 6 149911565.07606      -482.062 6        41.776
S28        23.000    40814972.524 5 214483974.65605      -509.367 5        34.767
S23        25.000    38063081.018 7 200022674.72707      -502.167 7        44.981
S45        26.000    63313727.013 6 332716526.93306      -555.274 6        36.178
C07        27.000                                                                                                                                    39125980.929 6 203739177.15606     -1166.909 6        39.664    39125981.349 7 157544031.37507      -902.427 7        42.482    39125979.038 6 165554738.61006      -948.382 6        40.689
R04        28.000    19953855.515 8 106851977.61508      -266.622 8        51.488                                                                    19953857.258 7  83107070.71507      -207.374 7        46.981
C40        29.000                                                                                                                                    39334396.567 6 204824457.08306     -1418.625 6        41.538                                                                    39334400.349 6 166436639.97006     -1152.965 6        41.976
G17        30.000    22206046.812 7 116693676.70307     -1873.274 7        45.816                                    22206047.389 7  90930195.00007     -1459.693 7        43.581    22206047.801 7  90930192.00007     -1459.663 7        42.698
G14        31.000    23894433.371 6 125565972.13706     -3768.343 6        41.042                                    23894440.078 4  97843582.50304     -2936.361 4        25.188    23894440.008 6  97843568.48406     -2936.406 6        40.810
G23        32.000    23767950.191 6 124901290.83106     -2620.838 6        40.560                                    23767955.734 4  97325635.39604     -2042.209 4        25.579    23767956.072 6  97325630.39506     -2042.239 6        40.110
I02        33.000    36828385.290 7 144522481.34507      -304.226 7        43.596
R15        34.000    24123619.638 7 128909291.45107      2889.303 7        42.870                                                                    24123630.418 6 100262812.54606      2247.030 6        38.189
R13        35.000    19989340.114 7 106741974.51907     -2412.363 7        46.236
R12        36.000    23346294.975 7 124711558.33007     -3926.249 7        42.696                                                                    23346305.495 6  96997842.87706     -3053.868 6        39.979
C42        37.000                                                                                                                                    24013706.425 7 125045665.32507        58.457 7        45.604                                                                    24013718.249 7 101609889.80107        47.406 7        46.610
C10        38.000                                                                                                                                    38501217.776 6 200485916.34006      -817.416 6        41.862    38501220.314 7 155028421.86707      -631.978 7        44.760    38501217.088 6 162911212.83506      -664.149 6        41.518
E25        39.000    26610270.533 6 139838012.27206      2099.025 6        41.564                                                                    26610281.001 7 104424584.58607      1567.489 7        43.486    26610279.454 7 107148692.53107      1608.319 7        44.026
C30        40.000                                                                                                                                    24443762.842 7 127285123.59007      -746.237 7        45.121                                                                    24443769.146 7 103429629.57407      -606.428 7        43.570
R23        41.000    22206843.645 7 118791702.24807      2460.231 7        43.426
S44        42.000    40769298.531 6 214244137.27706      -452.455 6        38.195
C36        43.000                                                                                                                                    23949940.077 7 124713525.67407     -2937.102 7        45.500                                                                    23949949.818 7 101339954.93107     -2386.732 7        46.198
C05        44.000                                                                                                                                    39358307.387 6 204948941.72606      -528.380 6        39.084    39358310.322 7 158479513.31007      -408.659 7        42.732    39358309.973 6 166537879.96306      -429.412 6        39.192
R14        45.000    20158735.257 8 107457507.79208      1323.406 8        52.199                                                                    20158739.627 7  83578142.15307      1029.319 7        47.507
E26        46.000    28090573.985 5 147616983.85505       156.383 5        35.981                                                                    28090587.176 6 110233523.25106       117.015 6        40.236    28090585.298 6 113109170.35606       119.973 6        40.474
G10        47.000    24264552.326 6 127511028.58006      -334.571 6        40.529                                    24264558.433 5  99359237.88905      -260.700 5        34.810    24264559.000 6  99359238.89106      -260.758 6        38.099
C45        50.000                                                                                                                                    21560309.211 8 112270205.39408      -857.060 8        50.780                                                                    21560303.459 8  91228725.49708      -696.517 8        50.254
S48        51.000    77066099.918 6 404985136.93106      -496.732 6        37.762
E06        52.000    26845686.231 6 141074903.42406     -3600.641 6        39.273                                                                    26845697.172 7 105348107.88707     -2688.856 7        44.075    26845696.032 7 108096322.59807     -2758.887 7        44.781
E33        53.000    28282403.527 6 148625072.01506      1888.275 6        36.147                                                                    28282417.633 6 110986309.99606      1410.058 6        40.369    28282415.807 6 113881595.92306      1446.982 6        41.483
C60        54.000                                                                                                                                    40769298.779 6 212296481.30006      -448.379 6        40.348                                                                    40769290.026 6 172508217.70306      -364.175 6        39.135
E31        55.000    24333760.732 7 127874752.03607     -2277.522 7        46.372                                                                    24333765.785 8  95490910.38008     -1700.764 8        48.743    24333765.083 8  97981974.64608     -1745.089 8        49.526
C26        56.000                                                                                                                                    23630803.318 7 123051858.16407      1762.944 7        46.519                                                                    23630806.522 7  99989751.62507      1432.476 7        46.616
C02        57.000                                                                                                                                    40898204.805 5                      -493.381 5        30.068    40898209.757 6 164679958.78906      -381.770 6        36.265    40898210.124 5                      -401.284 5        30.340
I03        58.000    92651783.067 5 287799994.74105       922.765 5        33.689
C21        59.000                                                                                                                                    23751649.335 7 123680980.11607     -2760.656 7        47.540                                                                    23751647.754 7 100500885.22007     -2243.334 7        47.890
C22        60.000                                                                                                                                    26090375.928 6 135859195.81506     -4001.385 6        40.625                                                                    26090380.593 6 110396651.93106     -3251.495 6        41.559
> 2025 01 02 11 01 35.0000000  0 55
E24         1.000    23653385.125 8 124299502.56708       292.623 8        49.104                                                                    23653387.245 8  92821127.38208       218.557 8        50.777    23653386.388 8  95242536.73908       224.205 8        51.145
G15         2.000    21452021.951 8 112731056.60708     -3400.040 8        48.040                                    21452022.507 7  87842349.92507     -2649.377 7        46.230    21452023.064 7  87842344.91407     -2649.286 7        43.721
E03         3.000    26448205.943 6 138986245.00206      1964.220 6        41.001                                                                    26448214.073 7 103788436.36207      1466.849 7        44.423    26448212.894 7 106495962.41307      1504.942 7        44.858
G19         4.000    21329007.001 7 112084854.48707       680.841 7        47.261                                    21329004.925 6  87338881.42406       530.527 6        38.141
S21         5.000    38358562.541 7 201575194.98107      -498.493 7        42.646
E05         6.000    22152268.078 8 116410911.56208      -442.884 8        48.592                                                                    22152272.177 8  86930199.35708      -330.715 8        50.832    22152271.393 8  89197943.33208      -339.324 8        51.209
C29         8.000                                                                                                                                    24169144.041 7 125855079.08007      1976.485 7        45.756                                                                    24169146.906 7 102267573.24807      1605.953 7        44.403
R05         9.000    22657927.688 7 121119631.56207      3078.894 7        46.145                                                                    22657934.035 7  94204202.22107      2394.718 7        42.971
G24        10.000    20181111.892 8 106052463.51208       599.665 8        49.945                                    20181113.340 8  82638298.92608       467.270 8        52.219    20181113.786 7  82638303.93307       467.308 7        46.604
C14        11.000                                                                                                                                    25384144.431 6 132181907.70406      1418.520 6        40.322    25384148.361 7 102211462.09907      1096.787 7        46.882    25384144.919 7 107408638.33007      1152.536 7        43.234
S27        12.000    39108304.596 6 205515386.51706      -528.667 6        36.737
G13        13.000    22738819.712 7 119493200.88807     -4115.835 7        44.330                                    22738821.674 4  93111537.05704     -3207.137 4        28.351
S36        14.000    38129048.969 7 200369936.94007      -498.990 7        44.402
G02        15.000    25833393.528 6 135755395.02806     -1632.813 6        36.049                                    25833400.238 2 105783450.55002     -1272.306 2        16.075
E09        16.000    25212952.003 7 132494892.62407     -3088.892 7        46.220                                                                    25212957.354 8  98940965.34108     -2306.632 8        48.177    25212956.253 8 101522033.15808     -2366.840 8        48.617
G12        17.000    22094355.488 7 116106768.07207      2443.896 7        47.169                                    22094355.733 7  90472881.89007      1904.330 7        44.698    22094355.991 7  90472878.89707      1904.343 7        42.971
R21        18.000    24577589.840 6 131519628.43406     -3793.231 6        39.378                                                                    24577600.426 6 102293079.42306     -2950.474 6        37.856
R22        19.000    22252358.277 7 118784668.42907      -668.471 7        45.579                                                                    22252362.940 7  92388071.01907      -519.920 7        43.683
R03        21.000    20861250.676 8 111671824.56708     -4038.498 8        50.659                                                                    20861253.862 7  86855842.19607     -3141.080 7        45.579
I06        22.000    38202257.701 6 149913974.97606      -481.844 6        41.824
S28        23.000    40815461.689 5 214486521.24005      -509.076 5        34.900
S23        25.000    38063558.784 7 200025185.47307      -502.057 7        44.799
S45        26.000    63314206.814 6 332719302.45206      -555.258 6        36.420
C07        27.000                                                                                                                                    39127102.071 6 203745013.43006     -1167.486 6        39.934    39127102.108 7 157548544.33707      -902.643 7        42.620    39127099.791 6 165559481.04506      -948.579 6        40.596
R04        28.000    19954106.827 8 106853322.45808      -271.204 8        51.310                                                                    19954108.677 7  83108116.69707      -210.896 7        47.651
C40        29.000                                                                                                                                    39335758.679 6 204831551.57206     -1418.925 6        41.435                                                                    39335762.601 7 166442404.79207     -1153.028 7        42.025
G17        30.000    22207830.501 7 116703050.46407     -1876.041 7        45.463                                    22207831.240 7  90937499.22007     -1461.845 7        43.513    22207831.266 7  90937496.22207     -1461.838 7        42.099
G14        31.000    23898019.301 6 125584814.64906     -3768.488 6        40.749                                    23898025.837 4  97858264.94604     -2936.477 4        25.143    23898025.701 6  97858250.92306     -2936.531 6        41.030
G23        32.000    23770445.082 6 124914400.36006     -2622.948 6        40.467                                    23770450.515 4  97335850.59904     -2043.842 4        25.278    23770450.622 6  97335845.58806     -2043.826 6        40.436
I02        33.000    36828773.146 7 144524003.27907      -304.412 7        43.572
R15        34.000    24120917.133 7 128894846.17707      2888.866 7        42.212                                                                    24120927.475 6 100251577.32106      2247.030 6        37.709
R13        35.000    19991599.696 7 106754039.99807     -2413.759 7        46.461
R12        36.000    23349969.613 7 124731189.88907     -3926.185 7        42.821                                                                    23349980.953 6  97013111.81106     -3053.802 6        40.601
C42        37.000                                                                                                                                    24013651.621 7 125045380.31707        55.644 7        45.612                                                                    24013663.526 7 101609658.18707        45.299 7        46.652
C10        38.000                                                                                                                                    38502002.523 6 200490003.92306      -817.581 6        41.948    38502005.130 7 155031582.64407      -632.194 7        44.802    38502002.119 6 162914534.33406      -664.475 6        41.499
E25        39.000    26608273.875 6 139827518.95206      2098.481 6        41.361                                                                    26608284.093 7 104416748.67607      1566.955 7        43.228    26608282.547 7 107140652.20907      1607.802 7        44.120
C30        40.000                                                                                                                                    24444480.722 7 127288861.78207      -748.902 7        45.520                                                                    24444487.058 7 103432667.15007      -608.577 7        43.661
R23        41.000    22204545.883 7 118779408.09107      2457.401 7        44.236
S44        42.000    40769726.358 6 214246399.21506      -452.243 6        38.126
C36        43.000                                                                                                                                    23952760.538 7 124728212.57807     -2937.534 7        45.645                                                                    23952770.293 7 101351889.20407     -2386.975 7        46.206
C05        44.000                                                                                                                                    39358814.898 6 204951583.66706      -528.171 6        39.108    39358817.686 7 158481556.23207      -408.476 7        42.874    39358817.305 6 166540026.74206      -429.186 6        39.174
R14        45.000    20157494.791 8 107450895.96408      1321.519 8        52.214                                                                    20157499.545 8  83572999.62108      1027.890 8        48.114
E26        46.000    28090426.188 6 147616206.23806       154.449 6        36.374                                                                    28090439.060 6 110232942.55106       115.279 6        40.019    28090437.439 6 113108574.49706       118.310 6        40.472
G10        47.000    24264872.648 6 127512709.17006      -337.493 6        41.154                                    24264878.226 5  99360547.42805      -262.983 5        34.738    24264878.670 6  99360548.44206      -263.088 6        37.467
C45        50.000                                                                                                                                    21561132.910 8 112274494.48508      -858.385 8        50.886                                                                    21561127.136 8  91232210.72408      -697.566 8        50.257
S48        51.000    77066573.664 6 404987620.87206      -496.752 6        37.951
E06        52.000    26849112.615 6 141092907.62506     -3600.968 6        39.586                                                                    26849123.250 7 105361552.55907     -2689.038 7        43.869    26849121.972 7 108110118.00907     -2759.233 7        44.802
E33        53.000    28280607.546 6 148615633.19806      1887.322 6        36.374                                                                    28280621.415 6 110979261.51906      1409.289 6        40.327    28280619.522 6 113874363.57606      1446.215 6        41.378
C60        54.000                                                                                                                                    40769729.169 6 212298722.67906      -448.161 6        40.503                                                                    40769720.594 6 172510039.01206      -364.267 6        38.997
E31        55.000    24335928.002 7 127886142.14607     -2278.418 7        46.470                                                                    24335933.281 8  95499415.97208     -1701.401 8        48.572    24335932.520 8  97990702.12808     -1745.811 8        49.482
C26        56.000                                                                                                                                    23629111.134 7 123043045.75207      1762.189 7        46.326                                                                    23629114.165 7  99982590.82107      1431.901 7        46.625
C02        57.000                                                                                                                                    40898678.748 5                      -493.229 5        30.521    40898683.978 6 164681867.01206      -381.501 6        36.068    40898683.660 5                      -400.901 5        30.143
I03        58.000    92650606.925 5 287795380.42905       923.094 5        33.413
C21        59.000                                                                                                                                    23754300.724 7 123694788.44807     -2762.551 7        47.546                                                                    23754299.480 7 100512105.59407     -2244.793 7        47.825
C22        60.000                                                                                                                                    26094217.798 6 135879202.03906     -4001.164 6        40.355                                                                    26094222.666 6 110412908.51406     -3251.084 6        41.445
> 2025 01 02 11 01 40.0000000  0 55
E24         1.000    23653107.901 8 124298044.43808       290.790 8        49.083                                                                    23653109.802 8  92820038.53108       217.125 8        50.865    23653108.917 8  95241419.47408       222.829 8        51.181
G15         2.000    21455258.207 7 112748063.28007     -3402.470 7        47.720                                    21455258.799 7  87855601.85807     -2651.270 7        46.081    21455259.081 7  87855596.85007     -2651.308 7        43.488
E03         3.000    26446338.343 6 138976427.93606      1962.851 6        41.213                                                                    26446345.897 7 103781105.45907      1465.728 7        44.561    26446344.791 7 106488440.25907      1503.956 7        44.862
G19         4.000    21328360.843 7 112081459.40307       677.458 7        47.301                                    21328358.856 6  87336235.89106       527.887 6        38.069
S21         5.000    38359037.839 7 201577688.54807      -498.558 7        42.578
E05         6.000    22152690.758 8 116413132.57608      -445.397 8        48.491                                                                    22152694.825 8  86931857.90408      -332.583 8        50.858    22152693.991 8  89199645.14408      -341.270 8        51.234
C29         8.000                                                                                                                                    24167247.241 7 125845201.97707      1974.622 7        45.348                                                                    24167250.268 7 102259547.28707      1604.408 7        44.457
R05         9.000    22655049.668 7 121104243.72807      3076.366 7        46.759                                                                    22655055.243 7  94192233.90307      2392.762 7        42.591
G24        10.000    20180542.310 8 106049472.22208       596.985 8        49.809                                    20180544.130 8  82635968.05508       465.180 8        52.094    20180544.317 7  82635973.05807       465.223 7        46.420
C14        11.000                                                                                                                                    25382783.951 6 132174822.55106      1415.849 6        40.415    25382787.978 7 102205983.42507      1094.832 7        46.912    25382784.410 7 107402881.07607      1150.362 7        43.126
S27        12.000    39108809.219 6 205518030.62506      -528.885 6        36.877
G13        13.000    22742736.699 7 119513784.24707     -4117.312 7        43.926                                    22742738.377 4  93127576.00704     -3208.286 4        28.123
S36        14.000    38129523.950 7 200372432.72007      -499.222 7        44.248
G02        15.000    25834947.840 5 135763567.42605     -1635.850 5        35.790                                    25834955.455 2 105789818.64702     -1274.704 2        15.381
E09        16.000    25215891.935 7 132510341.79107     -3090.493 7        46.253                                                                    25215897.265 8  98952502.03808     -2307.857 8        48.160    25215896.240 8 101533870.81308     -2368.114 8        48.609
G12        17.000    22092031.202 7 116094553.78707      2442.004 7        46.794                                    22092031.411 7  90463364.28707      1902.851 7        44.579    22092032.067 7  90463361.30307      1902.774 7        42.961
R21        18.000    24581135.208 6 131538601.45106     -3795.934 6        40.937                                                                    24581145.375 6 102307836.16006     -2952.211 6        38.685
R22        19.000    22252984.940 7 118788022.92707      -673.063 7        45.862                                                                    22252990.958 7  92390680.08107      -523.549 7        43.680
R03        21.000    20865024.963 8 111692024.97908     -4041.474 8        50.829                                                                    20865027.510 7  86871553.60607     -3143.374 7        45.660
I06        22.000    38202872.230 6 149916385.20906      -481.938 6        41.702
S28        23.000    40815945.974 5 214489068.05505      -509.238 5        34.800
S23        25.000    38064033.894 7 200027696.69307      -502.301 7        44.912
S45        26.000    63314686.069 6 332722078.44206      -555.284 6        36.234
C07        27.000                                                                                                                                    39128222.817 6 203750852.11806     -1167.862 6        40.148    39128223.673 7 157553059.18207      -903.197 7        42.389    39128221.052 6 165564225.45806      -949.167 6        40.610
R04        28.000    19954362.967 8 106854691.31008      -276.106 8        51.488                                                                    19954364.077 7  83109181.35907      -214.780 7        46.892
C40        29.000                                                                                                                                    39337121.675 6 204838648.93406     -1419.746 6        41.611                                                                    39337125.617 6 166448171.97806     -1153.871 6        41.821
G17        30.000    22209617.118 7 116712439.03307     -1879.149 7        45.833                                    22209617.864 7  90944814.97507     -1464.271 7        43.354    22209617.681 7  90944811.96907     -1464.233 7        42.476
G14        31.000    23901605.390 6 125603659.48806     -3769.151 6        40.112                                    23901611.935 4  97872949.19604     -2936.999 4        25.008    23901612.112 6  97872935.16706     -2936.954 6        40.799
G23        32.000    23772942.546 6 124927521.13606     -2625.232 6        40.257                                    23772947.286 4  97346074.54704     -2045.636 4        25.549    23772947.044 6  97346069.54306     -2045.607 6        39.276
I02        33.000    36829161.435 7 144525526.73607      -304.870 7        43.547
R15        34.000    24118212.141 7 128880403.54607      2888.358 7        42.396                                                                    24118223.665 6 100240344.18106      2246.464 6        38.120
R13        35.000    19993860.650 7 106766114.28007     -2415.757 7        46.411
R12        36.000    23353645.255 7 124750822.19507     -3926.575 7        42.995                                                                    23353657.071 6  97028381.31906     -3053.796 6        41.135
C42        37.000                                                                                                                                    24013600.154 7 125045110.08007        52.610 7        46.085                                                                    24013611.632 7 101609438.61307        42.616 7        46.675
C10        38.000                                                                                                                                    38502788.271 6 200494094.30006      -818.387 6        41.871    38502790.794 7 155034745.57207      -632.855 7        44.843    38502787.623 6 162917858.07406      -665.045 6        41.395
E25        39.000    26606277.901 6 139817029.71106      2097.608 6        41.514                                                                    26606287.992 7 104408915.81007      1566.313 7        43.376    26606286.488 7 107132615.00107      1607.203 7        44.065
C30        40.000                                                                                                                                    24445201.690 7 127292614.47107      -751.931 7        45.406                                                                    24445207.816 7 103435716.52407      -611.167 7        43.524
R23        41.000    22202250.823 7 118767129.02407      2454.307 7        43.560
S44        42.000    40770158.486 6 214248661.40306      -452.150 6        38.270
C36        43.000                                                                                                                                    23955581.605 7 124742902.89107     -2938.324 7        45.749                                                                    23955591.482 7 101363826.27907     -2387.835 7        46.109
C05        44.000                                                                                                                                    39359322.329 6 204954225.86506      -528.280 6        38.973    39359325.090 7 158483599.34807      -408.470 7        42.853    39359324.736 6 166542173.76606      -429.625 6        39.264
R14        45.000    20156256.802 8 107444294.11508      1319.389 8        51.877                                                                    20156260.966 8  83567864.86808      1026.169 8        48.141
E26        46.000    28090280.415 6 147615440.74806       151.811 6        36.484                                                                    28090293.384 6 110232370.89906       113.348 6        40.136    28090291.809 6 113107987.92906       116.536 6        40.548
G10        47.000    24265196.253 6 127514405.81506      -340.957 6        41.325                                    24265201.037 5  99361869.48405      -265.678 5        34.757    24265201.788 6  99361870.45506      -265.458 6        36.567
C45        50.000                                                                                                                                    21561958.023 8 112278791.43408      -860.101 8        50.962                                                                    21561952.345 8  91235702.34608      -699.082 8        50.202
S48        51.000    77067049.677 6 404990105.29006      -497.011 6        37.958
E06        52.000    26852539.186 6 141110915.03606     -3601.874 6        39.402                                                                    26852549.893 7 105374999.61907     -2689.547 7        43.757    26852548.936 7 108123915.86907     -2759.819 7        44.775
E33        53.000    28278812.366 6 148606200.09006      1885.876 6        36.427                                                                    28278826.224 6 110972217.29606      1408.476 6        40.362    28278824.644 6 113867135.59506      1445.214 6        41.464
C60        54.000                                                                                                                                    40770159.705 6 212300964.30906      -448.336 6        40.422                                                                    40770151.005 6 172511860.51706      -364.473 6        38.895
E31        55.000    24338096.743 7 127897537.82307     -2279.670 7        46.404                                                                    24338101.791 8  95507925.72208     -1702.388 8        48.593    24338100.992 8  97999433.87708     -1746.840 8        49.496
C26        56.000                                                                                                                                    23627419.872 7 123034238.03707      1761.179 7        46.593                                                                    23627422.708 7  99975433.83607      1430.868 7        46.475
C02        57.000                                                                                                                                    40899151.935 5                      -493.620 5        30.423    40899157.871 6 164683775.40506      -381.553 6        36.159    40899157.468 5                      -401.280 5        30.023
I03        58.000    92649430.671 5 287790766.19505       922.806 5        33.964
C21        59.000                                                                                                                                    23756954.799 7 123708607.59507     -2764.869 7        47.585                                                                    23756953.400 7 100523334.77107     -2246.870 7        47.715
C22        60.000                                                                                                                                    26098059.682 6 135899207.76906     -4001.011 6        40.303                                                                    26098064.749 6 110429164.71806     -3251.406 6        41.349
> 2025 01 02 11 01 45.0000000  0 55
E24         1.000    23652831.989 8 124296594.42408       289.116 8        49.139                                                                    23652833.828 8  92818955.73008       215.906 8        51.003    23652832.989 8  95240308.42808       221.524 8        51.101
G15         2.000    21458496.630 7 112765081.44707     -3404.917 7        47.615                                    21458497.273 7  87868862.74407     -2653.175 7        46.176    21458497.555 7  87868857.73007     -2653.190 7        43.566
E03         3.000    26444471.104 6 138966616.47206      1961.687 6        41.209                                                                    26444478.822 7 103773778.72707      1464.872 7        44.647    26444477.654 7 106480922.40107      1503.012 7        44.871
G19         4.000    21327717.999 7 112078080.08207       674.274 7        47.283                                    21327715.788 6  87333602.64506       525.409 6        38.147
S21         5.000    38359509.631 7 201580182.33207      -498.660 7        42.419
E05         6.000    22153115.666 8 116415364.89008      -447.647 8        48.337                                                                    22153119.652 8  86933524.88108      -334.258 8        50.991    22153118.804 8  89201355.60908      -342.999 8        51.166
C29         8.000                                                                                                                                    24165352.603 7 125835332.87307      1972.980 7        46.020                                                                    24165355.051 7 102251527.84207      1603.126 7        44.530
R05         9.000    22652172.970 7 121088868.22507      3073.783 7        45.795                                                                    22652179.174 7  94180275.23407      2390.649 7        42.935
G24        10.000    20179975.245 8 106046492.99308       594.587 8        49.963                                    20179977.204 8  82633646.58108       463.313 8        52.240    20179977.490 7  82633651.59007       463.323 7        46.427
C14        11.000                                                                                                                                    25381426.341 6 132167748.95506      1413.437 6        40.665    25381429.597 7 102200513.68307      1092.975 7        46.640    25381426.123 7 107397133.20807      1148.526 7        43.189
S27        12.000    39109314.763 6 205520674.68106      -528.773 6        36.476
G13        13.000    22746654.931 7 119534373.53507     -4118.554 7        44.227                                    22746656.342 4  93143619.58104     -3209.256 4        28.076
S36        14.000    38129999.382 7 200374928.07107      -499.092 7        44.242
G02        15.000    25836505.601 5 135771752.53605     -1638.394 5        35.976                                    25836512.988 2 105796196.65402     -1276.656 2        14.857
E09        16.000    25218833.028 7 132525797.67107     -3091.932 7        46.395                                                                    25218838.565 8  98964043.74208     -2308.897 8        48.280    25218837.564 8 101545713.60508     -2369.106 8        48.632
G12        17.000    22089708.022 7 116082347.74907      2440.335 7        46.831                                    22089708.649 7  90453853.11007      1901.556 7        44.713    22089709.107 7  90453850.11907      1901.587 7        43.001
R21        18.000    24584682.561 7 131557586.74807     -3798.320 7        42.245                                                                    24584694.071 6 102322602.49106     -2954.300 6        39.357
R22        19.000    22253618.097 7 118791399.34207      -677.525 7        45.973                                                                    22253624.228 7  92393306.19507      -526.832 7        43.755
R03        21.000    20868800.908 8 111712239.54108     -4044.403 8        50.638                                                                    20868804.021 7  86887276.01607     -3145.572 7        45.606
I06        22.000    38203486.616 6 149918795.45406      -482.109 6        41.685
S28        23.000    40816426.084 5 214491614.85405      -509.452 5        34.724
S23        25.000    38064513.422 7 200030207.94107      -502.390 7        44.748
S45        26.000    63315166.903 6 332724854.35606      -555.165 6        36.151
C07        27.000                                                                                                                                    39129344.581 6 203756692.84706     -1168.352 6        40.079    39129345.457 7 157557575.60007      -903.424 7        42.078    39129342.734 6 165568971.54106      -949.502 6        40.484
R04        28.000    19954622.708 8 106856083.55708      -280.925 8        51.526                                                                    19954623.739 7  83110264.21007      -218.443 7        46.820
C40        29.000                                                                                                                                    39338484.955 7 204845748.74907     -1420.176 7        42.171                                                                    39338489.089 7 166453941.14307     -1154.196 7        42.017
G17        30.000    22211406.770 7 116721841.99107     -1882.107 7        46.319                                    22211407.215 7  90952141.94107     -1466.573 7        43.511    22211407.408 7  90952138.93707     -1466.575 7        42.779
G14        31.000    23905192.053 6 125622506.21306     -3769.644 6        39.715                                    23905198.538 4  97887634.91004     -2937.372 4        24.902    23905198.643 6  97887620.89106     -2937.437 6        40.937
G23        32.000    23775441.384 6 124940652.79006     -2627.567 6        40.832                                    23775446.123 4  97356306.97704     -2047.452 4        25.338    23775446.274 6  97356301.98006     -2047.428 6        40.081
I02        33.000    36829549.721 7 144527051.20907      -304.988 7        43.471
R15        34.000    24115510.193 6 128865962.99106      2887.721 6        41.375                                                                    24115520.770 6 100229112.65806      2246.120 6        38.411
R13        35.000    19996123.535 7 106778196.98807     -2417.382 7        46.396
R12        36.000    23357320.861 7 124770454.80307     -3926.562 7        43.384                                                                    23357331.321 6  97043651.07706     -3054.107 6        40.722
C42        37.000                                                                                                                                    24013550.946 7 125044854.23607        49.684 7        46.371                                                                    24013562.533 7 101609230.71507        40.234 7        46.701
C10        38.000                                                                                                                                    38503573.599 7 200498187.07707      -818.825 7        42.074    38503576.956 7 155037910.35807      -633.167 7        44.758    38503573.711 6 162921183.80506      -665.518 6        41.421
E25        39.000    26604282.536 6 139806544.13306      2096.634 6        41.354                                                                    26604292.701 7 104401085.67907      1565.690 7        43.477    26604291.150 7 107124580.60007      1606.613 7        44.096
C30        40.000                                                                                                                                    24445924.319 7 127296381.25007      -754.842 7        45.585                                                                    24445931.171 7 103438777.33607      -613.395 7        43.761
R23        41.000    22199957.558 7 118754864.83007      2451.312 7        44.637
S44        42.000    40770589.770 6 214250923.45906      -452.503 6        38.219
C36        43.000                                                                                                                                    23958403.455 7 124757596.21807     -2939.017 7        45.585                                                                    23958413.226 7 101375765.78607     -2388.289 7        46.203
C05        44.000                                                                                                                                    39359829.371 6 204956867.92706      -528.554 6        39.285    39359832.521 7 158485642.36207      -408.588 7        42.855    39359831.939 6 166544320.65906      -429.492 6        39.192
R14        45.000    20155020.220 8 107437701.81008      1317.448 8        52.177                                                                    20155024.010 8  83562737.52508      1024.615 8        48.206
E26        46.000    28090136.896 6 147614686.96706       149.614 6        36.287                                                                    28090149.930 6 110231807.99406       111.621 6        39.922    28090148.228 6 113107410.34306       114.562 6        40.610
G10        47.000    24265521.938 6 127516118.05006      -344.021 6        40.634                                    24265526.965 5  99363203.68405      -268.067 5        34.795    24265527.196 6  99363204.69406      -268.191 6        37.486
C45        50.000                                                                                                                                    21562784.730 8 112283095.82508      -861.676 8        51.152                                                                    21562778.923 8  91239200.01608      -700.256 8        50.255
S48        51.000    77067523.159 6 404992589.88906      -497.012 6        37.667
E06        52.000    26855966.291 6 141128925.21806     -3602.370 6        39.147                                                                    26855977.212 7 105388448.76507     -2690.210 7        43.858    26855976.151 7 108137715.85507     -2760.338 7        44.754
E33        53.000    28277018.342 6 148596772.24606      1885.105 6        36.215                                                                    28277031.997 6 110965177.04706      1407.641 6        40.186    28277030.591 6 113859911.69106      1444.342 6        41.123
C60        54.000                                                                                                                                    40770590.130 6 212303205.79606      -448.370 6        40.591                                                                    40770581.390 6 172513681.90606      -364.281 6        38.919
E31        55.000    24340266.265 7 127908938.64507     -2280.720 7        46.300                                                                    24340271.345 8  95516439.31908     -1703.156 8        48.689    24340270.478 8  98008169.55908     -1747.580 8        49.416
C26        56.000                                                                                                                                    23625729.403 7 123025434.60507      1760.216 7        47.010                                                                    23625732.070 7  99968280.33107      1430.230 7        46.603
C02        57.000                                                                                                                                    40899625.798 5                      -493.314 5        30.355    40899631.845 6 164685683.63806      -381.678 6        36.340    40899631.380 5                      -400.900 5        30.860
I03        58.000    92648254.455 5 287786151.70005       922.655 5        33.359
C21        59.000                                                                                                                                    23759610.418 8 123722437.11608     -2766.989 8        48.151                                                                    23759609.263 7 100534572.38707     -2248.498 7        47.878
C22        60.000                                                                                                                                    26101901.475 6 135919212.57706     -4000.886 6        40.193                                                                    26101906.656 6 110445420.15506     -3251.226 6        41.187
> 2025 01 02 11 01 50.0000000  0 55
E24         1.000    23652557.526 8 124295152.89108       287.269 8        49.136                                                                    23652559.538 8  92817879.26008       214.573 8        51.095    23652558.702 8  95239203.87908       220.136 8        51.171
G15         2.000    21461737.469 7 112782111.42507     -3407.312 7        47.829                                    21461738.001 7  87882132.83707     -2655.048 7        46.194    21461738.144 7  87882127.82407     -2655.019 7        43.333
E03         3.000    26442605.046 6 138956811.01806      1960.287 6        40.961                                                                    26442612.879 7 103766456.48407      1463.805 7        44.594    26442611.783 7 106473409.13407      1502.045 7        44.811
G19         4.000    21327077.660 7 112074716.92107       670.829 7        47.494                                    21327075.747 6  87330981.99006       522.726 6        38.222
S21         5.000    38359984.732 7 201582676.47107      -498.949 7        42.518
E05         6.000    22153542.814 8 116417608.86808      -450.170 8        48.155                                                                    22153546.656 8  86935200.56708      -336.139 8        51.107    22153545.797 8  89203075.01308      -344.918 8        51.120
C29         8.000                                                                                                                                    24163458.969 7 125825472.14607      1971.098 7        46.293                                                                    24163461.172 7 102243515.19107      1601.632 7        44.229
R05         9.000    22649298.568 7 121073505.61607      3071.052 7        46.426                                                                    22649305.509 7  94168326.56307      2388.671 7        42.906
G24        10.000    20179410.839 8 106043526.21908       591.932 8        49.906                                    20179412.639 8  82631334.81108       461.245 8        52.291    20179412.909 7  82631339.81807       461.210 7        46.285
C14        11.000                                                                                                                                    25380069.915 6 132160687.33806      1411.096 6        40.286    25380073.375 7 102195053.19007      1091.057 7        46.479    25380069.862 7 107391395.06907      1146.456 7        43.067
S27        12.000    39109817.440 6 205523318.82506      -529.368 6        36.499
G13        13.000    22750574.347 7 119554969.08107     -4119.925 7        44.421                                    22750575.580 4  93159668.03004     -3210.333 4        28.360
S36        14.000    38130473.700 7 200377423.61407      -499.390 7        44.334
G02        15.000    25838065.571 5 135779950.77405     -1641.233 5        35.333                                    25838073.102 2 105802584.88802     -1278.893 2        15.238
E09        16.000    25221775.606 7 132541260.62607     -3093.541 7        46.203                                                                    25221781.099 8  98975590.73108     -2310.101 8        48.379    25221780.045 8 101557561.82308     -2370.345 8        48.604
G12        17.000    22087387.176 7 116070150.33607      2438.452 7        46.816                                    22087387.523 7  90444348.65807      1900.087 7        44.739    22087387.859 7  90444345.66807      1900.112 7        42.988
R21        18.000    24588233.390 6 131576585.05906     -3801.092 6        40.813                                                                    24588244.306 6 102337379.04506     -2956.269 6        39.405
R22        19.000    22254254.965 7 118794798.09507      -682.139 7        45.105                                                                    22254260.782 7  92395949.67607      -530.582 7        42.718
R03        21.000    20872579.410 8 111732468.58408     -4047.391 8        49.933                                                                    20872583.206 7  86903009.68507     -3147.988 7        45.351
I06        22.000    38204100.522 6 149921205.99606      -482.329 6        41.480
S28        23.000    40816915.221 5 214494162.02205      -509.850 5        34.819
S23        25.000    38064992.051 7 200032719.55607      -502.588 7        44.844
S45        26.000    63315645.907 6 332726030.80516      -555.122 6        36.000
C07        27.000                                                                                                                                    39130466.682 6 203762535.97106     -1168.954 6        40.150    39130467.469 7 157562093.85407      -903.828 7        42.119    39130464.793 6 165573719.52906      -949.976 6        40.412
R04        28.000    19954886.995 8 106857499.83908      -285.860 8        51.298                                                                    19954888.309 7  83111365.76807      -222.286 7        46.491
C40        29.000                                                                                                                                    39339848.865 6 204852851.39206     -1420.959 6        41.993                                                                    39339853.107 6 166459712.59206     -1154.770 6        41.561
G17        30.000    22213198.395 7 116731259.76807     -1885.224 7        46.289                                    22213199.392 7  90959480.45207     -1469.004 7        43.579    22213199.769 7  90959477.45207     -1468.985 7        42.504
G14        31.000    23908779.067 6 125641355.20806     -3770.200 6        39.727                                    23908785.303 4  97902322.39004     -2937.813 4        24.887    23908785.657 6  97902308.37006     -2937.795 6        40.782
G23        32.000    23777942.488 6 124953795.66106     -2630.036 6        40.665                                    23777947.164 4  97366548.14504     -2049.370 4        25.398    23777947.576 6  97366543.12206     -2049.263 6        39.892
I02        33.000    36829938.471 7 144528576.98807      -305.388 7        43.354
R15        34.000    24112808.550 7 128851525.18407      2887.097 7        42.243                                                                    24112820.310 6 100217883.25806      2245.584 6        38.862
R13        35.000    19998388.077 7 106790288.46107     -2419.370 7        46.928
R12        36.000    23360996.578 7 124790088.01107     -3926.841 7        43.336                                                                    23361007.037 6  97058921.30806     -3054.292 6        40.563
C42        37.000                                                                                                                                    24013504.215 7 125044613.14007        46.593 7        46.263                                                                    24013516.249 7 101609034.78807        37.843 7        46.428
C10        38.000                                                                                                                                    38504360.385 6 200502282.56306      -819.545 6        41.859    38504363.179 7 155041077.26407      -633.817 7        44.707    38504360.195 6 162924511.70406      -665.950 6        41.266
E25        39.000    26602287.961 6 139796062.59006      2095.705 6        40.701                                                                    26602298.190 7 104393258.55407      1565.046 7        43.553    26602296.480 7 107116549.29507      1605.882 7        44.048
C30        40.000                                                                                                                                    24446650.841 7 127300162.48807      -757.925 7        45.600                                                                    24446657.237 7 103441849.87607      -615.851 7        43.403
R23        41.000    22197668.220 7 118742615.75707      2448.118 7        44.662
S44        42.000    40771019.810 6 214253185.73106      -452.637 6        38.117
C36        43.000                                                                                                                                    23961225.630 7 124772292.92107     -2939.842 7        45.463                                                                    23961235.619 7 101387708.02307     -2388.910 7        46.098
C05        44.000                                                                                                                                    39360337.074 6 204959510.21506      -528.691 6        39.252    39360339.866 7 158487685.56307      -408.820 7        42.754    39360339.486 6 166546467.73706      -429.663 6        39.024
R14        45.000    20153785.481 8 107431119.46608      1315.268 8        52.476                                                                    20153789.192 7  83557617.93607      1022.978 7        47.680
E26        46.000    28089996.039 6 147613945.26506       147.033 6        36.408                                                                    28090008.857 6 110231254.11806       109.720 6        40.036    28090007.123 6 113106842.01206       112.709 6        40.594
G10        47.000    24265850.402 6 127517846.29406      -347.405 6        41.039                                    24265855.924 5  99364550.36405      -270.705 5        34.852    24265856.545 6  99364551.37406      -270.658 6        38.024
C45        50.000                                                                                                                                    21563612.765 8 112287408.03708      -863.417 8        50.939                                                                    21563607.040 8  91242704.02108      -701.620 8        50.035
S48        51.000    77067992.894 6 404995074.93706      -497.137 6        38.012
E06        52.000    26859394.103 6 141146938.53706     -3603.218 6        38.450                                                                    26859405.053 7 105401900.23707     -2690.726 7        43.991    26859404.086 7 108151518.24007     -2760.845 7        44.807
E33        53.000    28275225.401 5 148587350.11405      1883.851 5        35.724                                                                    28275239.066 6 110958141.03806      1406.490 6        40.150    28275237.655 6 113852692.12406      1443.435 6        41.287
C60        54.000                                                                                                                                    40771020.596 6 212305447.47706      -448.513 6        40.520                                                                    40771011.927 6 172515503.45506      -364.564 6        39.000
E31        55.000    24342436.884 7 127920344.99407     -2282.007 7        46.117                                                                    24342441.843 8  95524957.02608     -1704.130 8        48.745    24342441.055 8  98016909.47608     -1748.575 8        49.345
C26        56.000                                                                                                                                    23624039.569 7 123016635.83607      1759.094 7        46.926                                                                    23624042.364 7  99961130.60607      1429.322 7        46.405
C02        57.000                                                                                                                                    40900100.112 5                      -493.758 5        30.709    40900105.515 6 164687591.97906      -381.752 6        36.110    40900105.430 5                      -401.187 5        30.241
I03        58.000    92647078.692 5 287781537.25205       922.696 5        33.048
C21        59.000                                                                                                                                    23762268.652 8 123736277.38708     -2769.278 8        48.062                                                                    23762267.196 7 100545818.71707     -2250.379 7        47.660
C22        60.000                                                                                                                                    26105743.058 6 135939216.85206     -4001.053 6        39.712                                                                    26105748.118 6 110461675.14406     -3251.123 6        41.213
