     3.04           OBSERVATION DATA    M                   RINEX VERSION / TYPE
ssrcrin-15.6.1x                         20250102 184500 UTC PGM / RUN BY / DATE 
(00000000023479385599111004) Septentrio proprietary         COMMENT             
rref                                                        MARKER NAME         
01                                                          MARKER NUMBER       
geodetic                                                    MARKER TYPE         
NFB                 CLIMERS@TUW                             OBSERVER / AGENCY   
3297213             SEPT ASTERX SB3 PROB4.14.4              REC # / TYPE / VERS 
Unknown             Unknown                                 ANT # / TYPE        
  4127832.1483  1207193.0530  4695247.8041                  APPROX POSITION XYZ 
        0.0000        0.0000        0.0000                  ANTENNA: DELTA H/E/N
G   23 X1  C1C L1C D1C S1C C1W S1W C2W L2W D2W S2W C2L L2L  SYS / # / OBS TYPES 
       D2L S2L C5Q L5Q D5Q S5Q C1L L1L D1L S1L              SYS / # / OBS TYPES 
E   21 X1  C1C L1C D1C S1C C6C L6C D6C S6C C5Q L5Q D5Q S5Q  SYS / # / OBS TYPES 
       C7Q L7Q D7Q S7Q C8Q L8Q D8Q S8Q                      SYS / # / OBS TYPES 
S    9 X1  C1C L1C D1C S1C C5I L5I D5I S5I                  SYS / # / OBS TYPES 
R   17 X1  C1C L1C D1C S1C C2P L2P D2P S2P C2C L2C D2C S2C  SYS / # / OBS TYPES 
       C3Q L3Q D3Q S3Q                                      SYS / # / OBS TYPES 
C   25 X1  C1P L1P D1P S1P C5P L5P D5P S5P C2I L2I D2I S2I  SYS / # / OBS TYPES 
       C7I L7I D7I S7I C6I L6I D6I S6I C7D L7D D7D S7D      SYS / # / OBS TYPES 
J   17 X1  C1C L1C D1C S1C C2L L2L D2L S2L C5Q L5Q D5Q S5Q  SYS / # / OBS TYPES 
       C1L L1L D1L S1L                                      SYS / # / OBS TYPES 
I    5 X1  C5A L5A D5A S5A                                  SYS / # / OBS TYPES 
SEPTENTRIO RECEIVERS OUTPUT ALIGNED CARRIER PHASES.         COMMENT             
NO FURTHER PHASE SHIFT APPLIED IN THE RINEX ENCODER.        COMMENT             
G L1C                                                       SYS / PHASE SHIFT   
G L2W                                                       SYS / PHASE SHIFT   
G L2L  0.00000                                              SYS / PHASE SHIFT   
G L5Q  0.00000                                              SYS / PHASE SHIFT   
G L1L  0.00000                                              SYS / PHASE SHIFT   
E L1C  0.00000                                              SYS / PHASE SHIFT   
E L6C  0.00000                                              SYS / PHASE SHIFT   
E L5Q  0.00000                                              SYS / PHASE SHIFT   
E L7Q  0.00000                                              SYS / PHASE SHIFT   
E L8Q  0.00000                                              SYS / PHASE SHIFT   
S L1C                                                       SYS / PHASE SHIFT   
S L5I                                                       SYS / PHASE SHIFT   
R L1C                                                       SYS / PHASE SHIFT   
R L2P  0.00000                                              SYS / PHASE SHIFT   
R L2C                                                       SYS / PHASE SHIFT   
R L3Q  0.00000                                              SYS / PHASE SHIFT   
C L1P  0.00000                                              SYS / PHASE SHIFT   
C L5P  0.00000                                              SYS / PHASE SHIFT   
C L2I                                                       SYS / PHASE SHIFT   
C L7I                                                       SYS / PHASE SHIFT   
C L6I                                                       SYS / PHASE SHIFT   
C L7D                                                       SYS / PHASE SHIFT   
J L1C                                                       SYS / PHASE SHIFT   
J L2L  0.00000                                              SYS / PHASE SHIFT   
J L5Q  0.00000                                              SYS / PHASE SHIFT   
J L1L  0.00000                                              SYS / PHASE SHIFT   
I L5A                                                       SYS / PHASE SHIFT   
  2025     1     2    18    45    0.0000000     GPS         TIME OF FIRST OBS   
 C1C    0.000 C2C    0.000 C2P    0.000                     GLONASS COD/PHS/BIS 
DBHZ                                                        SIGNAL STRENGTH UNIT
    18                                                      LEAP SECONDS        
 24 R01  1 R02 -4 R03  5 R04  6 R05  1 R06 -4 R07  5 R08  6 GLONASS SLOT / FRQ #
    R09 -2 R10 -7 R11  0 R12 -1 R13 -2 R14 -7 R15  0 R16 -1 GLONASS SLOT / FRQ #
    R17  4 R18 -3 R19  3 R20  2 R21  4 R22 -3 R23  3 R24  2 GLONASS SLOT / FRQ #
                                                            END OF HEADER       
> 2025 01 02 18 45  0.0000000  0 57
G23         1.000    21555952.363 7 113277375.46007      1478.198 7        47.328                                    21555948.875 6  88268107.39606      1151.841 6        37.459    21555949.100 7  88268105.40407      1151.773 7        46.314
E11         2.000    27677223.560 5 145444985.37905     -3221.696 5        35.919                                                                    27677220.118 6 108611638.98606     -2406.009 6        37.278    27677219.793 6 111444972.43306     -2468.634 6        38.024
G16         3.000    20651471.951 8 108524426.16008      -239.314 8        48.881                                    20651467.295 6  84564573.09106      -186.484 6        40.372
G05         4.000    25260734.314 6 132746130.16706     -3857.103 6        36.673                                    25260731.657 4 103438562.06204     -3005.522 4        26.647    25260732.269 5 103438561.03505     -3005.465 5        33.790
S21         5.000    38568324.249 7 202677606.34107      -457.738 7        42.415
G26         6.000    21320698.137 8 112041263.82608     -2514.504 8        48.301                                    21320697.002 8  87305013.25708     -1959.354 8        48.646    21320697.417 7  87305000.25907     -1959.294 7        44.804
G10         7.000    23806562.651 7 125104380.22607      3052.726 7        42.536                                    23806561.929 6  97483945.02006      2378.744 6        39.186    23806561.878 6  97483939.02206      2378.715 6        40.548
E15         8.000    27942961.070 6 146841316.63806      2332.080 6        39.168                                                                    27942964.468 6 109654285.82706      1741.439 6        40.889    27942963.629 6 112514821.70906      1786.852 6        41.251
E36         9.000    24023172.743 7 126242817.97107     -1777.615 7        47.515                                                                    24023173.168 8  94272378.09708     -1327.430 8        50.408    24023172.720 8  96731644.76008     -1362.045 8        51.178
G27        10.000    21832900.979 7 114732812.08307      2118.159 7        46.127                                    21832899.579 7  89402259.42807      1650.510 7        45.622    21832899.942 7  89402261.42707      1650.566 7        43.232
G15        11.000    24455350.328 6 128513742.16206      1546.735 6        38.622                                    24455347.547 5 100140567.78505      1205.251 5        30.574    24455347.798 6 100140570.77506      1205.208 6        36.408
C23        13.000                                                                                                                                    23933534.818 7 124628248.50407      -346.300 7        47.020                                                                    23933526.642 7 101270652.85107      -281.426 7        47.721
S36        14.000    38338485.832 7 201470641.11907      -457.417 7        44.077
C13        15.000                                                                                                                                    37888767.951 7 197296816.77307      -873.830 7        44.873    37888769.188 7 152562448.12407      -675.657 7        45.135    37888767.645 7 160319847.66207      -710.121 7        43.175
G18        16.000    21222862.298 7 111527128.56807     -2160.180 7        47.539                                    21222858.744 6  86904353.87306     -1683.260 6        39.099    21222859.168 7  86904361.87107     -1683.213 7        47.723
R10        17.000    20319854.143 7 108316292.83507       -89.518 7        47.246
E27        18.000    27848915.469 6 146347043.14906      2339.399 6        38.859                                                                    27848916.544 6 109285129.49506      1746.925 6        41.836    27848915.941 7 112136043.64707      1792.516 7        42.349
E02        19.000    24311040.110 7 127755565.86007     -2462.180 7        47.973                                                                    24311038.983 8  95401993.41408     -1838.609 8        49.764    24311038.537 8  97890726.13008     -1886.611 8        50.174
S27        20.000    39329480.648 6 206677817.59606      -430.150 6        36.431
R11        21.000    23246710.522 7 124223384.85007      3310.178 7        43.900                                                                    23246708.773 7  96618190.40807      2574.713 7        43.041
I06        22.000    38830361.798 6 152378902.52006      -303.427 6        41.902
S28        23.000    41040486.878 5 215669204.82405      -451.062 5        34.205
E04        24.000    28575367.190 5 150164557.12105       807.675 5        35.543                                                                    28575366.742 6 112135871.15106       603.362 6        39.937    28575365.979 6 115061150.59106       618.921 6        39.856
S23        25.000    38294387.151 7 201238295.86007      -459.005 7        45.190
S45        26.000    63551012.256 6 333963316.05206      -511.557 6        37.365
R09        27.000    20682254.138 8 110442287.58508     -3573.682 8        51.093                                                                    20682252.947 7  85899668.63407     -2779.540 7        47.218
R18        28.000    23167656.930 7 123670815.63607     -3887.680 7        42.421                                                                    23167657.195 6  96188562.59206     -3023.828 6        40.787
C38        29.000                                                                                                                                    39407358.991 6 205204580.55506     -1459.176 6        41.838                                                                    39407356.967 7 166745575.46407     -1185.849 7        42.013
C44        30.000                                                                                                                                    24621792.921 7 128212355.71207     -3067.550 7        43.862                                                                    24621791.911 7 104183125.38007     -2492.736 7        43.776
C43        31.000                                                                                                                                    22931479.158 8 119410329.91508      1415.251 8        48.349                                                                    22931478.139 7  97030715.49407      1149.963 7        47.817
R02        32.000    24067709.899 6 128429918.92406     -2983.629 6        41.836                                                                    24067711.242 6  99889940.78806     -2320.598 6        39.213
I02        33.000    39399251.465 6 154611182.64906      -978.855 6        40.358
R03        34.000    22312685.145 7 119441587.19607       212.298 7        47.172                                                                    22312683.825 7  92899014.05707       165.112 7        43.365
E34        35.000    24013134.568 8 126190079.76108       916.679 8        48.632                                                                    24013134.856 8  94232961.99008       684.568 8        50.539    24013134.729 8  96691202.02908       702.445 8        51.319
G29        36.000    24242033.621 6 127393033.20406     -3563.142 6        40.374                                    24242030.286 5  99267406.07405     -2776.469 5        33.671    24242030.924 6  99267416.05406     -2776.372 6        37.471
G31        37.000    25647094.260 6 134776574.63406     -3779.547 6        38.177                                    25647093.028 4 105020795.43204     -2945.093 4        28.531    25647094.066 5 105020801.41705     -2945.223 5        34.538
C22        38.000                                                                                                                                    24845613.653 7 129377658.37007      -559.054 7        44.349                                                                    24845608.030 7 105129928.90207      -454.419 7        44.621
E25        39.000                                                                                                                                                                                                    28312334.983 3                     -2754.688 3        19.582
C12        40.000                                                                                                                                    23078619.016 7 120176632.40707     -2351.060 7        46.051    23078615.218 8  92928292.78308     -1818.031 8        50.082    23078614.491 8  97653431.63608     -1910.532 8        48.361
R04        41.000    22943537.062 7 122861614.67207      3069.045 7        44.211                                                                    22943536.098 7  95559037.36907      2387.147 7        42.700
S44        42.000    40620394.040 6 213461780.76106      -420.817 6        37.414
G08        43.000    24721370.937 6 129911716.34306      2879.253 6        37.645                                    24721372.630 4 101229934.74504      2243.568 4        26.826    24721374.022 5 101229932.78105      2243.531 5        33.539
C05        44.000                                                                                                                                    39425012.552 6 205296418.12406      -386.424 6        37.943    39425007.648 7 158748235.95707      -298.844 7        42.582    39425009.709 6 166820258.58706      -314.196 6        40.060
C11        45.000                                                                                                                                    21882676.812 8 113948987.00108       294.044 8        48.239    21882673.757 8  88112645.41108       227.412 8        52.321    21882672.533 8  92592925.57108       238.813 8        49.205
G07        47.000    25714164.937 6 135128860.20006      1132.216 6        39.087                                    25714161.032 5 105295202.14505       882.238 5        30.091    25714160.449 6 105295210.14906       882.540 6        36.019
C21        48.000                                                                                                                                    25009190.633 7 130229438.75707      1981.926 7        44.485                                                                    25009185.785 7 105822072.40507      1610.443 7        45.081
R19        50.000    20307307.864 6 108630665.94406     -2470.288 6        40.532                                                                    20307306.045 7  84490631.77007     -1921.310 7        44.509
S48        51.000    77303090.458 6 406231987.55906      -496.747 6        37.781
C08        52.000                                                                                                                                    38109674.368 6 198447182.83106     -1149.042 6        41.278    38109668.786 7 153451979.89707      -888.424 7        45.445    38109667.908 7 161254609.92407      -933.659 7        42.008
C34        53.000                                                                                                                                    21578287.385 8 112364088.58808      -983.298 8        50.868                                                                    21578287.058 8  91305143.12708      -799.058 8        49.478
C60        54.000                                                                                                                                    40620392.581 6 211521238.50106      -416.899 6        40.362                                                                    40620376.655 6 171878300.86506      -338.893 6        40.036
C25        55.000                                                                                                                                    23821282.871 7 124043914.65907     -3105.376 7        47.060                                                                    23821281.090 7 100795934.27507     -2523.439 7        46.375
I09        56.000    39599640.782 6 155397512.08406       467.383 6        41.678
C02        57.000                                                                                                                                    40764326.451 5 212270585.42505      -376.140 5        34.276    40764320.112 6 164141073.64806      -290.936 6        38.706    40764323.501 5 172487240.20905      -306.003 5        35.990
I03        58.000    82929003.668 6 249645970.40706      1107.085 6        40.787
E30        59.000    24404317.567 8 128245773.58708       408.669 8        48.280                                                                    24404317.353 8  95768067.58308       305.183 8        50.370    24404316.838 8  98266348.28108       313.173 8        51.041
R20        60.000    20636988.905 6 110355458.91906      1561.722 6        41.070                                                                    20636990.987 7  85832091.70707      1214.680 7        46.262
> 2025 01 02 18 45  5.0000000  0 56
G23         1.000    21554547.401 7 113269991.33307      1475.666 7        46.849                                    21554543.761 6  88262353.53406      1149.871 6        37.497    21554543.657 7  88262351.53407      1149.878 7        45.630
E11         2.000    27680289.023 5 145461094.55005     -3221.764 5        35.214                                                                    27680285.513 6 108623668.55606     -2405.775 6        37.217    27680285.337 6 111457315.84706     -2468.660 6        37.898
G16         3.000    20651701.270 8 108525630.80008      -242.360 8        48.564                                    20651696.538 6  84565511.77206      -188.849 6        40.431
G05         4.000    25264405.298 6 132765418.67706     -3857.918 6        36.813                                    25264402.113 4 103453592.03404     -3006.164 4        27.114    25264402.920 5 103453591.01405     -3006.288 5        34.476
S21         5.000    38568761.167 7 202679894.70307      -457.429 7        42.482
G26         6.000    21323091.872 8 112053842.14408     -2516.747 8        48.212                                    21323090.568 8  87314814.54108     -1961.102 8        48.738    21323090.836 7  87314801.54407     -1961.156 7        44.644
G10         7.000    23803658.568 7 125089118.08007      3052.205 7        42.413                                    23803657.766 6  97472052.45206      2378.343 6        39.480    23803657.247 6  97472046.45006      2378.434 6        40.391
E15         8.000    27940741.885 6 146829657.47806      2331.898 6        38.279                                                                    27940745.908 6 109645579.32306      1741.379 6        41.106    27940744.844 6 112505888.08606      1786.677 6        41.509
E36         9.000    24024864.690 7 126251709.26707     -1778.670 7        47.225                                                                    24024865.106 8  94279017.69808     -1328.238 8        50.308    24024864.718 8  96738457.57008     -1362.923 8        51.267
G27        10.000    21830886.151 7 114722224.40707      2117.076 7        45.546                                    21830884.800 7  89394009.29207      1649.667 7        45.699    21830885.173 7  89394011.30407      1649.621 7        42.961
G15        11.000    24453879.522 6 128506014.57306      1544.518 6        37.864                                    24453877.090 5 100134546.28905      1203.515 5        30.506    24453877.001 5 100134549.29205      1203.784 5        35.943
C23        13.000                                                                                                                                    23933868.754 7 124629986.69607      -348.826 7        46.844                                                                    23933860.407 7 101272065.27707      -283.460 7        47.730
S36        14.000    38338920.934 7 201472927.68807      -457.066 7        44.200
C13        15.000                                                                                                                                    37889607.188 7 197301187.57507      -874.312 7        44.769    37889608.507 7 152565827.91407      -676.131 7        45.141    37889606.987 7 160323399.30807      -710.413 7        43.270
G18        16.000    21224918.547 7 111537934.08207     -2161.847 7        47.205                                    21224915.006 6  86912773.75406     -1684.555 6        39.069    21224915.312 7  86912781.76207     -1684.593 7        47.586
R10        17.000    20319940.175 7 108316751.32807       -93.679 7        47.389
E27        18.000    27846689.558 6 146335347.34606      2339.128 6        38.685                                                                    27846690.984 6 109276395.61606      1746.742 6        41.592    27846690.353 7 112127081.94107      1792.158 7        42.271
E02        19.000    24313383.499 7 127767880.65807     -2463.536 7        47.503                                                                    24313382.464 8  95411189.53208     -1839.745 8        49.649    24313381.957 8  97900162.14208     -1887.658 8        50.204
S27        20.000    39329889.364 6 206679968.07606      -429.998 6        36.348
R11        21.000    23243612.773 7 124206838.17107      3308.584 7        42.908                                                                    23243613.046 7  96605320.78207      2573.325 7        42.745
I06        22.000    38830748.848 6 152380419.49106      -303.142 6        41.790
S28        23.000    41040914.419 5 215671461.48705      -450.599 5        34.148
E04        24.000    28574599.472 5 150160523.21105       805.979 5        35.410                                                                    28574598.971 6 112132858.83806       601.875 6        39.907    28574598.481 6 115058059.68406       617.682 6        40.024
S23        25.000    38294824.833 7 201240590.57807      -458.718 7        45.162
S45        26.000    63551446.276 6 333965873.62506      -511.370 6        37.595
R09        27.000    20685601.362 8 110460164.00208     -3576.604 8        50.775                                                                    20685600.700 7  85913572.51507     -2781.821 7        47.708
R18        28.000    23171298.781 7 123690254.38107     -3887.546 7        42.440                                                                    23171298.828 6  96203681.59506     -3023.633 6        41.385
C38        29.000                                                                                                                                    39408760.308 6 205211877.22706     -1459.285 6        41.888                                                                    39408758.292 7 166751504.60607     -1185.822 7        42.163
C44        30.000                                                                                                                                    24624738.560 7 128227694.42507     -3067.726 7        44.298                                                                    24624737.600 7 104195589.33407     -2492.701 7        43.714
C43        31.000                                                                                                                                    22930120.712 8 119403256.32608      1414.354 8        48.379                                                                    22930119.696 8  97024967.62808      1149.347 8        48.013
R02        32.000    24070508.067 7 128444844.22707     -2986.331 7        42.904                                                                    24070507.938 6  99901549.34606     -2322.853 6        39.327
I02        33.000    39400498.871 6 154616076.79506      -978.748 6        40.515
R03        34.000    22312488.756 7 119440535.72307       208.337 7        47.894                                                                    22312487.499 7  92898196.23907       162.107 7        43.532
E34        35.000    24012263.291 8 126185499.98708       915.411 8        48.678                                                                    24012263.390 8  94229542.03108       683.586 8        50.468    24012263.238 8  96687692.85308       701.419 8        51.419
G29        36.000    24245423.969 6 127410849.93106     -3563.330 6        40.100                                    24245420.639 5  99281289.23305     -2776.621 5        33.772    24245421.459 6  99281299.23406     -2776.738 6        37.187
G31        37.000    25650690.554 6 134795471.45906     -3778.784 6        39.246                                    25650688.987 4 105035520.19804     -2944.507 4        28.929    25650690.224 5 105035526.20305     -2944.812 5        34.933
C22        38.000                                                                                                                                    24846151.819 7 129380460.58207      -561.735 7        44.611                                                                    24846146.137 7 105132205.93007      -456.276 7        44.728
C12        40.000                                                                                                                                    23080876.564 7 120188390.05407     -2351.744 7        46.094    23080873.043 8  92937384.54308     -1818.491 8        49.941    23080872.293 8  97662985.69808     -1911.001 8        48.388
R04        41.000    22940672.029 7 122846273.81007      3067.506 7        44.223                                                                    22940671.671 7  95547105.58507      2385.902 7        42.718
S44        42.000    40620791.738 6 213463884.21606      -420.333 6        37.414
G08        43.000    24718631.562 6 129897320.14006      2879.469 6        37.074                                    24718633.144 4 101218716.95604      2243.744 4        26.719    24718633.374 5 101218714.99805      2243.501 5        33.922
C05        44.000                                                                                                                                    39425383.455 6 205298350.45906      -386.267 6        38.153    39425378.654 7 158749730.16407      -298.593 7        42.512    39425380.818 6 166821828.77806      -313.888 6        40.167
C11        45.000                                                                                                                                    21882395.115 8 113947520.04008       292.897 8        48.217    21882392.008 8  88111511.06908       226.490 8        52.259    21882390.785 8  92591733.56008       237.968 8        49.245
G07        47.000    25713087.781 6 135123203.92906      1130.230 6        39.321                                    25713084.758 5 105290794.69005       880.701 5        30.166    25713085.254 6 105290802.67406       880.807 6        36.817
C21        48.000                                                                                                                                    25007288.188 7 130219532.84007      1980.519 7        44.161                                                                    25007283.491 7 105814023.04307      1609.372 7        45.183
R19        50.000    20309616.859 6 108643021.33706     -2471.605 6        40.303                                                                    20309615.839 7  84500241.51907     -1922.429 7        44.539
S48        51.000    77303536.306 6 406232870.08716      -496.270 6        37.728
C08        52.000                                                                                                                                    38110778.088 6 198452929.02806     -1149.245 6        41.337    38110772.118 7 153456423.22407      -888.762 7        45.366    38110771.481 7 161259279.17207      -933.918 7        42.059
C34        53.000                                                                                                                                    21579232.188 8 112369008.34608      -984.468 8        50.690                                                                    21579231.862 8  91309140.83208      -799.947 8        49.598
C60        54.000                                                                                                                                    40620792.813 6 211523322.85206      -416.717 6        40.091                                                                    40620776.847 6 171879994.58006      -338.551 6        39.841
C25        55.000                                                                                                                                    23824265.450 7 124059445.42607     -3106.740 7        46.854                                                                    23824263.706 7 100808554.29007     -2524.424 7        46.351
I09        56.000    39599045.188 6 155395175.05806       467.576 6        41.933
C02        57.000                                                                                                                                    40764686.806 5 212272466.15305      -375.782 5        34.295    40764681.343 6 164142527.95706      -290.722 6        38.709    40764684.893 6 172488768.48506      -305.601 6        36.064
I03        58.000    82927593.026 6 249640434.37706      1107.373 6        41.035
E30        59.000    24403929.524 8 128243734.85408       406.977 8        48.012                                                                    24403929.410 8  95766545.16208       303.898 8        50.321    24403928.849 8  98264786.14408       311.820 8        51.168
R20        60.000    20635530.400 6 110347655.47406      1559.864 6        41.194                                                                    20635532.075 7  85826022.36807      1213.242 7        46.594
> 2025 01 02 18 45 10.0000000  0 56
G23         1.000    21553144.842 7 113262621.35607      1472.493 7        46.999                                    21553141.264 6  88256610.69806      1147.404 6        37.437    21553141.345 7  88256608.70307      1147.385 7        45.603
E11         2.000    27683354.371 5 145477204.19605     -3222.035 5        35.410                                                                    27683351.202 6 108635698.48506     -2405.999 6        37.754    27683350.568 6 111469659.59806     -2468.974 6        38.147
G16         3.000    20651933.524 8 108526852.27608      -246.131 8        48.369                                    20651928.977 6  84566463.57106      -191.788 6        40.367
G05         4.000    25268076.589 6 132784714.22106     -3859.931 6        37.070                                    25268073.999 4 103468627.51004     -3007.735 4        27.126    25268075.106 5 103468626.50305     -3007.768 5        34.410
S21         5.000    38569196.278 7 202682182.73607      -457.705 7        42.482
G26         6.000    21325487.820 8 112066433.59608     -2519.748 8        48.291                                    21325486.642 8  87324626.06608     -1963.436 8        48.661    21325486.816 7  87324613.06807     -1963.503 7        44.290
G10         7.000    23800755.065 6 125073860.13106      3051.068 6        41.695                                    23800754.284 6  97460163.15306      2377.453 6        39.138    23800753.824 6  97460157.14906      2377.475 6        40.005
E15         8.000    27938523.987 6 146818001.05806      2330.918 6        37.788                                                                    27938527.636 6 109636874.88506      1740.545 6        41.082    27938526.806 6 112496956.57406      1785.984 6        41.635
E36         9.000    24026557.826 7 126260607.36607     -1780.406 7        47.328                                                                    24026558.338 8  94285662.38508     -1329.523 8        50.272    24026558.041 8  96745275.59508     -1364.200 8        51.457
G27        10.000    21828872.753 7 114711643.56007      2115.410 7        45.628                                    21828871.332 7  89385764.48007      1648.372 7        45.567    21828871.486 7  89385766.46907      1648.542 7        42.876
G15        11.000    24452411.493 6 128498298.73206      1541.766 6        38.270                                    24452408.793 5 100128533.95705      1201.377 5        30.445    24452409.173 5 100128536.95005      1201.351 5        35.881
C23        13.000                                                                                                                                    23934205.261 7 124631739.13407      -352.060 7        47.019                                                                    23934196.889 7 101273489.28707      -286.119 7        47.647
S36        14.000    38339356.989 7 201475214.21707      -457.286 7        44.292
C13        15.000                                                                                                                                    37890447.502 7 197305562.17407      -875.378 7        45.008    37890448.937 7 152569210.63207      -676.914 7        45.276    37890447.094 7 160326954.03607      -711.402 7        43.263
G18        16.000    21226976.962 7 111548749.58607     -2164.190 7        47.194                                    21226973.146 6  86921201.42206     -1686.380 6        39.036    21226973.429 7  86921209.42107     -1686.403 7        47.276
R10        17.000    20320030.605 7 108317232.69607       -98.679 7        47.573
E27        18.000    27844464.522 6 146323654.69806      2338.098 6        38.631                                                                    27844465.753 6 109267664.10206      1745.941 6        41.509    27844465.455 7 112118122.63107      1791.592 7        42.559
E02        19.000    24315728.631 7 127780204.16507     -2465.764 7        47.620                                                                    24315727.566 8  95420392.14508     -1841.297 8        49.647    24315726.967 8  97909604.82908     -1889.362 8        50.389
S27        20.000    39330300.377 6 206682119.70806      -430.661 6        36.257
R11        21.000    23240518.004 7 124190302.12107      3306.105 7        43.390                                                                    23240518.085 7  96592459.39507      2571.336 7        42.318
I06        22.000    38831135.360 6 152381936.29406      -303.423 6        41.914
S28        23.000    41041344.428 5 215673718.18705      -452.090 5        34.071
E04        24.000    28573833.661 5 150156499.17805       803.767 5        35.081                                                                    28573833.391 6 112129853.89206       600.047 6        40.076    28573832.822 6 115054976.34306       615.920 6        40.567
S23        25.000    38295260.964 7 201242885.37007      -459.051 7        45.183
S45        26.000    63551878.914 6 333968431.26306      -511.380 6        37.769
R09        27.000    20688952.227 8 110478056.63408     -3580.253 8        51.264                                                                    20688951.166 7  85927488.99707     -2784.596 7        47.429
R18        28.000    23174940.131 7 123709693.72607     -3887.976 7        43.217                                                                    23174940.922 7  96218801.07907     -3024.083 7        42.144
C38        29.000                                                                                                                                    39410162.180 7 205219176.42107     -1460.253 7        42.082                                                                    39410159.926 7 166757435.82107     -1186.699 7        42.119
C44        30.000                                                                                                                                    24627684.664 7 128243035.34207     -3068.566 7        44.683                                                                    24627683.739 7 104208055.10407     -2493.470 7        43.755
C43        31.000                                                                                                                                    22928763.398 8 119396188.34608      1412.934 8        48.665                                                                    22928762.385 8  97019224.33508      1148.058 8        48.030
R02        32.000    24073306.356 6 128459786.12406     -2989.995 6        41.271                                                                    24073307.958 6  99913170.79606     -2325.690 6        39.417
I02        33.000    39401745.786 6 154620971.45406      -979.024 6        40.691
R03        34.000    22312296.909 7 119439505.79107       203.732 7        47.910                                                                    22312294.551 7  92897395.17207       158.502 7        43.230
E34        35.000    24011393.313 8 126180928.18208       913.445 8        48.500                                                                    24011393.398 8  94226128.02708       682.117 8        50.492    24011393.224 8  96684189.78608       699.938 8        51.632
G29        36.000    24248815.229 6 127428669.93906     -3564.408 6        40.503                                    24248811.591 5  99295174.94605     -2777.460 5        33.826    24248811.783 6  99295184.93606     -2777.572 6        37.013
G31        37.000    25654285.890 6 134814366.22206     -3778.838 6        39.366                                    25654284.699 4 105050243.34904     -2944.544 4        28.986    25654284.932 5 105050249.33605     -2944.576 5        35.019
C22        38.000                                                                                                                                    24846692.657 7 129383277.31507      -564.823 7        45.037                                                                    24846687.099 7 105134494.78407      -459.036 7        44.558
C12        40.000                                                                                                                                    23083135.955 7 120200152.42007     -2353.002 7        46.509    23083131.775 8  92946479.94908     -1819.521 8        49.882    23083131.186 8  97672543.59808     -1912.110 8        48.332
R04        41.000    22937809.628 7 122830942.71307      3065.089 7        44.384                                                                    22937808.015 7  95535181.41007      2383.949 7        42.250
S44        42.000    40621191.000 6 213465987.87806      -420.846 6        37.384
G08        43.000    24715892.215 6 129882924.92506      2878.734 6        37.066                                    24715893.708 4 101207499.94004      2243.168 4        26.731    24715893.480 5 101207497.95505      2243.436 5        33.491
C05        44.000                                                                                                                                    39425754.550 6 205300282.80606      -386.658 6        38.315    39425749.830 7 158751224.37907      -298.864 7        42.538    39425751.896 6 166823398.97506      -314.116 6        40.002
C11        45.000                                                                                                                                    21882114.981 8 113946060.28108       291.092 8        48.430    21882111.671 8  88110382.28108       225.143 8        52.258    21882110.542 8  92590547.39208       236.576 8        49.300
G07        47.000    25712013.903 6 135117559.51506      1127.635 6        38.652                                    25712010.821 4 105286396.43504       878.681 4        29.981    25712011.074 6 105286404.43806       878.560 6        36.510
C21        48.000                                                                                                                                    25005387.518 7 130209635.42607      1978.514 7        44.128                                                                    25005382.517 7 105805980.58607      1607.669 7        45.144
R19        50.000    20311927.687 6 108655385.18206     -2473.631 6        40.155                                                                    20311927.241 7  84509857.85607     -1924.015 7        44.521
S48        51.000    77303980.731 6 406235352.31106      -496.713 6        37.936
C08        52.000                                                                                                                                    38111882.294 6 198458679.00606     -1150.565 6        41.523    38111876.290 7 153460869.48107      -889.629 7        45.172    38111875.688 7 161263951.52507      -934.855 7        42.118
C34        53.000                                                                                                                                    21580178.235 8 112373935.50608      -986.260 8        50.844                                                                    21580178.020 8  91313144.56008      -801.471 8        49.556
C60        54.000                                                                                                                                    40621193.077 6 211525407.36406      -416.942 6        40.412                                                                    40621177.160 6 171881688.41906      -338.934 6        40.072
C25        55.000                                                                                                                                    23827249.511 7 124074984.06207     -3108.633 7        47.008                                                                    23827247.785 7 100821180.71507     -2526.026 7        46.389
I09        56.000    39598449.716 6 155392838.21006       467.253 6        41.967
C02        57.000                                                                                                                                    40765049.450 5 212274347.04605      -376.121 5        34.457    40765042.324 6 164143982.38706      -291.071 6        38.715    40765045.977 6 172490296.86306      -305.876 6        36.045
I03        58.000    82926182.334 6 249634898.43006      1107.103 6        41.085
E30        59.000    24403543.492 7 128241706.44607       404.540 7        47.866                                                                    24403543.415 8  95765030.43908       302.091 8        50.343    24403542.889 8  98263231.90808       309.987 8        51.346
R20        60.000    20634073.561 6 110339862.27706      1557.565 6        41.538                                                                    20634074.609 7  85819961.00407      1211.352 7        47.013
> 2025 01 02 18 45 15.0000000  0 56
G23         1.000    21551745.330 7 113255265.74707      1469.830 7        47.211                                    21551741.521 6  88250879.05706      1145.323 6        37.308    21551741.825 7  88250877.06507      1145.276 7        45.639
E11         2.000    27686420.053 5 145493314.51705     -3222.023 5        34.862                                                                    27686416.989 6 108647728.91606     -2406.042 6        37.633    27686416.432 6 111482003.85606     -2468.759 6        37.777
G16         3.000    20652169.331 8 108528090.75908      -249.270 8        48.739                                    20652164.649 6  84567428.62306      -194.235 6        40.253
G05         4.000    25271750.315 6 132804016.97406     -3861.250 6        37.569                                    25271747.236 4 103483668.58104     -3008.769 4        27.365    25271748.410 5 103483667.53805     -3008.613 5        34.657
S21         5.000    38569631.716 7 202684470.82607      -457.476 7        42.510
G26         6.000    21327886.455 8 112079038.37308     -2522.177 8        48.499                                    21327885.238 8  87334447.96508     -1965.333 8        48.536    21327885.478 7  87334434.97107     -1965.343 7        44.483
G10         7.000    23797852.101 6 125058606.62406      3050.400 6        41.836                                    23797851.472 6  97448277.31106      2376.931 6        38.535    23797851.251 6  97448271.31106      2376.887 6        39.318
E15         8.000    27936306.640 6 146806347.60406      2330.451 6        37.629                                                                    27936309.884 6 109628172.66006      1740.227 6        41.063    27936308.974 6 112488027.30106      1785.782 6        41.530
E36         9.000    24028252.465 7 126269512.46207     -1781.595 7        47.161                                                                    24028252.942 8  94292312.29608     -1330.411 8        50.472    24028252.579 8  96752098.98008     -1365.109 8        51.375
G27        10.000    21826860.733 7 114701069.71907      2114.277 7        45.488                                    21826859.195 7  89377525.13307      1647.487 7        45.549    21826859.533 7  89377527.14407      1647.376 7        42.891
G15        11.000    24450945.650 6 128490594.75706      1539.627 6        39.225                                    24450942.776 5 100122530.86405      1199.709 5        30.551    24450943.546 6 100122533.86806      1199.726 6        36.779
C23        13.000                                                                                                                                    23934544.433 7 124633506.00307      -354.681 7        47.023                                                                    23934536.281 7 101274925.00007      -288.256 7        47.775
S36        14.000    38339791.845 7 201477499.97607      -457.016 7        44.253
C13        15.000                                                                                                                                    37891288.139 7 197309940.73407      -876.072 7        45.064    37891289.763 7 152572596.40807      -677.413 7        45.261    37891287.952 7 160330511.96007      -711.872 7        43.249
G18        16.000    21229036.973 7 111559575.28307     -2166.072 7        47.081                                    21229033.209 6  86929637.02606     -1687.848 6        38.880    21229033.372 7  86929645.02707     -1687.802 7        47.168
R10        17.000    20320125.547 7 108317737.25107      -103.108 7        47.469
E27        18.000    27842240.236 6 146311965.44406      2337.595 6        38.631                                                                    27842241.377 6 109258935.10006      1745.678 6        41.721    27842241.102 7 112109165.92707      1791.104 7        42.660
E02        19.000    24318075.525 7 127792536.57207     -2467.251 7        47.715                                                                    24318074.354 8  95429601.41108     -1842.421 8        49.769    24318073.733 8  97919054.33608     -1890.474 8        50.368
S27        20.000    39330709.115 6 206684271.02606      -430.011 6        36.329
R11        21.000    23237426.219 7 124173776.93507      3304.001 7        43.427                                                                    23237425.815 7  96579606.45607      2569.772 7        42.229
I06        22.000    38831521.779 6 152383453.07306      -303.143 6        41.650
S28        23.000    41041775.304 5 215675974.79405      -451.272 5        34.371
E04        24.000    28573070.064 5 150152485.24205       801.937 5        35.386                                                                    28573069.349 6 112126856.45906       598.792 6        40.067    28573069.159 6 115051900.72606       614.508 6        40.222
S23        25.000    38295696.741 7 201245180.47907      -458.947 7        45.121
S45        26.000    63552315.381 6 333970989.00406      -511.333 6        37.766
R09        27.000    20692306.830 8 110495965.57508     -3583.257 8        51.407                                                                    20692304.994 7  85941418.17007     -2786.988 7        47.426
R18        28.000    23178582.757 7 123729133.78907     -3887.978 7        43.333                                                                    23178582.998 7  96233921.13007     -3024.070 7        42.366
C38        29.000                                                                                                                                    39411564.060 7 205226478.32507     -1460.468 7        42.083                                                                    39411562.208 7 166763369.19707     -1186.927 7        42.127
C44        30.000                                                                                                                                    24630631.418 7 128258378.65607     -3068.815 7        44.466                                                                    24630630.284 7 104220522.78307     -2493.654 7        43.833
C43        31.000                                                                                                                                    22927407.165 8 119389126.18108      1411.960 8        48.555                                                                    22927406.123 8  97013485.73508      1147.260 8        48.001
R02        32.000    24076109.008 7 128474744.47707     -2993.280 7        42.161                                                                    24076112.503 6  99924805.06806     -2328.031 6        40.029
I02        33.000    39402993.432 6 154625866.58706      -978.922 6        40.634
R03        34.000    22312108.186 7 119438497.60907       199.586 7        47.393                                                                    22312106.406 7  92896611.04807       155.249 7        43.251
E34        35.000    24010524.812 8 126176364.55708       912.015 8        48.418                                                                    24010524.910 8  94222720.12208       681.087 8        50.605    24010524.813 8  96680692.98508       698.825 8        51.516
G29        36.000    24252206.987 6 127446493.46606     -3564.855 6        40.601                                    24252203.249 5  99309063.41005     -2777.811 5        33.838    24252203.200 6  99309073.40706     -2778.015 6        36.896
G31        37.000    25657880.878 6 134833259.08806     -3778.376 6        39.871                                    25657879.937 4 105064965.01804     -2944.183 4        29.014    25657879.905 5 105064970.98705     -2944.085 5        34.795
C22        38.000                                                                                                                                    24847236.849 7 129386108.76007      -567.601 7        45.229                                                                    24847230.741 7 105136795.54207      -461.281 7        44.626
C12        40.000                                                                                                                                    23085395.873 7 120211919.70507     -2353.847 7        46.312    23085391.701 8  92955579.15708     -1820.150 8        49.942    23085390.961 8  97682105.46608     -1912.662 8        48.424
R04        41.000    22934948.161 7 122815621.51807      3063.381 7        45.139                                                                    22934947.134 7  95523264.90707      2382.609 7        42.292
S44        42.000    40621592.390 6 213468091.86306      -420.510 6        37.376
G08        43.000    24713152.418 6 129868530.85406      2878.769 6        36.953                                    24713154.526 4 101196283.80104      2243.187 4        26.802    24713155.355 5 101196281.84305      2243.622 5        32.575
C05        44.000                                                                                                                                    39426125.977 6 205302215.39306      -386.327 6        38.111    39426120.895 7 158752718.78607      -298.836 7        42.451    39426123.000 6 166824969.35406      -314.105 6        40.188
C11        45.000                                                                                                                                    21881835.983 8 113944607.90008       289.900 8        48.359    21881832.709 8  88109259.22008       224.095 8        52.229    21881831.619 8  92589367.19908       235.463 8        49.335
G07        47.000    25710942.067 6 135111927.25506      1125.387 6        39.054                                    25710939.184 5 105282007.65805       876.925 5        30.174    25710939.113 6 105282015.64106       877.160 6        37.040
C21        48.000                                                                                                                                    25003488.729 7 130199746.68307      1976.921 7        44.182                                                                    25003483.425 7 105797945.17007      1606.325 7        45.366
R19        50.000    20314240.913 6 108667757.88906     -2475.467 6        40.215                                                                    20314240.304 7  84519481.07107     -1925.290 7        44.828
S48        51.000    77304424.209 6 406237834.81806      -496.428 6        37.720
C08        52.000                                                                                                                                    38112987.404 6 198464432.92506     -1151.027 6        41.333    38112981.210 7 153465318.78507      -890.132 7        44.987    38112980.616 7 161268627.04307      -935.467 7        42.106
C34        53.000                                                                                                                                    21581125.922 8 112378870.25208      -987.577 8        50.883                                                                    21581125.694 8  91317154.43408      -802.584 8        49.657
C60        54.000                                                                                                                                    40621593.404 6 211527492.24506      -416.892 6        40.384                                                                    40621577.531 6 171883382.53806      -338.859 6        40.024
C25        55.000                                                                                                                                    23830235.188 7 124090530.77007     -3110.024 7        47.341                                                                    23830233.425 7 100833813.67107     -2527.297 7        46.421
I09        56.000    39597854.496 7 155390501.72107       467.299 7        42.000
C02        57.000                                                                                                                                    40765410.064 5 212276228.27505      -376.345 5        34.300    40765403.618 6 164145437.06406      -290.966 6        38.601    40765407.266 6 172491825.49506      -305.770 6        36.113
I03        58.000    82924771.888 6 249629362.73606      1107.277 6        41.027
E30        59.000    24403159.752 7 128239688.53807       402.695 7        47.932                                                                    24403159.381 8  95763523.56508       300.684 8        50.412    24403158.852 8  98261685.72308       308.524 8        51.307
R20        60.000    20632617.309 6 110332079.60606      1555.582 6        41.452                                                                    20632619.061 7  85813907.80807      1209.914 7        46.873
> 2025 01 02 18 45 20.0000000  0 56
G23         1.000    21550348.286 7 113247924.74007      1466.746 7        47.156                                    21550344.581 6  88245158.79106      1142.915 6        37.448    21550344.541 7  88245156.80107      1142.867 7        45.550
E11         2.000    27689485.917 5 145509425.69005     -3222.341 5        35.352                                                                    27689482.962 6 108659759.97806     -2406.406 6        38.081    27689482.235 6 111494348.77306     -2469.108 6        37.883
G16         3.000    20652408.745 8 108529346.50208      -252.869 8        48.819                                    20652403.626 6  84568407.12606      -197.040 6        40.408
G05         4.000    25275423.832 6 132823327.17206     -3862.870 6        37.161                                    25275422.033 4 103498715.45804     -3010.024 4        27.509    25275422.640 5 103498714.46305     -3010.016 5        34.414
S21         5.000    38570066.974 7 202686759.12107      -457.691 7        42.447
G26         6.000    21330287.818 8 112091656.69608     -2524.963 8        48.359                                    21330286.424 8  87344280.42208     -1967.503 8        48.648    21330286.965 7  87344267.42707     -1967.507 7        44.725
G10         7.000    23794950.638 7 125043357.78807      3049.378 7        42.650                                    23794949.326 6  97436395.11306      2376.141 6        38.414    23794948.156 6  97436389.10906      2376.005 6        38.240
E15         8.000    27934089.407 6 146794697.31006      2329.801 6        37.482                                                                    27934092.758 6 109619472.79006      1739.650 6        41.180    27934091.864 6 112479100.49206      1784.976 6        41.347
E36         9.000    24029948.228 7 126278424.78707     -1783.135 7        47.528                                                                    24029948.887 8  94298967.59608     -1331.596 8        50.465    24029948.527 8  96758927.90408     -1366.333 8        51.417
G27        10.000    21824850.080 7 114690503.18007      2112.552 7        45.601                                    21824848.445 7  89369291.46807      1646.146 7        45.696    21824848.917 7  89369293.46607      1646.125 7        42.912
G15        11.000    24449481.945 6 128482902.92806      1537.177 6        38.904                                    24449479.102 5 100116537.23605      1197.799 5        30.958    24449479.773 6 100116540.25006      1197.876 6        36.537
C23        13.000                                                                                                                                    23934886.455 7 124635287.54607      -357.820 7        46.993                                                                    23934878.403 8 101276372.65508      -290.708 8        48.061
S36        14.000    38340226.174 7 201479785.60807      -457.119 7        44.128
C13        15.000                                                                                                                                    37892129.971 7 197314323.53107      -877.110 7        44.876    37892131.566 7 152575985.45507      -678.195 7        45.410    37892129.687 7 160334073.33507      -712.606 7        43.528
G18        16.000    21231099.139 7 111570411.38807     -2168.269 7        47.038                                    21231095.245 6  86938080.74306     -1689.561 6        39.054    21231095.568 7  86938088.74507     -1689.517 7        47.042
R10        17.000    20320224.494 7 108318265.32307      -107.957 7        47.369
E27        18.000    27840016.892 6 146300279.76006      2336.984 6        38.619                                                                    27840017.740 6 109250208.79706      1744.962 6        41.549    27840017.325 7 112100211.96907      1790.449 7        42.677
E02        19.000    24320423.910 8 127804878.09808     -2469.280 8        48.113                                                                    24320422.903 8  95438817.48308     -1843.936 8        49.846    24320422.193 8  97928510.82708     -1892.064 8        50.369
S27        20.000    39331119.051 6 206686421.83206      -430.315 6        36.234
R11        21.000    23234335.887 7 124157262.77907      3301.691 7        42.394                                                                    23234335.169 6  96566762.12006      2567.908 6        41.640
I06        22.000    38831908.511 6 152384969.99906      -303.428 6        41.795
S28        23.000    41042201.119 5 215678232.05305      -451.442 5        33.742
E04        24.000    28572308.259 5 150148481.65705       799.605 5        35.867                                                                    28572307.334 6 112123866.77106       597.088 6        39.676    28572307.280 6 115048833.05006       612.618 6        40.465
S23        25.000    38296133.887 7 201247475.97507      -459.162 7        45.183
S45        26.000    63552751.704 6 333973547.23106      -511.651 6        37.743
R09        27.000    20695662.849 8 110513890.96208     -3586.764 8        50.702                                                                    20695661.944 7  85955360.13907     -2789.734 7        47.268
R18        28.000    23182224.286 7 123748574.88507     -3888.329 7        43.225                                                                    23182224.356 6  96249041.98206     -3024.222 6        41.225
C38        29.000                                                                                                                                    39412966.860 7 205233783.18607     -1461.252 7        42.082                                                                    39412965.042 7 166769304.99207     -1187.252 7        42.317
C44        30.000                                                                                                                                    24633578.517 7 128273724.57307     -3069.574 7        44.421                                                                    24633577.313 7 104232992.59507     -2494.130 7        44.176
C43        31.000                                                                                                                                    22926052.042 8 119382070.06408      1410.632 8        48.751                                                                    22926051.114 8  97007752.06508      1146.275 8        48.195
R02        32.000    24078917.246 7 128489719.76307     -2996.693 7        42.423                                                                    24078917.517 6  99936452.48206     -2330.796 6        40.114
I02        33.000    39404240.809 6 154630762.47806      -979.150 6        40.684
R03        34.000    22311923.371 7 119437511.36207       195.050 7        47.541                                                                    22311922.815 7  92895843.97207       151.674 7        43.706
E34        35.000    24009658.052 8 126171809.32808       910.207 8        48.738                                                                    24009658.087 8  94219318.49808       679.663 8        50.604    24009658.004 8  96677202.61808       697.372 8        51.596
G29        36.000    24255599.400 6 127464320.78906     -3565.826 6        41.039                                    24255595.673 5  99322954.83305     -2778.571 5        34.229    24255596.516 6  99322964.84006     -2778.677 6        37.051
G31        37.000    25661475.528 6 134852150.29506     -3778.164 6        39.018                                    25661474.822 4 105079685.40604     -2944.019 4        28.976    25661474.965 5 105079691.39805     -2944.129 5        34.271
C22        38.000                                                                                                                                    24847783.511 7 129388955.16207      -570.744 7        44.921                                                                    24847777.401 7 105139108.48107      -463.766 7        44.847
C12        40.000                                                                                                                                    23087655.817 7 120223692.12207     -2355.026 7        46.055    23087652.437 8  92964682.33208     -1821.103 8        50.054    23087651.725 8  97691671.52608     -1913.542 8        48.651
R04        41.000    22932089.715 7 122800310.62707      3061.133 7        45.360                                                                    22932088.274 7  95511356.45407      2380.820 7        42.559
S44        42.000    40621992.560 6 213470196.47706      -421.001 6        37.316
G08        43.000    24710414.184 6 129854138.18506      2878.354 6        37.482                                    24710415.782 4 101185068.76904      2242.868 4        27.293    24710416.314 5 101185066.77505      2242.719 5        33.329
C05        44.000                                                                                                                                    39426496.996 6 205304148.45406      -386.691 6        38.246    39426492.173 7 158754213.53807      -299.083 7        42.482    39426494.266 6 166826540.11006      -314.216 6        40.319
C11        45.000                                                                                                                                    21881558.064 8 113943163.11908       288.194 8        48.245    21881555.252 8  88108142.01808       222.805 8        52.283    21881554.131 8  92588193.18708       234.258 8        49.567
G07        47.000    25709873.109 6 135106307.30506      1122.769 6        38.946                                    25709869.898 5 105277628.49505       874.877 5        30.604    25709869.254 6 105277636.52506       874.732 6        36.934
C21        48.000                                                                                                                                    25001591.760 7 130189866.87307      1975.056 7        44.652                                                                    25001586.359 7 105789917.01707      1604.948 7        45.747
R19        50.000    20316555.537 6 108680139.71306     -2477.245 6        39.904                                                                    20316554.573 7  84529111.37907     -1926.768 7        44.716
S48        51.000    77304867.924 6 406240317.71206      -496.681 6        37.629
C08        52.000                                                                                                                                    38114093.211 6 198470191.06706     -1151.963 6        41.359    38114087.042 7 153469771.33407      -890.889 7        45.117    38114086.401 7 161273306.01007      -936.131 7        42.334
C34        53.000                                                                                                                                    21582075.330 8 112383812.82408      -989.297 8        50.909                                                                    21582074.857 8  91321170.67908      -803.840 8        49.903
C60        54.000                                                                                                                                    40621993.695 6 211529577.70106      -417.084 6        40.403                                                                    40621978.090 6 171885077.15206      -338.957 6        40.234
C25        55.000                                                                                                                                    23833222.376 7 124106085.76807     -3111.794 7        46.837                                                                    23833220.681 7 100846453.37407     -2528.568 7        46.779
I09        56.000    39597259.039 6 155388165.74406       467.054 6        41.902
C02        57.000                                                                                                                                    40765770.906 5 212278109.99305      -376.478 5        34.529    40765764.996 6 164146892.12006      -290.870 6        38.643    40765768.752 6 172493354.55806      -305.804 6        36.284
I03        58.000    82923361.190 6 249623827.44706      1107.124 6        41.080
E30        59.000    24402777.721 8 128237681.36808       400.349 8        48.247                                                                    24402777.419 8  95762024.70008       298.975 8        50.485    24402776.931 8  98260147.76108       306.737 8        51.311
R20        60.000    20631164.053 6 110324307.64906      1553.321 6        40.670                                                                    20631165.768 7  85807862.95907      1208.125 7        46.608
> 2025 01 02 18 45 25.0000000  0 56
G23         1.000    21548954.001 7 113240597.19207      1464.011 7        47.236                                    21548950.227 6  88239449.01906      1140.788 6        37.463    21548950.159 7  88239447.02707      1140.782 7        45.666
E11         2.000    27692551.559 5 145525536.60005     -3222.431 5        35.462                                                                    27692548.680 6 108671790.84106     -2406.284 6        38.000    27692547.947 6 111506693.49006     -2469.048 6        37.841
G16         3.000    20652650.521 8 108530618.33208      -256.098 8        48.937                                    20652645.644 6  84569398.16306      -199.557 6        40.272
G05         4.000    25279099.428 6 132842643.79806     -3863.965 6        37.577                                    25279097.921 4 103513767.36504     -3010.886 4        27.820    25279098.090 5 103513766.38505     -3011.006 5        34.957
S21         5.000    38570503.248 7 202689046.74507      -457.533 7        42.408
G26         6.000    21332691.180 8 112104287.44108     -2527.463 8        48.167                                    21332689.979 8  87354122.55708     -1969.448 8        48.513    21332690.051 7  87354109.55407     -1969.503 7        44.585
G10         7.000    23792049.642 7 125028112.50507      3048.523 7        43.456                                    23792047.762 6  97424515.67106      2375.476 6        38.501    23792048.065 6  97424509.66306      2375.405 6        38.159
E15         8.000    27931872.983 6 146783049.07106      2329.289 6        37.437                                                                    27931876.275 6 109610774.44706      1739.368 6        41.251    27931875.371 6 112470175.22806      1784.865 6        41.535
E36         9.000    24031645.450 7 126287343.18407     -1784.456 7        47.571                                                                    24031646.015 8  94305627.44008     -1332.552 8        50.518    24031645.613 8  96765761.47508     -1367.283 8        51.413
G27        10.000    21822840.490 7 114679942.74607      2111.363 7        45.464                                    21822838.871 7  89361062.56307      1645.219 7        45.550    21822839.325 7  89361064.57707      1645.161 7        42.764
G15        11.000    24448020.326 6 128475222.16206      1534.985 6        38.685                                    24448017.619 5 100110552.22905      1196.093 5        30.792    24448018.012 6 100110555.21706      1196.030 6        36.469
C23        13.000                                                                                                                                    23935231.287 7 124637082.63907      -360.461 7        47.022                                                                    23935223.146 7 101277831.33907      -293.064 7        47.897
S36        14.000    38340658.964 7 201482069.70907      -456.836 7        44.197
C13        15.000                                                                                                                                    37892972.031 7 197318709.36807      -877.617 7        44.894    37892973.602 7 152579376.86307      -678.556 7        45.288    37892971.856 7 160337637.20807      -713.253 7        43.439
G18        16.000    21233163.108 7 111581256.73307     -2170.090 7        47.105                                    21233159.037 6  86946531.66006     -1690.976 6        38.901    21233159.538 7  86946539.66407     -1690.991 7        47.295
R10        17.000    20320327.334 7 108318815.66007      -112.434 7        47.221
E27        18.000    27837793.855 6 146288596.57206      2336.381 6        39.036                                                                    27837794.636 6 109241484.34106      1744.543 6        41.783    27837793.963 7 112091259.91607      1790.140 7        42.645
E02        19.000    24322773.888 8 127817227.60108     -2470.798 8        48.105                                                                    24322772.909 8  95448039.51108     -1845.111 8        49.885    24322772.272 8  97937973.42908     -1893.216 8        50.331
S27        20.000    39331523.903 5 206688571.91905      -430.090 5        35.852
R11        21.000    23231247.149 7 124140758.60007      3299.635 7        44.008                                                                    23231246.705 6  96553925.50006      2566.425 6        41.783
I06        22.000    38832294.802 6 152386486.21506      -303.352 6        41.862
S28        23.000    41042629.223 5 215680489.33705      -451.411 5        34.005
E04        24.000    28571548.120 6 150144487.21706       797.929 6        36.147                                                                    28571547.235 6 112120883.91806       595.732 6        39.568    28571547.266 6 115045772.38106       611.276 6        40.238
S23        25.000    38296570.962 7 201249770.60507      -459.025 7        45.130
S45        26.000    63553186.511 6 333974404.63416      -511.428 6        37.546
R09        27.000    20699022.485 8 110531831.73708     -3589.832 8        50.697                                                                    20699021.918 7  85969314.06107     -2792.087 7        47.595
R18        28.000    23185865.571 7 123768015.83107     -3888.285 7        42.779                                                                    23185866.264 6  96264162.70106     -3024.232 6        40.150
C38        29.000                                                                                                                                    39414370.344 6 205241089.84106     -1461.532 6        41.864                                                                    39414368.184 7 166775242.27107     -1187.686 7        42.038
C44        30.000                                                                                                                                    24636525.834 7 128289071.97007     -3069.855 7        44.569                                                                    24636524.725 7 104245463.63207     -2494.510 7        44.137
C43        31.000                                                                                                                                    22924697.760 8 119375018.85708      1409.614 8        48.624                                                                    22924696.986 8  97002022.40508      1145.316 8        48.047
R02        32.000    24081726.203 7 128504710.65307     -2999.958 7        42.188                                                                    24081727.657 6  99948112.05506     -2333.189 6        40.126
I02        33.000    39405488.183 6 154635657.97406      -979.177 6        40.589
R03        34.000    22311743.009 7 119436546.04507       190.846 7        47.124                                                                    22311742.224 7  92895093.16507       148.486 7        43.363
E34        35.000    24008792.611 8 126167261.36208       908.716 8        48.721                                                                    24008792.606 8  94215922.28308       678.601 8        50.641    24008792.484 8  96673717.80608       696.297 8        51.519
G29        36.000    24258992.290 6 127482150.74706     -3566.258 6        41.030                                    24258988.592 5  99336848.30605     -2778.903 5        34.262    24258989.821 6  99336858.29806     -2778.864 6        37.406
G31        37.000    25665069.919 6 134871038.69606     -3777.515 6        39.288                                    25665069.125 4 105094403.60604     -2943.510 4        28.834    25665069.575 5 105094409.59905     -2943.411 5        34.695
C22        38.000                                                                                                                                    24848332.025 7 129391815.39107      -573.562 7        44.760                                                                    24848326.756 7 105141432.66107      -466.071 7        44.703
C12        40.000                                                                                                                                    23089917.399 7 120235468.52807     -2355.864 7        46.336    23089914.306 8  92973788.58808     -1821.689 8        50.307    23089913.303 8  97701240.83408     -1914.384 8        48.505
R04        41.000    22929231.714 7 122785008.82407      3059.348 7        45.076                                                                    22929230.360 7  95499455.04707      2379.422 7        42.243
S44        42.000    40622394.586 6 213472300.50306      -420.907 6        37.622
G08        43.000    24707675.584 6 129839745.74906      2878.520 6        37.448                                    24707677.146 4 101173853.92104      2243.002 4        27.114    24707678.211 5 101173851.97205      2242.632 5        33.587
C05        44.000                                                                                                                                    39426867.533 6 205306080.80206      -386.537 6        38.216    39426863.246 7 158755707.74407      -298.838 7        42.413    39426865.254 6 166828110.32606      -314.272 6        40.286
C11        45.000                                                                                                                                    21881281.657 8 113941724.81208       286.873 8        48.300    21881278.993 8  88107029.82808       221.817 8        52.268    21881277.957 8  92587024.46908       233.075 8        49.437
G07        47.000    25708805.553 6 135100698.54606      1120.517 6        38.354                                    25708802.495 5 105273258.04205       873.135 5        30.581    25708802.142 6 105273266.04606       872.938 6        36.117
C21        48.000                                                                                                                                    24999695.709 7 130179994.86207      1973.541 7        44.810                                                                    24999690.778 7 105781895.23507      1603.519 7        45.907
R19        50.000    20318871.102 6 108692529.29806     -2478.784 6        39.444                                                                    20318870.563 7  84538747.71607     -1928.024 7        44.369
S48        51.000    77305312.863 6 406242799.90206      -496.455 6        37.686
C08        52.000                                                                                                                                    38115199.544 6 198475952.26206     -1152.683 6        41.425    38115193.617 7 153474226.24907      -891.302 7        45.184    38115192.804 7 161277987.47207      -936.723 7        42.284
C34        53.000                                                                                                                                    21583025.699 8 112388762.07908      -990.673 8        51.058                                                                    21583025.339 8  91325192.37608      -805.095 8        49.797
C60        54.000                                                                                                                                    40622394.294 6 211531662.61506      -417.028 6        40.386                                                                    40622378.430 6 171886771.33606      -339.080 6        40.200
C25        55.000                                                                                                                                    23836210.315 7 124121647.88307     -3113.302 7        46.952                                                                    23836209.211 7 100859098.88307     -2529.925 7        46.641
I09        56.000    39596663.644 6 155385829.43706       467.211 6        41.959
C02        57.000                                                                                                                                    40766132.830 5 212279991.12205      -376.371 5        34.338    40766126.165 6 164148346.72706      -290.921 6        38.703    40766129.961 6 172494883.14106      -305.832 6        36.344
I03        58.000    82921950.518 6 249618291.73606      1107.096 6        40.963
E30        59.000    24402397.315 8 128235683.81808       398.352 8        48.177                                                                    24402397.341 8  95760533.02208       297.519 8        50.543    24402396.801 8  98258617.16608       305.260 8        51.319
R20        60.000    20629711.581 6 110316545.19706      1551.446 6        40.143                                                                    20629714.278 7  85801825.50507      1206.630 7        46.567
> 2025 01 02 18 45 30.0000000  0 56
G23         1.000    21547562.355 7 113233284.04607      1461.225 7        47.337                                    21547558.631 6  88233750.46306      1138.618 6        37.429    21547558.856 7  88233748.46807      1138.615 7        45.521
E11         2.000    27695617.253 5 145541648.14305     -3222.587 5        35.329                                                                    27695614.780 6 108683822.19106     -2406.266 6        38.102    27695613.898 6 111519038.69706     -2468.978 6        37.603
G16         3.000    20652895.683 8 108531907.17908      -259.445 8        49.028                                    20652890.904 6  84570402.46206      -202.167 6        40.331
G05         4.000    25282777.040 6 132861967.45306     -3865.361 6        36.851                                    25282775.187 4 103528824.72204     -3011.953 4        27.353    25282775.431 5 103528823.70705     -3012.201 5        34.429
S21         5.000    38570940.385 7 202691334.72407      -457.584 7        42.717
G26         6.000    21335097.063 8 112116931.48108     -2530.054 8        48.356                                    21335096.061 8  87363975.05508     -1971.469 8        48.613    21335095.955 7  87363962.04807     -1971.464 7        44.259
G10         7.000    23789149.165 7 125012871.68407      3047.753 7        43.541                                    23789147.284 6  97412639.70506      2374.870 6        38.874    23789148.105 6  97412633.70806      2374.854 6        38.931
E15         8.000    27929656.625 6 146771403.77906      2328.959 6        37.819                                                                    27929660.338 6 109602078.31406      1739.055 6        41.340    27929659.606 6 112461252.24606      1784.409 6        41.952
E36         9.000    24033344.038 7 126296268.57007     -1785.728 7        47.412                                                                    24033344.465 8  94312292.50008     -1333.535 8        50.419    24033344.075 8  96772600.40508     -1368.274 8        51.359
G27        10.000    21820832.381 7 114669389.36807      2110.041 7        45.652                                    21820830.639 7  89352839.15807      1644.187 7        45.661    21820830.615 7  89352841.16307      1644.123 7        42.582
G15        11.000    24446561.014 6 128467553.27606      1532.734 6        38.273                                    24446558.309 5 100104576.48405      1194.335 5        30.664    24446558.416 6 100104579.48706      1194.246 6        36.083
C23        13.000                                                                                                                                    23935579.017 7 124638892.16307      -363.300 7        46.843                                                                    23935570.582 7 101279301.70007      -295.141 7        47.970
S36        14.000    38341096.074 7 201484353.19107      -456.626 7        44.364
C13        15.000                                                                                                                                    37893814.727 7 197323099.19207      -878.301 7        44.855    37893816.373 7 152582771.35907      -679.177 7        45.281    37893814.781 7 160341204.27707      -713.752 7        43.484
G18        16.000    21235228.566 7 111592112.25107     -2172.080 7        47.176                                    21235224.752 6  86954990.50506     -1692.532 6        38.973    21235225.205 7  86954998.50307     -1692.527 7        47.370
R10        17.000    20320434.759 7 108319389.20107      -116.949 7        47.377
E27        18.000    27835571.357 6 146276916.78306      2335.610 6        38.874                                                                    27835571.989 6 109232762.40306      1744.286 6        41.774    27835571.346 7 112082310.46007      1789.592 7        42.567
E02        19.000    24325125.700 8 127829586.00508     -2472.566 8        48.028                                                                    24325124.565 8  95457268.18508     -1846.343 8        49.857    24325124.015 8  97947442.85408     -1894.563 8        50.292
S27        20.000    39331937.563 6 206690723.06906      -430.431 6        36.408
R11        21.000    23228161.996 7 124124265.34007      3297.656 7        44.456                                                                    23228160.380 7  96541097.43007      2564.806 7        42.263
I06        22.000    38832681.245 6 152388002.40406      -303.265 6        41.890
S28        23.000    41043067.049 5 215682746.49305      -451.419 5        34.571
E04        24.000    28570789.709 6 150140502.92806       796.082 6        36.726                                                                    28570789.148 6 112117908.64406       594.397 6        39.595    28570788.894 6 115042719.49906       609.790 6        40.327
S23        25.000    38297007.946 7 201252065.53407      -459.020 7        45.309
S45        26.000    63553621.076 6 333976962.27006      -511.530 6        37.758
R09        27.000    20702385.572 8 110549788.67008     -3592.900 8        51.507                                                                    20702384.878 8  85983280.56708     -2794.509 8        48.123
R18        28.000    23189507.809 7 123787457.50607     -3888.444 7        43.001                                                                    23189508.132 6  96279284.00206     -3024.392 6        40.133
C38        29.000                                                                                                                                    39415773.822 6 205248399.22106     -1461.978 6        41.828                                                                    39415771.840 7 166781181.71407     -1188.022 7        42.286
C44        30.000                                                                                                                                    24639473.376 7 128304421.74907     -3070.114 7        44.488                                                                    24639472.382 7 104257936.56007     -2494.710 7        44.251
C43        31.000                                                                                                                                    22923344.737 8 119367973.48108      1408.568 8        48.605                                                                    22923343.958 8  96996297.43908      1144.553 8        48.234
R02        32.000    24084538.042 6 128519718.05506     -3003.209 6        41.893                                                                    24084540.274 6  99959784.48806     -2335.698 6        40.241
I02        33.000    39406736.214 6 154640553.92906      -979.295 6        40.687
R03        34.000    22311567.605 7 119435602.54107       186.582 7        47.625                                                                    22311565.256 7  92894359.31707       145.203 7        42.681
E34        35.000    24007928.803 8 126162721.56208       907.216 8        48.648                                                                    24007928.698 8  94212532.18108       677.424 8        50.661    24007928.654 8  96670239.26508       695.156 8        51.471
G29        36.000    24262386.091 6 127499984.28206     -3566.993 6        40.477                                    24262382.254 5  99350744.56405     -2779.476 5        34.543    24262383.420 6  99350754.55606     -2779.614 6        37.652
G31        37.000    25668663.940 6 134889925.18206     -3776.906 6        38.997                                    25668663.094 4 105109120.32004     -2943.038 4        28.853    25668663.728 5 105109126.28705     -2943.071 5        35.038
C22        38.000                                                                                                                                    24848883.862 7 129394690.32907      -576.439 7        44.330                                                                    24848878.845 7 105143768.76607      -468.395 7        44.867
C12        40.000                                                                                                                                    23092180.541 7 120247249.86507     -2356.744 7        46.234    23092176.974 8  92982898.66808     -1822.375 8        50.485    23092175.790 8  97710814.11108     -1915.052 8        48.606
R04        41.000    22926375.693 7 122769717.01607      3057.445 7        44.528                                                                    22926374.789 7  95487561.40707      2378.096 7        42.097
S44        42.000    40622791.130 6 213474404.92106      -420.879 6        37.856
G08        43.000    24704936.491 6 129825354.54106      2878.143 6        38.255                                    24704938.577 4 101162640.02004      2242.696 4        26.958    24704940.271 5 101162638.03805      2242.475 5        33.066
C05        44.000                                                                                                                                    39427239.603 6 205308013.37706      -386.520 6        38.123    39427234.230 7 158757202.14507      -298.853 7        42.489    39427236.546 6 166829680.68106      -314.094 6        40.389
C11        45.000                                                                                                                                    21881007.238 8 113940293.86108       285.515 8        48.361    21881004.133 8  88105923.33208       220.739 8        52.237    21881003.108 8  92585861.69508       231.972 8        49.540
G07        47.000    25707740.830 6 135095101.89006      1118.148 6        38.976                                    25707737.350 5 105268897.01305       871.288 5        30.543    25707736.976 5 105268905.00005       871.423 5        35.910
C21        48.000                                                                                                                                    24997800.904 7 130170131.59907      1971.767 7        44.632                                                                    24997796.609 7 105773880.49107      1602.282 7        46.023
R19        50.000    20321189.121 6 108704927.48606     -2480.406 6        39.991                                                                    20321188.712 7  84548390.75507     -1929.257 7        44.811
S48        51.000    77305756.332 6 406245282.56806      -496.463 6        37.898
C08        52.000                                                                                                                                    38116306.762 6 198481717.43506     -1153.420 6        41.633    38116300.777 7 153478684.24607      -891.927 7        45.312    38116300.023 7 161282672.09707      -937.082 7        42.341
C34        53.000                                                                                                                                    21583977.570 8 112393718.92108      -992.030 8        51.030                                                                    21583977.237 8  91329220.19408      -806.144 8        49.901
C60        54.000                                                                                                                                    40622794.674 6 211533747.90306      -417.142 6        40.303                                                                    40622778.824 6 171888465.75106      -338.750 6        40.222
C25        55.000                                                                                                                                    23839200.842 7 124137218.02907     -3114.710 7        47.288                                                                    23839199.223 7 100871750.88807     -2530.969 7        46.649
I09        56.000    39596068.363 6 155383493.47206       467.200 6        41.979
C02        57.000                                                                                                                                    40766493.775 5 212281872.55405      -376.276 5        34.257    40766487.400 6 164149801.59106      -290.978 6        38.532    40766491.192 6 172496411.94406      -305.741 6        36.219
I03        58.000    82920540.267 6 249612756.28606      1106.987 6        41.180
E30        59.000    24402019.201 8 128233696.78008       396.424 8        48.240                                                                    24402019.250 8  95759049.20208       296.012 8        50.466    24402018.669 8  98257094.63908       303.712 8        51.280
R20        60.000    20628261.721 6 110308793.32706      1549.378 6        40.513                                                                    20628264.730 7  85795796.28507      1205.014 7        46.918
> 2025 01 02 18 45 35.0000000  0 56
G23         1.000    21546173.514 7 113225985.38607      1458.290 7        47.687                                    21546169.731 6  88228063.20206      1136.330 6        37.388    21546169.910 7  88228061.20307      1136.334 7        45.634
E11         2.000    27698683.362 5 145557760.40105     -3222.691 5        34.838                                                                    27698680.633 6 108695854.04806     -2406.237 6        38.105    27698680.013 6 111531384.43106     -2469.050 6        37.486
G16         3.000    20653144.218 8 108533213.16308      -262.916 8        49.064                                    20653139.432 6  84571420.11306      -204.871 6        40.343
G05         4.000    25286456.034 6 132881298.48106     -3867.092 6        37.032                                    25286453.785 4 103543887.81104     -3013.312 4        27.078    25286454.209 5 103543886.81905     -3013.201 5        34.619
S21         5.000    38571373.596 7 202693623.16307      -457.780 7        42.521
G26         6.000    21337505.899 8 112129588.89408     -2532.749 8        48.612                                    21337504.700 8  87373837.97408     -1973.571 8        48.509    21337504.819 7  87373824.98507     -1973.659 7        44.146
G10         7.000    23786249.560 7 124997635.42207      3046.901 7        43.568                                    23786247.973 6  97400767.29906      2374.207 6        39.039    23786249.145 6  97400761.31306      2374.162 6        39.486
E15         8.000    27927441.569 6 146759761.55306      2328.310 6        38.468                                                                    27927444.759 6 109593384.47006      1738.551 6        41.347    27927444.314 6 112452331.60206      1783.858 6        41.790
E36         9.000    24035043.727 7 126305201.02307     -1787.189 7        47.340                                                                    24035044.195 8  94318962.82908     -1334.594 8        50.546    24035043.857 8  96779444.74508     -1369.383 8        51.231
G27        10.000    21818825.530 7 114658843.14107      2108.624 7        45.767                                    21818823.766 7  89344621.31707      1643.083 7        45.643    21818824.473 7  89344623.31907      1643.032 7        42.637
G15        11.000    24445103.739 6 128459896.38906      1530.069 6        38.715                                    24445101.383 5 100098610.08205      1192.259 5        30.641    24445102.051 5 100098613.07605      1192.379 5        35.829
C23        13.000                                                                                                                                    23935929.210 7 124640716.23107      -366.273 7        46.759                                                                    23935920.857 7 101280783.88007      -297.651 7        47.912
S36        14.000    38341529.513 7 201486636.78807      -456.760 7        44.287
C13        15.000                                                                                                                                    37894658.773 7 197327493.08207      -879.224 7        44.850    37894660.193 7 152586168.98107      -679.779 7        45.255    37894658.715 7 160344774.64707      -714.536 7        43.445
G18        16.000    21237296.379 7 111602978.00807     -2174.181 7        47.466                                    21237292.413 6  86963457.32606     -1694.168 6        38.937    21237292.481 7  86963465.33407     -1694.145 7        46.950
R10        17.000    20320547.132 7 108319986.20407      -121.701 7        47.641
E27        18.000    27833349.164 6 146265240.45906      2334.905 6        38.610                                                                    27833350.036 6 109224043.07406      1743.597 6        41.695    27833349.379 7 112073363.66007      1789.121 7        42.311
E02        19.000    24327479.017 7 127841953.36607     -2474.331 7        47.698                                                                    24327477.951 8  95466503.54908     -1847.746 8        49.916    24327477.522 8  97956919.13808     -1895.914 8        50.045
S27        20.000    39332346.373 6 206692874.68806      -430.284 6        36.476
R11        21.000    23225076.420 7 124107783.06107      3295.659 7        43.898                                                                    23225075.919 7  96528277.90507      2563.139 7        42.351
I06        22.000    38833067.308 6 152389518.63206      -303.224 6        41.735
S28        23.000    41043493.011 5 215685003.77605      -451.293 5        34.233
E04        24.000    28570033.710 6 150136528.87806       793.914 6        36.522                                                                    28570032.908 6 112114940.99706       592.704 6        39.441    28570032.455 6 115039674.40906       608.324 6        39.757
S23        25.000    38297444.560 7 201254360.91607      -459.122 7        45.327
S45        26.000    63554056.952 6 333979520.17106      -511.766 6        37.966
R09        27.000    20705751.823 8 110567761.98608     -3596.319 8        51.251                                                                    20705749.744 7  85997259.80607     -2797.086 7        47.326
R18        28.000    23193150.462 7 123806900.04207     -3888.585 7        43.536                                                                    23193151.161 6  96294405.97306     -3024.403 6        40.656
C38        29.000                                                                                                                                    39417178.429 6 205255711.39106     -1462.636 6        41.538                                                                    39417176.055 7 166787123.42807     -1188.753 7        42.241
C44        30.000                                                                                                                                    24642421.841 7 128319773.99507     -3070.643 7        44.149                                                                    24642420.602 7 104270411.48707     -2495.210 7        44.170
C43        31.000                                                                                                                                    22921993.071 8 119360934.01108      1407.314 8        48.371                                                                    22921992.101 8  96990577.26708      1143.483 8        48.103
R02        32.000    24087354.563 7 128534742.10007     -3006.513 7        42.895                                                                    24087355.565 6  99971469.83006     -2338.354 6        39.964
I02        33.000    39407984.238 6 154645450.68406      -979.349 6        40.632
R03        34.000    22311395.145 7 119434680.77007       182.263 7        47.609                                                                    22311393.151 7  92893642.39207       141.712 7        42.747
E34        35.000    24007066.434 8 126158190.02808       905.498 8        48.768                                                                    24007066.357 8  94209148.24508       676.103 8        50.713    24007066.266 8  96666767.05008       693.845 8        51.295
G29        36.000    24265780.228 6 127517821.45306     -3567.732 6        40.601                                    24265776.708 5  99364643.65605     -2780.049 5        34.481    24265777.020 6  99364653.64806     -2780.066 6        37.554
G31        37.000    25672257.883 6 134908809.85106     -3776.842 6        38.426                                    25672256.794 4 105123835.60704     -2942.991 4        28.635    25672256.754 5 105123841.60605     -2943.008 5        34.571
C22        38.000                                                                                                                                    24849438.947 7 129397580.06707      -579.432 7        43.972                                                                    24849433.796 7 105146116.87507      -470.896 7        44.752
C12        40.000                                                                                                                                    23094443.660 7 120259036.16307     -2357.793 7        46.112    23094440.124 8  92992012.57508     -1823.128 8        50.456    23094439.252 8  97720391.40508     -1915.927 8        48.591
R04        41.000    22923521.355 7 122754435.36507      3055.413 7        43.156                                                                    22923521.133 6  95475675.70806      2376.383 6        41.585
S44        42.000    40623194.582 6 213476509.76106      -421.059 6        37.788
G08        43.000    24702198.243 6 129810964.57306      2877.793 6        38.447                                    24702200.151 4 101151427.07604      2242.434 4        26.982    24702200.293 5 101151425.10405      2242.668 5        32.569
C05        44.000                                                                                                                                    39427610.131 6 205309946.27606      -386.721 6        38.132    39427605.518 7 158758696.77807      -298.906 7        42.394    39427607.610 6 166831251.28306      -314.179 6        40.393
C11        45.000                                                                                                                                    21880734.040 8 113938870.41208       283.984 8        48.286    21880730.734 8  88104822.63308       219.562 8        52.234    21880729.755 8  92584705.00008       230.658 8        49.452
G07        47.000    25706678.085 6 135089517.46506      1115.582 6        38.886                                    25706674.584 5 105264545.52405       869.274 5        30.302    25706674.380 5 105264553.53105       869.138 5        35.395
C21        48.000                                                                                                                                    24995908.441 7 130160277.13907      1969.968 7        44.039                                                                    24995903.998 7 105765872.92107      1600.646 7        45.968
R19        50.000    20323508.722 6 108717334.41706     -2482.188 6        39.874                                                                    20323507.969 7  84558040.58307     -1930.614 7        44.387
S48        51.000    77306204.983 6 406247765.91206      -496.608 6        37.917
C08        52.000                                                                                                                                    38117414.924 6 198487486.67106     -1154.308 6        41.449    38117408.617 7 153483145.38507      -892.551 7        45.413    38117407.958 7 161287360.06307      -937.944 7        42.246
C34        53.000                                                                                                                                    21584931.000 8 112398683.43708      -993.660 8        50.969                                                                    21584930.583 8  91333254.24308      -807.496 8        49.742
C60        54.000                                                                                                                                    40623195.188 6 211535833.61706      -417.161 6        40.412                                                                    40623179.418 6 171890160.56206      -339.094 6        40.119
C25        55.000                                                                                                                                    23842192.458 7 124152796.30707     -3116.396 7        46.836                                                                    23842190.800 7 100884409.47807     -2532.428 7        46.599
I09        56.000    39595472.911 6 155381157.90406       467.113 6        41.731
C02        57.000                                                                                                                                    40766854.997 5 212283754.40205      -376.058 5        34.200    40766848.971 6 164151256.75206      -291.010 6        38.510    40766852.732 6 172497941.06906      -305.897 6        36.200
I03        58.000    82919129.601 6 249607221.11606      1107.033 6        40.939
E30        59.000    24401643.271 8 128231720.36608       394.184 8        48.082                                                                    24401643.100 8  95757573.30508       294.363 8        50.598    24401642.584 8  98255580.23808       302.073 8        51.125
R20        60.000    20626814.897 6 110301052.16606      1547.207 6        40.770                                                                    20626817.031 7  85789775.37607      1203.375 7        46.918
> 2025 01 02 18 45 40.0000000  0 56
G23         1.000    21544787.108 7 113218700.52407      1455.712 7        47.596                                    21544783.452 6  88222386.68606      1134.319 6        37.399    21544783.438 7  88222384.68707      1134.263 7        45.383
E11         2.000    27701749.740 5 145573872.66405     -3222.212 5        35.248                                                                    27701746.699 6 108707885.95706     -2406.281 6        38.174    27701746.146 6 111543730.23006     -2469.245 6        37.603
G16         3.000    20653395.866 8 108534535.58808      -266.004 8        48.978                                    20653391.073 6  84572450.57206      -207.277 6        40.417
G05         4.000    25290135.979 6 132900635.89106     -3868.071 6        36.775                                    25290133.582 4 103558955.88704     -3014.073 4        27.186    25290134.131 5 103558954.89205     -3013.976 5        34.829
S21         5.000    38571810.192 7 202695911.46807      -457.588 7        42.576
G26         6.000    21339916.857 8 112142259.00808     -2535.250 8        48.519                                    21339915.750 8  87383710.78808     -1975.520 8        48.634    21339915.953 7  87383697.78907     -1975.498 7        44.370
G10         7.000    23783350.594 7 124982403.05007      3046.169 7        42.927                                    23783349.499 6  97388897.92406      2373.638 6        39.096    23783350.273 6  97388891.94606      2373.421 6        39.832
E15         8.000    27925226.704 6 146748121.70206      2327.738 6        38.835                                                                    27925229.917 6 109584692.38806      1738.283 6        41.516    27925229.027 6 112443412.76906      1783.536 6        41.580
E36         9.000    24036744.526 7 126314139.83807     -1788.281 7        47.435                                                                    24036745.197 8  94325637.92308     -1335.455 8        50.480    24036744.877 8  96786293.97708     -1370.297 8        51.080
G27        10.000    21816819.203 7 114648303.37407      2107.379 7        45.952                                    21816818.131 7  89336408.52007      1642.115 7        45.737    21816818.748 7  89336410.51007      1642.201 7        42.764
G15        11.000    24443648.935 6 128452250.94806      1527.937 6        39.769                                    24443646.483 5 100092652.60505      1190.600 5        30.770    24443646.272 6 100092655.60006      1190.760 6        36.079
C23        13.000                                                                                                                                    23936282.225 7 124642554.14707      -368.885 7        46.983                                                                    23936273.818 8 101282277.35608      -299.675 8        48.092
S36        14.000    38341963.829 7 201488920.15107      -456.533 7        44.233
C13        15.000                                                                                                                                    37895503.382 7 197331890.26907      -879.673 7        45.135    37895504.715 7 152589569.17807      -680.278 7        44.751    37895503.174 7 160348347.74107      -714.714 7        43.611
G18        16.000    21239365.828 7 111613853.30807     -2175.973 7        47.452                                    21239361.906 6  86971931.58606     -1695.562 6        38.892    21239362.219 7  86971939.59207     -1695.575 7        47.586
R10        17.000    20320663.052 7 108320605.76407      -126.123 7        47.237
E27        18.000    27831127.705 6 146253566.95506      2334.507 6        38.964                                                                    27831128.604 6 109215325.84206      1743.331 6        41.621    27831128.081 7 112064419.02507      1788.873 7        42.432
E02        19.000    24329834.067 7 127854329.01807     -2475.911 7        47.796                                                                    24329832.944 8  95475745.10708     -1848.872 8        49.907    24329832.552 8  97966401.77808     -1897.076 8        50.047
S27        20.000    39332757.923 6 206695025.28606      -430.179 6        36.178
R11        21.000    23221993.680 7 124091311.09907      3293.458 7        43.945                                                                    23221993.388 7  96515466.36707      2561.470 7        42.324
I06        22.000    38833453.973 7 152391034.41007      -303.037 7        42.008
S28        23.000    41043920.552 5 215687260.45105      -451.506 5        34.443
E04        24.000    28569279.314 6 150132564.32906       792.085 6        36.340                                                                    28569278.308 6 112111980.46106       591.516 6        39.438    28569277.984 6 115036636.64906       606.775 6        39.270
S23        25.000    38297881.804 7 201256655.80507      -458.899 7        45.123
S45        26.000    63554490.901 6 333982077.68406      -511.295 6        37.747
R09        27.000    20709120.049 8 110585750.91008     -3599.224 8        50.952                                                                    20709119.067 7  86011251.18807     -2799.471 7        47.512
R18        28.000    23196792.327 7 123826342.72507     -3888.427 7        43.213                                                                    23196793.555 6  96309528.04406     -3024.416 6        41.077
C38        29.000                                                                                                                                    39418582.796 6 205263025.66206     -1463.057 6        41.726                                                                    39418580.726 7 166793066.88807     -1188.722 7        42.514
C44        30.000                                                                                                                                    24645370.386 7 128335128.02007     -3070.875 7        43.839                                                                    24645369.223 7 104282887.89507     -2495.236 7        44.441
C43        31.000                                                                                                                                    22920642.272 8 119353899.76908      1406.409 8        48.496                                                                    22920641.273 8  96984861.38308      1142.933 8        48.282
R02        32.000    24090173.320 7 128549782.02907     -3009.568 7        43.022                                                                    24090173.626 6  99983167.58206     -2340.847 6        40.002
I02        33.000    39409231.308 6 154650347.31206      -979.363 6        40.760
R03        34.000    22311226.593 7 119433780.46107       177.957 7        47.497                                                                    22311225.897 7  92892942.15007       138.439 7        43.611
E34        35.000    24006205.472 8 126153666.05908       904.146 8        48.873                                                                    24006205.509 8  94205769.95908       675.155 8        50.680    24006205.399 8  96663300.63808       692.733 8        51.206
G29        36.000    24269175.322 6 127535661.55606     -3568.259 6        40.982                                    24269171.720 5  99378545.02905     -2780.461 5        34.752    24269172.819 6  99378555.03506     -2780.536 6        37.958
G31        37.000    25675850.936 6 134927691.98106     -3775.970 6        38.940                                    25675850.060 4 105138548.91904     -2942.306 4        28.436    25675850.370 5 105138554.91805     -2942.364 5        34.343
C22        38.000                                                                                                                                    24849996.847 7 129400483.91307      -582.134 7        44.448                                                                    24849991.488 7 105148476.51907      -473.034 7        44.930
C12        40.000                                                                                                                                    23096707.622 7 120270826.75707     -2358.523 7        46.361    23096704.152 8  93001129.82208     -1823.750 8        50.108    23096703.538 8  97729972.26008     -1916.491 8        48.685
R04        41.000    22920669.200 7 122739163.12807      3053.528 7        43.077                                                                    22920668.854 6  95463797.32106      2374.939 6        41.690
S44        42.000    40623593.969 6 213478614.38706      -420.994 6        37.664
G08        43.000    24699459.830 6 129796575.17106      2877.964 6        38.063                                    24699461.885 4 101140214.58604      2242.563 4        26.958    24699462.586 5 101140212.57905      2242.462 5        32.898
C05        44.000                                                                                                                                    39427981.436 6 205311878.78706      -386.486 6        38.222    39427976.703 7 158760191.12907      -298.831 7        42.311    39427978.706 6 166832821.63206      -313.846 6        40.453
C11        45.000                                                                                                                                    21880461.849 8 113937453.74108       282.673 8        48.429    21880458.792 8  88103727.17008       218.558 8        52.071    21880457.700 8  92583553.84908       229.761 8        49.600
G07        47.000    25705617.192 6 135083944.49506      1113.484 6        38.736                                    25705614.000 5 105260202.93805       867.653 5        30.000    25705613.946 5 105260210.94405       867.684 5        35.233
C21        48.000                                                                                                                                    24994017.965 7 130150430.83907      1968.561 7        44.268                                                                    24994013.095 7 105757872.01407      1599.647 7        45.967
R19        50.000    20325829.250 6 108729749.41106     -2483.682 6        40.107                                                                    20325828.453 7  84567696.68807     -1931.761 7        44.259
S48        51.000    77306647.607 6 406250248.48206      -496.311 6        37.909
C08        52.000                                                                                                                                    38118523.441 6 198493259.22606     -1154.768 6        41.492    38118517.305 7 153487609.09407      -892.935 7        45.318    38118516.485 7 161292050.76207      -938.363 7        42.419
C34        53.000                                                                                                                                    21585885.742 8 112403654.94908      -994.965 8        51.033                                                                    21585885.348 8  91337294.02408      -808.472 8        49.941
C60        54.000                                                                                                                                    40623595.881 6 211537919.08906      -416.941 6        40.448                                                                    40623579.799 6 171891855.19506      -338.872 6        40.329
C25        55.000                                                                                                                                    23845185.588 7 124168381.98207     -3117.818 7        47.409                                                                    23845183.975 7 100897074.13207     -2533.385 7        46.750
I09        56.000    39594878.159 6 155378822.26606       467.175 6        41.683
C02        57.000                                                                                                                                    40767216.528 5 212285636.01205      -376.228 5        34.181    40767210.533 6 164152711.72006      -290.773 6        38.408    40767213.998 6 172499470.05506      -305.867 6        36.325
I03        58.000    82917718.980 6 249601685.76706      1107.195 6        41.151
E30        59.000    24401269.246 8 128229753.87308       392.356 8        48.148                                                                    24401268.843 8  95756104.82408       293.030 8        50.582    24401268.373 8  98254073.45208       300.621 8        51.001
R20        60.000    20625369.098 6 110293320.81206      1545.349 6        40.880                                                                    20625370.932 7  85783762.09707      1201.870 7        46.515
> 2025 01 02 18 45 45.0000000  0 56
G23         1.000    21543403.564 7 113211429.87107      1452.848 7        47.384                                    21543399.812 6  88216721.24706      1132.091 6        37.440    21543399.884 7  88216719.25307      1132.036 7        45.124
E11         2.000    27704816.080 5 145589985.35605     -3222.349 5        35.257                                                                    27704813.164 6 108719918.17406     -2406.538 6        38.159    27704812.459 6 111556076.31406     -2469.186 6        37.739
G16         3.000    20653650.595 8 108535874.80908      -269.534 8        48.653                                    20653645.933 6  84573494.12206      -210.025 6        40.367
G05         4.000    25293816.451 6 132919980.36706     -3869.617 6        36.454                                    25293814.697 4 103574029.46504     -3015.273 4        26.790    25293815.105 5 103574028.43605     -3015.124 5        34.510
S21         5.000    38572246.694 7 202698199.71407      -457.653 7        42.427
G26         6.000    21342330.414 8 112154942.18808     -2537.955 8        48.588                                    21342329.290 8  87393593.78208     -1977.627 8        48.623    21342329.538 7  87393580.78507     -1977.634 7        44.612
G10         7.000    23780452.725 7 124967174.98607      3045.168 7        42.540                                    23780451.838 6  97377031.90906      2372.856 6        38.865    23780451.801 6  97377025.91906      2373.061 6        39.694
E15         8.000    27923012.037 6 146736484.58906      2327.141 6        38.787                                                                    27923015.321 6 109576002.35706      1737.894 6        41.502    27923014.296 6 112434496.03506      1783.223 6        41.492
E36         9.000    24038446.911 7 126323085.41407     -1789.810 7        47.325                                                                    24038447.474 8  94332318.05808     -1336.500 8        50.467    24038447.156 8  96793148.37408     -1371.373 8        51.103
G27        10.000    21814815.182 7 114637770.46407      2105.871 7        45.604                                    21814813.789 7  89328201.06507      1640.935 7        45.728    21814814.344 7  89328203.06507      1640.926 7        42.980
G15        11.000    24442196.372 6 128444617.29606      1525.607 6        39.249                                    24442193.778 5 100086704.30505      1188.786 5        30.521    24442193.673 6 100086707.30506      1188.639 6        36.129
C23        13.000                                                                                                                                    23936637.863 7 124644406.28407      -371.831 7        47.079                                                                    23936629.577 8 101283782.37908      -302.166 8        48.006
S36        14.000    38342400.335 7 201491203.98707      -456.709 7        44.220
C13        15.000                                                                                                                                    37896348.716 7 197336291.23807      -880.529 7        45.061    37896349.753 7 152592972.28407      -680.914 7        44.837    37896348.221 7 160351923.90107      -715.626 7        43.407
G18        16.000    21241437.144 7 111624738.53007     -2178.028 7        47.280                                    21241433.283 6  86980413.57706     -1697.168 6        38.871    21241433.644 7  86980421.58007     -1697.151 7        47.487
R10        17.000    20320783.430 7 108321248.37607      -130.855 7        47.261
E27        18.000    27828907.404 6 146241896.65206      2333.715 6        38.892                                                                    27828907.812 6 109206611.02306      1742.623 6        41.740    27828907.410 7 112055476.86107      1788.198 7        42.563
E02        19.000    24332190.904 7 127866713.32107     -2477.650 7        47.823                                                                    24332189.598 8  95484993.12408     -1850.226 8        49.897    24332189.165 8  97975891.05808     -1898.518 8        50.111
S27        20.000    39333165.806 6 206697175.54606      -429.962 6        36.144
R11        21.000    23218913.433 7 124074849.90407      3291.268 7        44.108                                                                    23218913.001 7  96502663.21007      2559.802 7        42.510
I06        22.000    38833840.042 6 152392549.98506      -303.020 6        41.831
S28        23.000    41044351.808 5 215689517.35405      -451.492 5        34.162
E04        24.000    28568526.638 5 150128609.67305       789.884 5        35.995                                                                    28568525.811 6 112109027.31206       589.843 6        39.180    28568525.391 6 115033606.46206       605.130 6        39.204
S23        25.000    38298318.141 7 201258950.58807      -458.972 7        45.193
S45        26.000    63554928.874 6 333984635.23706      -511.654 6        37.743
R09        27.000    20712491.329 8 110603755.75408     -3602.553 8        51.071                                                                    20712490.445 7  86025254.95207     -2801.964 7        47.321
R18        28.000    23200434.460 7 123845785.96307     -3888.777 7        42.772                                                                    23200435.559 6  96324650.56506     -3024.550 6        41.206
C38        29.000                                                                                                                                    39419987.955 6 205270342.43506     -1463.599 6        41.685                                                                    39419985.874 7 166799012.36407     -1189.316 7        42.353
C44        30.000                                                                                                                                    24648319.136 7 128350484.22007     -3071.504 7        43.956                                                                    24648318.307 7 104295366.06007     -2495.791 7        44.311
C43        31.000                                                                                                                                    22919292.660 8 119346871.14308      1405.159 8        48.526                                                                    22919291.493 8  96979150.05608      1141.780 8        48.319
R02        32.000    24092994.196 7 128564838.19907     -3012.863 7        43.100                                                                    24092995.178 6  99994877.91806     -2343.331 6        39.559
I02        33.000    39410479.960 6 154655244.38006      -979.473 6        40.560
R03        34.000    22311062.764 7 119432901.54507       173.609 7        47.891                                                                    22311061.766 7  92892258.55407       135.128 7        42.717
E34        35.000    24005346.276 8 126149150.05408       902.399 8        48.939                                                                    24005346.209 8  94202397.62208       673.838 8        50.748    24005345.996 8  96659840.32808       691.446 8        51.303
G29        36.000    24272570.714 6 127553504.95806     -3569.031 6        40.577                                    24272567.376 5  99392448.96905     -2781.062 5        34.633    24272567.578 6  99392458.96306     -2781.040 6        38.132
G31        37.000    25679443.441 6 134946571.94306     -3775.735 6        38.685                                    25679442.959 4 105153260.54104     -2942.121 4        28.673    25679443.079 5 105153266.53505     -2942.224 5        34.348
C22        38.000                                                                                                                                    24850557.501 7 129403402.26607      -585.052 7        44.394                                                                    24850551.867 7 105150847.93007      -475.510 7        44.855
C12        40.000                                                                                                                                    23098973.568 7 120282622.02007     -2359.470 7        46.465    23098969.275 8  93010250.65808     -1824.514 8        49.934    23098968.704 8  97739556.87708     -1917.350 8        48.687
R04        41.000    22917818.609 7 122723900.91807      3051.461 7        43.617                                                                    22917819.013 6  95451926.70906      2373.389 6        41.924
S44        42.000    40623991.921 6 213480719.13906      -420.967 6        37.565
G08        43.000    24696721.407 6 129782186.75206      2877.531 6        38.381                                    24696723.902 4 101129002.85804      2242.237 4        27.186    24696724.109 5 101129000.84905      2242.422 5        33.245
C05        44.000                                                                                                                                    39428352.881 6 205313811.30006      -386.515 6        38.201    39428347.776 7 158761685.48107      -298.907 7        42.320    39428349.958 6 166834391.97706      -314.043 6        40.422
C11        45.000                                                                                                                                    21880191.099 8 113936044.22608       281.196 8        48.486    21880188.147 8  88102637.24508       217.430 8        52.091    21880186.995 8  92582408.50508       228.460 8        49.579
G07        47.000    25704559.657 6 135078383.38306      1111.084 6        38.111                                    25704555.728 5 105255869.56205       865.785 5        30.000    25704556.710 5 105255877.54105       865.916 5        35.529
C21        48.000                                                                                                                                    24992129.045 7 130140593.08607      1966.810 7        44.454                                                                    24992123.882 7 105749878.04507      1598.069 7        45.843
R19        50.000    20328152.494 6 108742172.90206     -2485.457 6        40.167                                                                    20328151.460 7  84577359.40407     -1933.186 7        44.909
S48        51.000    77307091.814 6 406252731.25706      -496.851 6        37.618
C08        52.000                                                                                                                                    38119632.406 6 198499035.55206     -1155.548 6        41.411    38119626.324 7 153492075.72307      -893.624 7        45.190    38119625.766 7 161296744.49907      -939.062 7        42.404
C34        53.000                                                                                                                                    21586841.882 8 112408633.84208      -996.476 8        51.014                                                                    21586841.455 8  91341339.78108      -809.780 8        49.902
C60        54.000                                                                                                                                    40623996.396 6 211540004.71806      -417.109 6        40.393                                                                    40623980.438 6 171893549.93206      -338.931 6        40.131
C25        55.000                                                                                                                                    23848180.363 7 124183975.45907     -3119.413 7        47.089                                                                    23848178.492 7 100909745.11407     -2534.849 7        46.708
I09        56.000    39594282.863 6 155376486.81106       467.137 6        41.642
C02        57.000                                                                                                                                    40767578.559 5 212287517.66705      -376.132 5        34.543    40767571.791 6 164154166.74206      -291.061 6        38.483    40767575.256 6 172500999.04906      -305.835 6        36.454
I03        58.000    82916308.225 6 249596150.49506      1107.002 6        41.306
E30        59.000    24400897.080 7 128227797.71707       390.188 7        47.983                                                                    24400896.662 8  95754644.05908       291.410 8        50.525    24400896.112 8  98252574.58008       298.978 8        51.045
R20        60.000    20623925.606 6 110285599.83306      1543.154 6        40.968                                                                    20623927.367 7  85777756.90307      1200.193 7        46.734
> 2025 01 02 18 45 50.0000000  0 56
G23         1.000    21542022.684 7 113204173.32107      1450.109 7        47.205                                    21542018.863 6  88211066.79106      1129.949 6        37.335    21542019.596 7  88211064.80207      1129.911 7        45.351
E11         2.000    27707882.318 5 145606098.36205     -3222.368 5        35.076                                                                    27707879.103 6 108731950.61306     -2406.589 6        38.006    27707878.742 6 111568422.64506     -2469.117 6        37.724
G16         3.000    20653908.632 8 108537230.73808      -272.675 8        48.977                                    20653903.977 6  84574550.69106      -212.474 6        40.205
G05         4.000    25297498.809 6 132939331.75306     -3870.810 6        36.707                                    25297497.302 4 103589108.43004     -3016.221 4        25.985    25297496.906 5 103589107.42305     -3015.966 5        34.386
S21         5.000    38572679.922 7 202700487.92807      -457.415 7        42.506
G26         6.000    21344746.320 8 112167638.29708     -2540.342 8        48.531                                    21344745.290 8  87403486.85208     -1979.489 8        48.460    21344745.747 7  87403473.84507     -1979.433 7        44.719
G10         7.000    23777555.951 7 124951951.09507      3044.611 7        42.737                                    23777554.965 6  97365169.14606      2372.420 6        38.826    23777554.814 6  97365163.15906      2372.445 6        40.100
E15         8.000    27920797.850 6 146724850.13006      2326.801 6        39.180                                                                    27920801.198 6 109567314.31106      1737.593 6        41.459    27920800.239 6 112425581.33606      1782.874 6        41.402
E36         9.000    24040150.695 7 126332037.62107     -1790.970 7        47.412                                                                    24040151.026 8  94339003.14808     -1337.392 8        50.521    24040150.687 8  96800007.85708     -1372.292 8        51.185
G27        10.000    21812812.531 7 114627244.30107      2104.674 7        46.120                                    21812810.757 7  89319998.86507      1640.005 7        45.601    21812810.775 7  89320000.87307      1639.955 7        42.952
G15        11.000    24440745.268 6 128436995.34406      1523.424 6        38.949                                    24440743.148 5 100080765.11605      1187.078 5        30.241    24440743.023 5 100080768.11605      1187.029 5        35.800
C23        13.000                                                                                                                                    23936996.206 7 124646272.54307      -374.474 7        47.059                                                                    23936987.929 8 101285298.86908      -304.311 8        48.080
S36        14.000    38342833.671 7 201493487.50107      -456.301 7        44.126
C13        15.000                                                                                                                                    37897194.537 7 197340695.82107      -881.041 7        45.058    37897195.772 7 152596378.18307      -681.251 7        44.728    37897194.121 7 160355502.98307      -716.027 7        43.623
G18        16.000    21243510.276 7 111635633.55007     -2179.730 7        47.326                                    21243506.533 6  86988903.20206     -1698.491 6        38.742    21243506.729 7  86988911.20707     -1698.552 7        47.505
R10        17.000    20320908.647 7 108321913.82407      -135.163 7        47.162
E27        18.000    27826687.205 6 146230229.44606      2333.328 6        38.988                                                                    27826687.818 6 109197898.49706      1742.354 6        41.900    27826687.190 7 112046537.05607      1787.848 7        42.366
E02        19.000    24334549.100 7 127879106.18207     -2479.248 7        47.941                                                                    24334547.958 8  95494247.52908     -1851.365 8        49.957    24334547.406 8  97985386.87408     -1899.683 8        50.103
S27        20.000    39333572.263 6 206699326.04106      -430.215 6        36.197
R11        21.000    23215835.363 7 124058399.34207      3289.341 7        44.950                                                                    23215834.566 7  96489868.33507      2558.219 7        43.291
I06        22.000    38834225.983 6 152394065.31006      -302.923 6        41.802
S28        23.000    41044777.985 5 215691774.37005      -451.519 5        33.689
E04        24.000    28567775.395 5 150124664.82905       788.202 5        35.871                                                                    28567775.000 6 112106081.48106       588.676 6        38.655    28567774.808 6 115030583.77406       603.988 6        38.838
S23        25.000    38298754.571 7 201261245.36707      -458.790 7        45.043
S45        26.000    63555363.113 6 333987192.68906      -511.385 6        37.580
R09        27.000    20715866.553 8 110621776.45508     -3605.600 8        51.183                                                                    20715865.461 7  86039271.04707     -2804.352 7        47.637
R18        28.000    23204076.523 7 123865229.59607     -3888.654 7        42.781                                                                    23204078.021 6  96339773.38606     -3024.369 6        41.709
C38        29.000                                                                                                                                    39421393.601 6 205277661.57406     -1463.924 6        41.464                                                                    39421391.425 7 166804959.76607     -1189.540 7        42.425
C44        30.000                                                                                                                                    24651268.649 7 128365842.43607     -3071.677 7        44.194                                                                    24651267.690 7 104307845.87807     -2496.014 7        44.378
C43        31.000                                                                                                                                    22917943.902 8 119339848.01308      1404.268 8        48.367                                                                    22917942.744 8  96973443.19708      1141.048 8        48.241
R02        32.000    24095818.931 7 128579910.51707     -3015.907 7        42.210                                                                    24095818.996 6 100006600.81906     -2345.608 6        38.820
I02        33.000    39411727.482 6 154660141.67506      -979.241 6        40.543
R03        34.000    22310903.348 8 119432044.06708       169.520 8        48.036                                                                    22310900.854 7  92891591.62607       131.874 7        43.054
E34        35.000    24004488.202 8 126144641.88908       901.025 8        48.825                                                                    24004488.273 8  94199031.13508       672.868 8        50.776    24004488.141 8  96656386.02108       690.388 8        51.303
G29        36.000    24275966.526 6 127571351.54406     -3569.491 6        39.844                                    24275963.596 5  99406355.39805     -2781.421 5        34.114    24275964.651 6  99406365.38106     -2781.213 6        38.258
G31        37.000    25683035.823 6 134965449.55906     -3775.054 6        39.366                                    25683035.389 4 105167970.33004     -2941.590 4        28.711    25683035.206 5 105167976.33405     -2941.777 5        34.524
C22        38.000                                                                                                                                    24851120.669 7 129406335.02407      -587.838 7        44.473                                                                    24851115.056 7 105153231.04207      -477.670 7        44.864
C12        40.000                                                                                                                                    23101239.591 7 120294421.85507     -2360.225 7        46.148    23101235.295 8  93019375.03808     -1825.117 8        49.647    23101234.702 8  97749145.20508     -1917.823 8        48.745
R04        41.000    22914971.397 7 122708648.49907      3049.708 7        44.220                                                                    22914970.828 7  95440063.72707      2371.937 7        42.140
S44        42.000    40624393.111 6 213482823.92406      -420.660 6        37.539
G08        43.000    24693983.726 6 129767799.19606      2877.600 6        37.992                                    24693986.106 4 101117791.79904      2242.276 4        27.174    24693987.170 5 101117789.85005      2242.280 5        33.563
C05        44.000                                                                                                                                    39428723.587 6 205315743.75306      -386.336 6        38.081    39428718.697 7 158763179.76507      -298.736 7        42.148    39428721.062 6 166835962.24506      -314.005 6        40.393
C11        45.000                                                                                                                                    21879922.080 8 113934641.79608       279.935 8        48.353    21879918.982 8  88101552.79108       216.491 8        52.049    21879917.683 8  92581268.91808       227.477 8        49.656
G07        47.000    25703503.370 6 135072834.08206      1108.942 6        38.784                                    25703499.705 4 105251545.39004       864.112 4        29.810    25703500.021 5 105251553.38705       864.058 5        34.948
C21        48.000                                                                                                                                    24990240.903 7 130130763.79507      1965.219 7        44.179                                                                    24990236.047 7 105741890.93407      1596.891 7        45.670
R19        50.000    20330476.709 6 108754604.72106     -2487.011 6        40.083                                                                    20330475.289 7  84587028.58407     -1934.285 7        44.685
S48        51.000    77307535.801 6 406255213.83506      -496.595 6        37.675
C08        52.000                                                                                                                                    38120742.150 6 198504815.50806     -1156.232 6        41.318    38120736.074 7 153496545.14107      -894.011 7        44.995    38120735.786 7 161301441.19407      -939.547 7        42.453
C34        53.000                                                                                                                                    21587799.319 8 112413619.98308      -997.738 8        50.816                                                                    21587798.988 8  91345391.43008      -810.773 8        49.896
C60        54.000                                                                                                                                    40624396.798 6 211542090.36906      -416.921 6        40.374                                                                    40624380.912 6 171895244.71006      -338.973 6        40.315
C25        55.000                                                                                                                                    23851176.118 7 124199576.62007     -3120.887 7        46.789                                                                    23851174.549 7 100922422.32607     -2535.995 7        46.678
I09        56.000    39593688.010 6 155374151.44106       467.289 6        41.485
C02        57.000                                                                                                                                    40767939.415 5 212289399.34705      -376.249 5        34.243    40767932.843 6 164155621.77606      -290.990 6        38.390    40767936.653 6 172502528.05806      -305.482 6        36.306
I03        58.000    82914897.852 6 249590615.22806      1107.097 6        41.299
E30        59.000    24400526.706 8 128225851.76808       388.359 8        48.164                                                                    24400526.354 8  95753190.91708       290.016 8        50.647    24400525.834 8  98251083.52808       297.569 8        51.119
R20        60.000    20622483.119 6 110277889.08406      1541.260 6        40.458                                                                    20622485.381 7  85771759.64707      1198.811 7        46.520
> 2025 01 02 18 45 55.0000000  0 56
G23         1.000    21540644.430 7 113196930.66107      1447.136 7        47.959                                    21540640.584 6  88205423.16206      1127.639 6        37.180    21540641.173 7  88205421.15907      1127.694 7        45.707
E11         2.000    27710948.482 5 145622211.47805     -3222.812 5        35.500                                                                    27710945.401 6 108743983.09306     -2406.481 6        37.966    27710945.038 6 111580769.02106     -2469.289 6        38.039
G16         3.000    20654169.929 8 108538603.12908      -276.165 8        48.892                                    20654165.151 6  84575620.08806      -215.193 6        40.095
G05         4.000    25301182.172 6 132958689.74706     -3872.163 6        36.166                                    25301181.029 4 103604192.55904     -3017.261 4        25.805    25301180.701 5 103604191.57005     -3017.409 5        34.005
S21         5.000    38573115.651 7 202702775.92707      -457.698 7        42.447
G26         6.000    21347164.675 8 112180347.12408     -2542.965 8        48.714                                    21347163.709 8  87413389.83408     -1981.530 8        48.300    21347164.163 7  87413376.83707     -1981.629 7        44.643
G10         7.000    23774660.270 7 124936731.19207      3043.449 7        43.143                                    23774658.829 6  97353309.49106      2371.519 6        38.907    23774659.075 6  97353303.49606      2371.618 6        40.281
E15         8.000    27918584.147 6 146713218.09306      2326.107 6        39.126                                                                    27918587.690 6 109558628.05906      1737.086 6        41.268    27918586.840 6 112416668.48606      1782.335 6        41.533
E36         9.000    24041855.395 7 126340996.22307     -1792.388 7        47.594                                                                    24041855.838 8  94345693.01708     -1338.476 8        50.428    24041855.499 8  96806872.24308     -1373.385 8        51.276
G27        10.000    21810810.554 7 114616724.65607      2103.272 7        46.081                                    21810808.950 7  89311801.74207      1638.910 7        45.458    21810809.097 7  89311803.74807      1638.854 7        42.677
G15        11.000    24439297.393 6 128429384.88706      1520.782 6        39.108                                    24439294.749 4 100074834.88804      1185.027 4        29.848    24439294.381 5 100074837.87605      1185.245 5        34.810
C23        13.000                                                                                                                                    23937357.048 7 124648152.69207      -377.414 7        47.078                                                                    23937348.956 7 101286826.65807      -306.754 7        47.883
S36        14.000    38343269.256 7 201495770.12607      -456.461 7        44.256
C13        15.000                                                                                                                                    37898041.102 7 197345103.83807      -881.868 7        44.993    37898042.314 7 152599786.75007      -682.054 7        44.956    37898040.661 7 160359084.86107      -716.560 7        43.454
G18        16.000    21245585.428 7 111646538.14807     -2181.923 7        47.209                                    21245581.598 6  86997400.29006     -1700.195 6        38.685    21245581.949 7  86997408.28607     -1700.168 7        47.417
R10        17.000    20321037.879 7 108322601.84207      -139.908 7        47.348
E27        18.000    27824467.053 6 146218565.11606      2332.546 6        39.189                                                                    27824468.081 6 109189188.10606      1741.836 6        41.824    27824467.410 7 112037599.44007      1787.270 7        42.449
E02        19.000    24336909.020 8 127891507.34308     -2481.087 8        48.160                                                                    24336907.756 8  95503508.13808     -1852.781 8        49.897    24336907.215 8  97994889.06208     -1901.057 8        50.223
S27        20.000    39333982.942 6 206701476.83206      -430.253 6        36.261
R11        21.000    23212759.014 7 124041959.18407      3287.010 7        44.712                                                                    23212757.820 7  96477081.51607      2556.566 7        43.369
I06        22.000    38834612.249 6 152395580.17706      -303.045 6        41.588
S28        23.000    41045209.609 5 215694030.78405      -451.532 5        34.000
E04        24.000    28567026.898 6 150120729.58306       786.202 6        36.310                                                                    28567025.971 6 112103142.80206       587.070 6        38.856    28567026.022 6 115027568.43806       602.413 6        39.411
S23        25.000    38299191.408 7 201263539.75507      -458.795 7        45.208
S45        26.000    63555799.436 6 333988049.73716      -511.173 6        37.682
R09        27.000    20719244.330 8 110639812.70608     -3608.800 8        50.722                                                                    20719242.920 7  86053299.23407     -2806.849 7        47.384
R18        28.000    23207719.435 7 123884673.34507     -3888.811 7        42.836                                                                    23207720.735 6  96354896.31406     -3024.681 6        41.859
C38        29.000                                                                                                                                    39422799.369 6 205284982.87106     -1464.515 6        41.485                                                                    39422797.453 7 166810908.92407     -1190.085 7        42.370
C44        30.000                                                                                                                                    24654218.397 7 128381202.48507     -3072.140 7        44.144                                                                    24654217.360 7 104320327.18207     -2496.438 7        44.160
C43        31.000                                                                                                                                    22916596.050 8 119332830.16708      1403.036 8        48.320                                                                    22916595.042 8  96967740.63008      1140.082 8        48.168
R02        32.000    24098646.212 7 128594998.84107     -3019.269 7        42.408                                                                    24098646.559 6 100018336.22006     -2348.348 6        39.399
I02        33.000    39412975.684 6 154665038.93006      -979.342 6        40.510
R03        34.000    22310746.398 7 119431207.97907       165.132 7        47.903                                                                    22310744.901 7  92890941.33807       128.387 7        43.264
E34        35.000    24003631.788 8 126140141.34908       899.380 8        48.814                                                                    24003631.890 8  94195670.33908       671.577 8        50.654    24003631.702 8  96652937.54808       689.117 8        51.429
G29        36.000    24279362.971 6 127589201.10406     -3570.248 6        39.063                                    24279360.437 5  99420264.12805     -2782.008 5        33.629    24279360.421 6  99420274.11306     -2781.970 6        38.132
G31        37.000    25686627.994 6 134984324.65306     -3774.695 6        38.772                                    25686627.310 4 105182678.15704     -2941.311 4        28.834    25686627.632 5 105182684.15105     -2941.343 5        35.214
C22        38.000                                                                                                                                    24851686.570 7 129409281.96007      -590.857 7        44.342                                                                    24851680.895 7 105155625.66907      -480.127 7        44.670
C12        40.000                                                                                                                                    23103505.961 7 120306226.04707     -2361.273 7        46.098    23103502.220 8  93028502.77908     -1825.896 8        49.776    23103501.549 8  97758737.09008     -1918.763 8        48.512
R04        41.000    22912124.842 7 122693405.53407      3047.579 7        44.459                                                                    22912123.901 6  95428208.08106      2370.314 6        41.733
S44        42.000    40624795.387 6 213484928.51206      -420.743 6        37.652
G08        43.000    24691246.392 6 129753412.28706      2877.323 6        38.147                                    24691248.266 4 101106581.25504      2242.065 4        27.018    24691249.827 5 101106579.27105      2242.251 5        33.222
C05        44.000                                                                                                                                    39429094.249 6 205317675.84406      -386.438 6        37.996    39429089.873 7 158764673.77607      -298.764 7        42.263    39429092.024 6 166837532.22606      -313.902 6        40.286
C11        45.000                                                                                                                                    21879654.046 8 113933246.17908       278.390 8        48.198    21879651.032 8  88100473.60608       215.310 8        52.161    21879649.691 8  92580134.87908       226.180 8        49.463
G07        47.000    25702449.810 6 135067296.37406      1106.471 6        39.348                                    25702445.887 4 105247230.23204       862.191 4        29.649    25702446.279 5 105247238.21005       862.016 5        35.014
C21        48.000                                                                                                                                    24988355.196 7 130120942.71107      1963.311 7        44.238                                                                    24988349.943 7 105733910.51207      1595.380 7        45.371
R19        50.000    20332801.637 6 108767044.72306     -2488.809 6        40.541                                                                    20332800.533 7  84596704.14407     -1935.722 7        44.716
S48        51.000    77307982.932 6 406257695.97206      -496.380 6        37.599
C08        52.000                                                                                                                                    38121852.803 6 198510598.84806     -1157.039 6        41.399    38121846.611 7 153501017.17307      -894.682 7        44.947    38121846.389 7 161306140.62607      -940.263 7        42.195
C34        53.000                                                                                                                                    21588758.165 8 112418613.15208      -999.312 8        50.775                                                                    21588757.885 8  91349448.79708      -812.024 8        49.775
C60        54.000                                                                                                                                    40624797.241 6 211544175.84206      -417.108 6        40.317                                                                    40624781.417 6 171896939.32106      -338.855 6        40.167
C25        55.000                                                                                                                                    23854173.616 7 124215185.19807     -3122.455 7        46.958                                                                    23854171.986 7 100935105.57707     -2537.261 7        46.581
I09        56.000    39593092.705 6 155371816.01306       466.980 6        41.085
C02        57.000                                                                                                                                    40768300.485 5 212291280.72505      -375.939 5        34.024    40768294.289 6 164157076.58706      -291.037 6        38.604    40768297.795 6 172504056.87006      -306.038 6        36.174
I03        58.000    82913487.498 6 249585079.79306      1107.073 6        41.118
E30        59.000    24400158.090 8 128223915.81708       386.252 8        48.375                                                                    24400157.923 8  95751745.23708       288.376 8        50.529    24400157.424 8  98249600.13208       295.924 8        51.209
R20        60.000    20621043.660 6 110270188.29106      1539.236 6        40.799                                                                    20621044.799 7  85765770.14307      1197.168 7        45.974
> 2025 01 02 18 46  0.0000000  0 57
G23         1.000    21539269.037 7 113189702.47607      1444.335 7        47.562                                    21539265.117 6  88199790.80906      1125.453 6        37.206    21539265.703 7  88199788.81507      1125.447 7        45.339
E11         2.000    27714014.505 5 145638325.21105     -3222.909 5        35.457                                                                    27714011.724 6 108756016.07506     -2406.512 6        37.932    27714011.574 6 111593115.92806     -2469.418 6        38.222
G16         3.000    20654434.310 8 108539992.60808      -279.494 8        49.049                                    20654429.567 6  84576702.79806      -217.788 6        40.157
G05         4.000    25304867.429 6 132978054.87406     -3873.754 6        36.609                                    25304866.004 4 103619282.25804     -3018.498 4        26.000    25304866.602 5 103619281.26805     -3018.465 5        33.766
S21         5.000    38573550.641 7 202705064.32407      -457.598 7        42.552
G26         6.000    21349585.794 8 112193069.26108     -2545.669 8        48.353                                    21349584.654 8  87423303.18608     -1983.635 8        48.377    21349584.784 7  87423290.17707     -1983.646 7        44.737
G10         7.000    23771764.401 7 124921515.86607      3042.646 7        44.062                                    23771763.601 6  97341453.40706      2370.892 6        39.291    23771763.851 6  97341447.41406      2370.880 6        40.384
E15         8.000    27916371.380 6 146701589.07006      2325.757 6        38.832                                                                    27916374.823 6 109549944.06006      1736.706 6        41.173    27916373.969 6 112407757.95606      1781.988 6        41.638
E36         9.000    24043561.431 7 126349961.82407     -1793.651 7        47.462                                                                    24043561.929 8  94352388.10608     -1339.443 8        50.425    24043561.572 8  96813741.98808     -1374.344 8        51.375
G27        10.000    21808810.054 7 114606212.16607      2101.850 7        46.163                                    21808808.498 7  89303610.19507      1637.807 7        45.543    21808808.653 7  89303612.19607      1637.820 7        42.796
G15        11.000    24437851.844 6 128421786.48506      1518.555 6        39.012                                    24437848.765 4 100068914.06004      1183.288 4        29.915    24437849.546 5 100068917.04905      1183.332 5        35.786
C23        13.000                                                                                                                                    23937721.078 7 124650047.33207      -380.258 7        47.046                                                                    23937712.833 7 101288366.21707      -309.139 7        47.906
S36        14.000    38343702.793 7 201498053.03207      -456.583 7        44.236
C13        15.000                                                                                                                                    37898888.232 7 197349515.86007      -882.681 7        44.704    37898889.924 7 152603198.39007      -682.501 7        45.068    37898888.070 7 160362669.99607      -717.490 7        43.446
G18        16.000    21247662.456 7 111657452.89507     -2183.873 7        47.296                                    21247658.595 6  87005905.28906     -1701.718 6        38.691    21247658.808 7  87005913.28407     -1701.732 7        47.070
R10        17.000    20321171.557 7 108323313.40407      -144.497 7        47.334
E27        18.000    27822248.045 6 146206904.23906      2331.829 6        38.847                                                                    27822249.018 6 109180480.30006      1741.498 6        41.847    27822248.581 7 112028664.47607      1786.931 7        42.500
E02        19.000    24339270.392 8 127903917.42308     -2482.790 8        48.154                                                                    24339269.364 8  95512775.39608     -1854.030 8        49.817    24339268.773 8  98004398.08008     -1902.402 8        50.292
S27        20.000    39334394.648 6 206703627.55306      -429.962 6        36.299
R11        21.000    23209684.219 7 124025530.01607      3284.855 7        44.473                                                                    23209682.865 7  96464303.26507      2554.873 7        42.895
I06        22.000    38834998.062 6 152397095.05906      -302.874 6        41.669
S28        23.000    41045638.352 5 215696287.48905      -451.253 5        34.243
E04        24.000    28566280.420 6 150116804.50506       784.119 6        36.049                                                                    28566279.270 6 112100211.71906       585.645 6        38.294    28566279.186 6 115024560.89406       600.879 6        39.315
S23        25.000    38299628.103 7 201265834.40007      -458.827 7        45.223
S45        26.000    63556233.439 6 333990607.12006      -511.649 6        37.701
R09        27.000    20722624.946 8 110657865.07908     -3611.930 8        51.186                                                                    20722623.612 7  86067339.96007     -2809.312 7        46.961
R18        28.000    23211362.334 7 123904117.90507     -3888.909 7        42.980                                                                    23211363.255 6  96370019.85406     -3024.701 6        41.528
C38        29.000                                                                                                                                    39424206.194 6 205292306.89106     -1464.870 6        41.356                                                                    39424203.937 7 166816860.30407     -1190.690 7        42.271
C44        30.000                                                                                                                                    24657168.785 7 128396564.94407     -3072.542 7        44.218                                                                    24657167.421 7 104332810.44907     -2496.928 7        44.122
C43        31.000                                                                                                                                    22915249.398 8 119325818.19608      1401.927 8        48.122                                                                    22915248.498 8  96962042.84108      1139.019 8        48.148
R02        32.000    24101476.854 7 128610103.59707     -3022.428 7        42.523                                                                    24101477.723 6 100030084.37906     -2350.791 6        39.240
I02        33.000    39414223.776 6 154669936.85006      -979.393 6        40.455
R03        34.000    22310594.598 8 119430393.58608       160.793 8        48.165                                                                    22310592.525 7  92890307.91307       125.043 7        43.482
E34        35.000    24002777.003 8 126135649.02308       897.742 8        48.862                                                                    24002777.008 8  94192315.67808       670.438 8        50.673    24002776.799 8  96649495.37708       687.880 8        51.523
G29        36.000    24282760.545 6 127607054.19406     -3570.863 6        39.402                                    24282757.909 5  99434175.61205     -2782.488 5        33.371    24282757.877 6  99434185.60106     -2782.274 6        37.974
G31        37.000    25690219.190 6 135003197.77506     -3774.352 6        38.679                                    25690218.890 4 105197384.45104     -2941.042 4        28.900    25690219.546 5 105197390.45405     -2941.093 5        34.462
C22        38.000                                                                                                                                    24852255.328 7 129412243.64907      -593.812 7        43.801                                                                    24852249.622 7 105158032.28607      -482.546 7        44.590
C12        40.000                                                                                                                                    23105773.689 7 120318035.15607     -2362.214 7        45.977    23105770.242 8  93037634.33508     -1826.660 8        50.174    23105769.399 8  97768332.96308     -1919.635 8        48.500
R04        41.000    22909280.283 7 122678172.79807      3045.535 7        44.913                                                                    22909279.352 6  95416360.38606      2368.861 6        41.635
S44        42.000    40625197.994 6 213487033.53506      -420.942 6        37.660
G08        43.000    24688508.068 6 129739026.63806      2877.106 6        37.985                                    24688510.564 4 101095371.67504      2241.896 4        26.802    24688512.024 5 101095369.68405      2241.895 5        33.635
C05        44.000                                                                                                                                    39429465.621 6 205319608.22106      -386.413 6        37.943    39429460.995 7 158766168.00207      -298.648 7        42.322    39429463.137 6 166839102.44906      -314.135 6        40.381
C11        45.000                                                                                                                                    21879386.799 8 113931857.97208       277.025 8        48.045    21879384.441 8  88099400.15908       214.206 8        52.292    21879383.090 8  92579006.84508       225.002 8        49.518
R16        46.000    24627853.909 3                     -5105.917 3        20.143
G07        47.000    25701398.975 6 135061770.83506      1104.023 6        38.895                                    25701394.492 4 105242924.54304       860.292 4        29.915    25701394.985 5 105242932.53505       860.245 5        35.671
C21        48.000                                                                                                                                    24986470.836 7 130111130.46907      1961.680 7        44.346                                                                    24986465.707 7 105725937.27307      1593.902 7        45.451
R19        50.000    20335129.242 6 108779493.37706     -2490.524 6        40.217                                                                    20335128.364 7  84606386.43007     -1937.055 7        44.826
S48        51.000    77308423.879 6 406258578.11116      -496.256 6        37.974
C08        52.000                                                                                                                                    38122964.258 6 198516386.19506     -1157.828 6        41.240    38122958.438 7 153505492.31407      -895.200 7        45.094    38122957.732 7 161310843.33807      -941.020 7        42.318
C34        53.000                                                                                                                                    21589718.603 8 112423613.94908     -1000.856 8        50.594                                                                    21589718.276 8  91353512.36008      -813.403 8        49.754
C60        54.000                                                                                                                                    40625197.822 6 211546261.70806      -417.121 6        40.203                                                                    40625182.003 6 171898634.28106      -339.069 6        40.095
C25        55.000                                                                                                                                    23857172.761 7 124230801.79607     -3124.020 7        46.839                                                                    23857170.966 7 100947795.35007     -2538.727 7        46.567
I09        56.000    39592497.608 6 155369480.98206       467.030 6        41.042
C02        57.000                                                                                                                                    40768661.899 5 212293162.54805      -376.327 5        34.105    40768655.766 6 164158531.69906      -290.818 6        38.577    40768659.553 6 172505585.97706      -305.729 6        36.170
I03        58.000    82912076.355 6 249579544.63606      1107.091 6        41.268
E30        59.000    24399791.690 8 128221990.45708       384.123 8        48.319                                                                    24399791.557 8  95750307.46808       286.862 8        50.552    24399791.050 8  98248124.85508       294.333 8        51.359
R20        60.000    20619605.773 6 110262498.05106      1537.181 6        40.961                                                                    20619607.095 7  85759788.83707      1195.529 7        46.268
> 2025 01 02 18 46  5.0000000  0 56
G23         1.000    21537896.068 7 113182488.27007      1441.527 7        47.481                                    21537892.289 6  88194169.35606      1123.271 6        37.342    21537892.655 7  88194167.36307      1123.311 7        45.503
E11         2.000    27717080.718 5 145654439.04705     -3222.458 5        35.014                                                                    27717077.702 6 108768049.14806     -2406.496 6        37.743    27717077.576 6 111605462.90006     -2469.437 6        38.189
G16         3.000    20654702.020 8 108541398.65508      -282.819 8        48.840                                    20654697.113 6  84577798.42006      -220.378 6        40.219
G05         4.000    25308554.434 6 132997426.64806     -3875.104 6        36.764                                    25308552.325 4 103634377.12704     -3019.548 4        26.359    25308552.853 5 103634376.10005     -3019.381 5        34.076
S21         5.000    38573986.754 7 202707352.76107      -457.670 7        42.495
G26         6.000    21352009.039 8 112205804.15308     -2548.137 8        48.427                                    21352008.023 8  87433226.47308     -1985.562 8        48.454    21352008.175 7  87433213.47707     -1985.646 7        44.575
G10         7.000    23768870.077 7 124906304.62107      3041.865 7        44.199                                    23768869.106 6  97329600.49806      2370.286 6        39.742    23768869.039 6  97329594.50506      2370.287 6        40.408
E15         8.000    27914159.128 6 146689962.52906      2325.226 6        38.856                                                                    27914162.403 6 109541261.94606      1736.244 6        41.282    27914161.593 6 112398849.34206      1781.539 6        41.840
E36         9.000    24045268.915 7 126358933.89107     -1794.987 7        47.712                                                                    24045269.245 8  94359088.02808     -1340.423 8        50.301    24045268.897 8  96820616.68808     -1375.344 8        51.443
G27        10.000    21806810.695 7 114595706.25707      2100.566 7        45.938                                    21806809.303 7  89295423.77707      1636.806 7        45.714    21806809.491 7  89295425.77707      1636.783 7        43.037
G15        11.000    24436407.747 6 128414199.59806      1516.404 6        38.958                                    24436405.012 5 100063002.20505      1181.611 5        30.234    24436406.025 6 100063005.19606      1181.671 6        36.457
C23        13.000                                                                                                                                    23938087.653 7 124651955.93807      -383.026 7        47.022                                                                    23938079.344 7 101289917.10207      -311.285 7        47.961
S36        14.000    38344137.869 7 201500336.25707      -456.537 7        44.293
C13        15.000                                                                                                                                    37899736.105 7 197353931.38807      -883.437 7        44.686    37899737.922 7 152606612.76107      -683.151 7        45.309    37899735.921 7 160366257.95807      -717.814 7        43.606
G18        16.000    21249741.359 7 111668377.26307     -2185.719 7        47.192                                    21249737.394 6  87014417.78006     -1703.158 6        38.643    21249737.573 7  87014425.77907     -1703.148 7        46.684
R10        17.000    20321308.687 7 108324047.65707      -149.026 7        47.105
E27        18.000    27820029.325 6 146195246.34306      2331.330 6        39.075                                                                    27820030.451 6 109171774.72606      1741.073 6        41.738    27820030.188 7 112019731.80507      1786.405 7        42.425
E02        19.000    24341633.645 8 127916335.87408     -2484.426 8        48.288                                                                    24341632.518 8  95522048.91708     -1855.338 8        49.689    24341631.909 8  98013913.51208     -1903.653 8        50.268
S27        20.000    39334797.318 6 206705777.34306      -430.267 6        36.117
R11        21.000    23206611.561 7 124009111.42107      3282.696 7        44.173                                                                    23206611.186 7  96451533.25207      2553.313 7        43.107
I06        22.000    38835383.989 6 152398609.54306      -302.749 6        41.614
S28        23.000    41046068.880 5 215698543.80305      -451.528 5        34.076
E04        24.000    28565535.298 6 150112889.12406       782.044 6        36.068                                                                    28565534.135 6 112097287.89306       584.170 6        37.849    28565534.191 6 115021560.80106       599.259 6        39.246
S23        25.000    38300065.061 7 201268128.75607      -458.753 7        45.204
S45        26.000    63556669.010 6 333993164.06806      -511.256 6        37.713
R09        27.000    20726008.777 8 110675933.17908     -3615.101 8        51.753                                                                    20726007.190 7  86081392.92307     -2811.780 7        46.729
R18        28.000    23215004.787 7 123923562.69507     -3888.849 7        42.356                                                                    23215005.237 6  96385143.58906     -3024.668 6        40.839
C38        29.000                                                                                                                                    39425612.862 6 205299633.14406     -1465.421 6        41.273                                                                    39425610.830 7 166822813.45607     -1190.813 7        42.379
C44        30.000                                                                                                                                    24660119.339 7 128411929.30307     -3073.045 7        44.217                                                                    24660118.046 7 104345295.21407     -2497.040 7        44.203
C43        31.000                                                                                                                                    22913903.942 8 119318811.58508      1400.817 8        48.114                                                                    22913902.966 8  96956349.37808      1138.264 8        48.287
R02        32.000    24104309.833 6 128625224.33806     -3025.637 6        41.414                                                                    24104311.849 6 100041844.94206     -2353.146 6        39.204
I02        33.000    39415471.623 6 154674834.90706      -979.724 6        40.534
R03        34.000    22310445.546 7 119429600.62907       156.514 7        47.814                                                                    22310444.713 7  92889691.17807       121.754 7        44.093
E34        35.000    24001923.500 8 126131164.39008       896.185 8        48.983                                                                    24001923.629 8  94188966.76708       669.221 8        50.588    24001923.426 8  96646059.09608       686.733 8        51.541
G29        36.000    24286158.481 6 127624910.34106     -3571.431 6        39.658                                    24286155.967 5  99448089.47705     -2782.932 5        33.533    24286155.457 6  99448099.48606     -2782.985 6        37.894
G31        37.000    25693810.537 6 135022068.40106     -3773.792 6        38.399                                    25693810.001 4 105212088.79204     -2940.609 4        28.976    25693809.855 5 105212094.77905     -2940.531 5        34.595
C22        38.000                                                                                                                                    24852827.013 7 129415219.57807      -596.485 7        43.511                                                                    24852821.100 7 105160450.46207      -484.786 7        44.643
C12        40.000                                                                                                                                    23108042.649 7 120329848.68207     -2363.083 7        45.913    23108039.153 8  93046769.29408     -1827.276 8        50.315    23108038.043 8  97777932.40508     -1920.202 8        48.556
R04        41.000    22906437.323 7 122662949.73007      3043.759 7        44.868                                                                    22906436.449 7  95404520.23007      2367.297 7        42.476
S44        42.000    40625597.811 6 213489138.41006      -420.861 6        37.781
G08        43.000    24685770.897 6 129724641.68306      2876.983 6        37.278                                    24685773.131 4 101084162.65004      2241.799 4        26.814    24685774.213 5 101084160.67505      2241.608 5        33.629
C05        44.000                                                                                                                                    39429836.306 6 205321540.32506      -386.454 6        37.629    39429831.890 7 158767662.02207      -298.660 7        42.298    39429834.170 6 166840672.42206      -313.918 6        40.410
C11        45.000                                                                                                                                    21879121.751 8 113930476.67908       275.622 8        48.002    21879119.109 8  88098332.06108       213.150 8        52.261    21879117.860 8  92577884.41908       223.964 8        49.545
G07        47.000    25700349.085 6 135056257.00206      1101.565 6        39.108                                    25700345.364 5 105238628.02205       858.369 5        30.257    25700345.653 5 105238636.00705       858.596 5        35.519
C21        48.000                                                                                                                                    24984587.645 7 130101326.56007      1959.960 7        44.163                                                                    24984583.031 7 105717970.77907      1592.646 7        45.642
R19        50.000    20337457.835 6 108791950.15706     -2492.061 6        39.952                                                                    20337456.513 7  84616075.02607     -1938.310 7        44.494
S48        51.000    77308872.785 6 406261059.98606      -496.266 6        38.006
C08        52.000                                                                                                                                    38124076.887 6 198522177.03606     -1158.378 6        41.206    38124070.437 7 153509970.17907      -895.904 7        45.082    38124069.726 7 161315548.84807      -941.275 7        42.400
C34        53.000                                                                                                                                    21590680.178 8 112428621.83208     -1002.214 8        50.588                                                                    21590679.951 8  91357581.66308      -814.406 8        49.867
C60        54.000                                                                                                                                    40625598.426 6 211548347.45606      -417.129 6        40.138                                                                    40625582.535 6 171900329.09806      -338.959 6        40.312
C25        55.000                                                                                                                                    23860172.967 7 124246425.88707     -3125.440 7        46.300                                                                    23860171.389 7 100960491.17807     -2539.797 7        46.533
I09        56.000    39591902.782 6 155367145.94506       467.142 6        40.839
C02        57.000                                                                                                                                    40769023.171 5 212295044.19705      -376.297 5        34.000    40769017.037 6 164159986.70806      -290.809 6        38.517    40769020.673 6 172507114.94906      -305.638 6        36.268
I03        58.000    82910666.302 6 249574009.36006      1107.162 6        41.170
E30        59.000    24399427.329 8 128220075.18108       382.107 8        48.336                                                                    24399427.112 8  95748877.23208       285.340 8        50.440    24399426.600 8  98246657.31008       292.796 8        51.412
R20        60.000    20618168.315 6 110254817.80806      1535.054 6        40.741                                                                    20618171.262 7  85753815.32407      1193.966 7        47.121
> 2025 01 02 18 46 10.0000000  0 56
G23         1.000    21536525.783 7 113175288.05007      1438.604 7        47.744                                    21536522.125 6  88188558.79806      1120.988 6        37.486    21536522.402 7  88188556.80107      1120.983 7        45.129
E11         2.000    27720147.171 5 145670553.05705     -3222.829 5        34.586                                                                    27720144.188 6 108780082.33606     -2406.766 6        37.531    27720143.732 6 111617809.99706     -2469.517 6        37.830
G16         3.000    20654972.476 8 108542821.26008      -286.258 8        48.820                                    20654967.834 6  84578906.94506      -223.058 6        40.305
G05         4.000    25312241.779 6 133016805.01506     -3876.515 6        36.915                                    25312240.000 4 103649477.11604     -3020.648 4        26.455    25312240.856 5 103649476.11105     -3020.676 5        34.605
S21         5.000    38574421.230 7 202709641.04907      -457.808 7        42.620
G26         6.000    21354435.012 8 112218551.80208     -2550.939 8        48.698                                    21354433.816 8  87443159.70708     -1987.746 8        48.506    21354434.005 7  87443146.71107     -1987.742 7        44.293
G10         7.000    23765976.074 7 124891097.46407      3040.834 7        44.018                                    23765975.349 6  97317750.77506      2369.481 6        39.832    23765974.845 6  97317744.78606      2369.549 6        39.751
E15         8.000    27911946.835 6 146678338.52506      2324.507 6        39.339                                                                    27911950.341 6 109532581.68906      1735.847 6        41.282    27911949.677 6 112389942.64706      1781.128 6        41.971
E36         9.000    24046977.309 7 126367912.42407     -1796.446 7        47.631                                                                    24046977.816 8  94365792.77308     -1341.501 8        50.438    24046977.445 8  96827496.34208     -1376.504 8        51.446
G27        10.000    21804812.564 7 114585206.98207      2099.130 7        45.968                                    21804811.360 7  89287242.52707      1635.684 7        45.795    21804811.520 7  89287244.52707      1635.725 7        42.921
G15        11.000    24434966.407 6 128406624.30306      1513.702 6        39.402                                    24434963.669 5 100057099.39205      1179.511 5        30.634    24434964.442 6 100057102.41006      1179.601 6        36.446
C23        13.000                                                                                                                                    23938456.772 7 124653878.53107      -385.986 7        47.168                                                                    23938448.558 8 101291479.37308      -313.713 8        48.010
S36        14.000    38344572.895 7 201502620.07607      -456.829 7        44.327
C13        15.000                                                                                                                                    37900584.721 7 197358350.38807      -884.232 7        44.718    37900586.383 7 152610029.80607      -683.693 7        45.165    37900584.521 7 160369848.75807      -718.512 7        43.471
G18        16.000    21251822.022 7 111679311.26507     -2187.863 7        47.189                                    21251818.076 6  87022937.78106     -1704.830 6        38.763    21251818.632 7  87022945.78007     -1704.790 7        46.887
R10        17.000    20321450.717 7 108324804.71807      -153.748 7        47.211
E27        18.000    27817811.765 6 146183591.43906      2330.632 6        39.219                                                                    27817812.525 6 109163071.38806      1740.326 6        41.971    27817812.277 7 112010801.41607      1785.682 7        42.500
E02        19.000    24343998.253 8 127928762.70808     -2486.256 8        48.449                                                                    24343997.220 8  95531328.69408     -1856.679 8        49.797    24343996.644 8  98023435.37308     -1905.085 8        50.342
S27        20.000    39335211.332 6 206707926.85406      -429.923 6        36.136
R11        21.000    23203540.274 7 123992703.35507      3280.527 7        43.386                                                                    23203540.714 7  96438771.44307      2551.513 7        42.961
I06        22.000    38835770.156 6 152400123.66806      -302.890 6        41.838
S28        23.000    41046499.225 5 215700799.91005      -451.153 5        33.862
E04        24.000    28564791.604 5 150108983.42605       779.980 5        35.952                                                                    28564791.059 6 112094371.30206       582.666 6        37.728    28564790.714 6 115018568.12006       597.620 6        39.141
S23        25.000    38300501.250 7 201270422.99807      -458.928 7        45.246
S45        26.000    63557103.232 6 333995720.79006      -511.423 6        37.694
R09        27.000    20729395.401 8 110694016.83108     -3618.370 8        51.405                                                                    20729393.966 7  86095457.99107     -2814.295 7        46.954
R18        28.000    23218647.342 7 123943007.72007     -3889.088 7        42.461                                                                    23218647.776 6  96400267.48606     -3024.912 6        40.119
C38        29.000                                                                                                                                    39427020.371 6 205306961.59906     -1465.929 6        41.564                                                                    39427018.168 7 166828768.43507     -1191.273 7        42.301
C44        30.000                                                                                                                                    24663069.888 7 128427295.52707     -3073.462 7        44.163                                                                    24663069.006 7 104357781.53507     -2497.463 7        44.063
C43        31.000                                                                                                                                    22912559.526 8 119311810.32508      1399.676 8        48.296                                                                    22912558.444 8  96950660.29408      1137.206 8        48.317
R02        32.000    24107145.998 6 128640360.90806     -3029.071 6        41.955                                                                    24107148.349 6 100053617.81406     -2355.819 6        39.736
I02        33.000    39416719.937 6 154679732.99706      -979.630 6        40.684
R03        34.000    22310301.202 7 119428829.03807       152.081 7        47.370                                                                    22310300.815 7  92889091.05507       118.313 7        44.066
E34        35.000    24001071.567 8 126126687.44908       894.538 8        49.145                                                                    24001071.710 8  94185623.59608       667.984 8        50.669    24001071.472 8  96642628.71808       685.391 8        51.575
G29        36.000    24289557.092 6 127642769.50706     -3572.174 6        40.403                                    24289554.467 5  99462005.70405     -2783.511 5        33.946    24289554.148 6  99462015.70406     -2783.565 6        37.285
G31        37.000    25697401.111 6 135040936.54806     -3773.439 6        39.090                                    25697400.513 4 105226791.20704     -2940.328 4        29.100    25697400.777 5 105226797.20905     -2940.404 5        34.710
C22        38.000                                                                                                                                    24853401.830 7 129418209.76107      -599.587 7        43.710                                                                    24853395.394 7 105162880.23107      -487.301 7        44.649
C12        40.000                                                                                                                                    23110312.344 7 120341666.60107     -2364.066 7        45.976    23110308.350 8  93055907.66308     -1828.070 8        50.210    23110307.494 8  97787535.43308     -1921.125 8        48.521
R04        41.000    22903596.278 7 122647736.37507      3041.662 7        44.861                                                                    22903595.637 7  95392687.63407      2365.720 7        42.142
S44        42.000    40625999.877 6 213491243.20306      -421.082 6        37.501
G08        43.000    24683034.141 6 129710257.48806      2876.671 6        36.809                                    24683035.800 4 101072954.21104      2241.561 4        26.874    24683036.735 5 101072952.22705      2241.646 5        33.689
C05        44.000                                                                                                                                    39430207.584 6 205323472.19506      -386.461 6        37.879    39430203.119 7 158769155.88707      -298.847 7        42.299    39430205.158 6 166842242.23406      -314.034 6        40.524
C11        45.000                                                                                                                                    21878858.155 8 113929102.29108       274.090 8        48.085    21878855.073 8  88097269.29708       211.970 8        52.262    21878853.964 8  92576767.62308       222.721 8        49.597
G07        47.000    25699302.108 6 135050754.85506      1099.090 6        39.820                                    25699298.383 5 105234340.59505       856.446 5        30.317    25699298.645 5 105234348.57205       856.734 5        35.519
C21        48.000                                                                                                                                    24982706.216 7 130091530.99407      1958.141 7        43.710                                                                    24982702.004 7 105710011.08307      1591.140 7        45.806
R19        50.000    20339787.494 6 108804415.15206     -2493.855 6        40.455                                                                    20339787.237 7  84625770.02607     -1939.654 7        44.078
S48        51.000    77309314.662 6 406263541.66506      -496.538 6        37.913
C08        52.000                                                                                                                                    38125189.798 6 198527971.28406     -1159.340 6        41.421    38125183.283 7 153514450.65507      -896.397 7        45.011    38125182.496 7 161320257.16907      -941.998 7        42.336
C34        53.000                                                                                                                                    21591643.420 8 112433636.83108     -1003.799 8        50.760                                                                    21591643.067 8  91361656.76808      -815.716 8        49.835
C60        54.000                                                                                                                                    40625998.784 6 211550433.08806      -417.123 6        40.126                                                                    40625983.081 6 171902023.86506      -339.100 6        40.157
C25        55.000                                                                                                                                    23863174.607 7 124262057.43207     -3127.122 7        46.692                                                                    23863173.311 7 100973193.08907     -2541.164 7        46.577
I09        56.000    39591307.275 6 155364810.89506       467.035 6        41.013
C02        57.000                                                                                                                                    40769384.348 5 212296925.62505      -376.473 5        33.892    40769378.550 6 164161441.56606      -290.999 6        38.504    40769381.980 5 172508643.79105      -305.957 5        35.895
I03        58.000    82909255.803 6 249568473.98706      1107.015 6        41.366
E30        59.000    24399064.831 8 128218169.97508       379.970 8        48.460                                                                    24399064.530 8  95747454.51708       283.734 8        50.533    24399064.025 8  98245197.48108       291.116 8        51.412
R20        60.000    20616733.737 6 110247147.60806      1532.879 6        40.467                                                                    20616736.211 7  85747849.61207      1192.267 7        46.460
> 2025 01 02 18 46 15.0000000  0 56
G23         1.000    21535158.489 8 113168102.46008      1435.673 8        48.074                                    21535154.752 6  88182959.63906      1118.706 6        37.497    21535155.194 7  88182957.63607      1118.714 7        45.040
E11         2.000    27723213.776 5 145686667.80805     -3222.974 5        34.109                                                                    27723210.915 6 108792116.06306     -2406.821 6        37.603    27723210.219 6 111630157.64206     -2469.552 6        37.622
G16         3.000    20655246.550 8 108544261.06308      -289.698 8        48.915                                    20655241.824 6  84580028.87106      -225.737 6        40.329
G05         4.000    25315930.697 6 133036190.71106     -3877.984 6        37.043                                    25315928.946 4 103664582.82404     -3021.807 4        26.455    25315929.065 5 103664581.81005     -3021.788 5        34.767
S21         5.000    38574856.221 7 202711929.77007      -457.773 7        42.516
G26         6.000    21356863.078 8 112231312.84708     -2553.616 8        48.364                                    21356862.162 8  87453103.37508     -1989.828 8        48.545    21356862.341 7  87453090.36807     -1989.775 7        44.590
G10         7.000    23763082.686 7 124875895.04607      3039.973 7        43.850                                    23763082.397 6  97305904.74306      2368.809 6        39.580    23763082.146 6  97305898.73606      2369.032 6        39.766
E15         8.000    27909735.421 6 146666717.66406      2323.891 6        39.673                                                                    27909739.033 6 109523903.78506      1735.376 6        41.445    27909738.274 6 112381038.36606      1780.612 6        41.938
E36         9.000    24048687.084 7 126376898.05307     -1797.836 7        47.860                                                                    24048687.678 8  94372502.81708     -1342.534 8        50.424    24048687.405 8  96834381.42908     -1377.545 8        51.460
G27        10.000    21802816.184 7 114574714.97707      2097.713 7        46.173                                    21802814.798 7  89279066.94707      1634.581 7        45.803    21802814.964 7  89279068.94107      1634.658 7        43.418
G15        11.000    24433527.505 6 128399061.25506      1511.439 6        39.523                                    24433524.670 5 100051206.11005      1177.742 5        30.966    24433524.399 6 100051209.10806      1177.653 6        36.136
C23        13.000                                                                                                                                    23938828.734 7 124655815.71907      -388.891 7        47.314                                                                    23938820.563 8 101293053.49508      -316.051 8        48.095
S36        14.000    38345006.459 7 201504904.07507      -456.948 7        44.337
C13        15.000                                                                                                                                    37901434.041 7 197362773.47807      -885.083 7        44.769    37901435.894 7 152613450.02207      -684.368 7        45.162    37901433.821 7 160373442.88507      -719.170 7        43.522
G18        16.000    21253904.640 7 111690255.50707     -2189.868 7        47.186                                    21253900.716 6  87031465.76306     -1706.392 6        38.787    21253901.185 7  87031473.76007     -1706.395 7        47.212
R10        17.000    20321597.575 7 108325585.19907      -158.384 7        47.309
E27        18.000    27815594.669 6 146171940.12606      2329.985 6        39.156                                                                    27815595.492 6 109154370.72006      1739.950 6        41.979    27815594.903 7 112001873.78107      1785.275 7        42.696
E02        19.000    24346364.887 8 127941198.54708     -2488.075 8        48.525                                                                    24346363.716 8  95540615.19008     -1857.964 8        49.788    24346363.215 8  98032964.12808     -1906.430 8        50.280
S27        20.000    39335621.684 6 206710077.44706      -430.307 6        36.336
R11        21.000    23200471.876 7 123976306.55207      3278.093 7        43.179                                                                    23200471.230 7  96426018.35807      2549.734 7        42.665
I06        22.000    38836155.772 6 152401637.89506      -302.845 6        41.852
S28        23.000    41046928.742 5 215703056.39405      -451.387 5        34.495
E04        24.000    28564050.484 6 150105088.03706       778.193 6        36.518                                                                    28564049.589 6 112091462.43306       580.794 6        38.267    28564049.533 6 115015583.35006       596.147 6        39.495
S23        25.000    38300936.294 7 201272717.71907      -459.001 7        45.366
S45        26.000    63557539.707 6 333998277.93706      -511.338 6        37.860
R09        27.000    20732784.243 8 110712116.75808     -3621.568 8        51.397                                                                    20732783.310 7  86109535.70907     -2816.815 7        47.525
R18        28.000    23222290.247 7 123962453.64507     -3889.273 7        42.897                                                                    23222291.596 6  96415392.08806     -3025.064 6        40.720
C38        29.000                                                                                                                                    39428428.124 6 205314292.91506     -1466.664 6        41.576                                                                    39428426.019 7 166834725.72507     -1191.829 7        42.480
C44        30.000                                                                                                                                    24666021.229 7 128442664.28407     -3073.940 7        44.080                                                                    24666020.270 7 104370269.90507     -2497.856 7        43.945
C43        31.000                                                                                                                                    22911216.101 8 119304815.06108      1398.500 8        48.377                                                                    22911215.023 8  96944976.06108      1136.383 8        48.330
R02        32.000    24109987.377 7 128655514.03407     -3032.285 7        43.134                                                                    24109987.580 6 100065403.56606     -2358.475 6        40.012
I02        33.000    39417968.298 6 154684631.81806      -979.629 6        40.539
R03        34.000    22310161.143 7 119428079.39607       147.746 7        47.273                                                                    22310160.164 7  92888508.00207       114.888 7        43.513
E34        35.000    24000221.355 8 126122218.83008       892.920 8        49.093                                                                    24000221.308 8  94182286.64308       666.814 8        50.717    24000221.153 8  96639204.71508       684.190 8        51.625
G29        36.000    24292956.373 6 127660632.31606     -3572.976 6        40.982                                    24292953.548 5  99475924.77405     -2784.137 5        34.329    24292953.469 6  99475934.77006     -2784.194 6        37.437
G31        37.000    25700991.440 6 135059802.79806     -3773.045 6        39.174                                    25700990.546 4 105241492.14404     -2940.029 4        29.109    25700990.275 5 105241498.13205     -2939.915 5        35.329
C22        38.000                                                                                                                                    24853978.921 7 129421214.80607      -602.537 7        43.543                                                                    24853972.546 7 105165322.07607      -489.722 7        44.773
C12        40.000                                                                                                                                    23112582.685 7 120353489.53107     -2365.079 7        46.065    23112578.629 8  93065049.90508     -1828.827 8        50.085    23112578.049 8  97797142.53908     -1921.869 8        48.660
R04        41.000    22900757.384 7 122632533.37007      3039.469 7        44.715                                                                    22900757.269 6  95380863.05906      2364.135 6        41.571
S44        42.000    40626396.035 6 213493348.47306      -421.214 6        37.535
G08        43.000    24680298.249 5 129695874.63705      2876.526 5        35.838                                    24680298.769 4 101061746.82804      2241.436 4        26.862    24680299.946 5 101061744.89005      2241.255 5        34.362
C05        44.000                                                                                                                                    39430578.917 6 205325404.42406      -386.469 6        37.977    39430574.072 7 158770650.00807      -298.984 7        42.271    39430576.173 6 166843812.33406      -314.167 6        40.515
C11        45.000                                                                                                                                    21878595.519 8 113927735.41408       272.651 8        48.143    21878592.475 8  88096212.33808       210.836 8        52.160    21878591.441 8  92575656.92408       221.488 8        49.672
G07        47.000    25698257.664 6 135045264.98406      1096.907 6        39.405                                    25698253.781 5 105230062.72405       854.740 5        30.400    25698254.373 6 105230070.70706       854.717 6        36.117
C21        48.000                                                                                                                                    24980827.171 7 130081744.40207      1956.484 7        43.545                                                                    24980822.500 7 105702058.67907      1589.750 7        45.837
R19        50.000    20342119.817 6 108816889.08206     -2495.690 6        40.110                                                                    20342118.693 7  84635471.96507     -1941.111 7        44.405
S48        51.000    77309758.966 6 406266023.83006      -496.623 6        37.958
C08        52.000                                                                                                                                    38126303.207 6 198533769.65906     -1160.119 6        41.254    38126296.945 7 153518934.31607      -896.999 7        44.906    38126296.061 7 161324968.81407      -942.735 7        42.394
C34        53.000                                                                                                                                    21592607.954 8 112438659.55608     -1005.312 8        50.834                                                                    21592607.566 8  91365738.13908      -816.949 8        49.907
C60        54.000                                                                                                                                    40626399.593 6 211552519.24106      -417.341 6        40.172                                                                    40626383.721 6 171903719.02206      -339.227 6        40.269
C25        55.000                                                                                                                                    23866178.525 7 124277697.08607     -3128.734 7        46.946                                                                    23866176.831 7 100985901.59007     -2542.352 7        46.630
I09        56.000    39590712.902 6 155362476.31906       466.851 6        41.056
C02        57.000                                                                                                                                    40769746.576 5 212298807.55905      -376.391 5        34.176    40769740.085 6 164162896.79206      -291.084 6        38.646    40769743.340 6 172510173.02206      -306.042 6        36.408
I03        58.000    82907845.150 6 249562938.97006      1107.087 6        41.354
E30        59.000    24398704.115 8 128216275.50108       377.822 8        48.497                                                                    24398703.990 8  95746039.80608       282.129 8        50.539    24398703.510 8  98243745.86808       289.488 8        51.434
R20        60.000    20615301.156 6 110239487.99406      1530.748 6        40.534                                                                    20615304.232 7  85741892.13607      1190.729 7        46.708
> 2025 01 02 18 46 20.0000000  0 56
G23         1.000    21533794.033 7 113160931.01107      1432.757 7        47.305                                    21533790.094 6  88177371.50006      1116.433 6        37.603    21533790.447 7  88177369.49707      1116.518 7        45.834
E11         2.000    27726280.258 5 145702782.77505     -3222.844 5        34.257                                                                    27726277.530 6 108804149.98906     -2406.955 6        37.565    27726277.106 6 111642505.49206     -2469.650 6        37.656
G16         3.000    20655523.577 8 108545717.57808      -293.048 8        48.858                                    20655518.997 6  84581163.81706      -228.353 6        40.422
G05         4.000    25319621.660 6 133055583.09206     -3879.191 6        36.677                                    25319619.197 4 103679693.74104     -3022.737 4        26.323    25319619.687 5 103679692.78305     -3023.062 5        34.495
S21         5.000    38575292.754 7 202714218.48607      -457.784 7        42.463
G26         6.000    21359294.046 8 112244086.75308     -2556.105 8        48.602                                    21359292.963 8  87463057.06508     -1991.771 8        48.618    21359293.249 7  87463044.06607     -1991.870 7        45.109
G10         7.000    23760190.393 7 124860696.87707      3039.138 7        43.215                                    23760190.116 6  97294062.01906      2368.158 6        39.120    23760190.106 6  97294056.03006      2368.124 6        39.607
E15         8.000    27907524.363 6 146655099.44006      2323.310 6        39.369                                                                    27907528.308 6 109515227.86206      1734.894 6        41.576    27907527.379 6 112372136.10706      1780.185 6        41.902
E36         9.000    24050398.461 7 126385890.26507     -1799.168 7        47.708                                                                    24050398.847 8  94379217.77808     -1343.502 8        50.320    24050398.533 8  96841271.56908     -1378.594 8        51.289
G27        10.000    21800820.961 7 114564229.74907      2096.287 7        45.694                                    21800819.533 7  89270896.64107      1633.470 7        45.937    21800819.850 7  89270898.64307      1633.531 7        43.695
G15        11.000    24432090.724 6 128391509.96206      1509.059 6        39.886                                    24432087.745 5 100045321.99405      1175.890 5        31.042    24432088.110 6 100045325.01606      1175.893 6        36.193
C23        13.000                                                                                                                                    23939203.489 7 124657767.01107      -391.741 7        47.439                                                                    23939195.288 8 101294639.06708      -318.435 8        48.020
S36        14.000    38345440.470 7 201507187.84007      -456.782 7        44.319
C13        15.000                                                                                                                                    37902284.319 7 197367200.19307      -885.782 7        44.932    37902285.912 7 152616873.03607      -684.901 7        45.093    37902283.899 7 160377039.93407      -719.878 7        43.560
G18        16.000    21255989.229 7 111701209.49207     -2191.836 7        47.229                                    21255985.190 6  87040001.33306     -1707.927 6        38.805    21255985.624 7  87040009.33607     -1707.899 7        47.387
R10        17.000    20321748.278 7 108326388.53207      -162.987 7        47.064
E27        18.000    27813378.111 6 146160291.94306      2329.375 6        39.015                                                                    27813378.918 6 109145672.40206      1739.352 6        41.893    27813378.333 7 111992948.54307      1784.733 7        42.478
E02        19.000    24348732.829 8 127953642.89308     -2489.805 8        48.400                                                                    24348731.826 8  95549908.04808     -1859.255 8        49.786    24348731.349 8  98042499.40508     -1907.762 8        50.175
S27        20.000    39336030.395 6 206712227.99606      -430.024 6        36.397
R11        21.000    23197405.645 7 123959920.44607      3276.132 7        43.655                                                                    23197405.001 7  96413273.59507      2548.105 7        42.337
I06        22.000    38836541.646 6 152403151.84106      -302.833 6        41.843
S28        23.000    41047354.333 5 215705313.02005      -451.517 5        34.233
E04        24.000    28563311.369 6 150101202.50806       775.863 6        36.465                                                                    28563310.221 6 112088560.86206       579.779 6        38.138    28563309.893 6 115012606.10306       594.600 6        39.204
S23        25.000    38301374.687 7 201275012.24407      -458.937 7        45.261
S45        26.000    63557974.684 6 334000834.93306      -511.347 6        37.686
R09        27.000    20736176.836 8 110730232.45408     -3624.789 8        50.938                                                                    20736175.777 7  86123625.68707     -2819.239 7        47.558
R18        28.000    23225933.980 7 123981899.90207     -3889.348 7        43.031                                                                    23225935.055 6  96430516.93706     -3025.063 6        41.209
C38        29.000                                                                                                                                    39429836.667 6 205321626.58106     -1467.052 6        41.795                                                                    39429834.358 7 166840684.91007     -1192.219 7        42.445
C44        30.000                                                                                                                                    24668973.211 7 128458035.05807     -3074.453 7        44.047                                                                    24668971.931 7 104382759.90207     -2498.403 7        43.668
C43        31.000                                                                                                                                    22909873.700 8 119297825.30708      1397.337 8        48.495                                                                    22909872.769 8  96939296.30508      1135.320 8        48.282
R02        32.000    24112829.770 7 128670683.22907     -3035.478 7        42.798                                                                    24112830.416 6 100077201.79906     -2360.847 6        39.742
I02        33.000    39419217.007 6 154689530.75606      -980.012 6        40.510
R03        34.000    22310025.718 7 119427351.26507       143.386 7        47.595                                                                    22310023.814 7  92887941.67307       111.517 7        43.111
E34        35.000    23999372.304 8 126117758.06308       891.281 8        49.216                                                                    23999372.473 8  94178955.54608       665.576 8        50.641    23999372.299 8  96635786.71708       682.967 8        51.497
G29        36.000    24296356.090 6 127678498.27006     -3573.614 6        41.480                                    24296353.220 5  99489846.29505     -2784.634 5        34.595    24296353.393 6  99489856.29906     -2784.659 6        37.319
G31        37.000    25704581.042 6 135078666.68506     -3772.690 6        39.315                                    25704580.154 4 105256191.23004     -2939.751 4        29.261    25704580.750 5 105256197.18905     -2939.493 5        35.952
C22        38.000                                                                                                                                    24854558.187 7 129424234.23607      -605.383 7        43.788                                                                    24854552.389 7 105167775.59407      -492.090 7        44.668
C12        40.000                                                                                                                                    23114854.250 7 120365317.02207     -2366.018 7        46.176    23114849.838 8  93074195.66608     -1829.525 8        49.931    23114849.349 8  97806753.32408     -1922.676 8        48.610
R04        41.000    22897919.950 7 122617340.27907      3037.580 7        44.995                                                                    22897919.672 6  95369046.21406      2362.509 6        41.959
S44        42.000    40626798.651 6 213495453.78506      -421.165 6        37.558
G08        43.000    24677562.085 6 129681492.72606      2876.217 6        37.108                                    24677562.208 4 101050540.17004      2241.202 4        26.994    24677563.224 5 101050538.17705      2241.480 5        34.510
C05        44.000                                                                                                                                    39430949.726 6 205327336.56006      -386.610 6        37.985    39430945.113 7 158772144.06007      -298.829 7        42.025    39430947.259 6 166845382.34106      -314.217 6        40.441
C11        45.000                                                                                                                                    21878334.262 8 113926375.57508       271.265 8        48.249    21878331.328 8  88095160.82908       209.704 8        52.036    21878330.247 8  92574551.93408       220.209 8        49.595
G07        47.000    25697215.100 6 135039787.01206      1094.351 6        39.195                                    25697211.387 5 105225794.14305       852.737 5        30.408    25697211.524 5 105225802.15405       852.563 5        35.681
C21        48.000                                                                                                                                    24978950.344 7 130071966.31907      1954.686 7        44.096                                                                    24978944.749 7 105694113.17607      1588.270 7        45.824
R19        50.000    20344452.578 6 108829371.33706     -2497.295 6        40.086                                                                    20344451.876 7  84645180.40707     -1942.379 7        44.483
S48        51.000    77310204.845 6 406268505.70406      -496.482 6        37.856
C08        52.000                                                                                                                                    38127417.041 6 198539571.61206     -1160.776 6        41.230    38127411.219 7 153523420.73907      -897.612 7        44.755    38127410.197 7 161329683.34407      -943.485 7        42.281
C34        53.000                                                                                                                                    21593573.892 8 112443689.51708     -1006.735 8        50.867                                                                    21593573.565 8  91369825.38308      -818.224 8        49.836
C60        54.000                                                                                                                                    40626800.134 6 211554605.40706      -417.305 6        40.231                                                                    40626784.293 6 171905414.18306      -339.155 6        40.369
C25        55.000                                                                                                                                    23869183.681 7 124293344.33007     -3130.307 7        46.702                                                                    23869181.761 7 100998616.23407     -2543.725 7        46.662
I09        56.000    39590117.964 6 155360141.87106       466.871 6        41.147
C02        57.000                                                                                                                                    40770107.459 5 212300689.44205      -376.386 5        34.286    40770101.169 6 164164351.98606      -291.056 6        38.291    40770104.777 6 172511702.20306      -306.246 6        36.272
I03        58.000    82906434.725 6 249557403.95606      1106.974 6        41.282
E30        59.000    24398345.493 8 128214391.23808       375.719 8        48.589                                                                    24398345.420 8  95744632.73008       280.599 8        50.471    24398344.950 8  98242302.08108       287.949 8        51.350
R20        60.000    20613872.313 6 110231838.57706      1528.791 6        40.953                                                                    20613873.482 7  85735942.58807      1189.077 7        47.099
> 2025 01 02 18 46 25.0000000  0 57
G23         1.000    21532431.676 7 113153773.27307      1429.785 7        47.584                                    21532428.037 6  88171794.04306      1114.118 6        37.486    21532428.875 7  88171792.04807      1114.120 7        46.234
E11         2.000    27729347.441 5 145718897.61805     -3223.099 5        34.295                                                                    27729343.987 6 108816183.78906     -2407.101 6        37.577    27729343.763 6 111654853.20606     -2469.786 6        37.558
G16         3.000    20655804.056 8 108547190.34008      -296.549 8        49.006                                    20655799.252 6  84582311.42506      -231.077 6        40.288
G05         4.000    25323312.878 6 133074981.88106     -3880.787 6        36.801                                    25323310.584 4 103694809.69704     -3023.981 4        26.635    25323310.281 5 103694808.68605     -3023.828 5        34.924
S21         5.000    38575728.111 7 202716506.94107      -458.033 7        42.698
G26         6.000    21361727.417 8 112256873.10808     -2558.886 8        48.688                                    21361726.120 8  87473020.45608     -1993.937 8        48.500    21361726.182 7  87473007.46007     -1993.869 7        44.653
G10         7.000    23757298.587 7 124845502.54707      3038.169 7        42.415                                    23757298.510 6  97282222.27806      2367.403 6        38.396    23757298.317 6  97282216.29606      2367.296 6        39.393
E15         8.000    27905313.886 6 146643483.42906      2322.865 6        39.075                                                                    27905317.863 6 109506553.59106      1734.438 6        41.545    27905316.929 6 112363235.55206      1779.699 6        41.607
E36         9.000    24052110.601 7 126394888.62807     -1800.607 7        47.619                                                                    24052111.212 8  94385937.33808     -1344.630 8        50.315    24052110.888 8  96848166.41808     -1379.719 8        51.151
G27        10.000    21798826.848 7 114553750.87407      2094.757 7        46.062                                    21798825.449 7  89262731.28707      1632.276 7        45.877    21798825.783 7  89262733.29207      1632.213 7        43.522
G15        11.000    24430655.553 6 128383970.04106      1506.417 6        40.043                                    24430652.829 5 100039446.73005      1173.834 5        30.860    24430652.368 5 100039449.71905      1173.915 5        35.067
C23        13.000                                                                                                                                    23939580.721 7 124659731.97907      -394.704 7        47.386                                                                    23939572.643 8 101296235.77308      -320.785 8        48.022
S36        14.000    38345876.449 7 201509470.99507      -456.995 7        44.445
C13        15.000                                                                                                                                    37903134.969 7 197371630.04107      -886.615 7        44.847    37903136.517 7 152620298.48407      -685.643 7        45.120    37903134.678 7 160380639.55707      -720.494 7        43.407
G18        16.000    21258075.686 7 111712172.77707     -2193.946 7        47.473                                    21258071.412 6  87048544.15306     -1709.566 6        38.802    21258071.809 7  87048552.15607     -1709.544 7        47.463
R10        17.000    20321903.116 7 108327214.45507      -167.855 7        47.132
E27        18.000    27811162.170 6 146148646.46206      2328.587 6        38.553                                                                    27811162.889 6 109136976.09906      1738.770 6        41.774    27811162.351 7 111984025.37607      1784.082 7        42.394
E02        19.000    24351102.484 8 127966095.31208     -2491.643 8        48.294                                                                    24351101.369 8  95559206.92608     -1860.677 8        49.736    24351101.031 8  98052040.86808     -1909.209 8        50.044
S27        20.000    39336437.080 6 206714377.20606      -429.722 6        36.439
R11        21.000    23194341.457 7 123943544.68407      3273.691 7        44.147                                                                    23194341.036 7  96400536.88507      2546.186 7        42.588
I06        22.000    38836927.489 6 152404665.18206      -302.953 6        41.743
S28        23.000    41047787.843 5 215707568.99305      -451.637 5        34.362
E04        24.000    28562573.831 6 150097326.36006       774.060 6        36.578                                                                    28562572.458 6 112085666.33506       578.059 6        37.456    28562572.117 6 115009636.06406       593.086 6        38.829
S23        25.000    38301810.876 7 201277306.20007      -459.148 7        45.398
S45        26.000    63558410.815 6 334001691.44316      -511.508 6        37.974
R09        27.000    20739571.638 8 110748363.23708     -3628.080 8        50.588                                                                    20739571.036 7  86137727.40007     -2821.900 7        47.705
R18        28.000    23229577.187 7 124001346.08407     -3889.538 7        43.704                                                                    23229577.749 6  96445641.73506     -3025.200 6        41.721
C38        29.000                                                                                                                                    39431245.322 6 205328962.15006     -1467.600 6        41.845                                                                    39431243.118 7 166846645.67607     -1192.710 7        42.301
C44        30.000                                                                                                                                    24671925.140 7 128473407.42207     -3074.986 7        43.911                                                                    24671923.895 7 104395251.20507     -2498.693 7        43.498
C43        31.000                                                                                                                                    22908532.320 8 119290840.62208      1396.046 8        48.568                                                                    22908531.425 8  96933620.68408      1134.427 8        48.308
R02        32.000    24115674.479 7 128685868.00007     -3038.866 7        42.417                                                                    24115675.793 6 100089012.18206     -2363.597 6        39.751
I02        33.000    39420465.157 6 154694429.60706      -980.105 6        40.534
R03        34.000    22309894.028 7 119426644.11607       138.961 7        47.499                                                                    22309892.185 7  92887391.67907       108.023 7        43.465
E34        35.000    23998525.193 8 126113304.68608       889.564 8        49.165                                                                    23998525.050 8  94175629.97608       664.259 8        50.641    23998524.847 8  96632374.39108       681.621 8        51.333
G29        36.000    24299756.432 6 127696366.99706     -3574.352 6        41.387                                    24299753.464 5  99503769.96805     -2785.209 5        34.505    24299753.781 6  99503779.97806     -2785.312 6        36.960
G31        37.000    25708170.044 6 135097527.71906     -3772.267 6        39.913                                    25708169.284 4 105270888.09404     -2939.422 4        29.118    25708169.291 5 105270894.08005     -2939.385 5        35.552
C22        38.000                                                                                                                                    24855140.881 7 129427267.62707      -608.402 7        44.047                                                                    24855134.981 7 105170240.48107      -494.431 7        44.596
C12        40.000                                                                                                                                    23117126.333 7 120377148.63307     -2367.111 7        46.307    23117122.062 8  93083344.61508     -1830.424 8        49.870    23117121.568 8  97816367.47708     -1923.439 8        48.560
R04        41.000    22895085.232 7 122602156.73807      3035.341 7        44.804                                                                    22895083.731 7  95357236.80907      2360.701 7        42.119
S44        42.000    40627198.021 6 213497558.68706      -421.301 6        37.739
G08        43.000    24674824.482 6 129667111.22106      2875.938 6        37.928                                    24674825.597 4 101039333.84104      2240.997 4        27.545    24674826.324 5 101039331.84905      2240.921 5        34.476
C05        44.000                                                                                                                                    39431320.254 6 205329268.13006      -386.568 6        38.126    39431316.222 7 158773637.68407      -298.978 7        42.184    39431318.306 6 166846951.91306      -314.191 6        40.327
C11        45.000                                                                                                                                    21878074.501 8 113925022.36308       269.586 8        48.382    21878071.585 8  88094114.43508       208.496 8        52.025    21878070.401 8  92573452.34308       219.095 8        49.521
R16        46.000    24651791.832 3                     -5116.388 3        19.910
G07        47.000    25696175.030 6 135034320.52506      1091.872 6        39.471                                    25696171.163 5 105221534.54505       850.801 5        30.279    25696171.250 6 105221542.56006       850.714 6        36.129
C21        48.000                                                                                                                                    24977074.282 7 130062196.31807      1952.855 7        44.643                                                                    24977068.552 7 105686174.26907      1586.811 7        45.785
R19        50.000    20346787.799 6 108841861.30806     -2499.125 6        39.958                                                                    20346787.156 7  84654894.80907     -1943.812 7        44.548
S48        51.000    77310646.476 6 406270987.06106      -496.654 6        37.917
C08        52.000                                                                                                                                    38128531.937 6 198545376.77106     -1161.676 6        41.459    38128525.699 7 153527909.65607      -898.287 7        44.673    38128525.056 7 161334400.51407      -943.860 7        42.311
C34        53.000                                                                                                                                    21594541.118 8 112448726.28408     -1008.367 8        50.860                                                                    21594540.760 8  91373918.17308      -819.379 8        49.769
C60        54.000                                                                                                                                    40627200.532 6 211556691.17006      -417.423 6        40.331                                                                    40627184.821 6 171907109.04706      -339.216 6        40.203
C25        55.000                                                                                                                                    23872189.679 7 124308998.73307     -3131.942 7        46.789                                                                    23872187.991 7 101011336.72407     -2545.061 7        46.647
I09        56.000    39589523.110 6 155357807.17606       466.763 6        41.225
C02        57.000                                                                                                                                    40770469.137 5 212302570.95905      -376.623 5        34.271    40770462.588 6 164165806.88506      -290.973 6        38.517    40770466.281 6 172513231.07606      -306.036 6        36.276
I03        58.000    82905024.332 6 249551868.60806      1106.799 6        41.352
E30        59.000    24397989.049 8 128212516.79708       373.538 8        48.450                                                                    24397988.771 8  95743232.98708       278.937 8        50.443    24397988.287 8  98240865.82408       286.229 8        51.149
R20        60.000    20612443.693 6 110224198.89106      1526.618 6        40.894                                                                    20612444.820 7  85730000.62407      1187.315 7        46.864
> 2025 01 02 18 46 30.0000000  0 57
G23         1.000    21531072.502 8 113146630.06808      1427.381 8        48.122                                    21531068.803 6  88166227.90806      1112.244 6        37.633    21531069.114 7  88166225.91707      1112.233 7        46.017
E11         2.000    27732414.312 5 145735013.05405     -3222.749 5        34.319                                                                    27732410.518 6 108828218.04106     -2406.750 6        37.512    27732410.411 6 111667201.40306     -2469.559 6        37.618
G16         3.000    20656087.623 8 108548680.16708      -299.521 8        49.230                                    20656082.717 6  84583472.32906      -233.396 6        40.393
G05         4.000    25327005.627 6 133094387.66406     -3881.587 6        36.877                                    25327003.375 4 103709931.05204     -3024.607 4        26.898    25327004.180 5 103709930.03105     -3024.634 5        35.005
S21         5.000    38576162.815 7 202718795.74107      -457.583 7        42.495
G26         6.000    21364162.717 8 112269672.70108     -2561.043 8        48.626                                    21364161.809 8  87482994.16308     -1995.619 8        48.583    21364162.104 7  87482981.17107     -1995.628 7        44.724
G10         7.000    23754408.634 7 124830312.85007      3037.695 7        42.982                                    23754407.852 6  97270386.16306      2367.030 6        38.444    23754408.167 6  97270380.17306      2367.023 6        39.459
E15         8.000    27903103.782 6 146631870.46906      2322.507 6        38.153                                                                    27903107.634 6 109497881.58906      1734.321 6        41.375    27903106.860 6 112354337.31506      1779.634 6        41.559
E36         9.000    24053824.409 7 126403893.93407     -1801.552 7        47.517                                                                    24053824.810 8  94392662.08708     -1345.356 8        50.353    24053824.560 8  96855066.59108     -1380.375 8        51.150
G27        10.000    21796834.401 7 114543279.14207      2093.816 7        45.681                                    21796832.746 7  89254571.50407      1631.544 7        46.016    21796832.986 7  89254573.50807      1631.548 7        43.238
G15        11.000    24429222.755 6 128376442.24106      1504.630 6        39.922                                    24429220.076 5 100033580.91005      1172.440 5        30.762    24429219.988 5 100033583.88905      1172.668 5        34.990
C23        13.000                                                                                                                                    23939960.655 7 124661711.43107      -397.074 7        47.064                                                                    23939952.772 7 101297844.24807      -322.704 7        47.976
S36        14.000    38346311.140 7 201511754.32307      -456.438 7        44.417
C13        15.000                                                                                                                                    37903986.314 7 197376063.90107      -886.952 7        44.716    37903987.910 7 152623727.02407      -685.882 7        45.035    37903986.192 7 160384242.44207      -720.731 7        43.435
G18        16.000    21260163.623 7 111723146.16607     -2195.514 7        47.121                                    21260159.606 6  87057094.84506     -1710.789 6        38.838    21260159.826 7  87057102.84607     -1710.799 7        47.180
R10        17.000    20322062.707 7 108328063.61107      -171.929 7        47.148
E27        18.000    27808946.594 6 146137004.48506      2328.162 6        38.931                                                                    27808947.511 6 109128282.41606      1738.585 6        41.778    27808946.946 7 111975104.90107      1783.990 7        42.275
E02        19.000    24353473.835 8 127978556.59908     -2492.943 8        48.049                                                                    24353472.751 8  95568512.43208     -1861.630 8        49.754    24353472.308 8  98061589.12808     -1910.187 8        50.035
S27        20.000    39336848.764 6 206716526.35306      -429.498 6        36.446
R11        21.000    23191279.963 7 123927180.05907      3271.943 7        43.809                                                                    23191278.507 7  96387808.84307      2544.828 7        42.190
I06        22.000    38837312.807 6 152406178.51106      -302.462 6        41.828
S28        23.000    41048218.483 5 215709824.81805      -451.129 5        34.019
E04        24.000    28561838.189 6 150093460.43606       772.569 6        36.480                                                                    28561836.989 6 112082779.45606       576.742 6        37.293    28561836.729 6 115006673.87206       591.760 6        38.360
S23        25.000    38302247.919 7 201279600.50207      -458.713 7        45.347
S45        26.000    63558845.072 6 334004248.18306      -511.096 6        37.853
R09        27.000    20742970.469 8 110766510.22408     -3630.709 8        51.111                                                                    20742969.174 7  86151841.73107     -2823.926 7        47.143
R18        28.000    23233219.880 7 124020792.96607     -3889.273 7        43.829                                                                    23233220.797 6  96460767.08906     -3024.886 6        41.673
C38        29.000                                                                                                                                    39432654.556 6 205336300.43706     -1467.723 6        41.695                                                                    39432652.395 7 166852608.63507     -1192.698 7        42.398
C44        30.000                                                                                                                                    24674877.761 7 128488782.16307     -3075.061 7        44.020                                                                    24674876.629 7 104407744.44507     -2498.680 7        43.668
C43        31.000                                                                                                                                    22907192.025 8 119283861.81308      1395.362 8        48.385                                                                    22907191.185 8  96927949.83808      1133.844 8        48.238
R02        32.000    24118523.405 7 128701069.16307     -3041.752 7        42.684                                                                    24118524.872 6 100100835.29606     -2365.727 6        40.536
I02        33.000    39421713.918 6 154699328.87306      -979.695 6        40.667
R03        34.000    22309766.089 7 119425959.14307       135.001 7        47.182                                                                    22309765.067 7  92886858.92807       104.927 7        42.995
E34        35.000    23997679.151 8 126108859.50808       888.428 8        49.065                                                                    23997679.154 8  94172310.52908       663.422 8        50.683    23997678.956 8  96628968.35508       680.709 8        51.330
G29        36.000    24303157.310 6 127714239.23106     -3574.575 6        40.732                                    24303154.393 5  99517696.38705     -2785.381 5        34.505    24303155.181 6  99517706.36806     -2785.285 6        37.361
G31        37.000    25711758.850 6 135116386.72906     -3771.481 6        39.195                                    25711758.110 4 105285583.37804     -2938.812 4        29.194    25711758.396 5 105285589.34705     -2938.771 5        34.776
C22        38.000                                                                                                                                    24855726.940 7 129430315.76007      -610.893 7        43.860                                                                    24855720.253 7 105172717.34607      -496.431 7        44.638
C12        40.000                                                                                                                                    23119399.261 7 120388985.09407     -2367.550 7        46.269    23119395.072 8  93092497.32808     -1830.810 8        49.807    23119394.624 8  97825985.58608     -1923.887 8        48.598
R04        41.000    22892250.967 7 122586983.52007      3033.858 7        44.448                                                                    22892250.750 7  95345435.43107      2359.552 7        42.368
S44        42.000    40627599.363 6 213499663.96506      -420.906 6        37.743
G08        43.000    24672087.805 6 129652730.97806      2876.119 6        37.966                                    24672089.098 4 101028128.49004      2241.131 4        27.569    24672089.403 5 101028126.49405      2241.351 5        34.895
C05        44.000                                                                                                                                    39431691.322 6 205331200.00106      -386.145 6        37.966    39431687.018 7 158775131.51107      -298.511 7        42.209    39431689.227 6 166848521.71106      -313.826 6        40.262
C11        45.000                                                                                                                                    21877816.331 8 113923676.55908       268.578 8        48.296    21877813.152 8  88093073.78708       207.704 8        52.001    21877811.944 8  92572358.77508       218.297 8        49.550
R16        46.000    24656574.953 3                     -5116.263 3        20.738
G07        47.000    25695136.855 6 135028866.31306      1089.793 6        39.405                                    25695133.299 5 105217284.52405       849.189 5        30.272    25695133.644 6 105217292.50306       849.468 6        36.079
C21        48.000                                                                                                                                    24975199.368 7 130052435.21007      1951.515 7        44.984                                                                    24975193.973 7 105678242.57607      1585.724 7        45.791
R19        50.000    20349123.498 6 108854359.87206     -2500.453 6        39.874                                                                    20349123.237 7  84664615.92507     -1944.691 7        44.272
S48        51.000    77311092.127 6 406273468.64206      -496.019 6        37.932
C08        52.000                                                                                                                                    38129647.182 6 198551185.87206     -1162.103 6        41.259    38129641.154 7 153532401.63307      -898.636 7        44.665    38129640.653 7 161339120.90807      -944.428 7        42.311
C34        53.000                                                                                                                                    21595509.785 8 112453770.64808     -1009.444 8        50.714                                                                    21595509.527 8  91378017.13508      -820.230 8        49.797
C60        54.000                                                                                                                                    40627601.270 6 211558777.32006      -417.094 6        40.026                                                                    40627585.496 6 171908804.22606      -338.907 6        40.164
C25        55.000                                                                                                                                    23875197.403 7 124324661.04707     -3133.056 7        46.831                                                                    23875195.734 7 101024063.63807     -2545.835 7        46.667
I09        56.000    39588928.135 6 155355472.86806       466.944 6        41.342
C02        57.000                                                                                                                                    40770829.956 5 212304452.72205      -375.971 5        34.090    40770824.257 6 164167261.98106      -290.914 6        38.441    40770827.454 6 172514760.18606      -305.912 6        36.321
I03        58.000    82903613.676 6 249546333.52106      1107.012 6        41.509
E30        59.000    24397634.506 8 128210652.95308       371.908 8        48.298                                                                    24397634.077 8  95741841.15808       277.740 8        50.527    24397633.620 8  98239437.68908       284.947 8        51.169
R20        60.000    20611016.089 6 110216569.79406      1524.855 6        40.727                                                                    20611018.029 7  85724066.88207      1186.102 7        46.692
> 2025 01 02 18 46 35.0000000  0 57
G23         1.000    21529715.719 8 113139500.65908      1424.346 8        48.173                                    21529712.193 6  88160672.53206      1109.879 6        37.580    21529712.084 7  88160670.54107      1109.787 7        45.702
E11         2.000    27735480.815 5 145751128.37905     -3223.319 5        34.433                                                                    27735477.376 6 108840252.18306     -2406.875 6        37.467    27735477.109 6 111679549.48806     -2469.858 6        37.648
G16         3.000    20656374.144 8 108550186.37308      -303.052 8        49.326                                    20656369.348 6  84584645.99806      -236.145 6        40.372
G05         4.000    25330699.744 6 133113799.79006     -3883.171 6        36.726                                    25330697.410 4 103725057.37704     -3025.843 4        26.551    25330698.647 5 103725056.36705     -3026.055 5        34.567
S21         5.000    38576599.773 7 202721084.04307      -457.768 7        42.766
G26         6.000    21366600.997 8 112282484.78708     -2563.881 8        48.641                                    21366599.885 8  87492977.60808     -1997.827 8        48.578    21366599.880 7  87492964.61407     -1997.889 7        44.328
G10         7.000    23751519.737 7 124815127.08307      3036.616 7        44.044                                    23751518.070 6  97258553.11206      2366.192 6        38.865    23751518.531 6  97258547.12606      2366.212 6        39.694
E15         8.000    27900894.584 6 146620259.77106      2321.771 6        38.015                                                                    27900897.953 6 109489211.29406      1733.618 6        41.213    27900897.349 6 112345440.82606      1779.099 6        41.247
E36         9.000    24055539.349 7 126412905.45407     -1803.167 7        47.456                                                                    24055539.694 8  94399391.46108     -1346.506 8        50.267    24055539.391 8  96861971.51908     -1381.653 8        51.165
G27        10.000    21794842.443 7 114532813.84607      2092.282 7        46.213                                    21794841.269 7  89246416.73107      1630.350 7        45.925    21794841.365 7  89246418.73707      1630.406 7        43.181
G15        11.000    24427792.488 6 128368925.86006      1501.968 6        39.763                                    24427789.604 5 100027723.99805      1170.368 5        30.702    24427790.668 5 100027727.01505      1170.355 5        35.843
C23        13.000                                                                                                                                    23940343.341 7 124663704.61607      -400.159 7        47.053                                                                    23940335.561 7 101299463.86607      -325.113 7        47.836
S36        14.000    38346745.348 7 201514037.02907      -456.883 7        44.453
C13        15.000                                                                                                                                    37904838.534 7 197380501.01607      -888.026 7        44.766    37904840.112 7 152627158.07007      -686.580 7        45.232    37904838.253 7 160387847.95207      -721.535 7        43.278
G18        16.000    21262253.580 7 111734128.90307     -2197.661 7        47.243                                    21262249.531 6  87065652.82206     -1712.463 6        38.676    21262249.854 7  87065660.81807     -1712.399 7        46.881
R10        17.000    20322225.816 7 108328935.28007      -176.819 7        47.206
E27        18.000    27806731.792 6 146125365.28706      2327.453 6        39.360                                                                    27806732.674 6 109119590.80706      1737.914 6        41.971    27806732.156 7 111966186.55307      1783.381 7        42.430
E02        19.000    24355846.773 7 127991026.01607     -2494.863 7        47.527                                                                    24355845.608 8  95577824.00608     -1863.050 8        49.743    24355845.100 8  98071143.61108     -1911.646 8        49.963
S27        20.000    39337257.108 6 206718675.69106      -430.100 6        36.457
R11        21.000    23188218.756 7 123910825.81507      3269.610 7        43.606                                                                    23188217.894 6  96375088.88206      2543.016 6        41.998
I06        22.000    38837698.443 6 152407691.30306      -302.697 6        41.869
S28        23.000    41048642.616 5 215712080.29805      -451.104 5        34.362
E04        24.000    28561104.287 6 150089604.02706       770.113 6        36.654                                                                    28561103.360 6 112079899.65806       575.156 6        37.992    28561102.912 6 115003718.94006       590.120 6        38.565
S23        25.000    38302683.817 7 201281894.29407      -458.807 7        45.446
S45        26.000    63559280.107 6 334006804.30606      -511.364 6        38.042
R09        27.000    20746371.979 8 110784672.52508     -3634.183 8        51.092                                                                    20746370.586 7  86165967.94807     -2826.558 7        47.091
R18        28.000    23236862.821 7 124040239.83807     -3889.428 7        43.564                                                                    23236863.048 6  96475892.43906     -3025.259 6        41.287
C38        29.000                                                                                                                                    39434064.163 6 205343640.69906     -1468.350 6        41.671                                                                    39434061.960 7 166858573.19507     -1193.111 7        42.231
C44        30.000                                                                                                                                    24677830.705 7 128504158.52107     -3075.517 7        44.533                                                                    24677829.794 7 104420238.99407     -2499.097 7        43.754
C43        31.000                                                                                                                                    22905853.110 8 119276888.14308      1394.008 8        48.532                                                                    22905852.007 8  96922283.15708      1132.860 8        48.086
R02        32.000    24121375.569 7 128716286.03507     -3044.943 7        42.935                                                                    24121376.624 6 100112670.63806     -2368.386 6        39.664
I02        33.000    39422962.230 6 154704228.19406      -980.083 6        40.753
R03        34.000    22309641.203 7 119425294.99607       130.535 7        47.211                                                                    22309640.706 7  92886342.36407       101.534 7        42.971
E34        35.000    23996834.510 8 126104421.79908       886.629 8        48.853                                                                    23996834.695 8  94168996.65408       662.098 8        50.621    23996834.517 8  96625568.03308       679.326 8        51.333
G29        36.000    24306558.694 6 127732114.26306     -3575.437 6        40.405                                    24306555.831 5  99531624.97205     -2786.054 5        34.310    24306556.152 6  99531634.98106     -2786.106 6        36.949
G31        37.000    25715347.101 6 135135242.91206     -3771.103 6        38.970                                    25715346.274 4 105300276.46904     -2938.510 4        28.929    25715346.343 5 105300282.47305     -2938.581 5        33.281
C22        38.000                                                                                                                                    24856314.857 7 129433377.91107      -613.997 7        43.774                                                                    24856308.342 7 105175205.60007      -498.962 7        44.572
C12        40.000                                                                                                                                    23121673.166 7 120400825.73507     -2368.796 7        46.137    23121668.976 8  93101653.25108     -1831.639 8        49.874    23121668.474 8  97835607.06908     -1924.766 8        48.472
R04        41.000    22889419.071 7 122571819.81007      3031.540 7        43.786                                                                    22889418.895 7  95333641.42307      2357.882 7        42.296
S44        42.000    40627998.647 6 213501768.91106      -421.025 6        37.701
G08        43.000    24669351.620 6 129638351.28606      2875.567 6        38.237                                    24669352.796 4 101016923.55104      2240.700 4        27.413    24669352.693 5 101016921.56705      2240.404 5        34.257
C05        44.000                                                                                                                                    39432062.355 6 205333131.38206      -386.337 6        37.974    39432057.868 7 158776624.98607      -298.847 7        42.231    39432060.027 6 166850091.11406      -313.921 6        40.327
C11        45.000                                                                                                                                    21877559.099 8 113922337.43108       266.986 8        48.281    21877555.861 8  88092038.28808       206.458 8        52.078    21877554.724 8  92571270.61408       217.045 8        49.378
R16        46.000    24661359.061 3                     -5108.122 3        20.310
G07        47.000    25694100.770 6 135023423.59706      1087.297 6        38.868                                    25694097.685 5 105213043.49005       847.229 5        30.128    25694096.874 5 105213051.52405       847.160 5        34.990
C21        48.000                                                                                                                                    24973325.988 7 130042682.27707      1949.646 7        44.781                                                                    24973320.840 7 105670317.51407      1584.301 7        45.466
R19        50.000    20351462.618 6 108866866.41406     -2502.245 6        40.577                                                                    20351461.756 7  84674343.22707     -1946.206 7        44.548
S48        51.000    77311535.962 6 406275950.19706      -496.435 6        37.905
C08        52.000                                                                                                                                    38130762.995 6 198556998.19106     -1163.078 6        41.175    38130757.389 7 153536896.08407      -899.309 7        44.795    38130756.903 7 161343843.89407      -944.985 7        42.093
C34        53.000                                                                                                                                    21596479.756 8 112458821.87508     -1011.112 8        50.689                                                                    21596479.579 8  91382121.67108      -821.552 8        49.647
C60        54.000                                                                                                                                    40628001.928 6 211560863.13106      -417.302 6        40.284                                                                    40627985.974 6 171910499.11506      -339.054 6        40.010
C25        55.000                                                                                                                                    23878206.565 7 124340330.59207     -3134.914 7        46.793                                                                    23878204.913 7 101036796.42807     -2547.342 7        46.452
I09        56.000    39588333.376 6 155353138.37806       466.719 6        41.549
C02        57.000                                                                                                                                    40771191.729 5 212306334.10105      -376.387 5        34.252    40771185.645 6 164168716.77706      -291.117 6        38.471    40771188.792 6 172516288.93806      -305.903 6        36.208
I03        58.000    82902203.156 6 249540798.14106      1106.936 6        41.449
E30        59.000    24397281.455 8 128208798.99908       369.559 8        48.325                                                                    24397281.239 8  95740456.71308       275.943 8        50.465    24397280.829 8  98238017.12508       283.125 8        51.178
R20        60.000    20609591.235 6 110208950.53006      1522.671 6        40.717                                                                    20609593.187 7  85718140.78207      1184.267 7        46.489
> 2025 01 02 18 46 40.0000000  0 57
G23         1.000    21528361.780 8 113132385.40808      1421.354 8        48.103                                    21528358.257 6  88155128.18506      1107.548 6        37.618    21528358.230 7  88155126.18207      1107.495 7        45.685
E11         2.000    27738547.437 5 145767243.91805     -3223.495 5        34.786                                                                    27738543.974 6 108852286.52706     -2407.188 6        37.524    27738543.582 6 111691897.76006     -2470.064 6        37.524
G16         3.000    20656663.802 8 108551709.26308      -306.528 8        49.262                                    20656659.154 6  84585832.67006      -238.852 6        40.265
G05         4.000    25334394.942 5 133133218.39805     -3884.688 5        35.962                                    25334392.633 4 103740188.72204     -3027.018 4        25.940    25334393.465 5 103740187.70005     -3026.865 5        33.748
S21         5.000    38577034.643 7 202723372.16407      -457.912 7        42.593
G26         6.000    21369041.325 8 112295309.69308     -2566.510 8        48.550                                    21369040.402 8  87502971.03708     -1999.879 8        48.466    21369040.335 7  87502958.03807     -1999.998 7        44.500
G10         7.000    23748630.612 7 124799945.59307      3035.607 7        44.107                                    23748629.196 6  97246723.39106      2365.406 6        39.120    23748629.626 6  97246717.39806      2365.397 6        40.033
E15         8.000    27898685.994 6 146608651.75106      2321.037 6        38.556                                                                    27898688.891 6 109480542.95606      1733.326 6        41.128    27898688.381 6 112336546.36506      1778.548 6        41.404
E36         9.000    24057255.363 7 126421923.51007     -1804.529 7        47.432                                                                    24057255.785 8  94406125.72308     -1347.549 8        50.352    24057255.441 8  96868881.45308     -1382.659 8        51.126
G27        10.000    21792852.735 7 114522355.31907      2090.719 7        46.292                                    21792851.084 7  89238267.23507      1629.130 7        45.862    21792851.352 7  89238269.23707      1629.206 7        42.988
G15        11.000    24426364.725 6 128361421.26606      1499.418 6        38.976                                    24426361.641 5 100021876.25805      1168.377 5        30.589    24426362.591 6 100021879.25406      1168.496 6        36.393
C23        13.000                                                                                                                                    23940729.101 7 124665711.89207      -403.109 7        47.101                                                                    23940720.992 7 101301094.93807      -327.461 7        47.957
S36        14.000    38347179.046 7 201516320.31207      -457.014 7        44.248
C13        15.000                                                                                                                                    37905691.561 7 197384941.71107      -888.820 7        44.713    37905692.781 7 152630591.90507      -687.320 7        45.181    37905691.010 7 160391456.37007      -722.111 7        43.403
G18        16.000    21264345.505 7 111745121.31607     -2199.727 7        47.484                                    21264341.302 6  87074218.33806     -1714.072 6        38.634    21264341.759 7  87074226.34007     -1714.095 7        46.870
R10        17.000    20322394.029 7 108329829.89507      -181.493 7        47.646
E27        18.000    27804517.707 6 146113729.22506      2326.570 6        39.234                                                                    27804518.488 6 109110901.52706      1737.399 6        41.948    27804517.889 7 111957270.60507      1782.751 7        42.576
E02        19.000    24358221.262 7 128003503.91307     -2496.730 7        47.545                                                                    24358220.088 8  95587141.90808     -1864.426 8        49.748    24358219.499 8  98080704.59208     -1913.100 8        50.011
S27        20.000    39337666.485 6 206720825.40906      -430.077 6        36.389
R11        21.000    23185160.283 7 123894482.41007      3267.175 7        44.125                                                                    23185159.351 7  96362377.35207      2541.157 7        42.900
I06        22.000    38838083.963 6 152409203.79706      -302.597 6        41.883
S28        23.000    41049071.678 5 215714335.67705      -451.524 5        34.348
E04        24.000    28560372.438 6 150085757.44306       768.040 6        36.378                                                                    28560371.455 6 112077027.20206       573.436 6        38.186    28560370.956 6 115000771.55906       588.459 6        38.925
S23        25.000    38303120.015 7 201284187.77707      -458.946 7        45.267
S45        26.000    63559715.366 6 334009360.26206      -511.558 6        37.603
R09        27.000    20749775.956 8 110802850.44608     -3637.429 8        51.166                                                                    20749774.599 7  86180106.34007     -2829.144 7        47.201
R18        28.000    23240505.707 7 124059687.08607     -3889.663 7        43.137                                                                    23240506.624 6  96491018.07706     -3025.360 6        41.781
C38        29.000                                                                                                                                    39435474.172 6 205350983.29506     -1469.065 6        41.690                                                                    39435472.126 7 166864539.63607     -1193.611 7        42.298
C44        30.000                                                                                                                                    24680783.931 7 128519536.88107     -3076.208 7        44.849                                                                    24680783.096 7 104432735.16407     -2499.497 7        44.224
C43        31.000                                                                                                                                    22904514.887 8 119269919.95208      1392.793 8        48.559                                                                    22904513.834 8  96916620.92708      1131.842 8        48.208
R02        32.000    24124230.016 7 128731518.84607     -3048.496 7        42.620                                                                    24124230.872 6 100124518.35706     -2370.938 6        39.267
I02        33.000    39424210.727 6 154709127.93506      -980.112 6        40.768
R03        34.000    22309521.232 7 119424652.46307       125.981 7        47.645                                                                    22309520.721 7  92885842.61507        98.037 7        43.797
E34        35.000    23995991.484 8 126099991.89808       884.903 8        48.571                                                                    23995991.708 8  94165688.61208       660.847 8        50.683    23995991.534 8  96622173.69608       678.001 8        51.321
G29        36.000    24309960.820 6 127749992.38306     -3576.285 6        40.491                                    24309957.868 5  99545555.97205     -2786.718 5        34.000    24309958.273 6  99545565.98306     -2786.871 6        37.028
G31        37.000    25718935.062 6 135154096.68206     -3770.743 6        39.216                                    25718934.040 4 105314967.66804     -2938.233 4        28.863    25718935.120 5 105314973.64205     -2938.053 5        33.569
C22        38.000                                                                                                                                    24856905.700 7 129436454.44007      -616.998 7        43.841                                                                    24856899.269 7 105177705.51507      -501.295 7        44.769
C12        40.000                                                                                                                                    23123947.703 7 120412670.86907     -2369.729 7        46.039    23123943.927 8  93110812.66108     -1832.462 8        50.033    23123943.141 8  97845232.19808     -1925.463 8        48.516
R04        41.000    22886589.426 7 122556666.08307      3029.497 7        44.107                                                                    22886589.599 7  95321855.21407      2356.229 7        42.766
S44        42.000    40628400.190 6 213503873.86206      -421.396 6        37.750
G08        43.000    24666614.815 6 129623972.45006      2875.397 6        38.387                                    24666616.579 4 101005719.28804      2240.568 4        27.317    24666617.161 5 101005717.27305      2240.755 5        34.652
C05        44.000                                                                                                                                    39432433.791 6 205335062.62806      -386.664 6        38.099    39432428.780 7 158778118.35007      -298.859 7        42.207    39432431.042 6 166851660.40506      -313.979 6        40.329
C11        45.000                                                                                                                                    21877302.904 8 113921005.32008       265.420 8        48.248    21877300.113 8  88091008.20908       205.246 8        52.165    21877298.934 8  92570188.15908       215.824 8        49.408
R16        46.000    24666142.400 3                     -5100.992 3        19.313
G07        47.000    25693067.501 6 135017992.70106      1084.673 6        38.817                                    25693064.168 5 105208811.68405       845.195 5        30.068    25693064.585 5 105208819.67805       845.300 5        35.205
C21        48.000                                                                                                                                    24971454.598 7 130032937.86007      1947.780 7        44.444                                                                    24971449.568 7 105662399.36807      1582.861 7        45.395
R19        50.000    20353802.386 6 108879381.17206     -2504.127 6        40.186                                                                    20353800.814 7  84684076.92307     -1947.632 7        44.309
S48        51.000    77311981.712 6 406278431.75606      -496.309 6        37.754
C08        52.000                                                                                                                                    38131880.414 6 198562814.07806     -1163.840 6        41.471    38131874.506 7 153541393.31907      -899.983 7        44.855    38131873.668 7 161348569.78607      -945.632 7        42.296
C34        53.000                                                                                                                                    21597451.314 8 112463880.31608     -1012.708 8        50.829                                                                    21597450.991 8  91386232.05408      -822.724 8        49.746
C60        54.000                                                                                                                                    40628402.594 6 211562948.93206      -417.461 6        40.241                                                                    40628386.632 6 171912193.98606      -339.112 6        39.958
C25        55.000                                                                                                                                    23881217.349 7 124356007.65107     -3136.505 7        46.704                                                                    23881215.516 7 101049535.30707     -2548.618 7        46.458
I09        56.000    39587738.575 6 155350803.99206       466.693 6        41.998
C02        57.000                                                                                                                                    40771552.629 5 212308215.40905      -376.491 5        33.958    40771546.630 6 164170171.55506      -291.322 6        38.492    40771550.064 6 172517817.64706      -305.613 6        36.129
I03        58.000    82900792.717 6 249535262.72606      1106.964 6        41.397
E30        59.000    24396930.551 8 128206955.26108       367.474 8        48.338                                                                    24396930.433 8  95739079.89408       274.448 8        50.497    24396929.950 8  98236604.39008       281.568 8        51.205
R20        60.000    20608168.316 6 110201341.44606      1520.563 6        41.161                                                                    20608170.410 7  85712222.61907      1182.589 7        46.667
> 2025 01 02 18 46 45.0000000  0 57
G23         1.000    21527010.521 7 113125284.86407      1418.604 7        47.868                                    21527007.045 6  88149595.29406      1105.406 6        37.577    21527007.102 7  88149593.29407      1105.361 7        45.261
E11         2.000    27741613.970 5 145783360.20305     -3223.425 5        35.176                                                                    27741611.022 6 108864321.42306     -2407.355 6        37.611    27741610.649 6 111704246.59106     -2469.757 6        37.822
G16         3.000    20656956.959 8 108553249.37408      -309.783 8        49.070                                    20656952.246 6  84587032.75206      -241.390 6        40.281
G05         4.000    25338091.898 6 133152644.18806     -3885.892 6        36.257                                    25338089.212 4 103755325.63504     -3027.951 4        26.132    25338089.650 5 103755324.61305     -3028.090 5        33.677
S21         5.000    38577469.357 7 202725660.45107      -457.717 7        42.542
G26         6.000    21371484.596 8 112308147.95908     -2569.022 8        48.050                                    21371483.451 8  87512974.88008     -2001.834 8        48.430    21371483.431 7  87512961.87607     -2001.911 7        44.433
G10         7.000    23745742.337 7 124784768.95307      3034.788 7        44.423                                    23745741.208 6  97234897.44206      2364.770 6        39.438    23745741.309 6  97234891.43806      2364.705 6        39.901
E15         8.000    27896477.830 6 146597046.90606      2320.552 6        38.676                                                                    27896480.853 6 109471877.01206      1733.000 6        41.192    27896480.109 6 112327654.35206      1778.160 6        41.845
E36         9.000    24058972.755 7 126430948.64607     -1805.719 7        47.283                                                                    24058973.210 8  94412865.27108     -1348.477 8        50.334    24058972.861 8  96875796.81908     -1383.639 8        51.111
G27        10.000    21790863.966 7 114511904.12107      2089.455 7        46.313                                    21790862.276 7  89230123.44607      1628.147 7        45.916    21790862.144 7  89230125.44607      1628.206 7        42.973
G15        11.000    24424938.704 6 128353929.01206      1497.021 6        38.835                                    24424936.087 5 100016038.14305      1166.505 5        30.649    24424936.623 6 100016041.15206      1166.632 6        36.771
C23        13.000                                                                                                                                    23941117.604 7 124667733.79007      -405.938 7        47.199                                                                    23941109.286 7 101302737.92807      -329.819 7        47.796
S36        14.000    38347613.876 7 201518604.58407      -457.033 7        44.224
C13        15.000                                                                                                                                    37906545.093 7 197389386.48907      -889.356 7        44.742    37906546.365 7 152634028.87407      -687.747 7        45.105    37906544.718 7 160395068.14407      -722.763 7        43.350
G18        16.000    21266439.081 7 111756123.96207     -2201.586 7        47.363                                    21266435.055 6  87082791.82306     -1715.522 6        38.589    21266435.331 7  87082799.83207     -1715.517 7        46.805
R10        17.000    20322566.453 8 108330747.94208      -186.040 8        48.026
E27        18.000    27802303.787 6 146102096.82006      2326.170 6        38.832                                                                    27802304.926 6 109102214.98506      1737.026 6        41.943    27802304.333 7 111948357.46707      1782.319 7        42.565
E02        19.000    24360597.506 7 128015990.79407     -2498.344 7        47.718                                                                    24360596.214 8  95596466.52808     -1865.668 8        49.723    24360595.716 8  98090272.45708     -1914.304 8        50.047
S27        20.000    39338074.897 6 206722974.76706      -429.812 6        36.405
R11        21.000    23182104.395 7 123878150.31907      3265.148 7        44.396                                                                    23182103.626 7  96349674.60307      2539.661 7        43.007
I06        22.000    38838469.140 6 152410716.39606      -302.602 6        41.881
S28        23.000    41049503.560 5 215716591.59605      -451.622 5        34.400
E04        24.000    28559642.362 6 150081921.24306       766.042 6        36.053                                                                    28559641.615 6 112074162.50606       572.089 6        38.396    28559640.853 6 114997832.14006       587.064 6        38.772
S23        25.000    38303557.049 7 201286481.73907      -458.870 7        45.174
S45        26.000    63560148.286 6 334011916.59406      -511.162 6        37.622
R09        27.000    20753183.085 8 110821044.48208     -3640.531 8        51.238                                                                    20753181.933 7  86194257.24707     -2831.512 7        47.337
R18        28.000    23244148.404 7 124079135.13407     -3889.752 7        42.703                                                                    23244150.418 7  96506144.34007     -3025.459 7        42.136
C38        29.000                                                                                                                                    39436885.026 6 205358328.73806     -1469.433 6        41.466                                                                    39436882.658 7 166870508.43807     -1193.998 7        42.229
C44        30.000                                                                                                                                    24683737.896 7 128534917.76907     -3076.518 7        44.585                                                                    24683736.907 7 104445233.42207     -2499.894 7        44.328
C43        31.000                                                                                                                                    22903177.949 8 119262957.78708      1391.804 8        48.698                                                                    22903176.812 8  96910963.63508      1130.924 8        48.128
R02        32.000    24127087.340 7 128746767.99307     -3051.530 7        42.688                                                                    24127088.318 6 100136378.80306     -2373.341 6        38.261
I02        33.000    39425459.823 6 154714027.96506      -980.145 6        40.779
R03        34.000    22309405.964 7 119424032.16507       121.890 7        47.949                                                                    22309404.199 7  92885360.16007        94.709 7        43.276
E34        35.000    23995150.025 8 126095570.35408       883.391 8        48.330                                                                    23995150.323 8  94162386.80908       659.691 8        50.736    23995150.121 8  96618785.75208       676.924 8        51.341
G29        36.000    24313363.495 6 127767874.14606     -3576.764 6        40.145                                    24313360.630 5  99559489.80705     -2787.088 5        33.731    24313361.075 6  99559499.80106     -2787.089 6        36.707
G31        37.000    25722522.504 6 135172948.52406     -3770.268 6        38.661                                    25722521.319 4 105329657.38604     -2937.865 4        28.900    25722522.121 5 105329663.35205     -2937.759 5        34.129
C22        38.000                                                                                                                                    24857499.475 7 129439545.85407      -619.810 7        44.271                                                                    24857493.033 7 105180217.57607      -503.638 7        44.718
C12        40.000                                                                                                                                    23126223.332 7 120424521.02707     -2370.634 7        46.160    23126219.802 8  93119975.95208     -1833.078 8        50.077    23126218.875 8  97854861.45108     -1926.226 8        48.469
R04        41.000    22883761.606 7 122541522.94007      3027.529 7        45.630                                                                    22883761.530 7  95310077.21807      2354.755 7        42.790
S44        42.000    40628800.270 6 213505979.33206      -421.064 6        37.728
G08        43.000    24663878.604 6 129609595.03206      2875.203 6        37.890                                    24663880.653 4 100994516.13204      2240.411 4        27.389    24663881.576 5 100994514.15505      2240.399 5        35.352
C05        44.000                                                                                                                                    39432803.862 6 205336994.24906      -386.236 6        37.996    39432799.719 7 158779612.01007      -298.872 7        42.201    39432801.950 6 166853230.05806      -314.064 6        40.307
C11        45.000                                                                                                                                    21877048.658 8 113919680.72908       264.114 8        48.215    21877045.718 8  88089983.95308       204.202 8        52.029    21877044.584 8  92569111.85008       214.628 8        49.379
R16        46.000    24670910.934 3                     -5107.982 3        20.333
G07        47.000    25692036.777 6 135012574.15406      1082.335 6        39.384                                    25692032.900 5 105204589.46005       843.381 5        30.234    25692033.192 5 105204597.47305       843.549 5        35.619
C21        48.000                                                                                                                                    24969585.415 7 130023202.52607      1946.096 7        44.450                                                                    24969579.813 7 105654488.64307      1581.442 7        45.180
R19        50.000    20356142.368 6 108891904.67006     -2505.655 6        40.210                                                                    20356142.256 7  84693817.42807     -1948.850 7        44.540
S48        51.000    77312424.013 6 406280913.48206      -496.505 6        37.743
C08        52.000                                                                                                                                    38132998.239 6 198568634.07306     -1164.451 6        41.685    38132992.306 7 153545893.70007      -900.424 7        44.835    38132991.409 7 161353299.02307      -946.161 7        42.161
C34        53.000                                                                                                                                    21598424.174 8 112468946.48908     -1014.069 8        50.869                                                                    21598423.846 8  91390348.77008      -823.973 8        49.683
C60        54.000                                                                                                                                    40628803.175 6 211565035.27206      -417.324 6        40.327                                                                    40628787.267 6 171913889.34306      -339.049 6        40.157
C25        55.000                                                                                                                                    23884229.176 7 124371692.76707     -3137.860 7        46.900                                                                    23884227.723 7 101062280.77007     -2549.692 7        46.383
I09        56.000    39587143.706 7 155348470.09207       466.641 7        42.023
C02        57.000                                                                                                                                    40771913.802 5 212310097.27405      -376.201 5        34.157    40771907.825 6 164171626.72106      -291.197 6        38.664    40771911.653 6 172519346.85206      -306.045 6        36.129
I03        58.000    82899382.128 6 249529727.70506      1107.066 6        41.692
E30        59.000    24396581.952 8 128205122.30008       365.428 8        48.102                                                                    24396581.644 8  95737711.12608       272.914 8        50.558    24396581.163 8  98235199.91608       279.997 8        51.246
R20        60.000    20606747.851 6 110193743.09306      1518.521 6        41.058                                                                    20606749.780 7  85706312.78807      1181.076 7        46.795
