     3.04           OBSERVATION DATA    M                   RINEX VERSION / TYPE
ssrcrin-15.6.1x                         20250102 001500 UTC PGM / RUN BY / DATE 
(00000000023479385599111004) Septentrio proprietary         COMMENT             
rref                                                        MARKER NAME         
01                                                          MARKER NUMBER       
geodetic                                                    MARKER TYPE         
NFB                 CLIMERS@TUW                             OBSERVER / AGENCY   
3297213             SEPT ASTERX SB3 PROB4.14.4              REC # / TYPE / VERS 
Unknown             Unknown                                 ANT # / TYPE        
  4127831.8455  1207193.1787  4695247.6089                  APPROX POSITION XYZ 
        0.0000        0.0000        0.0000                  ANTENNA: DELTA H/E/N
G   23 X1  C1C L1C D1C S1C C1W S1W C2W L2W D2W S2W C2L L2L  SYS / # / OBS TYPES 
       D2L S2L C5Q L5Q D5Q S5Q C1L L1L D1L S1L              SYS / # / OBS TYPES 
E   21 X1  C1C L1C D1C S1C C6C L6C D6C S6C C5Q L5Q D5Q S5Q  SYS / # / OBS TYPES 
       C7Q L7Q D7Q S7Q C8Q L8Q D8Q S8Q                      SYS / # / OBS TYPES 
S    9 X1  C1C L1C D1C S1C C5I L5I D5I S5I                  SYS / # / OBS TYPES 
R   17 X1  C1C L1C D1C S1C C2P L2P D2P S2P C2C L2C D2C S2C  SYS / # / OBS TYPES 
       C3Q L3Q D3Q S3Q                                      SYS / # / OBS TYPES 
C   25 X1  C1P L1P D1P S1P C5P L5P D5P S5P C2I L2I D2I S2I  SYS / # / OBS TYPES 
       C7I L7I D7I S7I C6I L6I D6I S6I C7D L7D D7D S7D      SYS / # / OBS TYPES 
J   17 X1  C1C L1C D1C S1C C2L L2L D2L S2L C5Q L5Q D5Q S5Q  SYS / # / OBS TYPES 
       C1L L1L D1L S1L                                      SYS / # / OBS TYPES 
I    5 X1  C5A L5A D5A S5A                                  SYS / # / OBS TYPES 
SEPTENTRIO RECEIVERS OUTPUT ALIGNED CARRIER PHASES.         COMMENT             
NO FURTHER PHASE SHIFT APPLIED IN THE RINEX ENCODER.        COMMENT             
G L1C                                                       SYS / PHASE SHIFT   
G L2W                                                       SYS / PHASE SHIFT   
G L2L  0.00000                                              SYS / PHASE SHIFT   
G L5Q  0.00000                                              SYS / PHASE SHIFT   
G L1L  0.00000                                              SYS / PHASE SHIFT   
E L1C  0.00000                                              SYS / PHASE SHIFT   
E L6C  0.00000                                              SYS / PHASE SHIFT   
E L5Q  0.00000                                              SYS / PHASE SHIFT   
E L7Q  0.00000                                              SYS / PHASE SHIFT   
E L8Q  0.00000                                              SYS / PHASE SHIFT   
S L1C                                                       SYS / PHASE SHIFT   
S L5I                                                       SYS / PHASE SHIFT   
R L1C                                                       SYS / PHASE SHIFT   
R L2P  0.00000                                              SYS / PHASE SHIFT   
R L2C                                                       SYS / PHASE SHIFT   
R L3Q  0.00000                                              SYS / PHASE SHIFT   
C L1P  0.00000                                              SYS / PHASE SHIFT   
C L5P  0.00000                                              SYS / PHASE SHIFT   
C L2I                                                       SYS / PHASE SHIFT   
C L7I                                                       SYS / PHASE SHIFT   
C L6I                                                       SYS / PHASE SHIFT   
C L7D                                                       SYS / PHASE SHIFT   
J L1C                                                       SYS / PHASE SHIFT   
J L2L  0.00000                                              SYS / PHASE SHIFT   
J L5Q  0.00000                                              SYS / PHASE SHIFT   
J L1L  0.00000                                              SYS / PHASE SHIFT   
I L5A                                                       SYS / PHASE SHIFT   
  2025     1     2     0    15    0.0000000     GPS         TIME OF FIRST OBS   
 C1C    0.000 C2C    0.000 C2P    0.000                     GLONASS COD/PHS/BIS 
DBHZ                                                        SIGNAL STRENGTH UNIT
    18                                                      LEAP SECONDS        
 24 R01  1 R02 -4 R03  5 R04  6 R05  1 R06 -4 R07  5 R08  6 GLONASS SLOT / FRQ #
    R09 -2 R10 -7 R11  0 R12 -1 R13 -2 R14 -7 R15  0 R16 -1 GLONASS SLOT / FRQ #
    R17  4 R18 -3 R19  3 R20  2 R21  4 R22 -3 R23  3 R24  2 GLONASS SLOT / FRQ #
                                                            END OF HEADER       
> 2025 01 02 00 15  0.0000000  0 57
G10         1.000    25685310.640 5 134977308.44605     -3570.183 5        32.647                                    25685308.547 3 105177183.19003     -2781.915 3        22.933    25685309.022 5 105177160.18405     -2781.968 5        30.196
G14         2.000    25060941.759 5 131696182.89205     -2812.892 5        35.086                                    25060937.454 2 102620403.84002     -2191.848 2        15.000    25060937.065 5 102620399.81105     -2191.865 5        34.371
C33         3.000                                                                                                                                    26641823.522 6 138730986.81406     -3629.651 6        39.694                                                                    26641834.799 6 112730348.68906     -2949.209 6        39.595
E31         4.000    28400981.230 5 149248194.35005     -3112.308 5        35.552                                                                    28400982.062 6 111451582.03906     -2323.811 6        37.520    28400982.148 6 114359011.61106     -2384.557 6        38.438
S21         5.000    38381192.662 7 201694281.09007      -460.383 7        42.353
E10         6.000    28823845.186 5 151470328.74105      2257.935 5        34.300                                                                    28823843.385 6 113110954.26606      1686.249 6        36.159    28823843.949 6 116061674.55306      1730.086 6        37.894
G28         7.000    23692082.447 6 124502744.77906      1448.825 6        40.865                                    23692078.790 4  97015107.50904      1128.934 4        26.515    23692078.509 6  97015115.50306      1128.980 6        40.782
G03         8.000    20584948.964 8 108174735.65508      1277.037 8        48.392                                    20584946.867 8  84292043.60908       995.094 8        49.775    20584947.392 7  84292041.61107       995.121 7        44.427
G02         9.000    20629869.091 8 108410749.09908      -710.131 8        50.342                                    20629862.059 7  84475904.01807      -553.348 7        43.623
G31        10.000    24213305.165 6 127241776.82606      2634.524 6        40.796                                    24213300.638 5  99149418.13405      2052.874 5        33.754    24213300.901 6  99149423.14006      2053.144 6        37.089
C30        11.000                                                                                                                                    21907219.228 8 114076655.90908        18.199 8        51.427                                                                    21907218.983 8  92696630.96408        14.914 8        48.691
S27        12.000    39032720.621 5 205118336.00705      -438.756 5        35.619
R20        13.000    21618981.501 6 115606450.30106     -4043.421 6        36.491                                                                    21618982.853 7  89916193.76707     -3145.045 7        44.215
S36        14.000    38148852.408 7 200474106.51107      -459.799 7        44.075
G19        16.000    24549090.503 6 129006349.65906      2999.392 6        39.000                                    24549084.679 3 100524409.45703      2337.188 3        23.543
S45        17.000    63349739.454 6 332905727.44606      -501.786 6        37.924
E08        18.000    28912741.671 3                     -3412.749 3        22.400                                                                    28912741.781 4 113459832.21204     -2548.786 4        29.659    28912741.026 5 116419649.94205     -2614.980 5        30.883
E12        19.000    26762973.231 6 140640379.06406      2039.255 6        37.871                                                                    26762969.711 6 105023647.54906      1522.948 6        41.697    26762969.312 6 107763394.42406      1562.669 6        41.695
G17        20.000    22726788.058 7 119430103.90007      1351.388 7        45.154                                    22726783.336 6  93062409.13406      1053.029 6        41.476    22726783.580 6  93062408.14006      1053.010 6        40.782
E26        21.000    24658181.331 7 129579965.97207     -2289.106 7        45.952                                                                    24658179.049 8  96764457.43608     -1709.351 8        48.666    24658178.565 8  99288723.17708     -1753.932 8        49.302
I06        22.000    38202437.280 7 149914806.59507      -239.079 7        43.418
S28        23.000    40825147.482 5 214537614.80705      -452.912 5        34.314
G08        24.000    24302047.392 6 127708128.49706     -4160.193 6        39.045                                    24302046.435 5  99512825.70405     -3241.711 5        32.605    24302047.210 6  99512826.72206     -3241.845 6        37.289
S23        25.000    38100208.685 7 200217907.45607      -457.125 7        45.056
C13        26.000                                                                                                                                    40964134.209 6 213311183.33606     -1158.203 6        36.083    40964136.580 6 164945845.44506      -895.560 6        38.486    40964135.001 6 173332893.74106      -941.193 6        36.639
E24        27.000    28088440.621 6 147605791.19306     -1798.368 6        37.164                                                                    28088438.575 6 110225117.90406     -1342.882 6        39.504    28088438.509 6 113100552.13106     -1377.976 6        40.899
R21        29.000    19090558.846 8 102157444.67408      -635.826 8        51.607                                                                    19090557.065 7  79455794.18607      -494.493 7        45.591
E19        30.000    26294102.889 5 138176463.58705      2667.882 5        35.538                                                                    26294100.701 6 103183721.96706      1992.265 6        38.778    26294100.459 6 105875468.37306      2044.255 6        39.676
R05        31.000    21291793.043 7 113816877.13107     -3979.920 7        47.910                                                                    21291792.376 7  88524247.74007     -3095.534 7        44.927
R13        32.000    24159211.465 6 129008854.92406     -2372.305 6        38.198
E29        33.000    23966423.978 7 125944490.34607      1149.986 7        47.918                                                                    23966421.830 8  94049471.85408       858.789 8        49.787    23966421.869 8  96502930.85408       881.161 8        50.628
C16        35.000                                                                                                                                    39208328.271 7 204168081.74007       559.586 7        42.226    39208327.522 7 157875723.58207       432.732 7        42.271    39208325.093 6 165903290.39006       454.838 6        38.375
C32        36.000                                                                                                                                    22191144.341 8 115555170.04308       963.836 8        51.057                                                                    22191143.906 8  93898062.73408       783.294 8        49.556
G32        37.000    23161692.393 7 121715556.79407     -3135.626 7        44.933                                    23161690.145 6  94843293.38806     -2443.344 6        41.395    23161690.765 6  94843302.38706     -2443.361 6        40.243
E07        38.000    24786601.786 7 130254489.15307     -1839.683 7        44.623                                                                    24786601.361 8  97268001.06008     -1373.801 8        48.441    24786601.012 8  99805419.50408     -1409.659 8        48.827
C41        39.000                                                                                                                                    22639175.439 8 117888159.16408     -2227.402 8        50.097                                                                    22639180.425 8  95793815.39508     -1809.842 8        50.263
C39        40.000                                                                                                                                    39000827.003 7 203087568.67107       139.962 7        44.169                                                                    39000822.728 7 165025280.67707       113.821 7        43.064
E33        41.000    23219957.386 8 122021789.00008        49.868 8        48.019                                                                    23219955.091 8  91120200.60608        37.209 8        50.686    23219954.976 8  93497245.18108        38.232 8        51.473
S44        42.000    40500316.961 6 212830787.35206      -525.037 6        36.185
R06        43.000    19237294.310 6 102653953.52506       502.744 6        41.595
C05        44.000                                                                                                                                    39064554.534 6 203419424.90006      -445.153 6        38.700    39064548.477 7 157296828.49907      -344.223 7        43.592    39064550.659 6 165295050.02206      -361.690 6        40.241
C29        45.000                                                                                                                                    25229414.610 7 131376198.73607      2546.054 7        42.478                                                                    25229412.723 7 106753919.49107      2069.094 7        42.114
G04        46.000    23799128.536 6 125065287.18106      3294.300 6        39.838                                    23799125.203 4  97453453.76504      2567.009 4        24.120    23799125.746 6  97453455.75806      2566.805 6        38.426
E25        47.000    28543049.415 5 149994757.16005       332.948 5        34.933                                                                    28543050.152 6 112009076.01306       248.517 6        39.438    28543049.822 6 114931049.19606       254.959 6        40.758
R22        48.000    21435459.794 8 114423969.44008      3049.729 8        48.408                                                                    21435458.359 7  88996417.93807      2371.967 7        44.861
C20        49.000                                                                                                                                    26328484.055 6 137099337.04706      2736.735 6        41.883                                                                    26328479.978 6 111404421.86306      2223.854 6        40.269
C06        50.000                                                                                                                                    38876589.339 6 202440633.16706       680.420 6        39.868    38876583.992 7 156539921.62907       526.109 7        43.972    38876583.912 6 164499577.24706       553.218 6        40.291
S48        51.000    77137054.426 6 405358143.19806      -467.264 6        38.060
G21        52.000    21257383.896 7 111708380.12607     -2105.656 7        45.287                                    21257378.418 6  87045513.22206     -1640.770 6        37.036
C09        53.000                                                                                                                                    39767144.173 6 207077970.67306      1034.078 6        39.586    39767141.317 7 160125811.28207       799.653 7        43.856    39767139.615 6 168267791.75106       840.445 6        40.062
C60        54.000                                                                                                                                    40500314.876 6 210895981.55506      -520.300 6        39.261                                                                    40500298.596 6 171370232.01006      -422.789 6        39.595
C27        55.000                                                                                                                                    22595279.714 8 117659567.06508     -2858.355 8        50.132                                                                    22595277.893 7  95608039.76807     -2322.549 7        47.706
R14        56.000    23938422.899 7 127605274.23207       898.215 7        43.340                                                                    23938424.153 6  99248564.26806       698.782 6        39.240
C02        57.000                                                                                                                                    40481843.077 5 210799646.13905      -489.162 5        33.916    40481837.029 6 163003654.92506      -378.236 6        40.830    40481840.328 5 171291985.47005      -397.156 5        35.795
I03        58.000   104886977.013 6 335813800.39106       954.994 6        40.970
R07        59.000    21980273.497 7 117662182.90607      3290.272 7        47.527                                                                    21980272.163 6  91515082.93906      2559.123 6        41.423
C28        60.000                                                                                                                                    26134265.907 5 136088288.54605     -3896.367 5        30.558
> 2025 01 02 00 15  5.0000000  0 57
G10         1.000    25688707.002 5 134995158.65105     -3569.916 5        32.120                                    25688705.218 3 105191092.44203     -2781.720 3        21.976    25688704.890 5 105191069.33205     -2781.603 5        33.605
G14         2.000    25063618.736 5 131710249.68805     -2813.806 5        35.652                                    25063614.360 2 102631364.97402     -2192.584 2        15.667    25063613.630 5 102631360.98005     -2192.850 5        34.400
C33         3.000                                                                                                                                    26645308.691 6 138749134.04906     -3629.360 6        39.468                                                                    26645319.491 6 112745094.77806     -2949.111 6        39.369
E31         4.000    28403941.518 5 149263754.40105     -3111.807 5        35.762                                                                    28403942.859 6 111463201.55506     -2323.885 6        37.391    28403942.841 6 114370934.25006     -2384.595 6        38.595
S21         5.000    38381625.578 6 201696582.43306      -460.131 6        41.971
E10         6.000    28821696.230 5 151459036.91305      2258.645 5        34.638                                                                    28821694.814 6 113102522.06606      1686.623 6        36.480    28821695.019 6 116053022.36806      1730.666 6        37.905
G28         7.000    23690704.807 6 124495505.18606      1446.876 6        40.694                                    23690701.230 4  97009466.27004      1127.441 4        26.419    23690700.437 6  97009474.25906      1127.604 6        40.756
G03         8.000    20583734.749 8 108168354.35208      1275.450 8        48.335                                    20583732.535 8  84287071.16108       993.856 8        49.817    20583732.883 7  84287069.16407       993.789 7        44.819
G02         9.000    20630545.713 8 108414304.39908      -712.003 8        50.102                                    20630538.597 7  84478674.38707      -554.806 7        43.661
G31        10.000    24210798.456 6 127228605.64506      2633.920 6        40.358                                    24210794.285 5  99139154.88705      2052.406 5        33.641    24210794.204 6  99139159.89806      2052.336 6        37.675
C30        11.000                                                                                                                                    21907202.660 8 114076570.20308        15.993 8        51.565                                                                    21907202.488 8  92696561.30408        13.002 8        48.795
S27        12.000    39033135.391 5 205120529.10205      -438.471 5        35.914
R20        13.000    21622762.874 5 115626672.19505     -4045.285 5        35.638                                                                    21622763.911 7  89931921.91407     -3146.333 7        44.292
S36        14.000    38149292.201 7 200476405.18707      -459.437 7        43.691
G19        16.000    24546236.544 6 128991354.48706      2998.642 6        38.060                                    24546230.988 3 100512724.91403      2336.600 3        23.543
S45        17.000    63350173.009 6 332908235.41206      -501.502 6        37.841
E08        18.000    28915989.362 3                     -3413.662 3        20.214                                                                    28915989.291 4 113472574.61804     -2548.885 4        27.545    28915988.787 4 116432724.75904     -2615.006 4        28.701
E12        19.000    26761032.613 6 140630181.83006      2039.523 6        37.989                                                                    26761029.210 6 105016032.74106      1523.002 6        41.530    26761028.863 6 107755580.96806      1562.719 6        41.585
G17        20.000    22725503.644 7 119423352.44107      1349.231 7        44.736                                    22725498.572 6  93057148.25806      1051.344 6        41.573    22725498.784 6  93057147.26306      1051.276 6        40.706
E26        21.000    24660359.676 7 129591413.18207     -2289.917 7        45.893                                                                    24660357.362 8  96773005.67608     -1710.006 8        48.615    24660356.959 8  99297494.41408     -1754.579 8        49.340
I06        22.000    38202741.692 7 149916001.49907      -238.841 7        43.255
S28        23.000    40825574.889 5 214539878.72505      -452.720 5        34.429
G08        24.000    24306005.723 6 127728929.16706     -4159.988 6        39.276                                    24306004.626 5  99529034.01105     -3241.550 5        32.707    24306005.318 6  99529035.01906     -3241.568 6        37.879
S23        25.000    38100643.130 7 200220192.15107      -456.786 7        45.174
C13        26.000                                                                                                                                    40965245.401 5 213316973.70505     -1157.951 5        35.962    40965248.324 6 164950322.90206      -895.371 6        38.261    40965246.940 6 173337598.84406      -940.945 6        36.790
E24        27.000    28090152.298 6 147614786.87606     -1799.970 6        37.406                                                                    28090150.305 6 110231835.47106     -1344.320 6        39.601    28090150.229 6 113107444.92506     -1379.209 6        40.882
R21        29.000    19091154.518 8 102160632.48508      -639.332 8        51.585                                                                    19091152.817 7  79458273.60107      -497.293 7        45.719
E19        30.000    26291564.736 5 138163124.58805      2667.637 5        35.381                                                                    26291562.485 6 103173761.03606      1992.056 6        38.658    26291562.191 6 105865247.59306      2043.858 6        40.055
R05        31.000    21295516.513 7 113836779.89307     -3981.263 7        47.913                                                                    21295515.232 7  88539727.66607     -3096.539 7        44.625
R13        32.000    24161432.426 6 129020723.88606     -2375.413 6        38.363
E29        33.000    23965330.608 8 125938744.41808      1148.329 8        48.198                                                                    23965328.425 8  94045181.07708       857.522 8        49.775    23965328.445 8  96498528.13508       879.890 8        50.625
C16        35.000                                                                                                                                    39207790.984 7 204165285.24707       559.031 7        42.123    39207790.502 7 157873561.16707       432.211 7        42.157    39207787.796 6 165901017.99506       454.146 6        38.492
C32        36.000                                                                                                                                    22190219.746 8 115550354.95908       962.127 8        51.129                                                                    22190219.245 8  93894150.06408       781.808 8        49.655
G32        37.000    23164676.998 7 121731238.74407     -3137.151 7        44.686                                    23164674.274 6  94855513.08606     -2444.532 6        41.411    23164674.897 6  94855522.08506     -2444.495 6        40.815
E07        38.000    24788352.785 7 130263691.38807     -1841.356 7        44.862                                                                    24788352.522 8  97274872.85508     -1374.990 8        48.424    24788352.028 8  99812470.55908     -1410.857 8        48.848
C41        39.000                                                                                                                                    22641314.913 8 117899299.25608     -2228.684 8        50.169                                                                    22641319.761 8  95802867.60908     -1810.975 8        50.442
C39        40.000                                                                                                                                    39000692.670 7 203086870.31107       139.305 7        44.244                                                                    39000688.596 7 165024713.18607       113.131 7        43.355
E33        41.000    23219910.392 8 122021542.02508        48.841 8        48.137                                                                    23219908.062 8  91120016.17608        36.449 8        50.673    23219907.963 8  93497055.94208        37.461 8        51.552
S44        42.000    40500816.177 6 212833411.88306      -524.777 6        36.684
R06        43.000    19236824.912 6 102651448.45006       499.383 6        41.733
C05        44.000                                                                                                                                    39064981.735 6 203421649.84006      -444.834 6        38.547    39064975.700 7 157298548.94807      -343.970 7        43.628    39064977.994 6 165296857.94306      -361.568 6        40.417
C29        45.000                                                                                                                                    25226970.028 7 131363469.67107      2545.570 7        42.622                                                                    25226968.262 7 106743576.07307      2068.445 7        42.190
G04        46.000    23795994.615 6 125048817.34706      3293.703 6        40.112                                    23795990.971 4  97440620.13904      2566.521 4        24.120    23795991.291 6  97440622.11506      2566.649 6        38.820
E25        47.000    28542733.417 5 149993097.31705       330.969 5        35.281                                                                    28542734.483 6 112007836.52306       247.081 6        39.646    28542733.892 6 114929777.37106       253.560 6        40.799
R22        48.000    21432604.006 8 114408723.75308      3048.513 8        48.278                                                                    21432602.428 7  88984560.16507      2371.090 7        44.790
C20        49.000                                                                                                                                    26325855.738 6 137085654.10906      2736.418 6        41.080                                                                    26325852.139 6 111393303.32606      2223.635 6        40.543
C06        50.000                                                                                                                                    38875936.871 6 202437231.92606       679.925 6        39.946    38875930.725 7 156537291.57707       525.773 7        43.979    38875930.752 6 164496813.45206       552.532 6        40.613
S48        51.000    77137490.633 6 405360478.08306      -466.937 6        38.390
G21        52.000    21259387.903 7 111718911.78507     -2107.065 7        45.649                                    21259382.505 6  87053719.70906     -1641.869 6        37.077
C09        53.000                                                                                                                                    39766151.164 6 207072800.60406      1033.788 6        39.688    39766148.415 7 160121813.47107       799.437 7        43.772    39766146.696 6 168263590.62906       839.978 6        40.255
C60        54.000                                                                                                                                    40500813.806 6 210898582.22706      -519.912 6        39.444                                                                    40500798.099 6 171372345.23806      -422.465 6        39.961
C27        55.000                                                                                                                                    22598025.097 8 117673862.63208     -2859.895 8        49.892                                                                    22598023.258 7  95619656.06707     -2323.918 7        47.950
R14        56.000    23937582.121 7 127600791.03407       895.020 7        42.868                                                                    23937582.960 6  99245077.33206       695.992 6        38.459
C02        57.000                                                                                                                                    40482313.420 5 210802090.86105      -488.837 5        34.105    40482306.723 6 163005545.33406      -377.868 6        40.706    40482309.750 6 171293971.99706      -397.170 6        36.038
I03        58.000   104885760.271 6 335809025.15406       955.205 6        40.849
R07        59.000    21977200.958 8 117645734.87308      3288.860 8        48.311                                                                    21977199.576 7  91502290.02607      2558.032 7        42.066
C28        60.000                                                                                                                                    26138006.484 5 136107768.46905     -3895.498 5        30.000
> 2025 01 02 00 15 10.0000000  0 56
G14         2.000    25066296.831 5 131724322.66205     -2814.966 5        35.605                                    25066292.424 2 102642330.92602     -2193.493 2        15.095    25066292.651 5 102642326.90905     -2193.586 5        33.892
C33         3.000                                                                                                                                    26648793.651 6 138767281.36406     -3629.309 6        39.408                                                                    26648804.588 6 112759840.95306     -2949.001 6        39.348
E31         4.000    28406903.504 5 149279315.91305     -3112.490 5        35.548                                                                    28406904.376 6 111474822.13206     -2324.128 6        37.365    28406903.822 6 114382857.96406     -2384.659 6        38.583
S21         5.000    38382063.158 6 201698883.75406      -459.949 6        41.821
E10         6.000    28819546.886 5 151447743.92705      2258.911 5        34.038                                                                    28819546.018 6 113094088.99406      1686.878 6        36.597    28819545.803 6 116044369.29706      1730.928 6        38.225
G28         7.000    23689329.470 6 124488277.41106      1444.479 6        40.153                                    23689325.826 4  97003834.23404      1125.572 4        26.240    23689325.243 6  97003842.22006      1125.650 6        40.796
G03         8.000    20582522.103 8 108161982.65208      1273.483 8        48.404                                    20582520.037 8  84282106.20308       992.327 8        49.806    20582520.688 7  84282104.20107       992.348 7        45.130
G02         9.000    20631224.326 8 108417870.76308      -714.179 8        50.271                                    20631217.229 7  84481453.37107      -556.503 7        43.591
G31        10.000    24208292.992 6 127215439.43706      2632.873 6        40.760                                    24208288.821 5  99128895.50605      2051.589 5        33.455    24208288.883 6  99128900.48906      2051.692 6        37.070
C30        11.000                                                                                                                                    21907188.732 8 114076497.56008        13.309 8        51.536                                                                    21907188.537 8  92696502.27308        10.876 8        48.896
S27        12.000    39033560.217 5 205122722.53305      -438.665 5        35.643
R20        13.000    21626546.637 6 115646904.33606     -4047.344 6        36.147                                                                    21626547.470 7  89947658.01007     -3147.898 7        44.441
S36        14.000    38149729.240 7 200478703.39707      -459.510 7        43.780
G19        16.000    24543384.497 6 128976366.29306      2997.166 6        38.141                                    24543378.687 3 100501045.80703      2335.451 3        23.276
S45        17.000    63350606.224 6 332910743.34406      -501.516 6        37.902
E08        18.000    28919236.506 3                     -3413.452 3        20.357                                                                    28919236.377 4 113485318.54804     -2549.055 4        28.000    28919236.318 4 116445801.22504     -2615.285 4        28.711
E12        19.000    26759092.213 6 140619985.99606      2039.237 6        37.527                                                                    26759088.910 6 105008418.97206      1522.731 6        41.518    26759088.532 6 107747768.58206      1562.414 6        41.762
G17        20.000    22724220.879 7 119416613.57107      1346.641 7        44.406                                    22724216.209 6  93051897.18706      1049.333 6        41.542    22724216.459 6  93051896.18706      1049.410 6        40.892
E26        21.000    24662539.069 7 129602866.39307     -2291.098 7        45.568                                                                    24662536.784 8  96781558.38908     -1710.829 8        48.629    24662536.673 8  99306270.24108     -1755.482 8        49.372
I06        22.000    38203045.887 7 149917196.43807      -238.852 7        43.225
S28        23.000    40826009.777 5 214542142.60805      -452.749 5        34.519
G08        24.000    24309963.960 6 127749730.43606     -4160.206 6        39.718                                    24309963.022 5  99545242.78405     -3241.719 5        33.030    24309963.763 6  99545243.78106     -3241.654 6        37.743
S23        25.000    38101075.187 7 200222476.93007      -456.853 7        45.034
C13        26.000                                                                                                                                    40966358.461 6 213322763.50606     -1157.664 6        36.246    40966360.565 6 164954799.94906      -895.319 6        38.150    40966358.911 6 173342303.52106      -940.765 6        37.104
E24        27.000    28091866.580 6 147623792.39106     -1801.829 6        37.096                                                                    28091864.031 6 110238560.35806     -1345.529 6        39.616    28091863.871 6 113114345.25806     -1380.703 6        40.927
R21        29.000    19091754.005 8 102163839.64508      -643.203 8        51.808                                                                    19091752.038 7  79460768.04307      -500.204 7        45.600
E19        30.000    26289026.876 6 138149788.61406      2667.156 6        36.318                                                                    26289025.029 6 103163802.35806      1991.738 6        38.766    26289024.509 6 105855029.12206      2043.628 6        40.389
R05        31.000    21299240.989 7 113856690.83307     -3982.787 7        47.805                                                                    21299239.964 7  88555213.95407     -3097.760 7        44.900
R13        32.000    24163659.037 6 129032609.71206     -2378.708 6        38.655
E29        33.000    23964239.202 8 125933008.56108      1146.341 8        48.035                                                                    23964236.932 8  94040897.80908       856.020 8        49.835    23964236.930 8  96494133.13108       878.323 8        50.785
C16        35.000                                                                                                                                    39207253.958 6 204162493.20706       557.995 6        41.712    39207254.042 6 157871402.17306       431.541 6        41.871    39207251.768 6 165898749.22406       453.584 6        38.562
C32        36.000                                                                                                                                    22189296.919 8 115545550.13708       960.097 8        51.306                                                                    22189296.545 8  93890245.74908       780.167 8        49.771
G32        37.000    23167662.813 7 121746929.67807     -3138.891 7        44.466                                    23167660.088 6  94867739.79106     -2445.887 6        41.392    23167660.925 6  94867748.78806     -2445.938 6        40.775
E07        38.000    24790105.532 7 130272903.53607     -1843.237 7        44.847                                                                    24790105.575 8  97281752.05608     -1376.478 8        48.484    24790105.118 8  99819529.22108     -1412.381 8        49.048
C41        39.000                                                                                                                                    22643455.794 8 117910447.39508     -2230.277 8        50.097                                                                    22643460.636 8  95811926.38408     -1812.258 8        50.498
C39        40.000                                                                                                                                    39000559.310 7 203086176.91007       138.345 7        44.438                                                                    39000555.371 7 165024149.73907       112.414 7        43.209
E33        41.000    23219864.722 8 122021302.10308        47.427 8        48.009                                                                    23219862.409 8  91119837.01608        35.413 8        50.684    23219862.341 8  93496872.10808        36.327 8        51.611
S44        42.000    40501312.456 6 212836036.50706      -524.903 6        36.767
R06        43.000    19236359.361 6 102648961.80306       495.652 6        41.847
C05        44.000                                                                                                                                    39065408.328 6 203423874.87206      -444.838 6        38.742    39065402.982 7 157300269.48907      -344.063 7        43.547    39065405.217 6 165298665.95506      -361.476 6        40.436
C29        45.000                                                                                                                                    25224526.864 7 131350745.28407      2544.485 7        42.552                                                                    25224524.672 7 106733236.45607      2067.650 7        42.155
G04        46.000    23792861.238 6 125032350.69106      3293.161 6        40.248                                    23792857.464 4  97427788.97504      2566.094 4        24.271    23792858.480 6  97427790.95306      2566.159 6        39.108
E25        47.000    28542419.932 5 149991448.74705       328.738 5        34.981                                                                    28542420.854 6 112006605.46006       245.417 6        39.703    28542420.199 6 114928514.19406       251.866 6        40.863
R22        48.000    21429749.171 8 114393485.70008      3047.021 8        48.236                                                                    21429748.127 7  88972708.37107      2369.816 7        45.356
C20        49.000                                                                                                                                    26323229.493 6 137071973.87206      2735.978 6        41.397                                                                    26323225.009 6 111382187.02406      2223.156 6        40.846
C06        50.000                                                                                                                                    38875284.777 6 202433835.04506       679.164 6        40.210    38875278.146 7 156534664.89407       525.120 7        43.809    38875278.422 6 164494053.22206       551.807 6        40.574
S48        51.000    77137927.935 6 405362812.79406      -466.928 6        37.955
G21        52.000    21261394.019 7 111729452.15107     -2108.824 7        45.887                                    21261388.278 6  87061932.98006     -1643.240 6        37.066
C09        53.000                                                                                                                                    39765159.162 6 207067633.80406      1033.119 6        39.844    39765156.237 7 160117818.18407       798.964 7        43.591    39765154.308 6 168259392.18706       839.522 6        40.305
C60        54.000                                                                                                                                    40501313.648 6 210901182.96406      -519.931 6        39.390                                                                    40501297.606 6 171374458.56206      -422.554 6        40.029
C27        55.000                                                                                                                                    22600772.189 8 117688167.66608     -2861.753 8        50.116                                                                    22600770.363 8  95631280.07508     -2325.473 8        48.002
R14        56.000    23936743.717 7 127596326.45507       891.270 7        42.262                                                                    23936744.766 6  99241604.90906       693.290 6        38.775
C02        57.000                                                                                                                                    40482782.319 5 210804535.67605      -488.723 5        33.994    40482776.373 6 163007435.82006      -377.943 6        40.641    40482779.311 5 171295958.60805      -397.131 5        35.762
I03        58.000   104884543.793 6 335804250.12006       955.080 6        40.717
R07        59.000    21974131.218 8 117629295.78308      3287.127 8        48.175                                                                    21974129.213 7  91489504.07607      2556.625 7        42.700
C28        60.000                                                                                                                                    26141747.779 5 136127249.86205     -3896.108 5        31.132
> 2025 01 02 00 15 15.0000000  0 56
G14         2.000    25068975.964 5 131738401.71005     -2816.391 5        35.595                                    25068971.569 2 102653301.56502     -2194.576 2        14.952    25068971.856 5 102653297.56905     -2194.725 5        33.575
C33         3.000                                                                                                                                    26652278.460 6 138785428.58906     -3629.362 6        39.309                                                                    26652289.567 6 112774587.08006     -2949.252 6        39.742
E31         4.000    28409864.879 5 149294878.59105     -3112.716 5        35.124                                                                    28409866.015 6 111486443.61306     -2324.304 6        37.282    28409864.900 6 114394782.60406     -2384.934 6        38.432
S21         5.000    38382500.599 6 201701184.90906      -460.325 6        41.743
E10         6.000    28817397.266 5 151436449.61405      2258.823 5        34.290                                                                    28817396.846 6 113085654.90906      1686.818 6        37.380    28817396.565 6 116035715.21006      1730.807 6        38.387
G28         7.000    23687956.424 6 124481061.24306      1442.000 6        40.696                                    23687952.658 4  96998211.25004      1123.627 4        26.120    23687952.494 6  96998219.25606      1123.692 6        41.273
G03         8.000    20581311.593 8 108155620.36808      1271.423 8        48.602                                    20581309.336 8  84277148.58008       990.719 8        49.783    20581310.207 7  84277146.57807       990.724 7        45.034
G02         9.000    20631905.183 8 108421447.99908      -716.594 8        50.130                                    20631897.953 7  84484240.82607      -558.384 7        43.589
G31        10.000    24205788.918 6 127202278.02506      2631.730 6        40.539                                    24205784.136 5  99118639.85805      2050.693 5        33.066    24205784.553 6  99118644.86106      2050.598 6        37.055
C30        11.000                                                                                                                                    21907177.096 8 114076437.79008        10.657 8        51.688                                                                    21907177.067 8  92696453.71708         8.713 8        48.980
S27        12.000    39033976.664 5 205124915.94305      -438.608 5        35.457
R20        13.000    21630331.502 6 115667146.59106     -4049.541 6        36.034                                                                    21630332.772 7  89963401.99707     -3149.608 7        44.033
S36        14.000    38150165.514 7 200481001.72207      -459.822 7        43.799
G19        16.000    24540533.784 6 128961384.87906      2995.512 6        38.294                                    24540527.715 3 100489371.97403      2334.160 3        23.048
S45        17.000    63351039.283 6 332913251.10006      -501.595 6        37.868
E08        18.000    28922482.873 3                     -3413.928 3        21.143                                                                    28922484.674 4 113498063.94904     -2549.150 4        28.047    28922484.018 4 116458879.14904     -2615.938 4        28.976
E12        19.000    26757152.740 6 140609791.34706      2038.701 6        37.841                                                                    26757149.076 6 105000806.08106      1522.446 6        41.573    26757148.620 7 107739957.10407      1562.107 7        42.083
G17        20.000    22722940.854 7 119409887.14807      1344.017 7        44.620                                    22722936.221 6  93046655.82206      1047.286 6        41.468    22722936.634 6  93046654.82706      1047.287 6        40.689
E26        21.000    24664719.838 7 129614325.39507     -2292.481 7        45.821                                                                    24664717.390 8  96790115.44108     -1711.936 8        48.581    24664717.334 8  99315050.51808     -1756.593 8        49.666
I06        22.000    38203350.476 7 149918391.27007      -239.064 7        43.249
S28        23.000    40826441.382 5 214544406.57105      -452.735 5        34.119
G08        24.000    24313922.883 6 127770532.10806     -4160.487 6        39.949                                    24313921.464 5  99561451.87305     -3241.938 5        33.473    24313922.088 6  99561452.87406     -3241.791 6        38.171
S23        25.000    38101509.404 7 200224761.43407      -456.923 7        44.897
C13        26.000                                                                                                                                    40967470.240 6 213328552.55906     -1157.808 6        36.692    40967472.214 6 164959276.39206      -895.441 6        37.992    40967470.651 6 173347007.60206      -940.798 6        36.941
E24        27.000    28093582.068 6 147632807.51806     -1804.034 6        37.788                                                                    28093579.574 6 110245292.43906     -1347.094 6        39.706    28093579.431 6 113121252.96606     -1382.438 6        41.356
R21        29.000    19092357.025 8 102167066.09908      -647.259 8        51.547                                                                    19092355.094 7  79463277.51907      -503.415 7        46.047
E19        30.000    26286489.769 6 138136455.42806      2666.300 6        36.760                                                                    26286487.877 6 103153845.76006      1990.944 6        38.976    26286487.424 6 105844812.79706      2042.978 6        40.620
R05        31.000    21302966.966 8 113876609.57608     -3984.616 8        48.107                                                                    21302966.286 7  88570706.30507     -3099.112 7        44.913
R13        32.000    24165887.871 6 129044512.42106     -2382.357 6        37.788
E29        33.000    23963149.182 7 125927282.58907      1144.215 7        47.741                                                                    23963147.377 8  94036621.92808       854.334 8        49.768    23963147.309 8  96489745.70508       876.646 8        50.995
C16        35.000                                                                                                                                    39206718.526 6 204159705.40606       557.114 6        41.943    39206718.482 6 157869246.47706       430.779 6        41.919    39206716.473 6 165896483.90906       452.654 6        38.730
C32        36.000                                                                                                                                    22188376.239 8 115540755.40508       957.869 8        51.391                                                                    22188375.730 8  93886349.64908       778.342 8        49.834
G32        37.000    23170649.840 7 121762629.44107     -3140.898 7        44.324                                    23170647.601 6  94879973.36706     -2447.451 6        41.235    23170648.374 6  94879982.37106     -2447.514 6        40.543
E07        38.000    24791860.493 7 130282125.41007     -1845.347 7        44.704                                                                    24791860.433 8  97288638.52508     -1378.067 8        48.392    24791859.979 8  99826595.33408     -1414.028 8        49.204
C41        39.000                                                                                                                                    22645598.124 8 117921603.38908     -2232.111 8        50.175                                                                    22645603.008 8  95820991.54508     -1813.680 8        50.569
C39        40.000                                                                                                                                    39000426.788 7 203085488.30207       137.114 7        44.351                                                                    39000423.204 7 165023590.18807       111.499 7        43.278
E33        41.000    23219820.418 8 122021069.02608        45.919 8        48.236                                                                    23219818.080 8  91119662.96408        34.262 8        50.634    23219817.975 8  93496693.51908        35.108 8        51.912
S44        42.000    40501813.327 6 212838660.97606      -524.967 6        36.552
R06        43.000    19235895.846 6 102646493.37106       491.864 6        41.907
C05        44.000                                                                                                                                    39065835.815 6 203426099.79206      -444.901 6        38.703    39065830.254 7 157301989.94807      -344.173 7        43.553    39065832.543 6 165300473.90006      -361.592 6        40.770
C29        45.000                                                                                                                                    25222083.761 7 131338025.39107      2543.375 7        42.080                                                                    25222081.851 7 106722900.50107      2066.792 7        42.315
G04        46.000    23789728.075 6 125015887.05206      3292.350 6        40.369                                    23789724.431 4  97414960.17004      2565.458 4        24.556    23789725.181 6  97414962.16306      2565.586 6        39.766
E25        47.000    28542108.512 5 149989811.26605       326.135 5        35.381                                                                    28542109.292 6 112005382.67206       243.661 6        39.913    28542108.437 6 114927259.50606       249.946 6        40.949
R22        48.000    21426896.251 8 114378255.10008      3045.284 8        48.706                                                                    21426894.309 7  88960862.32807      2368.645 7        44.939
C20        49.000                                                                                                                                    26320603.551 6 137058296.22206      2735.165 6        41.976                                                                    26320598.678 6 111371072.82706      2222.485 6        41.094
C06        50.000                                                                                                                                    38874632.984 6 202430442.35206       678.120 6        40.334    38874626.899 7 156532041.45407       524.279 7        44.017    38874627.022 6 164491296.38106       550.955 6        40.861
S48        51.000    77138362.546 6 405365147.26406      -466.781 6        38.105
G21        52.000    21263400.989 7 111740000.97407     -2110.671 7        45.806                                    21263395.670 6  87070152.84106     -1644.679 6        37.013
C09        53.000                                                                                                                                    39764168.208 6 207062470.12506      1032.279 6        40.012    39764164.550 7 160113825.29707       798.356 7        43.926    39764162.523 6 168255196.28506       838.895 6        40.451
C60        54.000                                                                                                                                    40501812.856 6 210903783.60406      -520.164 6        39.135                                                                    40501797.010 6 171376571.77506      -422.619 6        40.093
C27        55.000                                                                                                                                    22603521.246 8 117702481.97308     -2863.893 8        50.384                                                                    22603519.343 8  95642911.62308     -2327.123 8        48.054
R14        56.000    23935909.865 7 127591880.04007       887.305 7        42.758                                                                    23935911.551 6  99238146.58106       690.122 6        39.360
C02        57.000                                                                                                                                    40483251.557 5 210806980.43905      -489.402 5        33.467    40483245.827 6 163009326.26606      -378.108 6        40.663    40483248.867 6 171297945.16806      -397.278 6        36.045
I03        58.000   104883326.746 6 335799475.16006       954.876 6        40.851
R07        59.000    21971060.886 8 117612865.20008      3285.240 8        48.283                                                                    21971059.486 7  91476724.75007      2555.201 7        42.870
C28        60.000                                                                                                                                    26145489.119 5 136146732.40905     -3896.281 5        30.106
> 2025 01 02 00 15 20.0000000  0 56
G14         2.000    25071655.030 5 131752487.10705     -2817.813 5        35.690                                    25071651.999 2 102664277.19202     -2195.658 2        14.048    25071652.922 5 102664273.20205     -2195.986 5        33.413
C33         3.000                                                                                                                                    26655762.893 6 138803576.17506     -3629.815 6        39.135                                                                    26655774.586 6 112789333.46706     -2949.533 6        39.721
E31         4.000    28412827.073 5 149310442.90805     -3113.289 5        35.900                                                                    28412827.539 6 111498066.31606     -2324.897 6        36.767    28412826.810 6 114406708.51106     -2385.452 6        38.237
S21         5.000    38382941.903 7 201703486.18307      -460.462 7        42.201
E10         6.000    28815248.197 5 151425154.41705      2258.603 5        35.552                                                                    28815247.457 6 113077220.14606      1686.816 6        37.323    28815247.148 6 116027060.39306      1731.103 6        38.622
G28         7.000    23686585.963 6 124473857.17006      1439.312 6        40.763                                    23686581.744 4  96992597.68204      1121.546 4        26.647    23686581.704 6  96992605.67306      1121.580 6        41.337
G03         8.000    20580102.535 8 108149267.93408      1269.262 8        48.405                                    20580100.514 8  84272198.62808       989.038 8        50.017    20580101.120 7  84272196.61507       989.163 7        45.469
G02         9.000    20632587.969 8 108425036.50608      -719.067 8        49.959                                    20632580.814 7  84487037.06507      -560.308 7        43.772
G31        10.000    24203285.244 6 127189121.86506      2630.438 6        40.215                                    24203280.519 5  99108388.30905      2049.692 5        33.018    24203281.009 6  99108393.29906      2049.694 6        37.146
C30        11.000                                                                                                                                    21907168.310 8 114076391.32808         7.683 8        51.608                                                                    21907168.137 8  92696415.96208         6.290 8        48.949
S27        12.000    39034388.992 5 205127109.17705      -439.226 5        35.814
R20        13.000    21634117.777 5 115687399.41505     -4051.845 5        35.371                                                                    21634120.742 7  89979154.19107     -3151.493 7        44.680
S36        14.000    38150603.742 7 200483300.77707      -460.114 7        43.594
G19        16.000    24537684.393 6 128946410.65206      2993.904 6        38.586                                    24537678.147 3 100477703.74303      2332.913 3        23.162
S45        17.000    63351470.405 6 332915759.02706      -501.827 6        37.815
E08        18.000    28925732.169 3                     -3413.188 3        22.057                                                                    28925733.026 4 113510811.23104     -2549.850 4        29.318    28925732.906 5 116471958.94105     -2616.338 5        30.453
E12        19.000    26755212.768 6 140599598.28806      2038.200 6        37.543                                                                    26755209.317 6 104993194.38906      1521.979 6        41.697    26755208.983 6 107732146.82906      1561.806 6        41.907
G17        20.000    22721663.884 7 119403173.56707      1341.165 7        44.688                                    22721658.674 6  93041424.45606      1045.064 6        41.731    22721659.021 6  93041423.45306      1045.194 6        40.739
E26        21.000    24666901.700 7 129625790.61807     -2293.906 7        45.776                                                                    24666899.235 8  96798677.12908     -1712.953 8        48.580    24666899.129 8  99323835.55708     -1757.718 8        49.604
I06        22.000    38203654.931 7 149919586.31207      -239.362 7        43.357
S28        23.000    40826868.945 5 214546670.48305      -452.913 5        34.638
G08        24.000    24317881.587 6 127791334.57306     -4160.937 6        39.592                                    24317880.128 5  99577661.57805     -3242.286 5        33.886    24317880.948 6  99577662.56406     -3242.038 6        38.051
S23        25.000    38101946.738 7 200227046.18507      -457.200 7        44.777
C13        26.000                                                                                                                                    40968582.389 6 213334341.27306     -1157.938 6        36.888    40968583.978 6 164963752.56406      -895.335 6        38.252    40968582.147 6 173351711.39906      -940.794 6        36.775
E24        27.000    28095298.730 6 147641832.66906     -1806.359 6        37.970                                                                    28095297.187 6 110252032.01606     -1348.905 6        39.652    28095296.724 6 113128168.34606     -1384.154 6        41.182
R21        29.000    19092963.658 8 102170312.31108      -651.418 8        51.604                                                                    19092961.739 7  79465802.34007      -506.594 7        45.854
E19        30.000    26283953.087 6 138123125.54906      2665.531 6        36.922                                                                    26283951.414 6 103143891.63506      1990.380 6        39.117    26283950.756 6 105834598.99906      2042.360 6        40.343
R05        31.000    21306694.983 8 113896536.61708     -3986.499 8        48.095                                                                    21306694.254 7  88586205.09107     -3100.507 7        44.801
R13        32.000    24168118.374 6 129056432.38506     -2386.045 6        37.444
E29        33.000    23962061.596 7 125921566.93607      1141.923 7        47.718                                                                    23962059.752 8  94032353.75108       852.678 8        49.805    23962059.714 8  96485366.18108       874.918 8        50.954
C16        35.000                                                                                                                                    39206184.483 6 204156922.28206       555.848 6        41.793    39206184.378 6 157867094.38906       429.892 6        41.931    39206181.884 6 165894222.39806       451.732 6        38.510
C32        36.000                                                                                                                                    22187457.283 8 115535971.18108       955.515 8        51.473                                                                    22187456.981 8  93882462.07108       776.476 8        49.793
G32        37.000    23173639.557 7 121778338.40907     -3142.967 7        44.373                                    23173636.850 6  94892214.11906     -2449.065 6        41.392    23173637.790 6  94892223.13506     -2449.094 6        40.908
E07        38.000    24793617.254 7 130291357.43107     -1847.633 7        44.783                                                                    24793617.239 8  97295532.56508     -1379.763 8        48.458    24793616.801 8  99833669.22008     -1415.723 8        49.138
C41        39.000                                                                                                                                    22647742.155 8 117932767.65308     -2233.955 8        50.064                                                                    22647747.023 8  95830063.41908     -1815.158 8        50.597
C39        40.000                                                                                                                                    39000295.205 7 203084804.89307       135.921 7        44.029                                                                    39000291.969 7 165023034.86407       110.399 7        43.384
E33        41.000    23219777.489 8 122020843.23808        44.132 8        48.307                                                                    23219775.134 8  91119494.35508        33.002 8        50.728    23219775.009 8  93496520.51108        33.824 8        51.710
S44        42.000    40502313.491 6 212841285.75306      -525.330 6        36.499
R06        43.000    19235437.746 6 102644043.67006       487.898 6        41.640
C05        44.000                                                                                                                                    39066263.204 6 203428325.06506      -445.332 6        38.706    39066257.581 7 157303710.66707      -344.385 7        43.568    39066259.740 6 165302282.11806      -361.780 6        40.565
C29        45.000                                                                                                                                    25219642.607 7 131325310.41507      2542.260 7        42.679                                                                    25219640.215 7 106712568.56807      2065.722 7        42.233
G04        46.000    23786595.879 6 124999426.90406      3291.285 6        40.982                                    23786592.269 4  97402134.07904      2564.635 4        25.113    23786592.692 6  97402136.07206      2564.711 6        40.248
E25        47.000    28541798.991 5 149988185.30805       323.743 5        35.814                                                                    28541799.694 6 112004168.49706       241.817 6        39.667    28541798.981 6 114926013.64906       248.181 6        40.770
R22        48.000    21424044.872 8 114363032.39308      3043.495 8        48.392                                                                    21424042.603 7  88949022.46007      2367.186 7        45.041
C20        49.000                                                                                                                                    26317977.257 6 137044621.50606      2734.361 6        41.409                                                                    26317972.668 6 111359961.01206      2221.957 6        40.825
C06        50.000                                                                                                                                    38873982.243 6 202427054.28006       676.922 6        40.119    38873976.297 7 156529421.58407       523.454 7        43.898    38873976.244 6 164488543.29506       550.109 6        40.791
S48        51.000    77138795.372 6 405367482.11206      -467.263 6        37.388
G21        52.000    21265410.009 7 111750558.83007     -2112.680 7        45.633                                    21265404.792 6  87078379.74306     -1646.243 6        37.217
C09        53.000                                                                                                                                    39763177.515 6 207057309.95706      1031.405 6        40.026    39763173.833 7 160109835.12207       797.607 7        43.896    39763171.495 6 168251003.21906       838.217 6        40.253
C60        54.000                                                                                                                                    40502312.336 6 210906384.51306      -520.636 6        39.402                                                                    40502296.593 6 171378685.24106      -422.960 6        40.067
C27        55.000                                                                                                                                    22606272.036 8 117716805.96508     -2866.047 8        50.155                                                                    22606270.123 8  95654551.03408     -2328.831 8        48.028
R14        56.000    23935080.076 7 127587452.49807       883.559 7        42.936                                                                    23935080.330 6  99234702.91606       687.095 6        39.802
C02        57.000                                                                                                                                    40483721.319 5 210809425.56005      -489.180 5        33.539    40483715.374 6 163011217.01006      -378.383 6        40.775    40483718.526 5 171299932.07205      -397.846 5        35.867
I03        58.000   104882110.225 6 335794700.57706       954.723 6        40.882
R07        59.000    21967992.937 7 117596443.70907      3283.135 7        47.837                                                                    21967991.794 7  91463952.48307      2553.582 7        42.353
C28        60.000                                                                                                                                    26149232.761 4 136166216.64604     -3897.271 4        29.668
> 2025 01 02 00 15 25.0000000  0 56
G14         2.000    25074337.035 5 131766578.72205     -2818.792 5        35.562                                    25074333.461 2 102675257.65002     -2196.469 2        14.286    25074334.061 5 102675253.65905     -2196.510 5        34.186
C33         3.000                                                                                                                                    26659247.751 6 138821723.78306     -3629.589 6        39.045                                                                    26659259.649 6 112804079.87906     -2949.241 6        39.862
E31         4.000    28415789.334 5 149326008.58405     -3113.335 5        35.400                                                                    28415789.386 6 111509690.00806     -2324.939 6        36.733    28415789.185 6 114418635.43906     -2385.487 6        38.216
S21         5.000    38383377.439 6 201705787.47606      -460.474 6        41.647
E10         6.000    28813099.349 5 151413857.99205      2259.384 5        35.190                                                                    28813098.045 6 113068784.52506      1687.212 6        37.599    28813097.647 6 116018404.72006      1731.264 6        38.577
G28         7.000    23685217.105 6 124466664.89706      1437.195 6        41.182                                    23685213.105 4  96986993.31204      1119.889 4        26.910    23685212.961 6  96987001.31506      1119.724 6        41.063
G03         8.000    20578895.378 8 108142925.08708      1267.438 8        48.274                                    20578893.511 8  84267256.14508       987.616 8        49.899    20578894.110 7  84267254.14007       987.632 7        45.472
G02         9.000    20633272.875 8 108428636.05908      -721.092 8        50.076                                    20633265.804 7  84489841.91207      -561.888 7        43.700
G31        10.000    24200782.295 6 127175970.71406      2629.623 6        40.205                                    24200777.828 5  99098140.65805      2049.066 5        32.844    24200778.331 6  99098145.67106      2048.950 6        36.575
C30        11.000                                                                                                                                    21907162.041 8 114076357.92308         5.251 8        51.374                                                                    21907161.725 8  92696388.82608         4.310 8        48.987
S27        12.000    39034803.431 5 205129302.55005      -438.999 5        35.557
R20        13.000    21637908.204 5 115707662.49505     -4053.700 5        35.410                                                                    21637910.127 7  89994914.34907     -3152.896 7        44.640
S36        14.000    38151041.098 7 200485600.26707      -460.051 7        43.509
G19        16.000    24534836.166 6 128931443.44706      2992.538 6        38.574                                    24534830.144 3 100466040.99203      2331.846 3        23.524
S45        17.000    63351906.035 6 332916567.06716      -501.696 6        37.743
E08        18.000    28928981.741 3                     -3415.857 3        21.976                                                                    28928981.357 4 113523559.87904     -2549.312 4        29.431    28928981.082 5 116485040.18805     -2616.506 5        31.472
E12        19.000    26753273.199 6 140589406.60906      2038.239 6        38.123                                                                    26753269.842 6 104985583.72406      1521.863 6        41.607    26753269.679 6 107724337.63606      1561.599 6        41.974
G17        20.000    22720388.505 7 119396472.55507      1338.931 7        44.557                                    22720383.506 6  93036202.88806      1043.323 6        41.635    22720383.686 6  93036201.89006      1043.345 6        40.641
E26        21.000    24669084.523 7 129637261.80007     -2294.941 7        46.023                                                                    24669082.124 8  96807243.27208     -1713.787 8        48.529    24669081.926 8  99332625.16108     -1758.435 8        49.545
I06        22.000    38203959.511 7 149920781.36607      -239.037 7        43.147
S28        23.000    40827301.906 5 214548934.21405      -452.631 5        34.205
G08        24.000    24321840.058 6 127812137.56106     -4160.681 6        39.423                                    24321838.842 5  99593871.69505     -3242.089 5        33.784    24321839.401 6  99593872.69606     -3241.969 6        37.928
S23        25.000    38102381.089 7 200229330.86007      -457.011 7        44.974
C13        26.000                                                                                                                                    40969694.084 6 213340129.41406     -1157.727 6        37.236    40969695.741 6 164968228.33006      -895.248 6        38.411    40969693.570 6 173356414.74706      -940.725 6        36.907
E24        27.000    28097018.470 6 147650867.60906     -1807.925 6        38.483                                                                    28097016.273 6 110258778.88806     -1350.193 6        39.501    28097016.137 6 113135091.22406     -1385.501 6        41.030
R21        29.000    19093573.820 8 102173577.86208      -655.142 8        51.707                                                                    19093572.104 7  79468342.22407      -509.625 7        45.890
E19        30.000    26281416.500 6 138109798.72206      2665.004 6        36.601                                                                    26281415.201 6 103133939.79306      1990.016 6        39.132    26281414.870 6 105824387.53406      2041.959 6        40.470
R05        31.000    21310424.183 8 113916471.66808     -3987.867 8        48.198                                                                    21310423.273 7  88601710.13107     -3101.689 7        44.238
R13        32.000    24170354.753 6 129068369.22906     -2389.119 6        38.748
E29        33.000    23960975.883 8 125915861.35108      1140.073 8        48.115                                                                    23960974.051 8  94028093.08208       851.312 8        49.775    23960973.948 8  96480994.36608       873.541 8        50.908
C16        35.000                                                                                                                                    39205650.957 6 204154143.58206       555.274 6        41.528    39205650.352 7 157864945.72207       429.346 7        42.125    39205648.458 6 165891964.49906       451.183 6        38.766
C32        36.000                                                                                                                                    22186540.527 8 115531197.21308       953.677 8        51.179                                                                    22186540.179 8  93878582.84708       774.955 8        49.826
G32        37.000    23176630.777 7 121794056.34307     -3144.723 7        44.552                                    23176627.860 6  94904461.86306     -2450.434 6        41.271    23176628.305 6  94904470.85406     -2450.474 6        41.173
E07        38.000    24795375.958 7 130300599.31907     -1849.461 7        44.972                                                                    24795375.896 8  97302433.98208     -1381.086 8        48.401    24795375.505 8  99840750.67208     -1417.102 8        49.054
C41        39.000                                                                                                                                    22649887.543 8 117943939.93008     -2235.370 8        50.052                                                                    22649892.524 8  95839141.83108     -1816.426 8        50.640
C39        40.000                                                                                                                                    39000165.151 7 203084126.43807       135.051 7        43.850                                                                    39000161.681 7 165022483.56407       109.780 7        43.359
E33        41.000    23219735.761 8 122020624.48508        42.937 8        48.521                                                                    23219733.462 8  91119331.00108        32.078 8        50.619    23219733.378 8  93496352.89508        32.910 8        51.799
S44        42.000    40502813.683 5 212843910.56105      -525.086 5        35.871
R06        43.000    19234982.111 6 102641612.31906       484.423 6        41.616
C05        44.000                                                                                                                                    39066690.418 6 203430550.39106      -445.056 6        38.799    39066685.009 7 157305431.44007      -344.316 7        43.486    39066687.294 6 165304090.38606      -361.722 6        40.670
C29        45.000                                                                                                                                    25217201.774 7 131312600.11907      2541.589 7        42.593                                                                    25217199.350 7 106702240.42007      2065.201 7        42.417
G04        46.000    23783464.098 6 124982969.95306      3290.862 6        41.456                                    23783460.743 4  97389310.48804      2564.308 4        25.504    23783461.088 6  97389312.48506      2564.349 6        40.703
E25        47.000    28541491.321 5 149986570.70005       321.761 5        35.271                                                                    28541492.435 6 112002962.79206       240.333 6        39.495    28541491.548 6 114924776.48806       246.430 6        40.741
R22        48.000    21421194.183 7 114347817.35407      3042.145 7        47.913                                                                    21421192.692 7  88937188.53907      2366.148 7        44.840
C20        49.000                                                                                                                                    26315352.248 6 137030949.52706      2734.070 6        41.137                                                                    26315346.551 6 111348851.42306      2221.677 6        40.410
C06        50.000                                                                                                                                    38873332.396 6 202423670.55606       676.273 6        40.010    38873326.477 7 156526805.06607       522.902 7        44.030    38873326.472 6 164485793.74006       549.513 6        40.896
S48        51.000    77139233.922 6 405369816.83106      -466.919 6        37.909
G21        52.000    21267420.913 7 111761125.45907     -2114.254 7        45.460                                    21267415.583 6  87086613.48106     -1647.471 6        37.115
C09        53.000                                                                                                                                    39762186.456 6 207052153.04106      1030.896 6        39.619    39762183.187 7 160105847.48807       797.249 7        43.754    39762181.382 6 168246812.82806       837.716 6        40.145
C60        54.000                                                                                                                                    40502812.049 6 210908985.47206      -520.295 6        39.495                                                                    40502796.024 6 171380798.75706      -422.885 6        40.060
C27        55.000                                                                                                                                    22609024.575 8 117731139.39308     -2867.720 8        50.214                                                                    22609022.753 8  95666198.13408     -2330.292 8        48.083
R14        56.000    23934251.876 7 127583043.45507       879.841 7        42.387                                                                    23934252.593 6  99231273.64906       684.357 6        39.354
C02        57.000                                                                                                                                    40484190.629 5 210811870.79405      -488.926 5        33.707    40484184.912 6 163013107.82306      -378.251 6        40.713    40484188.073 6 171301919.01906      -397.547 6        36.223
I03        58.000   104880893.526 6 335789926.18506       954.759 6        40.870
R07        59.000    21964927.147 8 117580031.22808      3281.495 8        48.911                                                                    21964925.737 7  91451187.21007      2552.312 7        42.252
C28        60.000                                                                                                                                    26152974.882 4 136185702.20704     -3896.988 4        29.071
> 2025 01 02 00 15 30.0000000  0 56
G14         2.000    25077020.096 6 131780676.10206     -2819.940 6        36.261                                    25077016.251 2 102686242.61502     -2197.385 2        14.619    25077016.839 5 102686238.57705     -2197.357 5        34.567
C33         3.000                                                                                                                                    26662732.887 6 138839871.07406     -3629.383 6        39.087                                                                    26662744.546 6 112818826.02606     -2949.165 6        39.880
E31         4.000    28418750.702 5 149341575.25705     -3113.528 5        34.419                                                                    28418751.630 6 111521314.46706     -2324.951 6        36.798    28418751.867 6 114430563.12906     -2385.503 6        38.369
S21         5.000    38383818.028 7 201708088.38307      -460.201 7        42.051
E10         6.000    28810949.272 5 151402560.04805      2259.879 5        35.005                                                                    28810947.900 6 113060347.74006      1687.468 6        37.550    28810947.999 6 116009747.85306      1731.443 6        38.952
G28         7.000    23683850.476 6 124459484.08806      1435.164 6        40.813                                    23683846.702 4  96981397.87104      1118.319 4        27.042    23683846.491 6  96981405.86806      1118.253 6        41.468
G03         8.000    20577690.201 8 108136591.46508      1265.802 8        48.098                                    20577688.274 8  84262320.85608       986.339 8        49.864    20577688.786 7  84262318.85407       986.403 7        45.359
G02         9.000    20633959.929 8 108432246.27708      -723.124 8        50.094                                    20633952.802 7  84492655.07107      -563.473 7        43.625
G31        10.000    24198281.036 6 127162824.20706      2628.816 6        39.363                                    24198275.991 5  99087896.62805      2048.427 5        32.599    24198276.255 6  99087901.63306      2048.615 6        36.408
C30        11.000                                                                                                                                    21907157.533 8 114076337.19708         2.886 8        50.992                                                                    21907157.776 8  92696371.95508         2.486 8        48.879
S27        12.000    39035225.342 5 205131495.37205      -438.535 5        35.533
R20        13.000    21641699.501 5 115727935.33405     -4055.380 5        35.848                                                                    21641700.743 7  90010682.11607     -3154.260 7        44.135
S36        14.000    38151477.684 7 200487899.37107      -459.609 7        43.501
G19        16.000    24531989.154 6 128916482.88406      2991.452 6        37.939                                    24531983.272 3 100454383.41703      2330.995 3        23.295
S45        17.000    63352342.184 6 332919074.67506      -501.361 6        37.652
E08        18.000    28932229.942 3                     -3415.733 3        20.571                                                                    28932230.699 4 113536309.81304     -2549.820 4        28.265    28932230.033 5 116498122.70305     -2616.861 5        30.068
E12        19.000    26751334.453 6 140579215.93406      2037.887 6        37.520                                                                    26751330.627 6 104977973.79506      1521.980 6        41.628    26751330.420 6 107716529.17306      1561.674 6        41.967
G17        20.000    22719115.680 7 119389783.75507      1336.512 7        44.706                                    22719110.672 6  93030990.84006      1041.439 6        41.492    22719110.785 6  93030989.84506      1041.447 6        40.572
E26        21.000    24671268.382 7 129648738.59507     -2295.844 7        45.959                                                                    24671266.073 8  96815813.60708     -1714.510 8        48.563    24671265.791 8  99341419.07008     -1759.164 8        49.587
I06        22.000    38204263.815 7 149921976.17207      -238.929 7        43.204
S28        23.000    40827731.311 5 214551197.69805      -452.847 5        34.081
G08        24.000    24325798.574 6 127832940.71906     -4160.491 6        39.429                                    24325797.485 5  99610081.94305     -3241.943 5        33.485    24325797.932 6  99610082.95306     -3242.046 6        37.225
S23        25.000    38102815.400 7 200231615.17507      -456.820 7        44.670
C13        26.000                                                                                                                                    40970805.800 6 213345916.63906     -1157.305 6        36.934    40970807.355 6 164972703.36006      -894.810 6        38.613    40970805.062 6 173361117.30606      -940.305 6        36.669
E24        27.000    28098739.817 6 147659911.95406     -1809.680 6        37.641                                                                    28098737.304 6 110265532.79006     -1351.509 6        39.586    28098737.280 6 113142021.31606     -1386.794 6        41.037
R21        29.000    19094187.856 8 102176862.48308      -658.781 8        51.657                                                                    19094185.888 7  79470896.92507      -512.457 7        45.734
E19        30.000    26278881.145 6 138096474.62506      2664.480 6        36.083                                                                    26278879.584 6 103123989.96106      1989.794 6        38.718    26278879.151 6 105814178.14306      2041.692 6        40.205
R05        31.000    21314154.871 8 113936414.18208     -3989.201 8        48.243                                                                    21314153.674 7  88617220.97807     -3102.751 7        44.090
R13        32.000    24172595.437 6 129080322.61606     -2392.294 6        38.766
E29        33.000    23959892.266 8 125910165.45508      1138.207 8        48.050                                                                    23959890.137 8  94023839.65408       849.979 8        49.838    23959890.028 8  96476629.98008       872.183 8        50.897
C16        35.000                                                                                                                                    39205118.139 6 204151368.94506       554.473 6        41.206    39205117.723 7 157862800.17807       428.943 7        42.157    39205115.597 6 165889709.82606       450.790 6        38.634
C32        36.000                                                                                                                                    22185625.557 8 115526433.13208       951.797 8        50.968                                                                    22185625.293 8  93874711.61608       773.483 8        49.805
G32        37.000    23179623.324 7 121809782.84707     -3146.147 7        44.245                                    23179620.552 6  94916716.28406     -2451.544 6        41.259    23179621.040 6  94916725.28206     -2451.514 6        41.294
E07        38.000    24797136.449 7 130309850.72107     -1851.139 7        44.737                                                                    24797136.383 8  97309342.49108     -1382.348 8        48.418    24797136.052 8  99847839.40508     -1418.417 8        49.056
C41        39.000                                                                                                                                    22652034.802 8 117955119.84508     -2236.741 8        49.997                                                                    22652039.531 8  95848226.40708     -1817.505 8        50.561
C39        40.000                                                                                                                                    39000035.894 7 203083452.54407       134.251 7        43.534                                                                    39000032.226 7 165021935.94207       109.250 7        43.130
E33        41.000    23219695.392 8 122020412.38108        41.790 8        48.271                                                                    23219693.090 8  91119172.61108        31.176 8        50.688    23219693.003 8  93496190.37408        32.012 8        51.801
S44        42.000    40503309.304 6 212846535.08806      -525.005 6        36.299
R06        43.000    19234529.856 6 102639199.04106       480.952 6        41.890
C05        44.000                                                                                                                                    39067117.771 6 203432775.46506      -444.858 6        38.390    39067112.295 7 157307151.99807      -344.078 7        43.556    39067114.450 6 165305898.41806      -361.490 6        40.603
C29        45.000                                                                                                                                    25214761.759 7 131299894.13807      2540.935 7        42.533                                                                    25214759.356 7 106691915.75607      2064.586 7        42.427
G04        46.000    23780332.673 6 124966515.85006      3290.552 6        41.061                                    23780329.990 4  97376489.10404      2564.076 4        25.474    23780330.105 6  97376491.09906      2564.151 6        40.915
E25        47.000    28541185.641 5 149984966.94405       319.505 5        34.748                                                                    28541186.932 6 112001765.19406       238.662 6        39.180    28541186.453 6 114923547.64806       245.035 6        40.405
R22        48.000    21418344.670 8 114332609.61008      3040.822 8        49.017                                                                    21418343.403 7  88925360.29207      2365.090 7        44.357
C20        49.000                                                                                                                                    26312727.334 6 137017279.92106      2733.727 6        41.428                                                                    26312721.150 6 111337743.74006      2221.351 6        40.117
C06        50.000                                                                                                                                    38872683.978 6 202420290.82606       675.490 6        39.958    38872677.658 7 156524191.64607       522.451 7        44.009    38872677.468 6 164483047.41406       549.102 6        40.839
S48        51.000    77139668.456 6 405372151.28106      -466.942 6        37.716
G21        52.000    21269433.271 7 111771700.47607     -2115.882 7        45.287                                    21269427.987 6  87094853.75506     -1648.740 6        37.006
C09        53.000                                                                                                                                    39761197.134 6 207046999.02806      1030.671 6        39.471    39761193.207 7 160101862.09607       796.851 7        43.791    39761191.527 6 168242624.74306       837.477 6        40.102
C60        54.000                                                                                                                                    40503311.708 6 210911586.10706      -520.110 6        39.366                                                                    40503295.245 6 171382911.94806      -422.530 6        40.167
C27        55.000                                                                                                                                    22611778.732 8 117745481.87708     -2869.433 8        49.829                                                                    22611777.104 8  95677852.54008     -2331.530 8        48.029
R14        56.000    23933428.753 7 127578652.46307       876.330 7        42.635                                                                    23933429.455 6  99227858.37306       681.839 6        39.003
C02        57.000                                                                                                                                    40484661.236 5 210814315.72405      -488.705 5        33.275    40484654.482 6 163014998.40006      -378.176 6        40.601    40484657.576 5 171303905.71305      -397.274 5        35.890
I03        58.000   104879676.735 6 335785151.70206       954.871 6        40.810
R07        59.000    21961863.769 8 117563627.23408      3280.020 8        48.671                                                                    21961861.260 7  91438428.55607      2551.147 7        43.101
C28        60.000                                                                                                                                    26156717.010 4 136205188.79304     -3897.018 4        28.047                                                                    26156714.559 3                     -3164.747 3        18.239
> 2025 01 02 00 15 35.0000000  0 56
G14         2.000    25079704.512 5 131794779.89605     -2821.408 5        35.767                                    25079700.204 2 102697232.54702     -2198.476 2        14.571    25079700.054 5 102697228.55005     -2198.687 5        34.452
C33         3.000                                                                                                                                    26666218.201 6 138858018.74106     -3629.630 6        39.529                                                                    26666229.745 6 112833572.50806     -2949.175 6        39.832
E31         4.000    28421712.855 5 149357143.53905     -3113.619 5        35.676                                                                    28421714.459 6 111532940.12106     -2325.182 6        37.399    28421714.272 6 114442492.07806     -2385.921 6        38.261
S21         5.000    38384258.317 7 201710389.59807      -460.196 7        42.155
E10         6.000    28808798.302 5 151391261.26305      2259.854 5        34.433                                                                    28808797.881 6 113051910.34506      1687.498 6        37.543    28808797.671 6 116001090.34406      1731.505 6        38.637
G28         7.000    23682486.010 6 124452315.43106      1432.578 6        40.501                                    23682482.638 4  96975811.90404      1116.293 4        27.150    23682482.321 6  96975819.89606      1116.341 6        41.066
G03         8.000    20576486.924 7 108130267.74207      1263.715 7        47.768                                    20576484.907 8  84257393.27808       984.710 8        49.847    20576485.133 7  84257391.28207       984.760 7        45.186
G02         9.000    20634648.988 8 108435867.86108      -725.427 8        50.078                                    20634641.968 7  84495477.08407      -565.266 7        43.591
G31        10.000    24195780.401 6 127149683.01206      2627.708 6        39.538                                    24195775.120 5  99077656.73605      2047.559 5        32.305    24195775.999 6  99077661.73606      2047.632 6        36.178
C30        11.000                                                                                                                                    21907156.138 8 114076329.83908         0.081 8        51.060                                                                    21907156.319 8  92696366.00108         0.122 8        48.861
S27        12.000    39035642.589 5 205133688.94405      -438.437 5        35.433
R20        13.000    21645491.798 6 115748218.68206     -4057.640 6        36.076                                                                    21645493.262 7  90026458.04607     -3156.045 7        43.511
S36        14.000    38151915.380 7 200490198.76107      -459.906 7        43.615
G19        16.000    24529143.086 6 128901529.61706      2990.091 6        37.403                                    24529137.790 3 100442731.54203      2329.947 3        22.990
S45        17.000    63352770.816 6 332921582.34706      -501.459 6        37.845
E08        18.000    28935479.362 3                     -3415.911 3        21.310                                                                    28935480.118 4 113549061.43204     -2550.719 4        29.223    28935479.622 5 116511206.94505     -2616.942 5        30.543
E12        19.000    26749395.255 6 140569026.90006      2037.571 6        38.120                                                                    26749391.776 6 104970365.11006      1521.586 6        41.828    26749391.500 6 107708722.00406      1561.234 6        41.943
G17        20.000    22717845.068 7 119383107.82107      1333.997 7        44.591                                    22717840.270 6  93025788.81406      1039.477 6        41.492    22717840.730 6  93025787.82606      1039.334 6        40.696
E26        21.000    24673453.547 7 129660221.66007     -2297.286 7        45.916                                                                    24673451.172 8  96824388.62008     -1715.442 8        48.626    24673450.913 8  99350217.78608     -1760.255 8        49.543
I06        22.000    38204568.718 7 149923171.22407      -239.103 7        43.113
S28        23.000    40828165.389 5 214553461.73105      -452.880 5        34.171
G08        24.000    24329757.257 6 127853744.71906     -4160.825 6        39.120                                    24329756.226 5  99626292.85505     -3242.200 5        33.156    24329757.492 6  99626293.83506     -3242.146 6        37.153
S23        25.000    38103250.681 7 200233899.73507      -456.943 7        44.643
C13        26.000                                                                                                                                    40971916.497 6 213351703.52106     -1156.995 6        36.692    40971918.981 6 164977178.12306      -894.838 6        38.988    40971916.402 6 173365819.63606      -940.281 6        36.824
E24        27.000    28100462.296 6 147668966.36806     -1811.802 6        37.399                                                                    28100460.307 6 110272294.20606     -1353.032 6        39.715    28100460.296 6 113148959.11006     -1388.239 6        41.187
R21        29.000    19094805.369 8 102180166.88608      -662.890 8        51.885                                                                    19094803.783 7  79473467.02307      -515.586 7        46.071
E19        30.000    26276346.441 6 138083153.85306      2663.671 6        36.386                                                                    26276344.670 6 103114042.65106      1989.225 6        38.988    26276344.482 6 105803971.33406      2041.022 6        40.281
R05        31.000    21317886.953 8 113956365.08108     -3990.950 8        48.173                                                                    21317886.300 7  88632738.35307     -3104.115 7        43.903
R13        32.000    24174834.233 6 129092293.18506     -2395.839 6        37.603
E29        33.000    23958810.241 7 125904479.92907      1136.099 7        47.874                                                                    23958808.190 8  94019593.97508       848.361 8        49.909    23958808.147 8  96472273.54708       870.475 8        50.890
C16        35.000                                                                                                                                    39204586.235 6 204148599.02406       553.527 6        41.490    39204585.820 7 157860658.32007       428.031 7        42.538    39204583.521 6 165887459.07606       449.883 6        38.772
C32        36.000                                                                                                                                    22184712.662 8 115521679.61208       949.677 8        51.032                                                                    22184712.475 8  93870849.01408       771.724 8        49.788
G32        37.000    23182617.455 7 121825518.59107     -3148.054 7        44.349                                    23182615.054 6  94928977.89806     -2453.028 6        41.259    23182615.577 6  94928986.89306     -2453.055 6        41.075
E07        38.000    24798898.684 7 130319112.29907     -1853.317 7        44.802                                                                    24798898.891 8  97316258.61108     -1384.023 8        48.524    24798898.456 8  99854935.94308     -1420.151 8        49.043
C41        39.000                                                                                                                                    22654183.359 8 117966308.07308     -2238.465 8        49.931                                                                    22654188.130 8  95857317.77708     -1818.908 8        50.503
C39        40.000                                                                                                                                    38999907.554 7 203082783.89307       133.308 7        43.333                                                                    38999903.904 7 165021392.63807       108.370 7        43.031
E33        41.000    23219656.588 8 122020207.62808        40.191 8        48.190                                                                    23219654.146 8  91119019.71708        29.988 8        50.776    23219654.030 8  93496033.48808        30.804 8        51.795
S44        42.000    40503813.117 6 212849159.92006      -525.170 6        36.352
R06        43.000    19234080.911 6 102636804.37406       477.028 6        41.430
C05        44.000                                                                                                                                    39067544.748 6 203435000.89206      -445.023 6        38.652    39067539.572 7 157308872.84407      -344.260 7        43.697    39067541.942 6 165307706.78506      -361.623 6        40.451
C29        45.000                                                                                                                                    25212322.868 7 131287193.15407      2539.718 7        42.897                                                                    25212320.191 7 106681595.18707      2063.774 7        42.336
G04        46.000    23777202.093 6 124950065.28806      3289.820 6        40.336                                    23777199.845 4  97363670.49104      2563.498 4        25.789    23777199.810 6  97363672.49206      2563.473 6        41.085
E25        47.000    28540883.191 5 149983374.76005       317.394 5        34.890                                                                    28540884.103 6 112000576.26006       236.798 6        39.390    28540883.603 6 114922327.68906       243.140 6        40.534
R22        48.000    21415498.152 8 114317409.85808      3039.107 8        48.566                                                                    21415495.720 7  88913538.26407      2363.836 7        44.408
C20        49.000                                                                                                                                    26310103.272 6 137003613.35106      2733.048 6        41.993                                                                    26310096.532 6 111326638.56506      2220.741 6        39.976
C06        50.000                                                                                                                                    38872035.923 6 202416915.73206       674.591 6        39.949    38872029.572 7 156521581.82507       521.626 7        44.269    38872029.127 6 164480304.91406       548.214 6        40.687
S48        51.000    77140104.734 6 405374485.70206      -467.054 6        37.274
G21        52.000    21271447.183 7 111782284.55507     -2117.643 7        45.612                                    21271442.042 6  87103101.08206     -1650.112 6        36.957
C09        53.000                                                                                                                                    39760208.507 6 207041848.60406      1029.707 6        39.330    39760204.293 7 160097879.46207       796.185 7        44.104    39760202.276 6 168238439.63706       836.797 6        39.994
C60        54.000                                                                                                                                    40503811.269 6 210914187.09506      -520.058 6        39.363                                                                    40503794.819 6 171385025.49906      -422.728 6        40.102
C27        55.000                                                                                                                                    22614535.007 8 117759834.08608     -2871.435 8        49.738                                                                    22614533.273 8  95689514.91508     -2333.205 8        48.030
R14        56.000    23932608.721 7 127574280.49307       872.460 7        43.208                                                                    23932610.184 6  99224457.93706       678.674 6        39.372
C02        57.000                                                                                                                                    40485129.952 5 210816761.13905      -489.378 5        33.413    40485124.235 6 163016889.33206      -378.267 6        40.741    40485127.226 5 171305892.82805      -397.603 5        35.676
I03        58.000   104878460.367 6 335780377.66106       954.790 6        41.023
R07        59.000    21958800.890 8 117547232.39508      3278.024 8        48.018                                                                    21958798.776 7  91425677.01907      2549.573 7        42.804
C28        60.000                                                                                                                                    26160458.700 4 136224677.05004     -3897.625 4        27.653                                                                    26160459.735 3                     -3168.968 3        19.493
> 2025 01 02 00 15 40.0000000  0 56
G14         2.000    25082388.548 5 131808889.50905     -2822.554 5        35.243                                    25082385.301 2 102708227.04102     -2199.354 2        13.758    25082385.443 5 102708223.03105     -2199.392 5        34.519
C33         3.000                                                                                                                                    26669703.063 6 138876166.10206     -3629.421 6        39.868                                                                    26669714.772 6 112848318.73306     -2949.243 6        40.040
E31         4.000    28424676.761 6 149372712.84906     -3114.083 6        36.144                                                                    28424677.290 6 111544566.54406     -2325.378 6        37.520    28424676.953 6 114454421.80506     -2386.066 6        38.045
S21         5.000    38384694.184 7 201712690.63207      -460.331 7        42.243
E10         6.000    28806648.635 5 151379960.99105      2260.236 5        34.510                                                                    28806647.521 6 113043471.82906      1687.866 6        37.490    28806647.444 6 115992431.68106      1731.916 6        38.622
G28         7.000    23681124.523 6 124445158.30606      1430.181 6        40.696                                    23681120.730 4  96970234.93304      1114.428 4        27.090    23681120.416 6  96970242.92706      1114.429 6        40.999
G03         8.000    20575285.412 7 108123953.31107      1261.943 7        47.910                                    20575283.315 8  84252472.94408       983.332 8        49.882    20575283.657 7  84252470.94407       983.336 7        45.234
G02         9.000    20635340.216 8 108439500.18708      -727.570 8        50.005                                    20635333.187 7  84498307.46807      -566.937 7        43.587
G31        10.000    24193281.101 6 127136546.58406      2626.771 6        39.688                                    24193275.174 5  99067420.56705      2046.835 5        32.222    24193276.120 6  99067425.56806      2046.841 6        36.616
C30        11.000                                                                                                                                    21907157.216 8 114076335.22908        -2.372 8        51.001                                                                    21907157.383 8  92696370.37208        -1.858 8        48.929
S27        12.000    39036054.547 5 205135881.96205      -438.591 5        35.609
R20        13.000    21649287.985 5 115768511.99205     -4059.754 5        35.886                                                                    21649288.624 7  90042241.72907     -3157.477 7        43.708
S36        14.000    38152352.571 7 200492497.61007      -459.731 7        43.494
G19        16.000    24526299.872 6 128886583.11006      2988.709 6        38.736                                    24526293.579 3 100431084.89903      2328.866 3        22.876
S45        17.000    63353203.655 6 332924089.75506      -501.400 6        37.614
E08        18.000                                                                                                                                    28938729.612 4 113561814.35804     -2550.648 4        26.683    28938729.910 4 116524292.59304     -2616.911 4        27.425
E12        19.000    26747457.090 6 140558838.95806      2037.573 6        38.120                                                                    26747453.160 6 104962757.22206      1521.498 6        41.771    26747452.849 6 107700915.66706      1561.142 6        41.900
G17        20.000    22716577.356 7 119376444.19207      1331.469 7        44.593                                    22716572.203 6  93020596.37306      1037.506 6        41.545    22716572.287 6  93020595.38906      1037.391 6        40.310
E26        21.000    24675639.737 7 129671710.37707     -2298.325 7        45.800                                                                    24675637.451 8  96832967.86208     -1716.313 8        48.652    24675637.136 8  99359020.82708     -1761.004 8        49.463
I06        22.000    38204872.902 7 149924366.06107      -238.982 7        43.191
S28        23.000    40828595.582 5 214555725.21805      -452.465 5        34.695
G08        24.000    24333715.993 6 127874548.90006     -4160.762 6        38.246                                    24333715.096 5  99642503.89505     -3242.156 5        32.641    24333716.072 6  99642504.89706     -3242.344 6        37.482
S23        25.000    38103684.401 7 200236184.03707      -456.860 7        44.816
C13        26.000                                                                                                                                    40973027.596 6 213357489.54606     -1157.051 6        36.813    40973029.491 6 164981652.22906      -894.722 6        39.342    40973027.553 6 173370521.23506      -940.187 6        36.839
E24        27.000    28102187.305 6 147678030.22706     -1813.730 6        37.497                                                                    28102184.996 6 110279062.66006     -1354.418 6        39.450    28102185.010 6 113155904.13506     -1389.663 6        40.880
R21        29.000    19095426.239 8 102183490.52108      -666.643 8        51.580                                                                    19095424.450 7  79476052.07007      -518.553 7        45.846
E19        30.000    26273812.036 6 138069835.82606      2663.243 6        36.250                                                                    26273810.357 6 103104097.35506      1989.045 6        39.051    26273810.216 6 105793766.61106      2040.783 6        40.343
R05        31.000    21321620.560 8 113976323.59308     -3992.490 8        48.044                                                                    21321619.944 7  88648261.62307     -3105.319 7        44.304
R13        32.000    24177079.627 6 129104280.33606     -2399.277 6        37.739
E29        33.000    23957730.251 7 125898804.17507      1134.169 7        47.706                                                                    23957728.061 8  94015355.59208       846.982 8        49.894    23957728.073 8  96467924.59308       869.032 8        50.871
C16        35.000                                                                                                                                    39204055.283 6 204145833.22706       552.788 6        41.399    39204054.499 7 157858519.62607       427.391 7        42.808    39204052.349 6 165885211.63706       449.040 6        38.607
C32        36.000                                                                                                                                    22183801.730 8 115516936.04508       947.690 8        51.077                                                                    22183801.476 8  93866994.47508       770.108 8        49.789
G32        37.000    23185613.458 7 121841262.95307     -3149.755 7        44.396                                    23185611.157 6  94941246.22806     -2454.354 6        41.256    23185611.674 6  94941255.22806     -2454.352 6        40.996
E07        38.000    24800663.116 7 130328383.43207     -1855.191 7        44.749                                                                    24800663.118 8  97323181.85308     -1385.378 8        48.525    24800662.689 8  99862039.79108     -1421.466 8        48.978
C41        39.000                                                                                                                                    22656333.446 8 117977503.98008     -2239.990 8        49.934                                                                    22656338.220 8  95866415.35608     -1820.112 8        50.603
C39        40.000                                                                                                                                    38999780.130 7 203082119.88607       132.347 7        43.240                                                                    38999776.312 7 165020853.07307       107.575 7        43.181
E33        41.000    23219618.816 8 122020009.61208        38.912 8        48.151                                                                    23219616.418 8  91118871.83808        29.076 8        50.773    23219616.353 8  93495881.75308        29.859 8        51.637
S44        42.000    40504310.652 6 212851784.52206      -525.151 6        36.299
R06        43.000    19233634.524 6 102634427.84206       473.512 6        41.263
C05        44.000                                                                                                                                    39067973.005 6 203437226.11806      -445.015 6        38.468    39067966.939 7 157310593.51707      -344.127 7        43.721    39067969.219 6 165309514.95106      -361.686 6        40.486
C29        45.000                                                                                                                                    25209884.783 7 131274496.57107      2538.884 7        43.109                                                                    25209881.859 7 106671278.17807      2063.067 7        42.491
G04        46.000    23774072.635 6 124933617.65006      3289.151 6        38.757                                    23774070.255 4  97350854.16404      2562.963 4        25.579    23774069.936 6  97350856.17506      2563.009 6        40.658
E25        47.000    28540582.620 5 149981793.59705       315.201 5        35.152                                                                    28540583.488 6 111999395.51306       235.255 6        39.159    28540582.923 6 114921116.15306       241.489 6        40.601
R22        48.000    21412651.899 8 114302217.50008      3037.774 8        49.061                                                                    21412650.328 7  88901721.98907      2362.700 7        45.216
C20        49.000                                                                                                                                    26307479.198 7 136989949.22007      2732.571 7        42.457                                                                    26307472.587 6 111315535.33506      2220.425 6        40.110
C06        50.000                                                                                                                                    38871388.262 6 202413544.70606       673.785 6        39.904    38871382.260 7 156518975.12207       521.073 7        44.327    38871381.753 6 164477565.66406       547.602 6        40.863
S48        51.000    77140539.716 6 405376819.86206      -466.888 6        37.611
G21        52.000    21273463.057 7 111792877.06307     -2119.352 7        45.252                                    21273457.711 6  87111354.98806     -1651.442 6        37.013
C09        53.000                                                                                                                                    39759219.620 6 207036701.14506      1029.192 6        39.438    39759215.761 7 160093899.11007       795.810 7        44.262    39759213.753 6 168234256.89006       836.301 6        40.222
C60        54.000                                                                                                                                    40504310.306 6 210916787.82306      -520.206 6        39.369                                                                    40504294.357 6 171387138.78306      -422.618 6        40.174
C27        55.000                                                                                                                                    22617292.913 8 117774195.40508     -2873.184 8        49.472                                                                    22617291.150 8  95701184.65008     -2334.659 8        48.053
R14        56.000    23931792.031 7 127569926.72107       868.883 7        43.670                                                                    23931793.128 6  99221071.64806       675.803 6        39.919
C02        57.000                                                                                                                                    40485599.566 5 210819206.32805      -488.927 5        33.689    40485593.670 6 163018780.11306      -378.222 6        40.801    40485596.831 6 171307879.72806      -397.337 6        36.019
I03        58.000   104877243.815 6 335775603.57206       954.901 6        40.789
R07        59.000    21955738.489 7 117530846.13307      3276.399 7        47.412                                                                    21955737.003 7  91412932.16707      2548.406 7        42.463
C28        60.000                                                                                                                                    26164200.219 4 136244166.38204     -3898.282 4        27.581                                                                    26164196.621 3                     -3166.634 3        20.786
> 2025 01 02 00 15 45.0000000  0 56
G14         2.000    25085074.764 5 131823004.99105     -2824.065 5        35.900                                    25085071.472 2 102719226.10002     -2200.560 2        14.571    25085071.474 5 102719222.10805     -2200.568 5        34.214
C33         3.000                                                                                                                                    26673188.290 6 138894313.31606     -3629.506 6        39.877                                                                    26673199.940 6 112863064.81606     -2949.421 6        40.045
E31         4.000    28427639.879 6 149388283.26206     -3114.432 6        36.102                                                                    28427640.366 6 111556193.78706     -2325.707 6        37.524    28427640.191 6 114466352.36606     -2386.404 6        38.465
S21         5.000    38385135.234 7 201714991.42307      -460.324 7        42.218
E10         6.000    28804498.389 5 151368659.35605      2260.073 5        34.514                                                                    28804497.003 6 113035032.26806      1687.878 6        37.070    28804496.706 6 115983771.98306      1731.809 6        39.069
G28         7.000    23679764.796 6 124438012.82606      1427.702 6        41.135                                    23679760.927 4  96964667.03104      1112.489 4        27.353    23679761.227 6  96964675.02606      1112.520 6        40.822
G03         8.000    20574085.646 7 108117648.25507      1259.801 7        47.975                                    20574083.507 8  84247559.91208       981.661 8        50.008    20574084.003 7  84247557.92407       981.677 7        45.007
G02         9.000    20636033.594 8 108443143.34008      -729.972 8        49.982                                    20636026.454 7  84501146.28907      -568.809 7        43.718
G31        10.000    24190782.115 6 127123414.99206      2625.531 6        39.471                                    24190776.315 5  99057188.16205      2045.863 5        32.335    24190777.464 6  99057193.16506      2045.847 6        36.707
C30        11.000                                                                                                                                    21907160.659 8 114076353.46508        -5.211 8        51.084                                                                    21907160.902 8  92696385.19508        -4.214 8        48.976
S27        12.000    39036476.055 5 205138074.88805      -438.666 5        35.105
R20        13.000    21653084.592 6 115788815.33806     -4062.008 6        36.045                                                                    21653085.840 7  90058033.21707     -3159.271 7        44.120
S36        14.000    38152788.831 7 200494796.39607      -459.996 7        43.515
G19        16.000    24523457.293 6 128871643.40606      2987.025 6        39.039                                    24523450.736 3 100419443.57403      2327.552 3        23.181
S45        17.000    63353636.294 6 332926597.04406      -501.515 6        37.573
E08        18.000                                                                                                                                    28941979.677 4 113574568.91404     -2551.440 4        29.005    28941980.161 5 116537379.85605     -2617.761 5        30.053
E12        19.000    26745518.376 6 140548652.19706      2036.768 6        38.003                                                                    26745514.575 6 104955150.22006      1521.204 6        41.797    26745514.319 6 107693110.21106      1560.858 6        41.943
G17        20.000    22715311.455 7 119369792.96807      1328.690 7        44.421                                    22715306.537 6  93015413.59706      1035.340 6        41.616    22715307.236 6  93015412.61306      1035.302 6        40.791
E26        21.000    24677827.216 7 129683204.85007     -2299.731 7        46.011                                                                    24677824.780 8  96841551.39008     -1717.344 8        48.516    24677824.406 8  99367828.27508     -1762.126 8        49.493
I06        22.000    38205177.296 7 149925560.75507      -239.081 7        43.245
S28        23.000    40829028.131 5 214557988.08605      -452.565 5        34.324
G08        24.000    24337675.080 6 127895353.38206     -4161.268 6        38.210                                    24337674.007 5  99658715.17205     -3242.548 5        32.335    24337674.828 6  99658716.16906     -3242.365 6        37.448
S23        25.000    38104119.580 7 200238468.25707      -457.051 7        44.718
C13        26.000                                                                                                                                    40974139.181 6 213363274.80906     -1157.405 6        36.658    40974140.786 6 164986125.73706      -894.922 6        39.126    40974138.494 6 173375222.19606      -940.242 6        36.824
E24        27.000    28103914.003 6 147687103.60906     -1815.753 6        38.228                                                                    28103911.742 6 110285838.24306     -1355.975 6        39.523    28103911.545 6 113162856.47206     -1391.376 6        41.032
R21        29.000    19096051.119 8 102186833.42708      -670.750 8        51.967                                                                    19096049.458 7  79478652.11007      -521.663 7        46.105
E19        30.000    26271277.847 5 138056520.63505      2662.337 5        35.738                                                                    26271276.702 6 103094154.21006      1988.284 6        39.144    26271276.376 6 105783564.06006      2040.095 6        40.217
R05        31.000    21325355.870 8 113996289.83608     -3994.228 8        48.573                                                                    21325355.237 7  88663790.92907     -3106.670 7        44.634
R13        32.000    24179328.709 6 129116284.20106     -2402.613 6        38.829
E29        33.000    23956651.848 7 125893138.27007      1131.946 7        47.756                                                                    23956649.840 8  94011124.55708       845.279 8        49.799    23956649.880 8  96463583.18708       867.282 8        50.842
C16        35.000                                                                                                                                    39203525.079 6 204143071.62206       551.604 6        41.476    39203524.161 7 157856384.18507       426.549 7        42.870    39203521.971 6 165882967.61406       448.172 6        38.817
C32        36.000                                                                                                                                    22182892.614 8 115512202.52008       945.408 8        50.857                                                                    22182892.468 8  93863148.09608       768.210 8        49.909
G32        37.000    23188611.581 7 121857016.00707     -3151.708 7        44.685                                    23188608.875 6  94953521.33506     -2455.877 6        41.392    23188609.053 6  94953530.33906     -2455.930 6        40.574
E07        38.000    24802429.438 7 130337664.19407     -1857.349 7        44.781                                                                    24802429.189 8  97330112.29208     -1386.983 8        48.492    24802428.743 8  99869151.02408     -1423.164 8        49.022
C41        39.000                                                                                                                                    22658484.968 8 117988707.64508     -2241.734 8        49.774                                                                    22658489.704 8  95875519.25008     -1821.626 8        50.687
C39        40.000                                                                                                                                    38999653.472 7 203081460.61107       131.113 7        43.132                                                                    38999649.508 7 165020317.35407       106.589 7        43.242
E33        41.000    23219582.298 8 122019818.41108        37.269 8        48.350                                                                    23219580.086 8  91118729.06108        27.872 8        50.736    23219579.957 8  93495735.24808        28.623 8        51.713
S44        42.000    40504808.362 6 212854408.91506      -525.127 6        36.299
R06        43.000    19233192.886 6 102632069.49206       469.647 6        41.349
C05        44.000                                                                                                                                    39068399.776 6 203439451.17206      -445.249 6        38.450    39068394.363 7 157312314.07307      -344.323 7        43.611    39068396.590 6 165311322.99706      -361.803 6        40.779
C29        45.000                                                                                                                                    25207446.645 7 131261804.48907      2537.812 7        42.612                                                                    25207444.566 7 106660964.81107      2062.077 7        42.472
G04        46.000    23770943.613 6 124917173.06906      3288.163 6        39.508                                    23770941.080 4  97338040.21404      2562.203 4        25.489    23770940.927 6  97338042.21306      2562.365 6        40.217
E25        47.000    28540283.706 5 149980223.48105       312.677 5        35.390                                                                    28540284.648 6 111998223.03206       233.672 6        38.955    28540283.994 6 114919913.09406       239.588 6        40.420
R22        48.000    21409807.081 8 114287032.62708      3036.007 8        48.485                                                                    21409805.606 7  88889911.54907      2361.320 7        45.058
C20        49.000                                                                                                                                    26304854.772 7 136976287.59507      2731.761 7        42.527                                                                    26304849.366 6 111304434.16006      2219.740 6        40.455
C06        50.000                                                                                                                                    38870741.892 6 202410177.82006       672.562 6        39.976    38870735.604 7 156516371.63107       520.210 7        44.191    38870735.271 6 164474829.79506       546.508 6        40.729
S48        51.000    77140973.361 6 405379153.65406      -467.115 6        37.463
G21        52.000    21275480.587 7 111803478.05507     -2121.288 7        45.469                                    21275475.016 6  87119615.49906     -1652.951 6        37.134
C09        53.000                                                                                                                                    39758232.404 6 207031556.75406      1028.287 6        39.964    39758228.148 7 160089921.13807       795.322 7        44.160    39758225.888 6 168230076.65106       835.614 6        40.088
C60        54.000                                                                                                                                    40504810.301 6 210919388.36806      -520.240 6        39.273                                                                    40504793.789 6 171389251.94806      -422.695 6        40.307
C27        55.000                                                                                                                                    22620052.682 8 117788565.90408     -2875.258 8        49.584                                                                    22620050.831 8  95712861.85508     -2336.382 8        48.094
R14        56.000    23930978.829 7 127565591.14807       864.973 7        42.929                                                                    23930978.865 6  99217699.51206       672.935 6        37.879
C02        57.000                                                                                                                                    40486069.220 5 210821651.36205      -489.150 5        33.497    40486063.016 6 163020670.76706      -378.259 6        40.534    40486066.307 5 171309866.53105      -397.638 5        35.857
I03        58.000   104876027.255 6 335770829.54206       954.629 6        40.918
R07        59.000    21952679.389 8 117514468.64108      3274.361 8        48.076                                                                    21952677.219 7  91400194.10807      2546.692 7        42.127
C28        60.000                                                                                                                                    26167944.381 4 136263656.79604     -3898.586 4        27.150                                                                    26167940.572 3                     -3166.848 3        21.643
> 2025 01 02 00 15 50.0000000  0 56
G14         2.000    25087762.638 5 131837126.57205     -2824.986 5        35.581                                    25087758.747 2 102730229.90902     -2201.293 2        15.429    25087758.621 5 102730225.89405     -2201.331 5        34.176
C33         3.000                                                                                                                                    26676673.217 6 138912460.50806     -3629.412 6        39.955                                                                    26676684.852 6 112877810.88706     -2949.066 6        40.098
E31         4.000    28430602.489 5 149403854.96905     -3114.426 5        35.948                                                                    28430603.173 6 111567822.00206     -2325.931 6        37.883    28430603.534 6 114478283.91506     -2386.403 6        38.763
S21         5.000    38385572.076 6 201717292.10306      -460.280 6        41.859
E10         6.000    28802346.931 5 151357356.51705      2260.545 5        34.029                                                                    28802345.849 6 113026591.84606      1688.082 6        37.176    28802346.083 6 115975111.36906      1732.137 6        38.883
G28         7.000    23678407.257 6 124430879.21606      1425.457 6        41.695                                    23678403.432 4  96959108.36504      1110.751 4        27.054    23678403.567 6  96959116.35306      1110.659 6        40.956
G03         8.000    20572887.604 8 108111352.78308      1258.093 8        48.415                                    20572885.519 8  84242654.35108       980.334 8        49.901    20572886.125 7  84242652.35707       980.308 7        45.183
G02         9.000    20636728.961 8 108446797.53108      -732.041 8        50.102                                    20636721.827 7  84503993.71007      -570.421 7        43.630
G31        10.000    24188283.605 6 127110288.46006      2624.760 6        39.709                                    24188278.436 5  99046959.70305      2045.268 5        32.371    24188279.622 6  99046964.69006      2045.288 6        36.987
C30        11.000                                                                                                                                    21907166.986 8 114076384.74208        -7.639 8        51.136                                                                    21907166.863 8  92696410.61408        -6.134 8        48.910
S27        12.000    39036895.265 5 205140267.32005      -438.444 5        35.167
R20        13.000    21656883.173 5 115809128.85305     -4063.853 5        35.162                                                                    21656884.209 7  90073832.63207     -3160.798 7        43.956
S36        14.000    38153228.311 7 200497095.50007      -459.808 7        43.414
G19        16.000    24520615.150 6 128856710.73706      2985.850 6        38.480                                    24520609.096 3 100407807.73403      2326.636 3        23.067
S45        17.000    63354067.904 6 332929104.18406      -501.700 6        37.198
E08        18.000    28945230.308 3                     -3416.502 3        21.786                                                                    28945230.647 5 113587324.80905     -2551.802 5        30.453    28945230.446 5 116550468.51305     -2617.860 5        31.962
E12        19.000    26743579.927 6 140538466.81306      2036.839 6        38.165                                                                    26743576.266 6 104947544.26706      1521.058 6        41.759    26743576.059 7 107685305.84207      1560.597 7        42.006
G17        20.000    22714048.263 7 119363154.34007      1326.400 7        44.453                                    22714043.250 6  93010240.64406      1033.560 6        41.542    22714044.166 6  93010239.64306      1033.594 6        40.532
E26        21.000    24680015.646 7 129694705.24507     -2300.722 7        46.146                                                                    24680013.259 8  96850139.34508     -1718.074 8        48.541    24680012.858 8  99376640.26708     -1762.943 8        49.582
I06        22.000    38205482.024 7 149926755.44807      -238.977 7        43.172
S28        23.000    40829450.838 5 214560251.26305      -452.907 5        33.635
G08        24.000    24341634.475 6 127916158.29406     -4160.873 6        38.288                                    24341633.106 5  99674926.79105     -3242.230 5        32.216    24341633.832 6  99674927.78506     -3242.367 6        37.395
S23        25.000    38104554.731 7 200240752.29707      -456.895 7        44.576
C13        26.000                                                                                                                                    40975250.063 6 213369059.42306     -1156.864 6        37.040    40975251.390 6 164990598.77606      -894.490 6        38.784    40975249.320 6 173379922.67906      -939.882 6        36.578
E24        27.000    28105642.167 6 147696186.72606     -1817.662 6        38.246                                                                    28105640.368 6 110292621.08206     -1357.270 6        39.471    28105640.024 6 113169816.26306     -1392.745 6        41.073
R21        29.000    19096679.598 8 102190195.63208      -674.523 8        51.989                                                                    19096677.644 7  79481267.14807      -524.615 7        46.471
E19        30.000    26268744.579 5 138043208.49005      2662.004 5        35.476                                                                    26268743.471 6 103084213.34606      1987.864 6        39.171    26268742.894 6 105773363.87106      2039.738 6        39.988
R05        31.000    21329092.404 7 114016263.82707     -3995.687 7        47.988                                                                    21329091.999 7  88679326.24607     -3107.786 7        44.614
R13        32.000    24181580.006 6 129128304.96606     -2406.131 6        38.790
E29        33.000    23955575.649 7 125887482.42507      1130.051 7        47.797                                                                    23955573.535 8  94006901.03808       843.897 8        49.898    23955573.569 8  96459249.48408       865.945 8        50.905
C16        35.000                                                                                                                                    39202995.415 6 204140314.44406       550.934 6        41.595    39202994.797 7 157854252.16407       425.892 7        42.959    39202992.598 6 165880727.17306       447.675 6        38.880
C32        36.000                                                                                                                                    22181985.627 8 115507479.22108       943.574 8        50.932                                                                    22181985.397 8  93859310.02708       766.864 8        49.802
G32        37.000    23191610.882 7 121872777.93107     -3153.432 7        44.573                                    23191608.207 6  94965803.35406     -2457.220 6        41.354    23191609.101 6  94965812.36606     -2457.277 6        40.982
E07        38.000    24804197.421 7 130346954.78207     -1859.182 7        45.157                                                                    24804197.171 8  97337050.06708     -1388.308 8        48.578    24804196.625 8  99876269.78808     -1424.542 8        49.114
C41        39.000                                                                                                                                    22660637.773 8 117999919.26208     -2243.161 8        49.827                                                                    22660642.826 8  95884629.61208     -1822.689 8        50.652
C39        40.000                                                                                                                                    38999528.003 7 203080806.25207       130.216 7        43.170                                                                    38999523.956 7 165019785.64307       105.804 7        43.124
E33        41.000    23219547.395 8 122019634.23308        36.013 8        48.318                                                                    23219544.988 8  91118591.52508        26.940 8        50.742    23219544.898 8  93495594.13108        27.572 8        51.789
S44        42.000    40505305.615 5 212857033.33905      -524.863 5        35.805
R06        43.000    19232755.055 6 102629729.44806       466.100 6        40.958
C05        44.000                                                                                                                                    39068827.094 6 203441676.30606      -445.086 6        38.547    39068821.841 7 157314034.69107      -344.264 7        43.568    39068823.867 6 165313131.10406      -361.602 6        40.591
C29        45.000                                                                                                                                    25205010.041 7 131249117.10807      2536.940 7        42.552                                                                    25205008.036 7 106650655.28607      2061.574 7        42.409
G04        46.000    23767815.098 6 124900731.70606      3287.885 6        40.734                                    23767812.277 4  97325228.77804      2561.988 4        25.714    23767812.132 6  97325230.75706      2562.060 6        40.095
E25        47.000    28539987.331 5 149978664.61505       310.722 5        35.300                                                                    28539987.668 6 111997058.98606       231.942 6        39.144    28539987.241 6 114918718.67206       237.923 6        40.560
R22        48.000    21406963.662 8 114271855.46208      3034.584 8        48.987                                                                    21406962.202 7  88878107.07607      2360.239 7        44.924
C20        49.000                                                                                                                                    26302230.558 7 136962628.69607      2731.414 7        42.252                                                                    26302226.315 6 111293335.19206      2219.734 6        40.410
C06        50.000                                                                                                                                    38870095.888 6 202406815.21906       672.030 6        40.212    38870089.698 7 156513771.47707       519.588 7        44.116    38870089.378 6 164472097.41806       546.222 6        40.625
S48        51.000    77141409.643 6 405381486.98006      -466.728 6        37.524
G21        52.000    21277499.520 7 111814087.74907     -2122.913 7        45.698                                    21277493.940 6  87127882.79306     -1654.216 6        37.051
C09        53.000                                                                                                                                    39757245.419 6 207026415.59206      1027.796 6        40.098    39757241.067 7 160085945.67907       794.707 7        44.369    39757238.600 6 168225899.05106       835.355 6        39.817
C60        54.000                                                                                                                                    40505309.495 6 210921988.94206      -520.190 6        39.781                                                                    40505293.300 6 171391365.12406      -422.587 6        40.081
C27        55.000                                                                                                                                    22622814.165 8 117802945.76708     -2876.925 8        49.792                                                                    22622812.319 8  95724546.67008     -2337.611 8        48.024
R14        56.000    23930169.263 7 127561274.27307       861.486 7        42.464                                                                    23930168.451 6  99214341.92906       670.041 6        37.217
C02        57.000                                                                                                                                    40486538.455 5 210824096.52005      -489.001 5        33.641    40486532.702 6 163022561.50006      -378.188 6        40.734    40486535.930 5 171311853.40405      -397.360 5        35.929
I03        58.000   104874810.935 6 335766055.66206       954.663 6        40.977
R07        59.000    21949621.799 8 117498099.95108      3272.740 8        48.319                                                                    21949620.100 7  91387462.89807      2545.552 7        42.332
C28        60.000                                                                                                                                    26171688.650 4 136283148.43504     -3898.506 4        26.527                                                                    26171683.816 3                     -3164.091 3        21.333
> 2025 01 02 00 15 55.0000000  0 55
G14         2.000    25090450.657 5 131851254.33305     -2826.059 5        34.800                                    25090447.364 2 102741238.54502     -2202.100 2        15.619    25090446.946 5 102741234.50405     -2202.003 5        34.843
C33         3.000                                                                                                                                    26680158.338 6 138930607.86606     -3629.301 6        39.835                                                                    26680169.925 6 112892557.11606     -2949.374 6        39.982
E31         4.000    28433565.503 5 149419428.09205     -3114.736 5        35.590                                                                    28433567.012 6 111579451.26406     -2325.948 6        38.021    28433566.863 6 114490216.56806     -2386.742 6        38.670
S21         5.000    38386009.396 6 201719592.94506      -460.193 6        41.883
E10         6.000    28800195.325 5 151346052.69105      2260.745 5        33.665                                                                    28800194.792 6 113018150.66506      1688.433 6        36.616    28800194.987 6 115966449.98606      1732.419 6        38.919
G28         7.000    23677051.823 6 124423757.62406      1423.248 6        41.404                                    23677048.052 4  96953559.06904      1109.020 4        27.030    23677048.192 6  96953567.06106      1109.011 6        40.679
G03         8.000    20571691.783 8 108105067.04208      1256.290 8        48.443                                    20571689.392 8  84237756.37108       978.926 8        50.031    20571689.749 7  84237754.37607       978.899 7        45.321
G02         9.000    20637426.464 8 108450462.91408      -734.074 8        50.190                                    20637419.325 7  84506849.85407      -572.005 7        43.778
G31        10.000    24185786.552 6 127097167.15306      2623.752 6        39.859                                    24185781.625 5  99036735.31505      2044.479 5        32.443    24185782.519 6  99036740.30406      2044.545 6        36.752
C30        11.000                                                                                                                                    21907175.257 8 114076429.22508       -10.055 8        51.020                                                                    21907175.431 8  92696446.78008        -8.407 8        48.879
S27        12.000    39037313.961 5 205142460.68205      -438.814 5        35.195
R20        13.000    21660683.850 6 115829452.70706     -4065.981 6        36.234                                                                    21660684.481 7  90089640.07707     -3162.310 7        43.992
S36        14.000    38153663.870 7 200499394.51607      -459.617 7        43.456
G19        16.000    24517775.118 6 128841785.19006      2984.596 6        38.550                                    24517768.882 3 100396177.44503      2325.655 3        23.410
S45        17.000    63354502.165 6 332931611.32406      -501.344 6        37.452
E12        19.000    26741641.852 6 140528282.92406      2036.789 6        37.913                                                                    26741638.335 6 104939939.41806      1520.848 6        41.709    26741638.200 7 107677502.60607      1560.536 7        42.019
G17        20.000    22712787.221 7 119356528.45207      1323.945 7        44.876                                    22712782.382 6  93005077.61606      1031.646 6        41.692    22712782.162 6  93005076.62406      1031.570 6        40.422
E26        21.000    24682205.455 7 129706211.75107     -2301.779 7        45.917                                                                    24682202.880 8  96858731.86308     -1718.915 8        48.479    24682202.478 8  99385456.93808     -1763.785 8        49.478
I06        22.000    38205786.479 7 149927950.26507      -238.894 7        43.107
S28        23.000    40829886.821 5 214562514.17405      -452.593 5        34.086
G08        24.000    24345593.847 6 127936963.81206     -4161.003 6        38.712                                    24345592.374 5  99691138.88005     -3242.338 5        32.539    24345593.022 6  99691139.88606     -3242.491 6        37.312
S23        25.000    38104989.431 7 200243036.47407      -456.825 7        44.563
C13        26.000                                                                                                                                    40976360.634 6 213374843.63506     -1156.490 6        37.221    40976361.964 6 164995071.48806      -894.613 6        38.517    40976360.410 6 173384622.83006      -940.117 6        36.669
E24        27.000    28107372.708 6 147705279.70106     -1819.368 6        38.189                                                                    28107370.522 6 110299411.29606     -1358.587 6        39.336    28107370.256 6 113176783.62506     -1394.136 6        41.066
R21        29.000    19097311.388 8 102193577.55908      -678.311 8        51.771                                                                    19097309.626 7  79483897.54207      -527.564 7        46.096
E19        30.000    26266212.490 5 138029899.55805      2661.779 5        35.710                                                                    26266210.564 6 103074274.85906      1987.452 6        38.958    26266210.307 6 105763166.11406      2039.403 6        39.838
R05        31.000    21332830.788 8 114036246.01408     -3997.158 8        48.221                                                                    21332829.567 7  88694867.94707     -3108.924 7        44.685
R13        32.000    24183834.019 6 129140342.66806     -2409.208 6        38.279
E29        33.000    23954501.578 7 125881836.79307      1128.143 7        47.478                                                                    23954499.220 8  94002685.14708       842.461 8        49.845    23954499.207 8  96454923.61608       864.412 8        50.872
C16        35.000                                                                                                                                    39202466.580 6 204137561.80006       550.109 6        41.170    39202466.067 7 157852123.65107       425.357 7        43.143    39202464.019 6 165878490.45406       446.856 6        38.841
C32        36.000                                                                                                                                    22181080.724 8 115502766.32008       941.628 8        50.871                                                                    22181080.361 8  93855480.42608       765.008 8        49.748
G32        37.000    23194611.803 7 121888548.87607     -3155.044 7        43.896                                    23194609.269 6  94978092.40306     -2458.476 6        41.440    23194610.316 6  94978101.40506     -2458.613 6        41.063
E07        38.000    24805966.962 7 130356255.34607     -1861.033 7        44.850                                                                    24805966.997 8  97343995.29708     -1389.703 8        48.426    24805966.537 8  99883396.19908     -1426.039 8        49.085
C41        39.000                                                                                                                                    22662792.538 8 118011138.99208     -2244.680 8        49.656                                                                    22662797.406 8  95893746.57408     -1824.164 8        50.476
C39        40.000                                                                                                                                    38999403.424 7 203080156.96307       129.428 7        43.067                                                                    38999399.294 7 165019258.04907       104.994 7        42.933
E33        41.000    23219513.709 8 122019457.25408        34.731 8        48.059                                                                    23219511.341 8  91118459.36908        25.956 8        50.662    23219511.226 8  93495458.52308        26.611 8        51.731
S44        42.000    40505808.811 6 212859657.94806      -524.981 6        36.242
R06        43.000    19232319.796 6 102627408.03206       462.577 6        41.027
C05        44.000                                                                                                                                    39069254.514 6 203443901.62206      -444.861 6        38.327    39069248.948 7 157315755.45107      -344.192 7        43.551    39069251.144 6 165314939.37206      -361.744 6        40.408
C29        45.000                                                                                                                                    25202574.371 7 131236434.58607      2536.164 7        42.142                                                                    25202572.520 7 106640349.71907      2060.610 7        42.311
G04        46.000    23764686.944 6 124884293.77306      3287.303 6        40.880                                    23764684.194 4  97312419.99604      2561.537 4        26.108    23764683.640 6  97312421.98506      2561.573 6        40.174
E25        47.000    28539692.961 5 149977117.18305       308.389 5        35.048                                                                    28539693.218 6 111995903.41406       230.425 6        39.039    28539692.889 6 114917532.96806       236.272 6        40.729
R22        48.000    21404122.273 8 114256686.16708      3033.181 8        48.481                                                                    21404120.604 7  88866308.74607      2359.132 7        45.368
C20        49.000                                                                                                                                    26299608.179 6 136948972.68906      2731.128 6        41.142                                                                    26299603.434 6 111282238.59206      2219.078 6        39.889
C06        50.000                                                                                                                                    38869451.011 6 202403457.15206       671.417 6        40.329    38869444.774 7 156511174.79807       518.989 7        43.958    38869444.522 6 164469368.71006       545.273 6        40.372
S48        51.000    77141843.579 6 405383820.31306      -466.559 6        37.316
G21        52.000    21279519.949 7 111824706.24607     -2124.500 7        45.652                                    21279514.559 6  87136156.94806     -1655.454 6        37.236
C09        53.000                                                                                                                                    39756258.197 6 207021277.83806      1027.359 6        40.007    39756254.070 7 160081972.84907       794.291 7        44.268    39756252.025 6 168221724.22406       834.546 6        39.820
C60        54.000                                                                                                                                    40505808.783 6 210924589.67706      -520.088 6        39.598                                                                    40505792.646 6 171393478.45106      -422.668 6        39.904
C27        55.000                                                                                                                                    22625577.412 8 117817335.16908     -2878.765 8        49.561                                                                    22625575.707 7  95736239.25707     -2339.432 7        47.815
R14        56.000    23929361.460 7 127556976.17207       857.799 7        42.591                                                                    23929363.081 6  99210998.97306       667.160 6        38.417
C02        57.000                                                                                                                                    40487008.301 5 210826541.84005      -489.095 5        33.407    40487002.486 6 163024452.38806      -378.123 6        40.789    40487005.401 6 171313840.44106      -397.480 6        36.011
I03        58.000   104873594.317 6 335761282.07406       954.723 6        40.727
R07        59.000    21946565.530 8 117481740.49908      3271.076 8        48.657                                                                    21946564.049 7  91374738.89107      2544.135 7        42.392
C28        60.000                                                                                                                                    26175429.999 4 136302641.67004     -3898.755 4        25.759                                                                    26175428.934 3                     -3166.637 3        22.095
> 2025 01 02 00 16  0.0000000  0 55
G14         2.000    25093140.246 5 131865388.39905     -2827.588 5        35.743                                    25093137.157 2 102752252.07402     -2203.310 2        15.619    25093136.807 5 102752248.05105     -2202.994 5        34.867
C33         3.000                                                                                                                                    26683643.181 6 138948755.48506     -3629.463 6        39.991                                                                    26683654.948 6 112907303.55406     -2949.271 6        39.808
E31         4.000    28436529.535 6 149435002.76506     -3115.018 6        36.393                                                                    28436530.968 6 111591081.68006     -2326.105 6        38.108    28436530.188 6 114502150.37106     -2386.888 6        38.847
S21         5.000    38386448.071 7 201721894.01107      -460.256 7        42.100
E10         6.000    28798045.141 5 151334747.92705      2260.870 5        34.733                                                                    28798043.703 6 113009708.78906      1688.571 6        37.168    28798043.711 6 115957787.88606      1732.600 6        38.829
G28         7.000    23675699.070 6 124416648.18506      1420.644 6        41.859                                    23675694.908 4  96948019.24304      1107.007 4        26.766    23675694.992 6  96948027.22006      1107.092 6        40.341
G03         8.000    20570497.176 8 108098791.15908      1254.140 8        48.263                                    20570495.133 8  84232866.07108       977.255 8        49.961    20570495.663 7  84232864.06907       977.302 7        45.147
G02         9.000    20638126.152 8 108454139.61908      -736.474 8        49.993                                    20638118.981 7  84509714.81807      -573.874 7        43.653
G31        10.000    24183290.656 6 127084051.17906      2622.550 6        39.165                                    24183285.730 5  99026515.07905      2043.547 5        32.257    24183286.212 6  99026520.08306      2043.427 6        36.628
C30        11.000                                                                                                                                    21907186.282 8 114076487.03408       -12.881 8        51.045                                                                    21907186.511 8  92696493.76208       -10.594 8        48.744
S27        12.000    39037728.512 5 205144654.11705      -438.828 5        35.138
R20        13.000    21664486.697 6 115849786.90806     -4067.677 6        36.397                                                                    21664488.068 7  90105455.53907     -3163.867 7        43.367
S36        14.000    38154104.968 7 200501693.57907      -459.989 7        43.496
G19        16.000    24514936.573 6 128826867.02306      2982.841 6        39.198                                    24514930.122 3 100384552.90203      2324.285 3        23.143
S45        17.000    63354938.649 6 332932518.65916      -501.350 6        37.418
E12        19.000    26739704.131 6 140518100.70606      2036.355 6        38.165                                                                    26739700.735 6 104932335.81406      1520.670 6        41.819    26739700.424 7 107669700.64407      1560.328 7        42.095
G17        20.000    22711528.768 7 119349915.44907      1321.295 7        44.892                                    22711523.965 6  92999924.62906      1029.581 6        41.678    22711524.388 6  92999923.64006      1029.488 6        40.362
E26        21.000    24684396.089 7 129717724.45907     -2303.146 7        46.130                                                                    24684393.630 8  96867329.00608     -1719.864 8        48.631    24684393.359 8  99394278.35908     -1764.740 8        49.566
I06        22.000    38206090.732 7 149929145.28507      -239.054 7        43.227
S28        23.000    40830321.346 5 214564777.67205      -452.708 5        33.754
G08        24.000    24349553.206 6 127957770.03006     -4161.402 6        38.868                                    24349551.652 5  99707351.51005     -3242.649 5        32.701    24349552.149 6  99707352.52606     -3242.652 6        37.123
S23        25.000    38105424.645 7 200245320.90807      -456.918 7        44.682
C13        26.000                                                                                                                                    40977471.400 6 213380627.51906     -1156.701 6        36.745    40977472.999 6 164999543.93406      -894.599 6        38.616    40977471.467 6 173389322.69406      -940.023 6        36.552
E24        27.000    28109104.712 6 147714382.68406     -1821.549 6        37.682                                                                    28109102.922 6 110306208.98006     -1360.250 6        39.601    28109102.635 6 113183758.62006     -1395.747 6        40.923
R21        29.000    19097946.657 8 102196979.16608      -682.313 8        51.718                                                                    19097944.962 7  79486543.23507      -530.643 7        45.914
E19        30.000    26263681.077 6 138016593.93906      2660.889 6        36.529                                                                    26263678.271 6 103064338.85706      1986.966 6        38.769    26263678.404 6 105752970.91006      2038.771 6        40.029
R05        31.000    21336569.782 7 114056236.25607     -3998.850 7        47.668                                                                    21336569.549 7  88710415.92207     -3110.168 7        44.939
R13        32.000    24186089.748 6 129152397.37906     -2412.769 6        38.583
E29        33.000    23953429.145 7 125876201.49907      1126.022 7        47.963                                                                    23953426.857 8  93998476.97908       840.826 8        49.970    23953426.837 8  96450605.66808       862.788 8        50.879
C16        35.000                                                                                                                                    39201938.673 6 204134813.85306       549.151 6        41.192    39201938.343 7 157849998.75407       424.668 7        43.189    39201936.358 6 165876257.50706       446.336 6        38.649
C32        36.000                                                                                                                                    22180177.769 8 115498063.91908       939.408 8        50.926                                                                    22180177.316 8  93851659.34708       763.295 8        49.690
G32        37.000    23197614.491 7 121904328.96007     -3156.922 7        44.230                                    23197612.112 6  94990388.56606     -2459.940 6        41.268    23197612.944 6  94990397.57706     -2460.095 6        41.128
E07        38.000    24807738.261 7 130365566.01007     -1863.085 7        45.210                                                                    24807738.798 8  97350948.06108     -1391.292 8        48.550    24807738.237 8  99890530.33908     -1427.543 8        49.061
C41        39.000                                                                                                                                    22664948.934 8 118022366.91108     -2246.381 8        49.830                                                                    22664953.662 8  95902870.18608     -1825.523 8        50.409
C39        40.000                                                                                                                                    38999279.926 7 203079512.87107       128.306 7        42.957                                                                    38999275.642 7 165018734.68107       104.119 7        42.897
E33        41.000    23219481.392 8 122019287.56908        33.212 8        48.278                                                                    23219479.053 8  91118332.65908        24.791 8        50.773    23219478.931 8  93495328.51108        25.436 8        51.756
S44        42.000    40506306.664 5 212862282.83305      -525.102 5        35.971
R06        43.000    19231888.425 6 102625105.05406       458.743 6        41.466
C05        44.000                                                                                                                                    39069682.090 6 203446127.28206      -445.197 6        38.372    39069676.257 7 157317476.46807      -344.191 7        43.589    39069678.582 6 165316747.89706      -361.794 6        40.360
C29        45.000                                                                                                                                    25200140.000 7 131223757.04007      2534.999 7        42.605                                                                    25200137.803 7 106630048.18507      2059.741 7        42.070
G04        46.000    23761559.471 6 124867859.34806      3286.502 6        40.677                                    23761556.598 4  97299613.94304      2560.905 4        25.684    23761556.274 6  97299615.94006      2560.927 6        40.241
E25        47.000    28539400.278 5 149975581.28905       305.998 5        34.929                                                                    28539400.902 6 111994756.49406       228.430 6        39.393    28539400.766 6 114916356.11006       234.493 6        40.646
R22        48.000    21401282.042 8 114241524.90608      3031.415 8        49.340                                                                    21401280.254 7  88854516.65407      2357.759 7        45.270
C20        49.000                                                                                                                                    26296986.313 6 136935319.70306      2730.365 6        40.729                                                                    26296981.455 6 111271144.42306      2218.483 6        39.577
C06        50.000                                                                                                                                    38868806.762 6 202400103.68706       670.254 6        40.341    38868800.678 7 156508581.69007       518.257 7        44.080    38868800.553 6 164466643.76306       544.675 6        40.346
S48        51.000    77142281.265 6 405386154.00806      -466.938 6        37.259
G21        52.000    21281542.245 7 111835333.73807     -2126.420 7        45.410                                    21281536.922 6  87144438.10906     -1656.952 6        37.157
C09        53.000                                                                                                                                    39755271.923 6 207016143.60506      1026.491 6        40.260    39755267.899 7 160078002.74007       793.711 7        44.381    39755266.017 6 168217552.25706       833.893 6        39.910
C60        54.000                                                                                                                                    40506308.665 6 210927190.72106      -519.980 6        39.520                                                                    40506291.974 6 171395592.02206      -422.774 6        39.970
C27        55.000                                                                                                                                    22628342.506 8 117831734.19608     -2880.743 8        49.789                                                                    22628340.861 7  95747939.64807     -2340.887 7        47.764
R14        56.000    23928559.177 7 127552696.75907       854.010 7        42.459                                                                    23928560.988 6  99207670.52906       664.305 6        38.471
C02        57.000                                                                                                                                    40487478.627 5 210828987.55405      -489.141 5        33.467    40487471.997 6 163026343.57406      -378.351 6        40.906    40487475.208 5 171315827.81305      -397.662 5        35.757
I03        58.000   104872377.884 6 335756508.86306       954.602 6        41.097
R07        59.000    21943511.075 7 117465390.16207      3269.165 7        47.756                                                                    21943509.687 7  91362021.98107      2542.653 7        42.201
C28        60.000                                                                                                                                    26179174.284 4 136322136.40904     -3899.139 4        27.198                                                                    26179173.297 4                     -3168.575 4        24.872
> 2025 01 02 00 16  5.0000000  0 55
G14         2.000    25095831.974 5 131879528.24705     -2828.898 5        35.748                                    25095827.924 2 102763270.13902     -2204.331 2        15.476    25095827.473 5 102763266.16105     -2204.569 5        34.805
C33         3.000                                                                                                                                    26687128.157 6 138966902.87506     -3629.815 6        39.595                                                                    26687140.062 6 112922049.78906     -2949.455 6        40.191
E31         4.000    28439494.135 6 149450578.42906     -3115.637 6        36.329                                                                    28439494.759 6 111602712.84106     -2326.522 6        37.890    28439494.229 6 114514084.96606     -2387.220 6        38.910
S21         5.000    38386885.955 7 201724194.85507      -460.434 7        42.097
E10         6.000    28795893.599 5 151323441.73205      2261.286 5        34.890                                                                    28795892.448 6 113001265.85006      1688.497 6        37.240    28795892.318 6 115949124.69906      1732.588 6        38.823
G28         7.000    23674348.273 6 124409550.37706      1418.008 6        41.476                                    23674343.870 4  96942488.47504      1104.941 4        26.802    23674344.264 6  96942496.46406      1105.083 6        40.222
G03         8.000    20569304.495 8 108092524.59608      1252.006 8        48.440                                    20569302.650 8  84227983.03608       975.589 8        50.043    20569303.020 7  84227981.03307       975.650 7        45.145
G02         9.000    20638827.783 8 108457827.11408      -738.892 8        50.078                                    20638820.695 7  84512588.19307      -575.757 7        43.708
G31        10.000    24180795.894 6 127070940.05406      2621.404 6        39.628                                    24180790.856 5  99016298.61705      2042.654 5        32.359    24180791.619 6  99016303.61806      2042.765 6        36.991
C30        11.000                                                                                                                                    21907200.063 8 114076557.65808       -15.724 8        50.911                                                                    21907200.111 8  92696551.14608       -12.630 8        48.884
S27        12.000    39038144.400 5 205146846.94305      -438.720 5        35.005
R20        13.000    21668291.278 6 115870130.85306     -4069.962 6        36.344                                                                    21668292.478 7  90121278.62007     -3165.749 7        43.681
S36        14.000    38154541.005 7 200503992.80707      -460.204 7        43.488
G19        16.000    24512098.081 6 128811955.66306      2981.283 6        40.246                                    24512092.605 3 100372933.66503      2323.072 3        23.695
S45        17.000    63355369.915 6 332935025.80206      -501.797 6        37.694
E12        19.000    26737766.951 6 140507919.61306      2035.730 6        38.288                                                                    26737763.391 6 104924733.03706      1520.259 6        41.771    26737763.154 7 107661899.54307      1559.837 7        42.119
G17        20.000    22710272.957 7 119343314.81907      1318.554 7        45.091                                    22710267.931 6  92994781.28006      1027.447 6        41.743    22710268.386 6  92994780.28306      1027.529 6        40.768
E26        21.000    24686587.871 7 129729242.87007     -2304.611 7        46.066                                                                    24686585.554 8  96875930.41108     -1720.984 8        48.581    24686585.201 8  99403104.14408     -1765.836 8        49.681
I06        22.000    38206395.169 7 149930340.11507      -239.151 7        42.895
S28        23.000    40830748.999 5 214567041.19305      -452.746 5        34.014
G08        24.000    24353512.116 6 127978576.46206     -4161.717 6        39.513                                    24353510.916 5  99723564.31605     -3242.891 5        33.072    24353511.959 6  99723565.30606     -3242.820 6        37.539
S23        25.000    38105860.454 7 200247605.04707      -457.145 7        44.600
C13        26.000                                                                                                                                    40978581.419 6 213386410.58206     -1156.789 6        36.507    40978583.606 6 165004015.72606      -894.612 6        38.601    40978582.045 6 173394021.89006      -939.834 6        37.146
E24        27.000    28110838.657 6 147723495.10806     -1823.721 6        37.962                                                                    28110837.076 6 110313013.71706     -1361.928 6        39.700    28110836.768 6 113190740.87606     -1397.480 6        41.228
R21        29.000    19098585.883 8 102200399.95608      -686.448 8        51.347                                                                    19098584.319 7  79489203.85207      -533.869 7        45.830
E19        30.000    26261149.158 6 138003291.14106      2660.004 6        36.934                                                                    26261146.936 6 103054404.94006      1986.442 6        38.568    26261147.179 6 105742777.87006      2038.095 6        40.408
R05        31.000    21340310.802 7 114076234.07007     -4000.709 7        47.293                                                                    21340310.082 7  88725969.77207     -3111.596 7        44.876
R13        32.000    24188351.284 6 129164468.70106     -2416.085 6        38.081
E29        33.000    23952358.815 8 125870576.02508      1123.799 8        48.271                                                                    23952356.358 8  93994276.13608       839.196 8        49.985    23952356.403 8  96446295.24008       861.083 8        50.939
C16        35.000                                                                                                                                    39201411.611 6 204132070.05506       548.110 6        41.213    39201411.440 7 157847877.08107       423.779 7        43.420    39201409.464 6 165874027.97706       445.289 6        38.850
C32        36.000                                                                                                                                    22179276.616 8 115493371.51808       937.182 8        50.689                                                                    22179276.198 8  93847846.39108       761.619 8        49.728
G32        37.000    23200619.399 7 121920117.63407     -3158.952 7        44.048                                    23200616.644 6  95002691.42806     -2461.521 6        41.340    23200617.138 6  95002700.43606     -2461.573 6        41.173
E07        38.000    24809512.091 7 130374886.22407     -1865.310 7        45.088                                                                    24809512.381 8  97357907.96308     -1392.978 8        48.576    24809511.813 8  99897671.79808     -1429.284 8        49.159
C41        39.000                                                                                                                                    22667106.693 8 118033602.52108     -2248.208 8        49.477                                                                    22667111.353 8  95912000.03708     -1826.778 8        50.534
C39        40.000                                                                                                                                    38999156.850 7 203078873.44707       127.111 7        42.633                                                                    38999152.816 7 165018215.09907       103.366 7        42.938
E33        41.000    23219450.411 8 122019124.68908        31.539 8        48.307                                                                    23219448.039 8  91118211.02108        23.593 8        50.794    23219447.946 8  93495203.69608        24.221 8        51.825
S44        42.000    40506803.117 5 212864907.52005      -525.264 5        35.967
R06        43.000    19231460.177 6 102622820.32306       454.778 6        41.313
C05        44.000                                                                                                                                    39070109.018 6 203448352.75106      -445.220 6        38.162    39070103.967 7 157319197.34207      -344.378 7        43.774    39070106.042 6 165318556.29706      -361.934 6        40.493
C29        45.000                                                                                                                                    25197706.407 7 131211084.00007      2533.831 7        42.178                                                                    25197704.067 7 106619750.30207      2059.099 7        42.184
G04        46.000    23758432.179 6 124851427.95806      3285.618 6        40.338                                    23758429.624 4  97286810.26504      2560.219 4        25.519    23758429.745 6  97286812.27006      2560.213 6        40.377
E25        47.000    28539110.204 5 149974056.46605       303.410 5        35.205                                                                    28539110.787 6 111993617.84306       226.510 6        39.150    28539110.620 6 114915187.74506       232.703 6        40.663
R22        48.000    21398444.003 8 114226371.15608      3029.646 8        49.990                                                                    21398441.230 7  88842730.40107      2356.462 7        44.932
C20        49.000                                                                                                                                    26294366.009 6 136921669.20106      2729.487 6        41.004                                                                    26294360.148 6 111260052.28206      2218.012 6        40.029
C06        50.000                                                                                                                                    38868163.864 6 202396754.31606       669.060 6        40.102    38868157.362 7 156505991.72907       517.526 7        43.672    38868157.424 6 164463922.12006       543.790 6        40.586
S48        51.000    77142716.234 6 405388487.18706      -466.956 6        37.002
G21        52.000    21283566.361 7 111845969.67407     -2128.366 7        45.664                                    21283560.859 6  87152725.84906     -1658.468 6        37.191
C09        53.000                                                                                                                                    39754286.058 6 207011012.40806      1025.688 6        39.688    39754282.614 7 160074034.97707       793.120 7        44.518    39754280.691 6 168213382.73006       833.619 6        40.038
C60        54.000                                                                                                                                    40506808.007 6 210929791.53306      -520.480 6        39.261                                                                    40506791.607 6 171397705.39106      -422.809 6        40.062
C27        55.000                                                                                                                                    22631109.734 8 117846142.33508     -2882.827 8        49.579                                                                    22631107.873 7  95759647.44807     -2342.477 7        47.928
R14        56.000    23927760.523 7 127548435.73007       850.162 7        42.461                                                                    23927760.619 6  99204356.41706       661.142 6        39.033
C02        57.000                                                                                                                                    40487948.576 5 210831433.12105      -489.689 5        33.587    40487941.665 6 163028234.61406      -378.382 6        40.889    40487944.643 5 171317815.00905      -397.799 5        35.729
I03        58.000   104871161.315 6 335751735.66306       954.369 6        41.049
R07        59.000    21940457.815 8 117449048.56708      3267.102 8        48.493                                                                    21940456.577 7  91349311.86107      2541.068 7        43.100
C28        60.000                                                                                                                                    26182919.267 4 136341632.09404     -3899.295 4        26.575                                                                    26182916.648 4                     -3167.656 4        24.286
> 2025 01 02 00 16 10.0000000  0 55
G14         2.000    25098523.686 5 131893674.35205     -2829.696 5        34.738                                    25098519.917 2 102774293.07102     -2204.973 2        15.714    25098519.452 5 102774289.06805     -2205.213 5        34.476
C33         3.000                                                                                                                                    26690613.120 6 138985050.43306     -3629.312 6        39.474                                                                    26690625.079 6 112936796.15806     -2949.109 6        40.224
E31         4.000    28442457.955 5 149466155.56205     -3115.511 5        35.510                                                                    28442458.567 6 111614345.11206     -2326.488 6        37.191    28442458.224 6 114526020.71006     -2387.177 6        38.300
S21         5.000    38387322.640 7 201726495.82907      -459.969 7        42.129
E10         6.000    28793741.506 5 151312134.60505      2261.680 5        34.586                                                                    28793740.752 6 112992822.19506      1688.979 6        37.713    28793740.640 6 115940460.77306      1733.080 6        38.934
G28         7.000    23672999.939 6 124402464.69006      1416.151 6        40.956                                    23672995.327 4  96936967.15304      1103.499 4        26.683    23672996.089 6  96936975.15406      1103.408 6        40.720
G03         8.000    20568114.233 8 108086267.83308      1250.557 8        48.357                                    20568112.036 8  84223107.63608       974.459 8        50.177    20568112.383 7  84223105.63607       974.452 7        45.014
G02         9.000    20639531.584 8 108461525.86408      -740.700 8        50.058                                    20639524.533 7  84515470.33507      -577.169 7        43.848
G31        10.000    24178301.874 6 127057834.26206      2620.913 6        40.014                                    24178296.974 5  99006086.32505      2042.271 5        32.509    24178297.487 6  99006091.33006      2042.095 6        36.888
C30        11.000                                                                                                                                    21907216.170 8 114076641.55708       -17.918 8        50.913                                                                    21907216.193 8  92696619.30608       -14.471 8        48.880
S27        12.000    39038562.063 5 205149039.77205      -438.367 5        35.405
R20        13.000    21672095.953 5 115890485.06905     -4071.957 5        35.243                                                                    21672098.910 7  90137109.67007     -3166.827 7        43.790
S36        14.000    38154976.774 7 200506292.54207      -459.707 7        43.405
G19        16.000    24509261.944 6 128797051.59306      2980.246 6        39.649                                    24509256.514 3 100361320.11803      2322.276 3        23.924
S45        17.000    63355800.237 6 332937533.07106      -501.075 6        37.501
E12        19.000    26735830.138 6 140497740.11606      2036.003 6        38.300                                                                    26735826.317 7 104917131.47807      1520.399 7        42.006    26735826.082 6 107654099.66506      1560.092 6        41.986
G17        20.000    22709019.109 7 119336727.02407      1316.428 7        44.605                                    22709014.303 6  92989647.93306      1025.789 6        41.785    22709014.410 6  92989646.94606      1025.732 6        40.725
E26        21.000    24688780.814 7 129740767.43107     -2305.323 7        45.702                                                                    24688778.588 8  96884536.41108     -1721.506 8        48.730    24688778.186 8  99411934.65108     -1766.418 8        49.448
I06        22.000    38206699.598 7 149931535.12807      -238.849 7        43.007
S28        23.000    40831173.557 5 214569304.40405      -452.479 5        33.814
G08        24.000    24357471.878 6 127999383.49306     -4161.303 6        39.276                                    24357470.327 5  99739777.58205     -3242.578 5        33.515    24357471.114 6  99739778.59706     -3242.544 6        37.316
S23        25.000    38106291.769 7 200249889.37607      -456.681 7        44.843
C13        26.000                                                                                                                                    40979691.585 6 213392193.21206     -1156.241 6        36.401    40979694.194 6 165008487.20506      -894.109 6        38.844    40979692.332 6 173398720.71206      -939.412 6        36.907
E24        27.000    28112575.514 6 147732617.45006     -1825.321 6        38.024                                                                    28112572.971 6 110319825.85406     -1363.075 6        39.688    28112572.760 6 113197730.71106     -1398.609 6        41.099
R21        29.000    19099228.924 8 102203840.50608      -689.876 8        51.558                                                                    19099227.285 7  79491879.83907      -536.584 7        45.520
E19        30.000    26258617.853 6 137989991.65706      2659.748 6        36.646                                                                    26258616.295 6 103044473.51406      1986.093 6        38.997    26258616.504 6 105732587.35606      2037.913 6        40.505
R05        31.000    21344053.909 8 114096239.98708     -4001.790 8        48.282                                                                    21344052.493 7  88741529.92907     -3112.495 7        44.659
R13        32.000    24190615.564 6 129176557.05806     -2419.100 6        38.922
E29        33.000    23951289.911 8 125864960.83208      1122.181 8        48.005                                                                    23951287.868 8  93990082.98108       837.942 8        50.125    23951287.874 8  96441992.69408       859.862 8        50.834
C16        35.000                                                                                                                                    39200886.164 6 204129330.87806       547.544 6        41.092    39200885.778 7 157845758.96807       423.453 7        43.513    39200883.417 6 165871802.12706       445.051 6        38.865
C32        36.000                                                                                                                                    22178377.419 8 115488689.57108       935.521 8        50.628                                                                    22178377.054 8  93844041.90608       760.250 8        49.807
G32        37.000    23203625.348 7 121935915.36207     -3160.290 7        44.026                                    23203622.969 6  95015001.34306     -2462.565 6        41.490    23203623.552 6  95015010.32806     -2462.453 6        40.973
E07        38.000    24811287.909 7 130384216.46007     -1866.813 7        44.942                                                                    24811287.883 8  97364875.34308     -1394.087 8        48.762    24811287.305 8  99904820.94408     -1430.467 8        48.969
C41        39.000                                                                                                                                    22669265.829 8 118044846.28008     -2249.409 8        49.180                                                                    22669270.573 8  95921136.48908     -1827.788 8        50.594
C39        40.000                                                                                                                                    38999035.518 7 203078239.16907       126.514 7        42.658                                                                    38999030.966 7 165017699.67607       102.882 7        43.022
E33        41.000    23219420.831 8 122018969.06708        30.570 8        48.242                                                                    23219418.440 8  91118094.80908        22.862 8        50.969    23219418.323 8  93495084.45408        23.467 8        51.710
S44        42.000    40507304.193 6 212867532.41706      -524.743 6        36.261
R06        43.000    19231035.256 6 102620554.14006       451.583 6        41.237
C05        44.000                                                                                                                                    39070536.684 6 203450578.51706      -444.977 6        38.204    39070531.347 7 157320918.44607      -344.094 7        43.562    39070533.444 6 165320364.88206      -361.616 6        40.470
C29        45.000                                                                                                                                    25195273.412 7 131198415.90807      2533.259 7        42.224                                                                    25195271.417 7 106609456.43107      2058.534 7        42.360
G04        46.000    23755306.243 6 124835000.06506      3285.391 6        40.369                                    23755303.463 4  97274009.32504      2560.038 4        25.323    23755303.642 6  97274011.32806      2560.007 6        39.982
E25        47.000    28538822.459 5 149972543.09805       301.823 5        34.857                                                                    28538822.831 6 111992487.74006       225.345 6        39.360    28538822.475 6 114914028.17406       231.195 6        40.555
R22        48.000    21395606.699 8 114211225.38108      3028.560 8        49.652                                                                    21395604.271 7  88830950.35807      2355.499 7        44.876
C20        49.000                                                                                                                                    26291745.144 6 136908021.64406      2729.438 6        41.499                                                                    26291739.583 6 111248962.51806      2217.857 6        40.482
C06        50.000                                                                                                                                    38867520.778 6 202393409.45806       668.688 6        39.598    38867515.103 7 156503405.28707       517.167 7        43.433    38867514.907 6 164461204.14606       543.513 6        40.505
S48        51.000    77143155.825 6 405390820.42506      -466.371 6        37.399
G21        52.000    21285592.036 7 111856614.52807     -2129.702 7        45.929                                    21285586.522 6  87161020.54006     -1659.506 6        37.255
C09        53.000                                                                                                                                    39753301.142 6 207005884.71706      1025.142 6        39.724    39753297.753 7 160070069.91407       792.828 7        44.527    39753295.947 6 168209216.02406       833.361 6        39.997
C60        54.000                                                                                                                                    40507307.411 6 210932392.57506      -520.110 6        39.312                                                                    40507290.980 6 171399818.93806      -422.480 6        39.796
C27        55.000                                                                                                                                    22633878.310 8 117860560.05308     -2884.346 8        49.420                                                                    22633876.599 7  95771362.99607     -2343.689 7        47.920
R14        56.000    23926963.654 7 127544193.62507       846.669 7        42.671                                                                    23926964.993 6  99201057.01406       658.425 6        39.781
C02        57.000                                                                                                                                    40488417.377 5 210833878.93405      -489.255 5        33.365    40488411.172 6 163030125.89306      -378.185 6        40.758    40488414.374 5 171319802.41505      -397.281 5        35.848
I03        58.000   104869945.424 6 335746962.79406       954.595 6        41.020
R07        59.000    21937407.534 8 117432716.13208      3265.769 8        48.281                                                                    21937405.791 7  91336608.85807      2540.070 7        42.762
C28        60.000                                                                                                                                    26186663.214 4 136361129.43004     -3899.068 4        26.359                                                                    26186661.158 4                     -3168.552 4        25.353
> 2025 01 02 00 16 15.0000000  0 55
G14         2.000    25101215.828 5 131907826.46105     -2830.877 5        35.400                                    25101212.970 2 102785320.68602     -2205.880 2        15.143    25101211.741 5 102785316.68605     -2206.033 5        34.433
C33         3.000                                                                                                                                    26694098.473 6 139003198.03506     -3629.436 6        39.375                                                                    26694110.157 6 112951542.55706     -2949.066 6        40.219
E31         4.000    28445422.041 5 149481734.00805     -3115.958 5        35.495                                                                    28445422.791 6 111625978.34506     -2326.737 6        36.900    28445422.473 6 114537957.38906     -2387.412 6        38.441
S21         5.000    38387761.941 6 201728796.93206      -460.204 6        41.702
E10         6.000    28791589.388 5 151300826.33205      2261.797 5        35.343                                                                    28791588.982 6 112984377.69606      1689.099 6        37.758    28791588.656 6 115931795.98306      1732.977 6        39.087
G28         7.000    23671653.732 6 124395390.96606      1413.626 6        40.915                                    23671649.283 4  96931455.16104      1101.524 4        26.527    23671649.872 6  96931463.15806      1101.553 6        40.513
G03         8.000    20566925.305 8 108080020.71308      1248.671 8        48.183                                    20566923.246 8  84218239.74608       972.991 8        49.962    20566923.708 7  84218237.74707       972.953 7        45.202
G02         9.000    20640237.597 8 108465235.70908      -743.019 8        49.955                                    20640230.464 7  84518361.12407      -578.975 7        43.577
G31        10.000    24175809.306 6 127044733.66906      2619.639 6        40.010                                    24175804.053 5  98995878.06805      2041.283 5        32.323    24175804.260 6  98995883.05606      2041.485 6        36.650
C30        11.000                                                                                                                                    21907234.864 8 114076738.55408       -20.642 8        51.117                                                                    21907234.879 8  92696698.12908       -16.650 8        49.040
S27        12.000    39038977.798 5 205151233.25505      -438.461 5        35.129
R20        13.000    21675905.080 6 115910849.43206     -4073.986 6        36.336                                                                    21675907.114 7  90152948.60907     -3168.559 7        43.994
S36        14.000    38155414.380 7 200508592.16107      -460.021 7        43.310
G19        16.000    24506426.915 6 128782154.65306      2978.762 6        38.805                                    24506421.541 3 100349712.12003      2321.135 3        23.105
S45        17.000    63356232.858 6 332940040.36206      -501.237 6        37.251
E12        19.000    26733893.159 6 140487562.04506      2035.459 6        38.231                                                                    26733889.484 6 104909530.96906      1520.087 6        41.964    26733889.160 7 107646300.88507      1559.708 7        42.089
G17        20.000    22707767.936 7 119330151.93107      1313.876 7        44.850                                    22707763.098 6  92984524.48706      1023.799 6        41.592    22707763.423 6  92984523.48406      1023.737 6        41.323
E26        21.000    24690975.346 7 129752297.97207     -2306.676 7        45.666                                                                    24690972.776 8  96893146.88208     -1722.486 8        48.719    24690972.279 8  99420769.74308     -1767.441 8        49.616
I06        22.000    38207004.034 7 149932730.17607      -238.990 7        42.874
S28        23.000    40831610.323 5 214571567.39805      -452.421 5        34.029
G08        24.000    24361431.394 6 128020190.97306     -4161.400 6        39.276                                    24361429.819 5  99755991.20205     -3242.648 5        33.257    24361430.212 6  99755992.20306     -3242.711 6        37.380
S23        25.000    38106727.050 7 200252173.66707      -456.762 7        44.576
C13        26.000                                                                                                                                    40980802.707 6 213397975.36406     -1156.340 6        36.590    40980804.458 6 165012958.33906      -894.019 6        38.979    40980802.571 6 173403419.17006      -939.392 6        37.244
E24        27.000    28114312.421 6 147741749.50306     -1827.308 6        38.246                                                                    28114310.561 6 110326645.24506     -1364.550 6        39.811    28114310.505 6 113204728.01906     -1400.263 6        41.168
R21        29.000    19099875.978 8 102207300.50008      -693.927 8        51.439                                                                    19099873.840 7  79494570.94407      -539.770 7        45.526
E19        30.000    26256087.792 6 137976695.22606      2658.968 6        36.866                                                                    26256086.397 6 103034544.34806      1985.731 6        39.102    26256086.197 6 105722399.17306      2037.454 6        40.756
R05        31.000    21347798.455 8 114116253.74008     -4003.491 8        48.164                                                                    21347796.451 7  88757096.16707     -3113.763 7        44.585
R13        32.000    24192883.246 6 129188662.16906     -2422.616 6        39.258
E29        33.000    23950223.343 8 125859355.76608      1120.035 8        48.017                                                                    23950221.354 8  93985897.38508       836.377 8        50.089    23950221.278 8  96437697.90708       858.248 8        50.982
C16        35.000                                                                                                                                    39200361.030 6 204126596.14306       546.655 6        41.485    39200360.253 7 157843644.31307       422.674 7        43.843    39200358.122 6 165869579.94906       444.231 6        39.165
C32        36.000                                                                                                                                    22177480.407 8 115484017.89608       933.361 8        50.825                                                                    22177479.875 8  93840245.78308       758.602 8        49.935
G32        37.000    23206633.566 7 121951721.94307     -3162.100 7        44.761                                    23206630.958 6  95027318.15606     -2463.974 6        41.406    23206631.483 6  95027327.16006     -2463.901 6        40.830
E07        38.000    24813065.047 7 130393556.53807     -1868.979 7        45.043                                                                    24813065.232 8  97371850.08008     -1395.678 8        48.661    24813064.729 8  99911977.62808     -1432.107 8        49.072
C41        39.000                                                                                                                                    22671426.411 8 118056097.98308     -2251.033 8        49.385                                                                    22671431.329 8  95930279.41908     -1829.059 8        50.693
C39        40.000                                                                                                                                    38998914.535 7 203077609.85807       125.409 7        42.868                                                                    38998910.169 7 165017188.30107       102.041 7        43.130
E33        41.000    23219392.562 8 122018820.51808        29.097 8        48.355                                                                    23219390.137 8  91117983.88308        21.722 8        50.893    23219390.053 8  93494970.63608        22.299 8        51.854
S44        42.000    40507803.007 6 212870157.40406      -524.838 6        36.306
R06        43.000    19230614.410 6 102618306.39206       447.847 6        41.528
C05        44.000                                                                                                                                    39070963.715 6 203452804.36406      -445.227 6        38.075    39070958.606 7 157322639.61607      -344.199 7        43.621    39070960.882 6 165322173.55006      -361.532 6        40.622
C29        45.000                                                                                                                                    25192841.521 7 131185752.59307      2532.271 7        42.536                                                                    25192839.716 7 106599166.45607      2057.774 7        42.599
G04        46.000    23752180.716 6 124818575.50006      3284.692 6        40.348                                    23752177.777 4  97261210.97304      2559.502 4        24.647    23752177.702 6  97261212.97406      2559.263 6        39.417
E25        47.000    28538536.332 5 149971041.09005       299.225 5        34.905                                                                    28538536.961 6 111991366.10806       223.642 6        39.324    28538536.562 6 114912877.27706       229.467 6        40.791
R22        48.000    21392770.386 8 114196087.46508      3026.874 8        49.887                                                                    21392768.042 7  88819176.42207      2354.290 7        45.034
C20        49.000                                                                                                                                    26289124.516 6 136894376.89206      2728.809 6        41.802                                                                    26289119.353 6 111237875.05206      2217.398 6        40.665
C06        50.000                                                                                                                                    38866879.073 6 202390069.02706       667.701 6        39.922    38866873.924 7 156500822.24807       516.376 7        43.410    38866873.383 6 164458489.76106       542.675 6        40.691
S48        51.000    77143591.513 6 405393153.69206      -466.612 6        37.146
G21        52.000    21287619.467 7 111867268.10207     -2131.520 7        45.716                                    21287613.826 6  87169322.02606     -1660.925 6        37.123
C09        53.000                                                                                                                                    39752317.166 6 207000760.28906      1024.635 6        39.997    39752313.888 7 160066107.39507       792.261 7        44.558    39752311.795 6 168205052.01806       832.849 6        40.195
C60        54.000                                                                                                                                    40507806.659 6 210934993.68806      -520.093 6        39.303                                                                    40507790.420 6 171401932.55706      -422.541 6        40.257
C27        55.000                                                                                                                                    22636648.701 8 117874987.14308     -2886.319 8        49.458                                                                    22636647.160 8  95783086.18508     -2345.211 8        48.047
R14        56.000    23926170.991 6 127539970.15106       842.919 6        41.976                                                                    23926172.668 6  99197772.07506       655.505 6        39.691
C02        57.000                                                                                                                                    40488887.528 5 210836324.88705      -488.966 5        33.413    40488880.894 6 163032017.27106      -378.240 6        40.822    40488883.934 5 171321789.97905      -397.528 5        35.929
I03        58.000   104868729.220 6 335742190.12606       954.611 6        40.965
R07        59.000    21934358.440 7 117416392.63207      3263.902 7        47.819                                                                    21934356.262 7  91323912.81207      2538.475 7        42.324
C28        60.000                                                                                                                                    26190407.134 4 136380628.04104     -3899.680 4        26.323                                                                    26190407.175 4                     -3168.993 4        25.098
> 2025 01 02 00 16 20.0000000  0 55
G14         2.000    25103910.611 5 131921984.51905     -2832.407 5        35.357                                    25103907.212 2 102796352.91402     -2207.046 2        14.714    25103907.039 5 102796348.87805     -2206.995 5        35.452
C33         3.000                                                                                                                                    26697583.584 6 139021345.52506     -3629.817 6        39.411                                                                    26697595.120 6 112966288.85606     -2949.311 6        40.174
E31         4.000    28448387.090 5 149497313.55405     -3116.223 5        35.305                                                                    28448387.518 6 111637612.42606     -2326.981 6        36.507    28448387.460 6 114549894.97606     -2387.618 6        38.517
S21         5.000    38388200.053 7 201731097.95507      -460.201 7        42.021
E10         6.000    28789437.480 5 151289516.81505      2261.895 5        34.400                                                                    28789436.560 6 112975932.27006      1689.037 6        37.588    28789436.453 6 115923130.25006      1733.219 6        38.667
G28         7.000    23670310.105 6 124388329.09106      1411.072 6        41.349                                    23670305.543 4  96925952.40204      1099.545 4        26.479    23670305.987 6  96925960.38306      1099.600 6        40.984
G03         8.000    20565738.220 8 108073783.10108      1246.450 8        48.349                                    20565736.262 8  84213379.27008       971.259 8        50.047    20565736.738 7  84213377.26207       971.318 7        45.138
G02         9.000    20640945.609 8 108468956.52408      -745.340 8        50.115                                    20640938.523 7  84521260.46107      -580.784 7        43.674
G31        10.000    24173317.103 6 127031638.08206      2618.589 6        39.673                                    24173312.054 5  98985673.71505      2040.459 5        32.162    24173312.330 6  98985678.71006      2040.484 6        36.488
C30        11.000                                                                                                                                    21907256.088 8 114076848.55008       -23.315 8        51.243                                                                    21907255.935 8  92696787.49708       -18.960 8        48.986
S27        12.000    39039395.189 5 205153426.55205      -438.376 5        35.619
R20        13.000    21679715.946 6 115931223.74706     -4075.910 6        36.079                                                                    21679716.357 7  90168795.30307     -3170.154 7        43.554
S36        14.000    38155851.638 7 200510891.61907      -460.023 7        43.338
G19        16.000    24503593.616 6 128767264.74506      2977.232 6        38.961                                    24503588.017 3 100338109.58903      2319.923 3        23.143
S45        17.000    63356665.934 6 332942547.48006      -501.453 6        37.633
E12        19.000    26731956.747 6 140477385.28006      2035.150 6        38.592                                                                    26731952.788 6 104901931.45106      1519.729 6        41.850    26731952.581 7 107638503.12807      1559.367 7        42.142
G17        20.000    22706519.624 7 119323589.40107      1311.196 7        45.193                                    22706514.290 6  92979410.83006      1021.710 6        41.709    22706515.052 6  92979409.82006      1021.797 6        40.889
E26        21.000    24693170.681 7 129763834.35807     -2307.924 7        45.985                                                                    24693168.106 8  96901761.72308     -1723.497 8        48.612    24693167.605 8  99429609.31608     -1768.422 8        49.563
I06        22.000    38207309.021 7 149933925.14607      -238.988 7        42.919
S28        23.000    40832040.350 5 214573830.54805      -452.795 5        34.138
G08        24.000    24365391.031 6 128040998.77906     -4161.741 6        39.297                                    24365389.307 5  99772205.07805     -3242.912 5        33.299    24365389.930 6  99772206.08106     -3242.849 6        37.085
S23        25.000    38107160.265 7 200254457.89807      -456.933 7        44.780
C13        26.000                                                                                                                                    40981912.922 6 213403756.75106     -1156.153 6        36.605    40981914.918 6 165017428.86806      -894.070 6        39.096    40981912.778 6 173408117.03506      -939.679 6        36.752
E24        27.000    28116051.694 6 147750891.17006     -1829.416 6        38.273                                                                    28116049.989 6 110333471.81606     -1366.063 6        39.616    28116050.168 6 113211732.66906     -1401.762 6        41.156
R21        29.000    19100525.791 8 102210779.87408      -697.904 8        51.387                                                                    19100524.074 7  79497277.13307      -542.823 7        45.664
E19        30.000    26253557.981 6 137963401.80706      2658.451 6        36.435                                                                    26253556.763 6 103024617.49206      1985.028 6        39.147    26253556.143 6 105712213.32906      2036.895 6        40.279
R05        31.000    21351543.386 8 114136275.20608     -4005.131 8        48.019                                                                    21351542.089 7  88772668.40807     -3115.093 7        44.175
R13        32.000    24195152.273 6 129200783.88306     -2426.127 6        39.009
E29        33.000    23949158.567 8 125853760.67908      1117.949 8        48.118                                                                    23949156.616 8  93981719.24708       834.809 8        49.946    23949156.608 8  96433410.77908       856.570 8        50.914
C16        35.000                                                                                                                                    39199836.935 6 204123865.73106       545.634 6        41.406    39199836.031 7 157841532.99807       421.903 7        43.752    39199834.008 6 165867361.26506       443.269 6        39.186
C32        36.000                                                                                                                                    22176585.221 8 115479356.39408       931.159 8        50.926                                                                    22176584.733 8  93836457.92508       756.710 8        49.906
G32        37.000    23209643.162 7 121967537.25907     -3164.001 7        44.459                                    23209640.611 6  95039641.78006     -2465.454 6        41.373    23209640.697 6  95039650.79406     -2465.505 6        41.173
E07        38.000    24814844.292 7 130402906.30607     -1870.978 7        45.263                                                                    24814844.474 8  97378832.05808     -1397.162 8        48.518    24814843.919 8  99919141.74508     -1433.609 8        49.058
C41        39.000                                                                                                                                    22673588.865 8 118067357.51508     -2252.746 8        49.450                                                                    22673593.613 8  95939428.70808     -1830.610 8        50.746
C39        40.000                                                                                                                                    38998794.299 7 203076985.39007       124.390 7        42.823                                                                    38998790.265 7 165016680.86907       100.960 7        43.263
E33        41.000    23219365.732 8 122018678.93808        27.547 8        48.380                                                                    23219363.237 8  91117878.16608        20.602 8        50.785    23219363.136 8  93494862.15808        21.114 8        51.772
S44        42.000    40508306.186 6 212872782.30106      -524.904 6        36.537
R06        43.000    19230196.770 6 102616076.84606       444.206 6        41.409
C05        44.000                                                                                                                                    39071391.006 6 203455030.15306      -445.217 6        38.057    39071386.089 7 157324360.74007      -344.370 7        43.873    39071388.472 6 165323982.19406      -361.779 6        40.577
C29        45.000                                                                                                                                    25190410.691 7 131173093.95907      2531.127 7        42.512                                                                    25190408.693 7 106588880.27307      2056.748 7        42.652
G04        46.000    23749055.978 6 124802154.16406      3283.894 6        39.808                                    23749052.542 4  97248415.11704      2558.882 4        24.241    23749052.938 6  97248417.09506      2558.930 6        38.991
E25        47.000    28538252.872 5 149969550.25705       296.933 5        34.981                                                                    28538253.280 6 111990252.84906       221.721 6        39.252    28538252.777 6 114911734.96506       227.512 6        41.004
R22        48.000    21389936.180 8 114180957.24408      3025.191 8        49.623                                                                    21389933.721 7  88807408.47307      2352.891 7        44.755
C20        49.000                                                                                                                                    26286504.453 6 136880734.81606      2728.035 6        41.209                                                                    26286499.367 6 111226789.73106      2216.875 6        40.722
C06        50.000                                                                                                                                    38866239.073 6 202386732.85006       666.731 6        39.934    38866233.002 7 156498242.50607       515.567 7        43.232    38866232.782 6 164455778.83906       541.735 6        40.696
S48        51.000    77144022.676 6 405395486.67506      -466.654 6        37.357
G21        52.000    21289648.371 7 111877930.30407     -2133.412 7        45.616                                    21289642.825 6  87177630.23406     -1662.396 6        37.176
C09        53.000                                                                                                                                    39751333.996 6 206995639.01706      1023.811 6        40.107    39751330.293 7 160062147.31407       791.601 7        44.564    39751328.437 6 168200890.57606       831.966 6        40.422
C60        54.000                                                                                                                                    40508306.103 6 210937594.75506      -520.346 6        39.402                                                                    40508290.074 6 171404046.12106      -422.767 6        40.167
C27        55.000                                                                                                                                    22639421.165 8 117889423.49308     -2888.219 8        49.754                                                                    22639419.481 8  95794816.89708     -2346.925 8        48.102
R14        56.000    23925382.356 7 127535765.11507       838.988 7        42.136                                                                    23925384.031 6  99194501.46206       652.594 6        38.895
C02        57.000                                                                                                                                    40489357.594 5 210838770.84605      -489.368 5        33.713    40489350.924 6 163033908.64606      -378.233 6        40.934    40489353.700 5 171323777.52005      -397.502 5        35.776
I03        58.000   104867512.839 6 335737417.58406       954.464 6        40.956
R07        59.000    21931309.926 8 117400078.03508      3261.947 8        48.263                                                                    21931308.569 7  91311223.67307      2537.188 7        42.512
C28        60.000                                                                                                                                    26194152.456 4 136400127.79104     -3899.492 4        26.862                                                                    26194151.448 4                     -3168.432 4        26.192
> 2025 01 02 00 16 25.0000000  0 55
G14         2.000    25106605.053 5 131936148.41105     -2833.229 5        34.467                                    25106602.406 2 102807389.69702     -2207.714 2        14.381    25106601.975 5 102807385.67905     -2207.799 5        34.743
C33         3.000                                                                                                                                    26701068.795 6 139039492.86806     -3629.426 6        39.580                                                                    26701080.223 6 112981035.10306     -2949.112 6        40.069
E31         4.000    28451352.496 5 149512894.24905     -3116.260 5        35.886                                                                    28451352.525 6 111649247.36006     -2327.073 6        36.854    28451352.725 6 114561833.41806     -2387.608 6        38.754
S21         5.000    38388637.717 7 201733398.77807      -460.075 7        42.023
E10         6.000    28787285.223 5 151278206.07205      2262.460 5        35.576                                                                    28787284.305 6 112967485.92206      1689.495 6        37.512    28787284.097 6 115914463.57306      1733.411 6        38.601
G28         7.000    23668968.404 6 124381279.04706      1408.950 6        41.240                                    23668964.105 4  96920458.85804      1097.885 4        26.623    23668964.827 6  96920466.86306      1097.782 6        40.737
G03         8.000    20564553.275 8 108067554.99008      1244.755 8        48.368                                    20564551.095 8  84208526.19608       969.937 8        49.986    20564551.630 7  84208524.19807       969.943 7        45.111
G02         9.000    20641655.943 8 108472688.35408      -747.375 8        50.073                                    20641648.670 7  84524168.38307      -582.370 7        43.585
G31        10.000    24170825.524 6 127018547.59306      2617.774 6        39.060                                    24170820.998 5  98975473.33905      2039.819 5        31.977    24170821.584 6  98975478.35506      2039.681 6        36.760
C30        11.000                                                                                                                                    21907279.561 8 114076971.53408       -25.827 8        51.261                                                                    21907279.557 8  92696887.45008       -20.979 8        48.952
S27        12.000    39039822.604 5 205155619.31705      -438.628 5        35.824
R20        13.000    21683527.172 5 115951608.07805     -4077.598 5        35.538                                                                    21683528.511 7  90184649.79007     -3171.520 7        43.058
S36        14.000    38156289.177 7 200513190.77907      -459.890 7        43.526
G19        16.000    24500761.489 6 128752381.86606      2975.974 6        38.949                                    24500755.727 3 100326512.53503      2318.942 3        23.029
S45        17.000    63357100.464 6 332945054.49606      -501.168 6        37.694
E12        19.000    26730020.337 6 140467209.84006      2035.089 6        38.207                                                                    26730016.460 6 104894332.90706      1519.606 6        41.890    26730016.323 7 107630706.35507      1559.315 7        42.114
G17        20.000    22705272.842 7 119317039.45107      1308.788 7        44.871                                    22705267.892 6  92974306.97106      1019.832 6        41.576    22705267.999 6  92974305.96306      1019.861 6        40.462
E26        21.000    24695367.039 7 129775376.60307     -2308.964 7        46.014                                                                    24695364.459 8  96910380.92408     -1724.234 8        48.593    24695364.130 8  99438453.36908     -1769.191 8        49.502
I06        22.000    38207613.340 7 149935120.05407      -238.787 7        43.208
S28        23.000    40832472.116 5 214576093.55605      -452.448 5        34.410
G08        24.000    24369350.359 6 128061806.84406     -4161.512 6        39.153                                    24369348.969 5  99788419.15205     -3242.732 5        33.120    24369350.253 6  99788420.14606     -3242.848 6        37.255
S23        25.000    38107594.214 7 200256741.92607      -456.703 7        44.688
C13        26.000                                                                                                                                    40983022.602 6 213409537.50506     -1155.967 6        36.756    40983024.979 6 165021898.90006      -893.828 6        39.045    40983022.917 6 173412814.38606      -939.436 6        36.722
E24        27.000    28117793.631 6 147760042.43406     -1831.283 6        37.750                                                                    28117791.514 6 110340305.56806     -1367.365 6        39.562    28117791.584 6 113218744.69106     -1403.143 6        41.082
R21        29.000    19101179.771 8 102214278.73508      -701.572 8        51.694                                                                    19101178.158 7  79499998.46707      -545.709 7        45.792
E19        30.000    26251029.274 6 137950111.48506      2657.734 6        36.454                                                                    26251027.499 6 103014692.88006      1984.650 6        39.084    26251027.146 6 105702029.82306      2036.486 6        40.520
R05        31.000    21355290.393 7 114156304.35907     -4006.557 7        47.931                                                                    21355288.953 7  88788246.63707     -3116.160 7        44.167
R13        32.000    24197424.966 6 129212922.35106     -2429.262 6        38.081
E29        33.000    23948095.842 8 125848175.60808      1116.122 8        48.130                                                                    23948093.764 8  93977548.57208       833.500 8        49.993    23948093.747 8  96429131.30408       855.204 8        50.967
C16        35.000                                                                                                                                    39199312.854 6 204121139.65806       544.873 6        41.511    39199312.806 7 157839425.02907       421.239 7        43.727    39199310.495 6 165865146.12106       442.653 6        39.120
C32        36.000                                                                                                                                    22175691.972 8 115474705.04208       929.353 8        51.028                                                                    22175691.433 8  93832678.34508       755.240 8        49.805
G32        37.000    23212653.999 7 121983361.31007     -3165.573 7        44.196                                    23212651.873 6  95051972.21006     -2466.679 6        41.228    23212652.378 6  95051981.20806     -2466.684 6        40.839
E07        38.000    24816625.362 7 130412265.79407     -1872.761 7        44.978                                                                    24816625.486 8  97385821.28008     -1398.525 8        48.535    24816625.024 8  99926313.29008     -1434.980 8        49.018
C41        39.000                                                                                                                                    22675752.707 8 118078624.86508     -2254.123 8        49.594                                                                    22675757.400 8  95948584.36908     -1831.670 8        50.628
C39        40.000                                                                                                                                    38998675.546 7 203076365.74707       123.541 7        43.092                                                                    38998671.293 7 165016177.37607       100.339 7        43.130
E33        41.000    23219340.035 8 122018544.33508        26.270 8        48.361                                                                    23219337.588 8  91117777.64908        19.632 8        50.746    23219337.493 8  93494759.02008        20.156 8        51.771
S44        42.000    40508802.960 6 212875407.15006      -524.914 6        36.333
R06        43.000    19229781.837 6 102613865.65306       440.389 6        41.225
C05        44.000                                                                                                                                    39071818.868 6 203457255.92906      -445.035 6        38.150    39071813.710 7 157326081.84507      -344.119 7        43.748    39071815.713 6 165325790.82806      -361.524 6        40.641
C29        45.000                                                                                                                                    25187980.462 6 131160439.99406      2530.403 6        41.764                                                                    25187978.577 7 106578597.92107      2056.120 7        42.495
G04        46.000    23745932.124 6 124785736.05506      3283.565 6        39.850                                    23745928.013 4  97235621.77704      2558.625 4        24.045    23745928.286 6  97235623.81006      2558.413 6        39.255
E25        47.000    28537971.000 5 149968070.63605       294.695 5        34.729                                                                    28537971.549 6 111989147.91506       220.181 6        39.231    28537971.274 6 114910601.22706       225.913 6        40.682
R22        48.000    21387102.501 8 114165834.76508      3023.800 8        49.623                                                                    21387100.912 7  88795646.55207      2351.793 7        44.497
C20        49.000                                                                                                                                    26283885.069 6 136867095.40406      2727.747 6        41.287                                                                    26283880.155 6 111215706.63506      2216.455 6        40.882
C06        50.000                                                                                                                                    38865599.186 6 202383400.90006       665.988 6        40.153    38865593.472 7 156495666.03107       515.102 7        43.194    38865592.900 6 164453071.38406       541.307 6        40.470
S48        51.000    77144462.778 6 405397819.68606      -466.850 6        37.338
G21        52.000    21291679.015 7 111888601.10907     -2134.906 7        45.591                                    21291673.420 6  87185945.14206     -1663.562 6        37.013
C09        53.000                                                                                                                                    39750350.789 6 206990520.97206      1023.485 6        40.093    39750347.455 7 160058189.71707       791.276 7        44.322    39750345.694 6 168196731.76606       831.585 6        40.312
C60        54.000                                                                                                                                    40508805.905 6 210940195.71406      -520.044 6        39.459                                                                    40508789.590 6 171406159.64806      -422.671 6        40.060
C27        55.000                                                                                                                                    22642195.384 8 117903869.07608     -2889.944 8        50.011                                                                    22642193.628 7  95806555.13607     -2348.317 7        47.890
R14        56.000    23924597.347 6 127531578.64806       835.444 6        40.844                                                                    23924598.252 6  99191245.30606       649.860 6        38.453
C02        57.000                                                                                                                                    40489826.908 5 210841216.82305      -488.977 5        33.832    40489820.288 6 163035800.01406      -378.083 6        40.770    40489823.588 6 171325765.06406      -397.243 6        36.034
I03        58.000   104866297.085 6 335732645.14506       954.546 6        41.156
R07        59.000    21928264.360 8 117383772.28108      3260.343 8        48.292                                                                    21928263.018 7  91298541.43907      2535.795 7        42.904
C28        60.000                                                                                                                                    26197897.695 4 136419628.81004     -3900.331 4        27.353                                                                    26197896.579 4                     -3169.121 4        25.594
> 2025 01 02 00 16 30.0000000  0 55
G14         2.000    25109301.334 5 131950318.28905     -2834.631 5        34.976                                    25109298.933 2 102818431.14102     -2208.807 2        14.048    25109298.833 5 102818427.12205     -2208.783 5        34.695
C33         3.000                                                                                                                                    26704553.568 6 139057640.23806     -3629.591 6        39.438                                                                    26704565.230 6 112995781.30506     -2949.290 6        40.048
E31         4.000    28454317.810 6 149528476.18806     -3116.770 6        36.125                                                                    28454318.132 6 111660883.19906     -2327.352 6        37.626    28454317.775 6 114573772.81306     -2387.986 6        38.474
S21         5.000    38389072.193 6 201735699.59206      -460.275 6        41.962
E10         6.000    28785132.509 5 151266894.21205      2262.622 5        35.305                                                                    28785131.699 6 112959038.75006      1689.447 6        37.554    28785131.449 6 115905796.03006      1733.504 6        38.465
G28         7.000    23667628.937 6 124374241.01306      1406.360 6        41.170                                    23667624.783 4  96914974.67604      1095.866 4        26.563    23667625.188 6  96914982.67106      1095.867 6        40.291
G03         8.000    20563369.778 8 108061336.51408      1242.625 8        48.132                                    20563367.774 8  84203680.62708       968.279 8        49.847    20563368.161 7  84203678.62907       968.275 7        45.088
G02         9.000    20642368.182 8 108476431.24408      -749.755 8        49.742                                    20642360.937 7  84527084.91807      -584.224 7        43.431
G31        10.000    24168335.339 6 127005462.34506      2616.464 6        38.628                                    24168330.984 5  98965277.04705      2038.807 5        31.962    24168331.807 6  98965282.06306      2038.749 6        37.384
C30        11.000                                                                                                                                    21907305.691 8 114077107.62008       -28.580 8        51.359                                                                    21907305.703 8  92696998.00208       -23.099 8        48.884
S27        12.000    39040227.366 5 205157812.22105      -439.190 5        35.467
R20        13.000    21687339.805 6 115972002.51906     -4079.997 6        36.503                                                                    21687343.251 7  90200512.12907     -3173.352 7        43.568
S36        14.000    38156729.453 7 200515490.14407      -459.815 7        43.539
G19        16.000    24497930.422 6 128737506.21306      2974.307 6        38.781                                    24497925.078 3 100314921.10803      2317.643 3        23.314
S45        17.000    63357536.528 6 332947561.33006      -501.553 6        37.448
E12        19.000    26728083.908 6 140457035.81306      2034.637 6        37.837                                                                    26728080.355 7 104886735.41007      1519.406 7        42.066    26728080.178 7 107622910.66607      1558.941 7        42.032
G17        20.000    22704029.011 7 119310502.23307      1306.132 7        44.888                                    22704023.909 6  92969213.03506      1017.765 6        41.471    22704024.368 6  92969212.04206      1017.731 6        40.462
E26        21.000    24697564.441 7 129786924.81807     -2310.294 7        46.042                                                                    24697562.043 8  96919004.58908     -1725.268 8        48.790    24697561.747 8  99447301.99708     -1770.211 8        49.571
I06        22.000    38207917.934 7 149936314.99307      -239.056 7        42.809
S28        23.000    40832899.635 5 214578356.61805      -452.849 5        34.333
G08        24.000    24373310.193 6 128082615.35006     -4161.746 6        38.898                                    24373308.761 5  99804633.56205     -3242.919 5        32.970    24373309.568 6  99804634.56906     -3243.034 6        37.482
S23        25.000    38108030.957 7 200259025.84607      -456.808 7        44.688
C13        26.000                                                                                                                                    40984133.164 6 213415317.73206     -1156.214 6        36.654    40984134.543 6 165026368.50606      -893.948 6        39.297    40984132.893 6 173417511.22006      -939.258 6        36.359
E24        27.000    28119536.277 6 147769203.39906     -1833.267 6        38.042                                                                    28119534.702 6 110347146.55706     -1368.907 6        39.889    28119534.695 6 113225764.13406     -1404.727 6        41.204
R21        29.000    19101837.285 8 102217797.04708      -705.697 8        51.556                                                                    19101835.211 7  79502734.92707      -548.874 7        45.389
E19        30.000    26248500.655 6 137936824.20806      2657.052 6        36.866                                                                    26248499.027 6 103004770.57706      1984.105 6        39.243    26248498.676 6 105691848.68506      2035.954 6        40.498
R05        31.000    21359038.710 8 114176341.37108     -4008.249 8        48.214                                                                    21359037.382 7  88803830.98307     -3117.520 7        44.570
R13        32.000    24199702.034 6 129225077.56006     -2432.808 6        38.144
E29        33.000    23947034.966 8 125842600.65008      1113.859 8        48.039                                                                    23947032.866 8  93973385.46008       831.765 8        50.190    23947032.841 8  96424859.58908       853.464 8        50.939
C16        35.000                                                                                                                                    39198790.262 6 204118418.02606       543.863 6        41.554    39198790.489 7 157837320.48707       420.541 7        43.609    39198787.699 6 165862934.54506       442.063 6        38.784
C32        36.000                                                                                                                                    22174800.487 8 115470063.96508       927.112 8        51.135                                                                    22174800.133 8  93828907.06208       753.429 8        49.689
G32        37.000    23215667.082 7 121999194.16407     -3167.516 7        43.863                                    23215664.785 6  95064309.49806     -2468.192 6        41.023    23215664.890 6  95064318.50306     -2468.140 6        40.696
E07        38.000    24818408.301 7 130421635.08107     -1874.814 7        44.816                                                                    24818408.458 8  97392817.82908     -1400.089 8        48.697    24818407.989 8  99933492.35808     -1436.590 8        49.084
C41        39.000                                                                                                                                    22677917.922 8 118089900.14308     -2255.925 8        49.499                                                                    22677922.709 8  95957746.42108     -1833.082 8        50.459
C39        40.000                                                                                                                                    38998557.689 7 203075751.06307       122.320 7        43.048                                                                    38998553.366 7 165015677.86407        99.565 7        43.100
E33        41.000    23219315.710 8 122018416.81008        24.701 8        48.217                                                                    23219313.379 8  91117682.42308        18.484 8        50.919    23219313.221 8  93494661.30908        18.949 8        51.764
S44        42.000    40509302.387 6 212878032.05506      -525.072 6        36.306
R06        43.000    19229370.326 6 102611672.87306       436.532 6        41.170
C05        44.000                                                                                                                                    39072246.333 6 203459481.78606      -445.227 6        38.342    39072241.090 7 157327803.02207      -344.381 7        43.721    39072243.290 6 165327599.50506      -361.850 6        40.505
C29        45.000                                                                                                                                    25185551.826 7 131147790.82407      2529.314 7        42.561                                                                    25185549.218 7 106568319.41107      2055.267 7        42.445
G04        46.000    23742808.374 6 124769321.31006      3282.441 6        40.782                                    23742804.415 4  97222831.06904      2557.736 4        24.376    23742805.374 6  97222833.06906      2557.855 6        39.456
E25        47.000    28537691.577 5 149966602.33605       292.352 5        35.086                                                                    28537692.409 6 111988051.49706       218.408 6        39.874    28537691.706 6 114909476.18606       224.142 6        40.913
R22        48.000    21384271.640 8 114150720.15408      3022.013 8        49.133                                                                    21384269.465 7  88783890.74307      2350.570 7        44.898
C20        49.000                                                                                                                                    26281266.393 6 136853458.80106      2726.969 6        41.890                                                                    26281261.432 6 111204625.76206      2215.896 6        40.830
C06        50.000                                                                                                                                    38864960.326 6 202380073.34306       664.977 6        40.246    38864954.444 7 156493092.95707       514.225 7        42.954    38864953.826 6 164450367.44906       540.390 6        40.420
S48        51.000    77144898.640 6 405400152.84606      -466.570 6        37.486
G21        52.000    21293711.206 7 111899280.66307     -2136.896 7        45.452                                    21293705.665 6  87194266.86806     -1665.112 6        36.866
C09        53.000                                                                                                                                    39749368.645 6 206985406.21106      1022.486 6        40.155    39749365.055 7 160054234.65107       790.675 7        44.089    39749363.505 6 168192575.56906       831.003 6        40.198
C60        54.000                                                                                                                                    40509304.983 6 210942796.76106      -520.185 6        39.610                                                                    40509289.142 6 171408273.17106      -422.679 6        40.031
C27        55.000                                                                                                                                    22644971.471 8 117918324.01708     -2891.975 8        50.075                                                                    22644969.577 7  95818300.93007     -2349.958 7        47.831
R14        56.000    23923815.835 7 127527410.97707       831.520 7        42.493                                                                    23923817.071 6  99188003.83406       646.745 6        39.435
C02        57.000                                                                                                                                    40490296.196 5 210843662.87405      -489.394 5        33.365    40490289.947 6 163037691.45706      -378.359 6        40.749    40490293.260 5 171327752.65905      -397.730 5        35.648
I03        58.000   104865080.729 6 335727872.91106       954.483 6        40.918
R07        59.000    21925219.719 8 117367475.54208      3258.334 8        48.076                                                                    21925218.293 6  91285866.19006      2534.220 6        41.990
C28        60.000                                                                                                                                    26201642.455 4 136439131.01804     -3900.809 4        26.802                                                                    26201641.349 4                     -3170.413 4        26.395
> 2025 01 02 00 16 35.0000000  0 55
G14         2.000    25112000.062 5 131964494.09905     -2835.749 5        35.543                                    25111996.471 2 102829477.20202     -2209.677 2        14.810    25111996.116 5 102829473.19805     -2209.950 5        34.471
C33         3.000                                                                                                                                    26708038.628 6 139075787.51706     -3629.453 6        39.351                                                                    26708050.247 6 113010527.46906     -2949.326 6        40.107
E31         4.000    28457282.779 5 149544059.30505     -3116.938 5        35.467                                                                    28457283.697 6 111672519.91006     -2327.507 6        38.090    28457282.741 6 114585713.10006     -2388.324 6        38.219
S21         5.000    38389508.324 6 201738000.45806      -460.177 6        41.869
E10         6.000    28782979.503 5 151255581.16205      2262.554 5        35.314                                                                    28782978.855 6 112950590.69806      1689.542 6        37.758    28782978.537 6 115897127.58706      1733.738 6        38.808
G28         7.000    23666292.112 6 124367214.88906      1403.896 6        41.230                                    23666287.575 4  96909499.77104      1093.946 4        26.359    23666287.761 6  96909507.74906      1093.982 6        39.664
G03         8.000    20562188.209 8 108055127.58108      1240.701 8        48.146                                    20562186.255 8  84198842.49708       966.782 8        49.853    20562186.401 7  84198840.49607       966.854 7        44.928
G02         9.000    20643082.379 8 108480185.11808      -751.888 8        50.121                                    20643075.270 7  84530010.01607      -585.888 7        43.427
G31        10.000    24165846.484 6 126992382.28906      2615.448 6        39.057                                    24165842.043 5  98955084.80305      2038.008 5        32.126    24165842.456 6  98955089.83306      2037.730 6        37.482
C30        11.000                                                                                                                                    21907334.496 8 114077256.76108       -31.183 8        51.387                                                                    21907334.401 8  92697119.21108       -25.361 8        48.901
S27        12.000    39040653.736 5 205160004.95705      -438.874 5        35.490
R20        13.000    21691156.391 5 115992407.06105     -4081.972 5        35.929                                                                    21691159.113 7  90216382.32507     -3174.910 7        44.492
S36        14.000    38157164.193 7 200517788.91107      -459.899 7        43.333
G19        16.000    24495101.648 6 128722637.72806      2972.940 6        38.856                                    24495095.690 3 100303335.27903      2316.581 3        23.390
S45        17.000    63357966.904 6 332948468.02616      -501.537 6        37.365
E12        19.000    26726148.484 6 140446863.13606      2034.464 6        37.792                                                                    26726144.600 7 104879138.93407      1519.094 7        42.019    26726144.398 7 107615116.01507      1558.696 7        42.235
G17        20.000    22702787.040 7 119303977.66807      1303.558 7        44.324                                    22702782.332 6  92964128.96206      1015.757 6        41.447    22702782.654 6  92964127.95606      1015.854 6        40.539
E26        21.000    24699763.243 7 129798478.93207     -2311.483 7        46.056                                                                    24699760.742 8  96927632.65708     -1726.122 8        48.651    24699760.559 8  99456155.14508     -1771.122 8        49.576
I06        22.000    38208222.627 7 149937509.89507      -238.995 7        42.908
S28        23.000    40833334.844 5 214580619.44105      -452.592 5        33.832
G08        24.000    24377270.295 6 128103424.15606     -4161.921 6        39.336                                    24377268.611 5  99820848.21605     -3243.053 5        33.000    24377269.675 6  99820849.22906     -3243.076 6        37.580
S23        25.000    38108465.939 7 200261309.54807      -456.828 7        44.662
C13        26.000                                                                                                                                    40985242.625 6 213421097.30706     -1155.871 6        36.900    40985244.701 6 165030837.62306      -893.906 6        38.808    40985242.848 6 173422207.60806      -939.148 6        36.253
E24        27.000    28121281.688 6 147778373.99506     -1835.158 6        38.303                                                                    28121279.815 6 110353994.74506     -1370.415 6        39.745    28121279.579 6 113232790.96306     -1406.301 6        41.311
R21        29.000    19102498.329 8 102221334.78708      -709.596 8        51.645                                                                    19102496.569 7  79505486.49607      -551.808 7        45.514
E19        30.000    26245972.760 6 137923540.03506      2656.361 6        37.369                                                                    26245970.941 6 102994850.57006      1983.836 6        39.384    26245971.011 6 105681669.89906      2035.348 6        40.708
R05        31.000    21362788.717 8 114196385.94708     -4009.751 8        48.453                                                                    21362787.265 7  88819421.19507     -3118.613 7        44.048
R13        32.000    24201980.802 6 129237249.46506     -2436.239 6        38.547
E29        33.000    23945976.064 7 125837035.74407      1111.906 7        47.941                                                                    23945973.904 8  93969229.85208       830.295 8        50.035    23945973.858 8  96420595.57008       851.943 8        51.048
C16        35.000                                                                                                                                    39198269.054 6 204115700.77206       542.962 6        41.607    39198268.133 7 157835219.33407       419.729 7        43.244    39198265.917 6 165860726.56606       441.331 6        38.799
C32        36.000                                                                                                                                    22173911.256 8 115465433.09608       925.093 8        51.152                                                                    22173910.846 8  93825144.11808       751.723 8        49.768
G32        37.000    23218681.764 7 122015035.77907     -3169.217 7        43.418                                    23218679.356 6  95076653.60806     -2469.517 6        40.932    23218679.186 6  95076662.60206     -2469.527 6        41.054
E07        38.000    24820193.116 7 130431014.12107     -1876.878 7        44.802                                                                    24820193.190 8  97399821.65608     -1401.601 8        48.601    24820192.744 8  99940678.89508     -1438.120 8        49.085
C41        39.000                                                                                                                                    22680084.657 8 118101183.26508     -2257.480 8        49.777                                                                    22680089.472 8  95966914.89708     -1834.365 8        50.491
C39        40.000                                                                                                                                    38998440.340 7 203075141.25807       121.368 7        43.101                                                                    38998436.088 7 165015182.37707        98.629 7        43.175
E33        41.000    23219292.798 8 122018296.31208        23.330 8        48.219                                                                    23219290.403 8  91117592.44608        17.363 8        50.829    23219290.275 8  93494568.98008        17.865 8        51.821
S44        42.000    40509801.809 6 212880656.94206      -525.038 6        36.291
R06        43.000    19228963.301 6 102609498.37706       433.121 6        41.216
C05        44.000                                                                                                                                    39072673.861 6 203461707.67606      -445.304 6        38.538    39072668.501 7 157329524.22407      -344.349 7        43.609    39072670.674 6 165329408.22206      -361.740 6        40.377
C29        45.000                                                                                                                                    25183123.685 7 131135146.40507      2528.347 7        42.337                                                                    25183120.992 7 106558044.81107      2054.467 7        42.381
G04        46.000    23739684.897 6 124752909.86706      3281.929 6        41.094                                    23739681.572 4  97210042.93804      2557.346 4        24.917    23739681.890 6  97210044.94506      2557.290 6        39.171
E25        47.000    28537414.250 5 149965145.27405       290.405 5        35.643                                                                    28537415.398 6 111986963.43406       216.759 6        39.814    28537414.504 6 114908359.73706       222.444 6        40.579
R22        48.000    21381441.064 8 114135613.34308      3020.426 8        48.931                                                                    21381439.176 7  88772140.99907      2349.256 7        44.858
C20        49.000                                                                                                                                    26278648.393 7 136839824.91707      2726.320 7        42.133                                                                    26278643.071 6 111193547.12206      2215.436 6        40.589
C06        50.000                                                                                                                                    38864322.103 6 202376750.07406       664.216 6        40.253    38864315.988 7 156490523.19107       513.595 7        42.880    38864315.509 6 164447667.04006       539.701 6        40.441
S48        51.000    77145336.528 6 405402485.67406      -466.550 6        37.531
G21        52.000    21295744.685 7 111909968.84407     -2138.533 7        45.436                                    21295739.524 6  87202595.32206     -1666.387 6        36.870
C09        53.000                                                                                                                                    39748387.195 6 206980294.66406      1021.978 6        40.167    39748383.453 7 160050282.09407       790.135 7        43.729    39748381.872 6 168188422.05506       830.292 6        40.296
C60        54.000                                                                                                                                    40509804.741 6 210945397.77406      -520.044 6        39.724                                                                    40509788.573 6 171410386.72906      -422.678 6        39.988
C27        55.000                                                                                                                                    22647748.970 8 117932788.27208     -2893.819 8        49.831                                                                    22647747.354 7  95830054.33007     -2351.447 7        47.867
R14        56.000    23923038.061 7 127523261.77607       827.814 7        43.031                                                                    23923038.599 6  99184776.71306       643.799 6        39.279
C02        57.000                                                                                                                                    40490765.989 5 210846108.97705      -489.408 5        33.329    40490760.044 6 163039582.93406      -378.411 6        40.894    40490762.973 5 171329740.33805      -397.668 5        35.600
I03        58.000   104863864.613 6 335723100.81906       954.278 6        41.054
R07        59.000    21922176.876 8 117351187.84108      3256.583 8        48.149                                                                    21922175.677 7  91273198.00307      2532.909 7        42.840
C28        60.000                                                                                                                                    26205388.093 4 136458634.49304     -3900.560 4        26.024                                                                    26205385.863 4                     -3169.301 4        25.564
> 2025 01 02 00 16 40.0000000  0 55
G14         2.000    25114698.603 6 131978675.77606     -2836.876 6        36.019                                    25114695.019 2 102840527.84002     -2210.569 2        13.636    25114693.879 5 102840523.85505     -2210.484 5        34.081
C33         3.000                                                                                                                                    26711523.275 6 139093934.73706     -3629.499 6        38.838                                                                    26711535.193 6 113025273.56206     -2949.293 6        39.877
E31         4.000    28460248.601 6 149559643.55506     -3116.955 6        36.374                                                                    28460249.382 6 111684157.50106     -2327.567 6        38.075    28460248.208 6 114597654.28506     -2388.420 6        37.815
S21         5.000    38389949.298 6 201740301.39906      -460.109 6        41.814
E10         6.000    28780827.019 5 151244266.90105      2262.924 5        35.371                                                                    28780825.902 6 112942141.73806      1689.828 6        37.970    28780825.755 6 115888458.21606      1734.039 6        39.039
G28         7.000    23664957.299 6 124360200.71906      1401.647 6        41.442                                    23664952.707 4  96904034.17304      1092.194 4        26.383    23664953.615 6  96904042.17406      1092.254 6        40.110
G03         8.000    20561008.564 8 108048928.23908      1238.894 8        48.486                                    20561006.551 8  84194011.84008       965.372 8        49.683    20561007.099 7  84194009.83307       965.467 7        45.187
G02         9.000    20643798.865 8 108483950.04108      -754.066 8        50.494                                    20643791.709 7  84532943.72407      -587.584 7        43.285
G31        10.000    24163358.747 6 126979307.42906      2614.430 6        39.204                                    24163354.063 5  98944896.60905      2037.214 5        32.257    24163354.895 6  98944901.61906      2037.225 6        37.202
C30        11.000                                                                                                                                    21907365.516 8 114077418.95508       -33.739 8        51.242                                                                    21907365.535 8  92697251.02008       -27.427 8        48.918
S27        12.000    39041070.808 5 205162197.99605      -438.362 5        35.652
R20        13.000    21694973.418 5 116012821.63805     -4083.764 5        35.410                                                                    21694976.166 7  90232260.32907     -3176.437 7        43.723
S36        14.000    38157600.686 7 200520087.82307      -459.782 7        43.407
G19        16.000    24492273.608 6 128707776.35706      2971.549 6        38.474                                    24492267.550 3 100291754.99203      2315.497 3        23.029
S45        17.000    63358400.168 6 332950974.67106      -501.411 6        37.493
E12        19.000    26724212.842 6 140436691.82206      2034.136 6        38.099                                                                    26724209.197 6 104871543.46706      1519.081 6        41.940    26724208.922 6 107607322.40806      1558.646 6        41.948
G17        20.000    22701547.987 7 119297465.78807      1301.124 7        44.889                                    22701543.151 6  92959054.77206      1013.865 6        41.375    22701543.226 6  92959053.76606      1013.874 6        40.527
E26        21.000    24701962.913 7 129810038.95007     -2312.544 7        45.834                                                                    24701960.612 8  96936265.14008     -1726.961 8        48.655    24701960.283 8  99465012.82408     -1772.006 8        49.456
I06        22.000    38208526.822 7 149938704.80807      -239.026 7        42.808
S28        23.000    40833762.045 5 214582882.18605      -452.602 5        33.832
G08        24.000    24381229.813 6 128124233.29306     -4161.772 6        39.664                                    24381228.474 5  99837063.11805     -3242.940 5        32.874    24381229.312 6  99837064.12006     -3243.035 6        37.312
S23        25.000    38108903.236 7 200263593.10407      -456.625 7        44.608
C13        26.000                                                                                                                                    40986352.326 6 213426876.22006     -1155.639 6        37.028    40986354.262 6 165035306.25406      -893.558 6        38.513    40986352.628 6 173426903.45306      -939.009 6        36.306
E24        27.000    28123029.093 6 147787554.21106     -1837.088 6        38.183                                                                    28123026.944 6 110360850.10006     -1371.885 6        39.829    28123026.712 6 113239825.15006     -1407.469 6        41.051
R21        29.000    19103163.710 8 102224892.04308      -713.427 8        51.742                                                                    19103161.458 7  79508253.25307      -554.842 7        45.786
E19        30.000    26243445.272 6 137910258.98606      2655.821 6        37.036                                                                    26243443.696 6 102984932.91306      1983.357 6        39.120    26243443.790 6 105671493.52106      2034.906 6        40.312
R05        31.000    21366539.509 8 114216438.18708     -4011.204 8        48.405                                                                    21366538.540 7  88835017.39507     -3119.808 7        44.363
R13        32.000    24204265.792 6 129249438.05206     -2439.454 6        39.583
E29        33.000    23944918.992 7 125831480.90907      1109.937 7        47.925                                                                    23944916.832 8  93965081.76208       828.874 8        50.089    23944916.788 8  96416339.26808       850.522 8        50.831
C16        35.000                                                                                                                                    39197747.736 6 204112987.89706       542.181 6        41.602    39197747.306 7 157833121.56307       419.212 7        43.058    39197744.805 6 165858522.15106       440.454 6        38.859
C32        36.000                                                                                                                                    22173023.894 8 115460812.45208       923.082 8        51.232                                                                    22173023.542 8  93821389.48108       750.102 8        49.780
G32        37.000    23221698.109 7 122030886.13707     -3170.994 7        43.338                                    23221695.533 6  95089004.53806     -2470.900 6        40.753    23221695.906 6  95089013.52406     -2470.841 6        40.529
E07        38.000    24821979.770 7 130440402.89607     -1878.763 7        44.886                                                                    24821979.792 8  97406832.74908     -1402.953 8        48.661    24821979.346 8  99947872.88608     -1439.512 8        48.935
C41        39.000                                                                                                                                    22682253.034 8 118112474.24108     -2258.961 8        49.780                                                                    22682257.771 8  95976089.75908     -1835.636 8        50.579
C39        40.000                                                                                                                                    38998324.118 7 203074536.36207       120.473 7        43.198                                                                    38998319.995 7 165014690.85607        97.859 7        43.194
E33        41.000    23219271.230 8 122018182.88808        21.949 8        48.207                                                                    23219268.827 8  91117507.73808        16.420 8        50.889    23219268.705 8  93494482.06908        16.805 8        51.671
S44        42.000    40510299.818 5 212883281.82705      -525.037 5        35.814
R06        43.000    19228559.411 6 102607342.31406       429.421 6        41.492
C05        44.000                                                                                                                                    39073101.808 6 203463933.57506      -445.109 6        38.946    39073095.890 7 157331245.43307      -344.261 7        43.649    39073098.085 6 165331216.97606      -361.755 6        40.451
C29        45.000                                                                                                                                    25180696.297 7 131122506.76807      2527.471 7        42.273                                                                    25180693.808 7 106547774.08407      2053.736 7        42.508
G04        46.000    23736562.684 6 124736501.74106      3281.252 6        40.844                                    23736559.235 4  97197257.39504      2556.816 4        25.068    23736560.278 6  97197259.39206      2556.871 6        39.592
E25        47.000    28537139.352 5 149963699.48605       288.103 5        35.852                                                                    28537140.048 6 111985883.80206       215.058 6        39.712    28537139.433 6 114907251.93406       220.737 6        40.818
R22        48.000    21378612.428 8 114120514.36208      3019.095 8        48.931                                                                    21378611.196 7  88760397.36207      2348.122 7        45.342
C20        49.000                                                                                                                                    26276031.026 7 136826193.78707      2725.926 7        42.375                                                                    26276025.404 6 111182470.72806      2215.074 6        40.520
C06        50.000                                                                                                                                    38863683.924 6 202373431.14506       663.342 6        40.086    38863678.484 7 156487956.79407       512.978 7        42.851    38863678.285 6 164444970.15106       538.933 6        40.615
S48        51.000    77145773.249 6 405404818.45706      -466.240 6        37.388
G21        52.000    21297780.309 7 111920665.54807     -2140.242 7        45.592                                    21297775.052 6  87210930.41806     -1667.721 6        36.760
C09        53.000                                                                                                                                    39747406.001 6 206975186.38606      1021.413 6        39.880    39747402.582 7 160046332.04507       789.774 7        43.879    39747400.916 6 168184271.16606       829.839 6        40.417
C60        54.000                                                                                                                                    40510304.060 6 210947998.79006      -520.092 6        39.751                                                                    40510288.071 6 171412500.28806      -422.672 6        39.826
C27        55.000                                                                                                                                    22650528.515 8 117947261.80408     -2895.658 8        49.726                                                                    22650526.777 7  95841815.27107     -2352.959 7        47.944
R14        56.000    23922263.100 7 127519131.25707       824.330 7        42.345                                                                    23922263.343 6  99181564.09706       641.216 6        39.171
C02        57.000                                                                                                                                    40491235.165 5 210848555.13405      -489.140 5        33.485    40491230.038 6 163041474.48406      -378.356 6        40.696    40491232.775 5 171331728.06005      -397.551 5        35.962
I03        58.000   104862648.470 6 335718328.86206       954.482 6        41.082
R07        59.000    21919136.451 8 117334909.20908      3254.868 8        48.130                                                                    21919134.528 7  91260536.83407      2531.524 7        42.821
C28        60.000                                                                                                                                    26209132.066 4 136478139.11804     -3899.990 4        25.789                                                                    26209133.060 4                     -3169.990 4        26.036
> 2025 01 02 00 16 45.0000000  0 55
G14         2.000    25117397.545 5 131992863.54405     -2838.115 5        34.638                                    25117394.770 2 102851583.24502     -2211.528 2        13.455    25117395.104 5 102851579.25905     -2211.754 5        33.623
C33         3.000                                                                                                                                    26715008.783 6 139112082.04706     -3629.561 6        38.934                                                                    26715020.170 6 113040019.73106     -2949.206 6        40.129
E31         4.000    28463214.431 6 149575229.18806     -3117.323 6        36.129                                                                    28463215.219 6 111695796.10406     -2327.750 6        38.024    28463214.623 6 114609596.51906     -2388.803 6        37.853
S21         5.000    38390385.598 6 201742602.52806      -460.360 6        41.797
E10         6.000    28778673.568 5 151232951.63705      2263.220 5        35.548                                                                    28778672.900 6 112933692.01306      1689.852 6        37.739    28778672.601 6 115879788.07706      1734.043 6        38.931
G28         7.000    23663624.739 6 124353198.69006      1399.094 6        41.187                                    23663620.288 4  96898578.04804      1090.210 4        26.395    23663621.315 6  96898586.05206      1090.169 6        40.482
G03         8.000    20559830.813 8 108042738.64508      1236.902 8        48.286                                    20559828.708 8  84189188.77908       963.820 8        49.708    20559829.380 7  84189186.77307       963.832 7        44.954
G02         9.000    20644517.518 8 108487726.17608      -756.447 8        50.233                                    20644510.290 7  84535886.16807      -589.442 7        43.283
G31        10.000    24160871.957 6 126966237.98906      2613.251 6        39.517                                    24160867.072 5  98934712.64105      2036.301 5        32.527    24160867.779 6  98934717.63606      2036.257 6        36.991
C30        11.000                                                                                                                                    21907399.113 8 114077594.41308       -36.478 8        51.177                                                                    21907399.226 8  92697393.57908       -29.598 8        48.864
S27        12.000    39041484.483 5 205164391.35405      -438.572 5        35.400
R20        13.000    21698794.304 6 116033246.55106     -4086.069 6        36.302                                                                    21698795.551 7  90248146.36207     -3178.100 7        43.670
S36        14.000    38158037.555 7 200522386.88107      -459.991 7        43.429
G19        16.000    24489447.313 6 128692922.30906      2969.981 6        38.832                                    24489440.921 3 100280180.41403      2314.268 3        23.200
S45        17.000    63358831.783 6 332953481.59706      -501.387 6        37.784
E12        19.000    26722277.384 6 140426522.11406      2033.736 6        38.192                                                                    26722274.049 6 104863949.21006      1518.649 6        41.869    26722273.624 6 107599530.03506      1558.248 6        41.874
G17        20.000    22700311.401 7 119290966.73807      1298.417 7        44.354                                    22700306.430 6  92953990.57906      1011.752 6        41.459    22700306.611 6  92953989.58206      1011.859 6        40.520
E26        21.000    24704163.734 7 129821605.08607     -2313.900 7        45.663                                                                    24704161.548 8  96944902.17808     -1727.911 8        48.656    24704161.126 8  99473875.17408     -1772.961 8        49.316
I06        22.000    38208831.218 7 149939899.85207      -239.076 7        42.650
S28        23.000    40834194.773 5 214585145.07905      -452.482 5        34.343
G08        24.000    24385190.079 6 128145042.93006     -4162.185 6        39.351                                    24385188.458 5  99853278.41905     -3243.261 5        32.868    24385188.943 6  99853279.42806     -3243.184 6        37.463
S23        25.000    38109335.678 7 200265876.73307      -456.901 7        44.715
C13        26.000                                                                                                                                    40987462.441 6 213432654.78906     -1155.769 6        37.388    40987464.018 6 165039774.61206      -893.708 6        38.081    40987462.221 6 173431599.00806      -939.089 6        36.132
E24        27.000    28124777.335 6 147796744.23806     -1839.032 6        38.324                                                                    28124775.852 6 110367712.78506     -1373.269 6        40.017    28124775.427 6 113246866.88206     -1409.231 6        41.006
R21        29.000    19103831.911 8 102228468.92308      -717.415 8        51.507                                                                    19103829.575 7  79511035.28007      -558.115 7        45.756
E19        30.000    26240918.052 6 137896981.17706      2655.114 6        36.711                                                                    26240917.107 6 102975017.66806      1982.795 6        39.135    26240916.973 6 105661319.61806      2034.489 6        39.946
R05        31.000    21370291.956 8 114236498.32708     -4012.938 8        48.342                                                                    21370290.886 7  88850619.71807     -3121.160 7        44.972
R13        32.000    24206550.673 6 129261643.46006     -2442.948 6        38.225
E29        33.000    23943863.901 7 125825936.34307      1107.770 7        47.947                                                                    23943861.719 8  93960941.34008       827.273 8        50.041    23943861.657 8  96412090.83708       848.836 8        50.748
C16        35.000                                                                                                                                    39197227.749 6 204110279.60906       541.101 6        41.611    39197227.180 7 157831027.33607       418.378 7        42.857    39197224.925 6 165856321.42706       439.896 6        38.964
C32        36.000                                                                                                                                    22172138.676 8 115456202.22108       920.896 8        51.360                                                                    22172138.129 8  93817643.28308       748.373 8        49.752
G32        37.000    23224715.855 7 122046745.42307     -3172.898 7        44.057                                    23224713.404 6  95101362.41406     -2472.390 6        40.591    23224713.805 6  95101371.41406     -2472.446 6        40.122
E07        38.000    24823768.186 7 130449801.59207     -1880.721 7        44.638                                                                    24823768.280 8  97413851.26008     -1404.511 8        48.592    24823767.868 8  99955074.49208     -1441.138 8        48.867
C41        39.000                                                                                                                                    22684423.146 8 118123773.26008     -2260.650 8        49.979                                                                    22684427.638 8  95985271.12708     -1836.854 8        50.510
C39        40.000                                                                                                                                    38998209.043 7 203073936.56307       119.386 7        43.219                                                                    38998204.866 7 165014203.46607        97.076 7        43.027
E33        41.000    23219250.846 8 122018076.66208        20.450 8        48.042                                                                    23219248.583 8  91117428.41108        15.276 8        50.837    23219248.494 8  93494400.67308        15.680 8        51.553
S44        42.000    40510796.808 6 212885906.90506      -525.399 6        36.257
R06        43.000    19228158.952 6 102605204.59606       425.730 6        41.638
C05        44.000                                                                                                                                    39073529.197 6 203466159.70906      -445.337 6        38.387    39073523.377 7 157332966.81907      -344.349 7        43.566    39073525.456 6 165333025.86806      -361.816 6        40.491
C29        45.000                                                                                                                                    25178269.978 7 131109872.07707      2526.313 7        42.775                                                                    25178267.336 7 106537507.35907      2052.910 7        42.299
G04        46.000    23733440.974 6 124720097.13306      3280.438 6        40.951                                    23733437.716 4  97184474.58704      2556.179 4        25.383    23733438.363 6  97184476.57606      2556.286 6        39.628
E25        47.000    28536866.361 5 149962265.20005       285.667 5        35.638                                                                    28536867.184 6 111984812.74006       213.281 6        39.601    28536866.755 6 114906152.93106       218.864 6        40.822
R22        48.000    21375785.932 8 114105423.44508      3017.287 8        49.274                                                                    21375783.555 7  88748659.97307      2346.777 7        44.903
C20        49.000                                                                                                                                    26273413.580 7 136812565.60007      2725.094 7        42.237                                                                    26273408.258 6 111171396.70806      2214.683 6        40.775
C06        50.000                                                                                                                                    38863047.864 6 202370116.72606       662.339 6        40.186    38863041.940 7 156485393.87207       512.235 7        42.969    38863041.908 6 164442276.89706       538.361 6        40.329
S48        51.000    77146203.442 6 405407151.01906      -466.656 6        37.225
G21        52.000    21299817.518 7 111931371.06807     -2141.986 7        45.324                                    21299812.242 6  87219272.37906     -1669.081 6        36.866
C09        53.000                                                                                                                                    39746425.174 6 206970081.52706      1020.646 6        39.538    39746422.079 7 160042384.64907       789.073 7        43.591    39746420.293 6 168180123.03706       829.420 6        40.331
C60        54.000                                                                                                                                    40510803.683 6 210950599.99506      -520.264 6        39.523                                                                    40510787.511 6 171414613.97406      -422.793 6        39.889
C27        55.000                                                                                                                                    22653309.736 8 117961744.81908     -2897.626 8        49.433                                                                    22653308.067 7  95853583.89207     -2354.462 7        47.907
R14        56.000    23921490.004 6 127515019.50306       820.280 6        41.507                                                                    23921491.719 6  99178366.09106       637.984 6        39.955
C02        57.000                                                                                                                                    40491705.906 5 210851001.58105      -489.435 5        33.946    40491699.693 6 163043366.20806      -378.474 6        40.734    40491702.541 5 171333715.96905      -397.626 5        35.643
I03        58.000   104861432.588 6 335713557.24106       954.325 6        41.075
R07        59.000    21916097.265 8 117318639.64808      3252.883 8        48.066                                                                    21916095.406 7  91247882.72707      2530.006 7        42.737
C28        60.000                                                                                                                                    26212878.672 4 136497645.25304     -3901.941 4        25.910                                                                    26212879.211 4                     -3170.453 4        25.895
