     3.04           OBSERVATION DATA    M                   RINEX VERSION / TYPE
ssrcrin-15.6.1x                         20250102 173000 UTC PGM / RUN BY / DATE 
(00000000023479385599111004) Septentrio proprietary         COMMENT             
rref                                                        MARKER NAME         
01                                                          MARKER NUMBER       
geodetic                                                    MARKER TYPE         
NFB                 CLIMERS@TUW                             OBSERVER / AGENCY   
3297213             SEPT ASTERX SB3 PROB4.14.4              REC # / TYPE / VERS 
Unknown             Unknown                                 ANT # / TYPE        
  4127831.6628  1207193.0675  4695247.3684                  APPROX POSITION XYZ 
        0.0000        0.0000        0.0000                  ANTENNA: DELTA H/E/N
G   23 X1  C1C L1C D1C S1C C1W S1W C2W L2W D2W S2W C2L L2L  SYS / # / OBS TYPES 
       D2L S2L C5Q L5Q D5Q S5Q C1L L1L D1L S1L              SYS / # / OBS TYPES 
E   21 X1  C1C L1C D1C S1C C6C L6C D6C S6C C5Q L5Q D5Q S5Q  SYS / # / OBS TYPES 
       C7Q L7Q D7Q S7Q C8Q L8Q D8Q S8Q                      SYS / # / OBS TYPES 
S    9 X1  C1C L1C D1C S1C C5I L5I D5I S5I                  SYS / # / OBS TYPES 
R   17 X1  C1C L1C D1C S1C C2P L2P D2P S2P C2C L2C D2C S2C  SYS / # / OBS TYPES 
       C3Q L3Q D3Q S3Q                                      SYS / # / OBS TYPES 
C   25 X1  C1P L1P D1P S1P C5P L5P D5P S5P C2I L2I D2I S2I  SYS / # / OBS TYPES 
       C7I L7I D7I S7I C6I L6I D6I S6I C7D L7D D7D S7D      SYS / # / OBS TYPES 
J   17 X1  C1C L1C D1C S1C C2L L2L D2L S2L C5Q L5Q D5Q S5Q  SYS / # / OBS TYPES 
       C1L L1L D1L S1L                                      SYS / # / OBS TYPES 
I    5 X1  C5A L5A D5A S5A                                  SYS / # / OBS TYPES 
SEPTENTRIO RECEIVERS OUTPUT ALIGNED CARRIER PHASES.         COMMENT             
NO FURTHER PHASE SHIFT APPLIED IN THE RINEX ENCODER.        COMMENT             
G L1C                                                       SYS / PHASE SHIFT   
G L2W                                                       SYS / PHASE SHIFT   
G L2L  0.00000                                              SYS / PHASE SHIFT   
G L5Q  0.00000                                              SYS / PHASE SHIFT   
G L1L  0.00000                                              SYS / PHASE SHIFT   
E L1C  0.00000                                              SYS / PHASE SHIFT   
E L6C  0.00000                                              SYS / PHASE SHIFT   
E L5Q  0.00000                                              SYS / PHASE SHIFT   
E L7Q  0.00000                                              SYS / PHASE SHIFT   
E L8Q  0.00000                                              SYS / PHASE SHIFT   
S L1C                                                       SYS / PHASE SHIFT   
S L5I                                                       SYS / PHASE SHIFT   
R L1C                                                       SYS / PHASE SHIFT   
R L2P  0.00000                                              SYS / PHASE SHIFT   
R L2C                                                       SYS / PHASE SHIFT   
R L3Q  0.00000                                              SYS / PHASE SHIFT   
C L1P  0.00000                                              SYS / PHASE SHIFT   
C L5P  0.00000                                              SYS / PHASE SHIFT   
C L2I                                                       SYS / PHASE SHIFT   
C L7I                                                       SYS / PHASE SHIFT   
C L6I                                                       SYS / PHASE SHIFT   
C L7D                                                       SYS / PHASE SHIFT   
J L1C                                                       SYS / PHASE SHIFT   
J L2L  0.00000                                              SYS / PHASE SHIFT   
J L5Q  0.00000                                              SYS / PHASE SHIFT   
J L1L  0.00000                                              SYS / PHASE SHIFT   
I L5A                                                       SYS / PHASE SHIFT   
  2025     1     2    17    30    0.0000000     GPS         TIME OF FIRST OBS   
 C1C    0.000 C2C    0.000 C2P    0.000                     GLONASS COD/PHS/BIS 
DBHZ                                                        SIGNAL STRENGTH UNIT
    18                                                      LEAP SECONDS        
 24 R01  1 R02 -4 R03  5 R04  6 R05  1 R06 -4 R07  5 R08  6 GLONASS SLOT / FRQ #
    R09 -2 R10 -7 R11  0 R12 -1 R13 -2 R14 -7 R15  0 R16 -1 GLONASS SLOT / FRQ #
    R17  4 R18 -3 R19  3 R20  2 R21  4 R22 -3 R23  3 R24  2 GLONASS SLOT / FRQ #
                                                            END OF HEADER       
> 2025 01 02 17 30  0.0000000  0 56
G23         1.000    23942817.188 6 125820402.36906      3045.562 6        40.508                                    23942815.577 4  98041886.55704      2373.169 4        25.955    23942815.809 6  98041884.55606      2373.208 6        40.548
E11         2.000    25373702.261 6 133339902.20506     -2694.559 6        41.483                                                                    25373699.063 7  99572129.32307     -2012.233 7        43.027    25373698.602 7 102169649.42007     -2064.667 7        43.323
G16         3.000    21901990.617 7 115095931.25007      2231.511 7        44.904                                    21901987.109 5  89685222.54505      1738.831 5        32.222
G05         4.000    23091377.978 7 121346106.91307     -1610.323 7        43.393                                    23091374.830 6  94555431.92406     -1254.797 6        38.796    23091375.056 6  94555430.92106     -1254.742 6        40.470
S21         5.000    38474089.789 7 202182369.39707      -465.041 7        42.544
G26         6.000    20597864.842 8 108242745.65008       176.035 8        50.003                                    20597864.295 8  84345127.83308       137.170 8        51.138    20597864.409 7  84345114.83607       137.225 7        45.940
G25         7.000    24282153.775 6 127603749.45406     -4242.660 6        39.931                                    24282154.266 5  99431577.70405     -3305.970 5        34.371    24282154.834 6  99431578.70906     -3305.954 6        37.758
E36         9.000    23439713.344 8 123176714.29208      -168.918 8        48.530                                                                    23439713.919 8  91982754.22308      -126.125 8        51.028    23439713.412 8  94382291.68008      -129.428 8        51.031
G27        10.000    24334450.979 6 127878486.98906      2883.122 6        39.312                                    24334453.303 5  99645627.17905      2246.578 5        30.853    24334454.441 5  99645629.19305      2246.673 5        35.005
G20        11.000    25251387.184 5 132697050.35105     -3339.632 5        34.800                                    25251384.090 2 103400359.96302     -2602.286 2        14.190
S27        12.000    39255758.425 6 206290535.03806      -445.236 6        36.344
C23        13.000                                                                                                                                    24964749.472 7 129998034.56307      1883.796 7        44.027                                                                    24964742.082 7 105634040.04407      1530.805 7        44.719
S36        14.000    38244878.857 7 200978705.30507      -464.612 7        44.169
C13        15.000                                                                                                                                    37765758.102 7 196656267.21307       -67.315 7        44.959    37765759.835 7 152067133.26307       -52.049 7        45.750    37765757.967 7 159799347.64907       -54.619 7        43.448
G18        16.000    20598235.048 8 108244685.79008       141.418 8        49.766                                    20598231.397 7  84346605.41007       110.196 7        43.064    20598231.850 8  84346613.41308       110.212 8        48.968
R10        17.000    22067733.153 7 117633454.94307      3133.425 7        42.411
R01        18.000    24178609.990 6 129248524.55906     -2528.255 6        38.057                                                                    24178611.753 5 100526505.00405     -1966.478 5        34.067
E02        19.000    23226154.115 8 122054450.17208      -750.247 8        48.683                                                                    23226153.268 8  91144666.27708      -560.255 8        51.288    23226152.674 8  93522338.34108      -574.889 8        51.218
E10        21.000    27956606.084 6 146913179.06306     -3363.240 6        37.686                                                                    27956605.961 6 109708028.77106     -2511.566 6        41.623    27956605.664 6 112569962.15606     -2576.993 6        40.908
I06        22.000    38759465.275 6 152100674.66606      -345.444 6        41.988
S28        23.000    40950695.100 5 215197329.98005      -461.089 5        34.105
E29        24.000    28885753.259 5 151795679.29405     -1198.811 5        34.952                                                                    28885752.455 6 113353919.13906      -895.486 6        36.423    28885752.274 6 116310978.06706      -918.591 6        38.156
S23        25.000    38198439.376 7 200734082.66707      -467.657 7        44.927
S45        26.000    63455936.483 6 333463321.96806      -522.744 6        36.983
R09        27.000    19473826.865 8 103989352.13208       168.483 8        52.365                                                                    19473825.744 8  80880718.51608       131.065 8        48.961
R18        28.000    20394549.936 8 108867783.75508     -3156.920 8        50.254                                                                    20394549.608 7  84675094.58507     -2455.409 7        46.403
C38        29.000                                                                                                                                    38694270.542 7 201491337.11007      -826.973 7        43.509                                                                    38694268.466 7 163728260.41507      -671.909 7        43.901
C44        30.000                                                                                                                                    22512035.346 8 117226298.62608     -2406.762 8        49.190                                                                    22512034.136 8  95256055.12208     -1955.648 8        48.417
C43        31.000                                                                                                                                    24847153.717 7 129385712.35907      2271.395 7        43.774                                                                    24847154.109 7 105136523.47207      1845.808 7        43.111
R02        32.000    23322868.083 7 124455306.62507       613.204 7        44.507                                                                    23322868.451 6  96798577.62006       477.100 6        39.069
I02        33.000    38616917.239 6 151541130.15006      -904.389 6        41.259
R03        34.000    24138040.253 7 129212832.88107      2966.316 7        42.868                                                                    24138040.521 6 100498865.52706      2307.218 6        38.222
E34        35.000    25680254.762 7 134950830.47307      2210.693 7        44.357                                                                    25680256.244 7 100775074.38207      1650.890 7        46.662    25680255.934 7 103403978.99007      1693.982 7        47.348
G29        36.000    21820245.904 7 114666462.74507     -2704.536 7        46.392                                    21820241.563 7  89350600.83507     -2107.432 7        45.061    21820242.268 7  89350610.82607     -2107.380 7        42.440
G31        37.000    22856028.778 7 120109466.35107     -3065.810 7        45.848                                    22856025.870 6  93591889.16006     -2388.944 6        41.464    22856026.166 6  93591895.17106     -2388.919 6        40.799
C22        38.000                                                                                                                                    25700292.890 6 133828178.83406      1661.182 6        41.998                                                                    25700288.496 7 108746337.36707      1349.940 7        42.372
E25        39.000    25726003.540 7 135191273.80307     -3012.549 7        43.729                                                                    25726005.041 7 100954652.18407     -2249.607 7        46.967    25726004.329 7 103588236.12607     -2308.406 7        46.960
C12        40.000                                                                                                                                    21794913.522 8 113492042.57008     -1206.172 8        48.594    21794909.751 8  87759343.63108      -932.642 8        52.070    21794909.132 8  92221654.66808      -980.060 8        49.445
S44        42.000    40567607.699 6 213184371.34906      -406.144 6        37.958
G28        43.000    24058448.770 6 126428176.37606     -3864.508 6        40.951                                    24058447.935 4  98515548.03304     -3011.303 4        25.759    24058448.504 6  98515548.02906     -3011.258 6        41.011
C05        44.000                                                                                                                                    39387567.815 6 205101421.65606      -397.703 6        38.030    39387562.929 7 158597449.92507      -307.478 7        42.550    39387564.427 6 166661806.10106      -323.219 6        39.279
C11        45.000                                                                                                                                    22993608.209 7 119733881.78107      1573.629 7        47.313    22993606.009 8  92585889.60808      1216.817 8        50.742    22993604.259 7  97293623.73607      1278.629 7        47.803
R16        46.000    20831385.915 8 111277722.38008     -4019.735 8        51.092                                                                    20831386.682 7  86549453.24507     -3126.473 7        46.675
R17        47.000    24286023.749 6 129959669.77206     -4349.309 6        40.868                                                                    24286023.855 6 101079877.75506     -3382.743 6        37.875
C35        48.000                                                                                                                                    26584408.044 6 138432156.98106     -3435.835 6        40.334                                                                    26584407.459 6 112487532.28906     -2791.769 6        39.156
C24        49.000                                                                                                                                    23935750.184 7 124639803.31007     -3600.680 7        46.857                                                                    23935747.817 7 101280071.73307     -2925.884 7        46.005
R19        50.000    19371468.855 7 103624562.76507      -243.781 7        42.387                                                                    19371469.254 7  80596995.20907      -189.599 7        45.672
S48        51.000    77200643.618 6 405693340.23906      -502.501 6        38.273
C08        52.000                                                                                                                                    37758779.734 7 196619975.52507      -307.402 7        42.639    37758773.551 7 152039066.28607      -237.756 7        46.011    37758772.874 7 159769853.51807      -249.865 7        42.703
C34        53.000                                                                                                                                    21638211.476 8 112676121.93808       464.288 8        51.251                                                                    21638211.239 8  91558694.56808       377.356 8        49.274
C60        54.000                                                                                                                                    40567604.455 6 211246350.90506      -402.340 6        39.556                                                                    40567590.492 6 171654929.97706      -326.941 6        40.827
C25        55.000                                                                                                                                    22256864.292 8 115897577.64108     -1023.373 8        50.613                                                                    22256862.524 8  94176368.44308      -831.523 8        49.012
C02        57.000                                                                                                                                    40742481.452 5 212156823.56005      -372.374 5        33.898    40742477.014 6 164053103.09006      -287.771 6        39.625    40742478.834 5 172394797.23905      -302.252 5        35.319
I03        58.000    84501232.103 6 255815718.42306      1107.523 6        40.520
E30        59.000    25712686.415 7 135121284.69007      1776.212 7        44.166                                                                    25712687.512 7 100902373.35607      1326.439 7        46.967    25712687.091 7 103534592.98807      1361.046 7        47.751
R20        60.000    22970231.287 6 122832305.74206      3160.361 6        36.783                                                                    22970238.429 6  95536293.03006      2458.111 6        40.977
> 2025 01 02 17 30  5.0000000  0 56
G23         1.000    23939919.757 6 125805176.39306      3044.859 6        40.689                                    23939917.997 4  98030022.18404      2372.599 4        25.684    23939918.484 6  98030020.18506      2372.523 6        40.436
E11         2.000    25376266.691 6 133353378.07906     -2695.904 6        40.844                                                                    25376263.483 7  99582192.45907     -2013.099 7        43.177    25376262.960 7 102179975.07207     -2065.553 7        43.376
G16         3.000    21899868.406 7 115084778.77607      2229.474 7        44.951                                    21899864.908 5  89676532.32205      1737.250 5        32.335
G05         4.000    23092911.716 7 121354166.99407     -1613.766 7        42.851                                    23092908.565 6  94561712.50806     -1257.479 6        38.706    23092908.544 6  94561711.51106     -1257.642 6        39.982
S21         5.000    38474529.305 7 202184694.80607      -465.168 7        42.574
G26         6.000    20597698.927 8 108241872.98608       172.977 8        50.175                                    20597698.232 8  84344447.84008       134.786 8        51.209    20597698.342 7  84344434.84207       134.788 7        45.774
G25         7.000    24286190.699 6 127624964.47506     -4243.262 6        39.559                                    24286191.220 5  99448108.88205     -3306.436 5        34.290    24286192.094 6  99448109.89506     -3306.566 6        37.796
E36         9.000    23439875.120 8 123177564.45708      -171.235 8        48.405                                                                    23439875.662 8  91983389.08908      -127.806 8        51.001    23439875.187 8  94382943.10908      -131.151 8        51.134
G27        10.000    24331708.716 6 127864072.47106      2882.772 6        38.925                                    24331710.222 5  99634395.13305      2246.307 5        30.913    24331710.102 5  99634397.15605      2246.128 5        33.898
G20        11.000    25254565.782 5 132713753.01105     -3341.178 5        34.552                                    25254562.613 2 103413375.05802     -2603.505 2        13.939
S27        12.000    39256185.022 6 206292760.50706      -444.967 6        36.268
C23        13.000                                                                                                                                    24962942.024 7 129988620.25807      1881.947 7        44.566                                                                    24962934.110 7 105626390.15507      1529.191 7        44.662
S36        14.000    38245321.213 7 200981028.03707      -464.624 7        44.172
C13        15.000                                                                                                                                    37765823.339 7 196656606.57107       -68.457 7        45.258    37765824.979 7 152067395.67007       -52.947 7        45.646    37765823.174 7 159799623.39507       -55.664 7        43.390
G18        16.000    20598101.858 8 108243986.07308       138.416 8        49.666                                    20598098.228 7  84346060.17907       107.856 7        43.100    20598098.619 8  84346068.17608       107.866 8        49.108
R10        17.000    22064794.726 7 117617793.00307      3131.198 7        42.544
R01        18.000    24180976.102 6 129261175.18706     -2531.948 6        37.637                                                                    24180977.770 5 100536344.48605     -1969.484 5        34.162
E02        19.000    23226868.924 8 122058206.46808      -752.321 8        48.448                                                                    23226868.025 8  91147471.30208      -561.750 8        51.263    23226867.452 8  93525216.54008      -576.409 8        51.405
E10        21.000    27959806.402 6 146929996.12406     -3363.527 6        38.009                                                                    27959806.166 6 109720586.95106     -2511.788 6        41.716    27959805.994 6 112582847.95106     -2577.162 6        41.108
I06        22.000    38759905.406 6 152102401.63906      -345.400 6        41.976
S28        23.000    40951130.941 5 215199635.56605      -461.139 5        34.443
E29        24.000    28886894.621 5 151801679.77305     -1201.169 5        34.567                                                                    28886894.733 6 113358400.12306      -897.084 6        36.560    28886894.501 6 116315575.94806      -920.394 6        38.264
S23        25.000    38198883.873 7 200736421.27607      -467.779 7        45.026
S45        26.000    63456382.706 6 333465937.07306      -523.111 6        36.987
R09        27.000    19473671.109 8 103988521.04208       163.971 8        52.345                                                                    19473669.934 8  80880072.11908       127.549 8        49.052
R18        28.000    20397507.248 8 108883572.79508     -3158.803 8        50.271                                                                    20397508.279 7  84687374.94307     -2456.866 7        47.363
C38        29.000                                                                                                                                    38695064.956 7 201495474.17307      -827.890 7        43.869                                                                    38695062.895 7 163731622.11207      -672.757 7        43.892
C44        30.000                                                                                                                                    22514346.992 8 117238335.30208     -2407.939 8        49.409                                                                    22514345.628 8  95265835.89508     -1956.651 8        48.370
C43        31.000                                                                                                                                    24844972.819 7 129374357.42207      2270.537 7        44.218                                                                    24844973.564 7 105127296.67007      1844.998 7        43.151
R02        32.000    23322295.470 7 124452250.54507       609.200 7        44.283                                                                    23322295.846 6  96796200.66006       473.674 6        39.772
I02        33.000    38618069.625 6 151545652.27006      -904.369 6        41.249
R03        34.000    24135270.718 7 129198004.69407      2964.803 7        42.790                                                                    24135270.131 6 100487332.48806      2305.971 6        38.258
E34        35.000    25678151.782 7 134939780.06007      2209.395 7        44.206                                                                    25678153.368 7 100766822.47507      1649.971 7        46.703    25678152.979 7 103395511.81507      1692.920 7        47.374
G29        36.000    21822819.633 7 114679988.69207     -2705.891 7        46.573                                    21822815.478 7  89361140.53307     -2108.488 7        45.124    21822816.436 7  89361150.52607     -2108.447 7        43.035
G31        37.000    22858946.979 7 120124800.82307     -3067.939 7        45.710                                    22858943.908 6  93603838.10206     -2390.603 6        41.452    22858944.855 6  93603844.10606     -2390.707 6        41.151
C22        38.000                                                                                                                                    25698698.750 6 133819877.45806      1659.491 6        41.983                                                                    25698694.299 7 108739591.84407      1348.335 7        42.500
E25        39.000    25728870.414 7 135206339.50207     -3013.769 7        43.143                                                                    25728871.919 7 100965902.53807     -2250.496 7        46.950    25728871.310 7 103599779.96807     -2309.284 7        47.308
C12        40.000                                                                                                                                    21796072.497 8 113498077.53208     -1207.885 8        48.814    21796068.851 8  87764010.25208      -934.018 8        52.097    21796068.143 8  92226558.56508      -981.558 8        49.474
S44        42.000    40567992.383 6 213186401.78006      -406.129 6        38.009
G28        43.000    24062126.263 6 126447500.73006     -3865.269 6        41.244                                    24062125.366 4  98530605.95804     -3011.897 4        25.744    24062125.810 6  98530605.94106     -3011.833 6        41.287
C05        44.000                                                                                                                                    39387949.347 6 205103410.11206      -397.969 6        38.435    39387944.690 7 158598987.52907      -307.600 7        42.519    39387946.447 6 166663421.87706      -323.216 6        39.291
C11        45.000                                                                                                                                    22992097.997 7 119726017.36107      1572.118 7        47.419    22992095.714 8  92579808.35308      1215.671 8        50.570    22992093.950 7  97287233.24907      1277.420 7        47.853
R16        46.000    20835149.070 8 111297828.01008     -4022.523 8        50.413                                                                    20835149.605 7  86565090.94807     -3128.538 7        46.029
R17        47.000    24290087.773 6 129981415.86306     -4349.043 6        41.018                                                                    24290087.522 6 101096791.38606     -3382.852 6        37.263
C35        48.000                                                                                                                                    26587707.106 6 138449336.40606     -3435.933 6        40.627                                                                    26587706.856 6 112501491.98206     -2792.128 6        39.348
C24        49.000                                                                                                                                    23939208.174 7 124657810.11607     -3601.964 7        46.922                                                                    23939205.709 7 101294703.72407     -2926.919 7        45.956
R19        50.000    19371698.837 7 103625789.70307      -247.004 7        42.874                                                                    19371698.123 7  80597949.47707      -192.100 7        45.120
S48        51.000    77201095.346 6 405695852.96306      -502.556 6        38.105
C08        52.000                                                                                                                                    37759075.823 7 196621516.01907      -308.709 7        42.770    37759069.396 7 152040257.47607      -238.666 7        45.744    37759068.740 7 159771105.27107      -250.930 7        42.711
C34        53.000                                                                                                                                    21637766.532 8 112673805.00208       462.457 8        51.436                                                                    21637766.243 8  91556811.86208       375.775 8        49.350
C60        54.000                                                                                                                                    40567990.977 6 211248362.87606      -402.342 6        39.688                                                                    40567976.996 6 171656564.87206      -326.998 6        40.844
C25        55.000                                                                                                                                    22257848.244 8 115902701.77308     -1026.238 8        50.803                                                                    22257846.563 8  94180532.21308      -833.958 8        49.066
C02        57.000                                                                                                                                    40742838.382 5 212158684.86405      -372.239 5        34.109    40742834.073 6 164054542.36506      -287.944 6        39.691    40742836.273 5 172396309.69505      -302.558 5        35.229
I03        58.000    84499820.967 6 255810180.66506      1107.465 6        40.422
E30        59.000    25710997.078 7 135112406.14907      1775.267 7        43.932                                                                    25710997.995 7 100895743.30207      1325.554 7        46.923    25710997.537 7 103527789.96807      1360.177 7        47.794
R20        60.000    22967278.483 6 122816507.26106      3159.126 6        36.957                                                                    22967283.174 6  95524005.37006      2457.058 6        41.461
> 2025 01 02 17 30 10.0000000  0 56
G23         1.000    23937022.948 6 125789953.24406      3044.181 6        40.903                                    23937020.935 4  98018160.01604      2372.088 4        25.940    23937021.320 6  98018158.01006      2372.267 6        40.017
E11         2.000    25378832.436 6 133366859.92906     -2697.014 6        41.075                                                                    25378828.913 7  99592260.08807     -2014.081 7        43.213    25378828.525 7 102190305.33707     -2066.591 7        43.268
G16         3.000    21897748.431 7 115073635.88307      2227.540 7        45.076                                    21897744.362 5  89667849.55505      1735.742 5        32.359
G05         4.000    23094448.735 7 121362244.00807     -1617.258 7        42.483                                    23094445.524 6  94568006.28906     -1260.203 6        38.640    23094445.483 6  94568005.29006     -1260.116 6        38.538
S21         5.000    38474971.660 7 202187020.14907      -465.164 7        42.546
G26         6.000    20597535.818 8 108241015.26508       169.934 8        50.134                                    20597535.009 8  84343779.49008       132.417 8        51.287    20597534.997 7  84343766.48807       132.499 7        45.633
G25         7.000    24290227.935 6 127646182.17406     -4243.926 6        39.297                                    24290228.701 5  99464642.15605     -3306.955 5        34.071    24290229.486 6  99464643.14806     -3306.948 6        37.611
E36         9.000    23440038.633 8 123178425.34708      -173.370 8        48.342                                                                    23440039.498 8  91984031.96608      -129.466 8        50.926    23440039.019 8  94383602.75408      -132.793 8        51.148
G27        10.000    24328965.781 6 127849660.23606      2882.115 6        39.231                                    24328967.584 5  99623164.86905      2245.801 5        31.125    24328968.437 5  99623166.87505      2245.982 5        34.138
G20        11.000    25257745.152 5 132730464.14505     -3343.231 5        34.924                                    25257742.630 2 103426396.65402     -2605.117 2        14.190
S27        12.000    39256607.546 6 206294986.01306      -445.437 6        36.302
C23        13.000                                                                                                                                    24961135.454 7 129979215.34407      1879.936 7        44.266                                                                    24961128.034 7 105618747.89707      1527.736 7        44.757
S36        14.000    38245763.469 7 200983350.70907      -464.609 7        44.253
C13        15.000                                                                                                                                    37765889.499 7 196656951.09707       -69.547 7        45.082    37765891.300 7 152067662.07607       -53.691 7        45.585    37765889.432 7 159799903.34507       -56.391 7        43.482
G18        16.000    20597971.542 8 108243300.98808       135.443 8        49.494                                    20597967.867 7  84345526.35407       105.540 7        43.137    20597968.352 8  84345534.35808       105.528 8        49.035
R10        17.000    22061859.165 7 117602141.74207      3128.982 7        42.724
R01        18.000    24183346.353 6 129273843.26206     -2535.435 6        37.240                                                                    24183344.623 5 100546197.44705     -1972.032 5        33.988
E02        19.000    23227585.480 8 122061972.34508      -754.288 8        48.489                                                                    23227584.698 8  91150283.48608      -563.194 8        51.202    23227584.061 8  93528102.08508      -577.909 8        51.359
E10        21.000    27963006.566 6 146946814.88106     -3363.843 6        38.321                                                                    27963006.627 6 109733146.39106     -2512.087 6        41.621    27963006.373 6 112595735.04406     -2577.586 6        41.316
I06        22.000    38760345.481 6 152104128.45906      -345.433 6        41.926
S28        23.000    40951570.456 5 215201941.21905      -461.405 5        34.362
E29        24.000    28888038.395 5 151807691.36105     -1203.508 5        34.543                                                                    28888038.488 6 113362889.42306      -898.633 6        36.741    28888038.385 6 116320182.35206      -922.183 6        39.006
S23        25.000    38199328.473 7 200738759.82107      -467.739 7        45.064
S45        26.000    63456825.795 6 333468552.09406      -522.984 6        37.104
R09        27.000    19473519.537 8 103987711.84908       159.513 8        52.346                                                                    19473518.575 8  80879442.74408       124.036 8        49.297
R18        28.000    20400466.414 8 108899370.73008     -3160.604 8        50.192                                                                    20400467.634 7  84699662.22807     -2458.264 7        47.695
C38        29.000                                                                                                                                    38695860.411 7 201499615.81607      -828.893 7        43.664                                                                    38695858.169 7 163734987.54007      -673.534 7        43.812
C44        30.000                                                                                                                                    22516659.719 8 117250377.71008     -2409.089 8        49.049                                                                    22516658.233 8  95275621.34008     -1957.505 8        48.273
C43        31.000                                                                                                                                    24842793.060 7 129363006.43707      2269.692 7        44.041                                                                    24842793.691 7 105118073.09307      1844.406 7        43.143
R02        32.000    23321726.253 7 124449214.48207       605.153 7        44.202                                                                    23321727.070 6  96793839.29006       470.704 6        39.952
I02        33.000    38619222.342 6 151550174.91706      -904.526 6        41.120
R03        34.000    24132501.666 7 129183183.79507      2963.276 7        42.595                                                                    24132501.671 6 100475805.11106      2304.824 6        38.688
E34        35.000    25676049.968 7 134928735.57407      2208.160 7        44.296                                                                    25676051.655 7 100758574.97907      1649.040 7        46.611    25676051.223 7 103387049.17307      1691.964 7        47.457
G29        36.000    21825394.905 7 114693521.12407     -2707.193 7        46.710                                    21825390.641 7  89371685.28207     -2109.502 7        45.165    21825391.002 7  89371695.27907     -2109.519 7        42.391
G31        37.000    22861867.072 7 120140145.65607     -3070.105 7        45.512                                    22861863.904 6  93615795.11606     -2392.292 6        41.523    22861864.053 6  93615801.11406     -2392.191 6        40.765
C22        38.000                                                                                                                                    25697105.979 6 133811584.84006      1657.458 6        41.683                                                                    25697101.791 7 108732853.41307      1347.026 7        42.645
E25        39.000    25731738.363 7 135221410.56207     -3014.850 7        42.885                                                                    25731739.742 7 100977156.90107     -2251.244 7        46.830    25731739.201 7 103611327.91607     -2310.019 7        47.268
C12        40.000                                                                                                                                    21797232.817 8 113504120.88508     -1209.604 8        48.547    21797229.232 8  87768683.34908      -935.356 8        52.047    21797228.713 8  92231469.27308      -982.801 8        49.406
S44        42.000    40568380.619 6 213188432.40206      -406.215 6        38.240
G28        43.000    24065804.477 6 126466828.66306     -3865.941 6        41.011                                    24065803.490 4  98545666.67304     -3012.424 4        25.895    24065803.307 6  98545666.68406     -3012.475 6        40.112
C05        44.000                                                                                                                                    39388331.268 6 205105398.57806      -397.712 6        38.147    39388326.513 7 158600525.16707      -307.634 7        42.427    39388328.158 6 166665037.69106      -323.168 6        39.369
C11        45.000                                                                                                                                    22990588.965 7 119718159.87107      1570.660 7        47.176    22990586.620 8  92573732.45508      1214.574 8        50.576    22990584.960 7  97280848.39507      1276.494 7        47.802
R16        46.000    20838915.923 8 111317947.23708     -4025.308 8        51.117                                                                    20838916.258 7  86580739.24707     -3130.788 7        46.122
R17        47.000    24294152.783 6 130003160.29606     -4348.749 6        41.473                                                                    24294151.269 6 101113703.69506     -3382.363 6        36.412
C35        48.000                                                                                                                                    26591006.450 6 138466515.40406     -3435.835 6        40.577                                                                    26591005.780 6 112515451.32106     -2791.796 6        39.051
C24        49.000                                                                                                                                    23942667.618 7 124675822.61907     -3603.124 7        46.240                                                                    23942665.105 7 101309340.34907     -2927.760 7        45.898
R19        50.000    19371931.576 7 103627032.64407      -250.382 7        43.035                                                                    19371930.359 7  80598916.21807      -194.628 7        45.222
S48        51.000    77201546.148 6 405698365.52606      -502.438 6        38.559
C08        52.000                                                                                                                                    37759372.282 7 196623061.96207      -309.790 7        42.633    37759366.330 7 152041452.90607      -239.555 7        45.538    37759365.711 7 159772361.48607      -251.725 7        42.696
C34        53.000                                                                                                                                    21637323.075 8 112671496.74908       460.689 8        51.273                                                                    21637322.913 8  91554936.22408       374.430 8        49.264
C60        54.000                                                                                                                                    40568377.174 6 211250375.04106      -402.496 6        39.655                                                                    40568363.407 6 171658199.91706      -327.080 6        40.739
C25        55.000                                                                                                                                    22258835.063 8 115907839.95808     -1029.126 8        50.600                                                                    22258833.283 8  94184707.40608      -836.150 8        48.989
C02        57.000                                                                                                                                    40743195.477 5 212160546.34805      -372.549 5        34.257    40743191.830 6 164055981.78206      -287.784 6        39.547    40743193.828 5 172397822.31305      -302.630 5        35.024
I03        58.000    84498409.515 6 255804642.94906      1107.475 6        40.389
E30        59.000    25709308.463 7 135103532.48907      1774.046 7        43.541                                                                    25709309.342 7 100889116.85907      1324.867 7        46.869    25709308.973 7 103520990.67007      1359.410 7        47.788
R20        60.000    22964324.296 6 122800715.62106      3157.588 6        36.291                                                                    22964329.471 6  95511723.03106      2455.850 6        40.257
> 2025 01 02 17 30 15.0000000  0 56
G23         1.000    23934126.473 6 125774732.71806      3043.522 6        41.070                                    23934124.357 4  98006299.88504      2371.576 4        26.204    23934124.750 6  98006297.90706      2371.592 6        40.441
E11         2.000    25381399.059 6 133380347.57206     -2698.214 6        41.097                                                                    25381395.458 7  99602332.03107     -2014.914 7        42.942    25381395.089 7 102200640.02407     -2067.439 7        43.365
G16         3.000    21895629.733 7 115062502.37607      2225.585 7        45.497                                    21895625.725 5  89659174.10805      1734.219 5        32.305
G05         4.000    23095989.310 7 121370337.64907     -1620.663 7        43.363                                    23095985.569 6  94574313.02606     -1262.853 6        38.604    23095986.159 6  94574312.02206     -1262.682 6        38.889
S21         5.000    38475413.609 7 202189345.22107      -465.224 7        42.599
G26         6.000    20597375.127 8 108240172.24108       167.009 8        50.227                                    20597374.585 8  84343122.59108       130.137 8        51.399    20597374.857 7  84343109.59207       130.149 7        46.014
G25         7.000    24294266.334 6 127667402.26406     -4244.383 6        39.619                                    24294266.688 5  99481177.28905     -3307.311 5        34.010    24294267.715 6  99481178.28806     -3307.376 6        37.713
E36         9.000    23440204.525 8 123179296.73108      -175.501 8        48.418                                                                    23440205.274 8  91984682.68208      -131.057 8        50.831    23440204.822 8  94384270.44508      -134.478 8        51.166
G27        10.000    24326223.801 6 127835250.00906      2881.601 6        39.556                                    24326225.343 5  99611936.16605      2245.393 5        31.140    24326226.242 5  99611938.15805      2245.760 5        33.916
G20        11.000    25260927.021 5 132747183.62605     -3344.961 5        34.481                                    25260924.261 2 103439424.81502     -2606.449 2        14.524
S27        12.000    39257031.505 6 206297211.45606      -445.267 6        36.367
C23        13.000                                                                                                                                    24959330.860 7 129969819.59707      1877.995 7        44.417                                                                    24959323.695 7 105611113.08507      1526.108 7        44.823
S36        14.000    38246204.707 7 200985672.76107      -464.631 7        44.239
C13        15.000                                                                                                                                    37765956.450 7 196657300.53207       -70.580 7        44.858    37765958.209 7 152067932.29407       -54.567 7        45.734    37765956.566 7 159800187.29407       -57.279 7        43.553
G18        16.000    20597843.985 8 108242630.32608       132.535 8        49.695                                    20597840.242 7  84345003.76207       103.278 7        43.278    20597840.580 8  84345011.76708       103.232 8        49.185
R10        17.000    22058924.989 7 117586501.12407      3126.850 7        42.320
R01        18.000    24185718.620 6 129286528.61506     -2538.841 6        36.427                                                                    24185718.905 5 100556063.83305     -1974.695 5        34.129
E02        19.000    23228303.918 8 122065747.56808      -756.161 8        48.573                                                                    23228303.054 8  91153102.65408      -564.673 8        51.127    23228302.482 8  93530994.79608      -579.406 8        51.406
E10        21.000    27966207.507 6 146963635.13206     -3364.362 6        38.366                                                                    27966207.389 6 109745706.96706     -2512.340 6        41.445    27966207.201 6 112608623.28306     -2577.865 6        41.378
I06        22.000    38760785.381 6 152105855.01406      -345.402 6        41.897
S28        23.000    40952009.015 5 215204246.66505      -461.204 5        34.219
E29        24.000    28889184.011 5 151813713.44105     -1205.973 5        33.575                                                                    28889184.000 6 113367386.42806      -900.479 6        36.106    28889184.320 6 116324796.65606      -923.878 6        38.838
S23        25.000    38199774.334 7 200741098.30407      -467.947 7        45.076
S45        26.000    63457272.657 6 333471167.11006      -523.087 6        37.410
R09        27.000    19473371.999 8 103986924.29808       155.170 8        52.211                                                                    19473370.902 8  80878830.21308       120.646 8        48.819
R18        28.000    20403427.482 8 108915177.26308     -3162.380 8        49.997                                                                    20403428.339 7  84711956.20107     -2459.668 7        47.107
C38        29.000                                                                                                                                    38696656.413 7 201503761.81507      -829.835 7        43.710                                                                    38696654.457 7 163738356.49807      -674.234 7        43.924
C44        30.000                                                                                                                                    22518973.240 8 117262425.64108     -2410.326 8        48.776                                                                    22518971.844 8  95285411.26308     -1958.520 8        48.464
C43        31.000                                                                                                                                    24840613.409 7 129351659.20707      2268.927 7        43.687                                                                    24840614.453 7 105108852.54807      1843.757 7        43.289
R02        32.000    23321161.534 7 124446198.26607       601.097 7        43.718                                                                    23321161.233 6  96791493.35106       467.561 6        38.904
I02        33.000    38620375.195 6 151554698.00706      -904.851 6        41.216
R03        34.000    24129734.130 7 129168369.95707      2961.773 7        42.116                                                                    24129735.521 6 100464283.27906      2303.693 6        38.952
E34        35.000    25673949.687 7 134917696.78607      2206.942 7        44.471                                                                    25673951.055 7 100750331.75407      1648.072 7        46.556    25673950.633 7 103378590.89907      1691.068 7        47.421
G29        36.000    21827970.955 7 114707059.78907     -2708.553 7        46.649                                    21827966.997 7  89382234.89307     -2110.562 7        45.242    21827967.271 6  89382244.89406     -2110.578 6        41.874
G31        37.000    22864788.939 7 120155500.60307     -3072.207 7        45.720                                    22864785.854 6  93627760.01006     -2393.932 6        41.588    22864786.314 6  93627766.01706     -2393.931 6        41.182
C22        38.000                                                                                                                                    25695515.039 6 133803300.75906      1655.728 6        41.630                                                                    25695510.848 7 108726121.93307      1345.494 7        42.580
E25        39.000    25734607.426 7 135236486.76507     -3015.928 7        43.081                                                                    25734608.508 7 100988415.11107     -2252.102 7        46.510    25734607.972 7 103622879.81707     -2310.939 7        47.280
C12        40.000                                                                                                                                    21798394.837 8 113510172.42408     -1211.306 8        48.508    21798391.586 8  87773362.78908      -936.672 8        52.152    21798390.823 8  92236386.64608      -984.251 8        49.553
S44        42.000    40568766.833 6 213190462.99506      -406.280 6        38.135
G28        43.000    24069483.075 6 126486159.98106     -3866.680 6        40.834                                    24069482.133 4  98560730.03304     -3012.986 4        25.669    24069481.788 6  98560730.03706     -3013.165 6        39.255
C05        44.000                                                                                                                                    39388713.767 6 205107386.91006      -397.607 6        38.060    39388708.505 7 158602062.67907      -307.621 7        42.614    39388710.222 6 166666653.38306      -323.160 6        39.300
C11        45.000                                                                                                                                    22989081.446 7 119710309.14707      1569.297 7        47.375    22989079.057 8  92567661.79308      1213.452 8        50.573    22989077.353 7  97274469.04807      1275.267 7        47.963
R16        46.000    20842685.349 8 111338079.96708     -4028.061 8        51.230                                                                    20842685.265 7  86596398.03207     -3132.972 7        46.356
R17        47.000    24298215.871 6 130024902.90106     -4348.393 6        41.480                                                                    24298212.913 6 101130614.58806     -3382.321 6        36.095
C35        48.000                                                                                                                                    26594305.114 6 138483693.78706     -3435.803 6        40.291                                                                    26594304.664 6 112529410.16906     -2791.788 6        39.258
C24        49.000                                                                                                                                    23946127.627 7 124693840.62307     -3604.309 7        45.461                                                                    23946125.506 7 101323981.43607     -2928.759 7        46.099
R19        50.000    19372167.057 7 103628291.18307      -253.430 7        42.571                                                                    19372165.577 7  80599895.08107      -197.086 7        45.251
S48        51.000    77201997.804 6 405699278.10116      -502.869 6        38.144
C08        52.000                                                                                                                                    37759670.173 7 196624613.26907      -310.996 7        42.290    37759663.981 7 152042652.47307      -240.483 7        45.592    37759663.584 7 159773622.03807      -252.604 7        42.870
C34        53.000                                                                                                                                    21636881.552 8 112669196.97308       458.925 8        51.280                                                                    21636881.294 8  91553067.46208       373.001 8        49.360
C60        54.000                                                                                                                                    40568763.477 6 211252387.17106      -402.671 6        39.405                                                                    40568749.836 6 171659834.95006      -327.193 6        40.779
C25        55.000                                                                                                                                    22259824.323 8 115912991.98608     -1031.961 8        50.499                                                                    22259822.685 8  94188893.85608      -838.540 8        49.056
C02        57.000                                                                                                                                    40743553.667 5 212162407.69305      -372.404 5        34.043    40743549.153 6 164057421.10406      -288.139 6        39.486    40743551.254 5 172399334.81305      -302.728 5        35.033
I03        58.000    84496998.518 6 255799105.12306      1107.547 6        40.367
E30        59.000    25707620.875 7 135094663.47807      1773.103 7        43.674                                                                    25707621.580 7 100882493.91007      1324.090 7        46.812    25707621.269 7 103514194.94307      1358.575 7        47.879
R20        60.000    22961372.320 6 122784930.51306      3156.388 6        37.384                                                                    22961376.376 6  95499445.80106      2454.815 6        41.638
> 2025 01 02 17 30 20.0000000  0 56
G23         1.000    23931230.925 6 125759514.39406      3043.407 6        40.920                                    23931228.190 4  97994441.48104      2371.469 4        26.443    23931229.023 6  97994439.50206      2371.383 6        40.400
E11         2.000    25383966.717 6 133393840.58206     -2699.241 6        41.144                                                                    25383963.118 7  99612407.97507     -2015.636 7        42.973    25383962.761 7 102210978.82607     -2068.278 7        43.247
G16         3.000    21893512.767 7 115051377.85207      2223.834 7        45.699                                    21893508.765 5  89650505.66005      1732.850 5        32.383
G05         4.000    23097532.528 7 121378447.55707     -1623.799 7        43.043                                    23097528.753 6  94580632.44406     -1265.302 6        38.568    23097529.615 6  94580631.44806     -1265.253 6        39.847
S21         5.000    38475857.923 7 202191669.67607      -464.985 7        42.521
G26         6.000    20597217.547 8 108239343.54308       164.168 8        50.156                                    20597216.893 8  84342476.85708       127.922 8        51.409    20597216.827 7  84342463.86607       127.847 7        45.928
G25         7.000    24298305.165 6 127688624.37706     -4244.654 6        39.664                                    24298305.096 5  99497713.99605     -3307.521 5        34.024    24298306.071 6  99497715.00306     -3307.539 6        37.444
E36         9.000    23440372.403 8 123180178.19908      -177.456 8        48.412                                                                    23440373.069 8  91985340.92108      -132.498 8        50.825    23440372.624 8  94384945.85808      -135.991 8        51.042
G27        10.000    24323481.944 6 127820841.42006      2881.297 6        39.763                                    24323483.407 5  99600708.74105      2245.163 5        31.019    24323483.844 5  99600710.74705      2245.390 5        32.976
G20        11.000    25264110.006 5 132763910.92905     -3346.412 5        34.929                                    25264107.327 2 103452459.06902     -2607.610 2        14.286
S27        12.000    39257452.369 6 206299436.35506      -445.190 6        36.280
C23        13.000                                                                                                                                    24957527.829 7 129960432.61107      1876.364 7        43.964                                                                    24957521.030 7 105603485.41107      1524.737 7        44.996
S36        14.000    38246645.555 7 200987994.11407      -464.282 7        44.152
C13        15.000                                                                                                                                    37766024.383 7 196657654.47407       -71.344 7        44.871    37766025.954 7 152068205.98607       -55.192 7        45.740    37766024.411 7 159800474.89907       -57.869 7        43.708
G18        16.000    20597719.107 8 108241973.66708       129.759 8        49.606                                    20597715.287 7  84344492.08607       101.111 7        43.257    20597715.677 8  84344500.08908       101.077 8        49.228
R10        17.000    22055992.829 7 117570870.75807      3124.955 7        42.502
R01        18.000    24188095.195 6 129299230.68606     -2542.324 6        37.013                                                                    24188096.637 5 100565943.20705     -1977.418 5        33.677
E02        19.000    23229024.130 8 122069531.74208      -757.872 8        48.550                                                                    23229023.193 8  91155928.50208      -566.007 8        51.059    23229022.595 8  93533894.36408      -580.768 8        51.228
E10        21.000    27969408.363 6 146980456.41406     -3364.639 6        38.547                                                                    27969408.508 6 109758268.31106     -2512.509 6        41.402    27969408.176 6 112621512.30506     -2577.957 6        41.440
I06        22.000    38761225.471 6 152107580.93506      -345.271 6        41.726
S28        23.000    40952450.539 5 215206551.52705      -461.222 5        34.371
E29        24.000    28890332.437 5 151819745.79005     -1207.376 5        34.462                                                                    28890332.175 6 113371891.07806      -901.836 6        36.234    28890332.737 6 116329418.82806      -925.302 6        38.589
S23        25.000    38200218.366 7 200743436.40207      -467.713 7        44.873
S45        26.000    63457717.405 6 333473781.63706      -523.024 6        36.957
R09        27.000    19473228.517 8 103986157.89008       151.017 8        52.061                                                                    19473227.535 8  80878234.11908       117.468 8        49.371
R18        28.000    20406389.950 8 108930992.02508     -3163.957 8        49.590                                                                    20406390.749 7  84724256.57207     -2460.848 7        47.256
C38        29.000                                                                                                                                    38697453.293 7 201507911.75007      -830.505 7        43.886                                                                    38697451.406 7 163741728.66807      -674.735 7        44.161
C44        30.000                                                                                                                                    22521287.786 8 117274478.64808     -2411.257 8        48.774                                                                    22521286.557 8  95295205.32308     -1959.300 8        48.616
C43        31.000                                                                                                                                    24838435.299 7 129340315.30207      2268.292 7        43.937                                                                    24838435.979 7 105099634.71907      1843.223 7        43.355
R02        32.000    23320599.399 7 124443201.28907       597.293 7        43.452                                                                    23320599.519 6  96789162.37506       464.554 6        38.517
I02        33.000    38621528.009 6 151559221.32006      -904.858 6        40.973
R03        34.000    24126968.303 6 129153562.39006      2960.739 6        41.526                                                                    24126968.698 6 100452766.29306      2302.628 6        38.207
E34        35.000    25671850.048 7 134906663.28007      2206.100 7        44.524                                                                    25671851.469 7 100742092.47707      1647.320 7        46.495    25671851.062 7 103370136.68207      1690.330 7        47.221
G29        36.000    21830548.656 7 114720604.39907     -2709.666 7        46.518                                    21830544.454 7  89392789.13807     -2111.427 7        45.261    21830544.807 7  89392799.14507     -2111.493 7        42.152
G31        37.000    22867712.790 7 120170865.23807     -3073.987 7        45.067                                    22867709.652 6  93639732.45506     -2395.312 6        41.600    22867710.202 6  93639738.46006     -2395.368 6        41.209
C22        38.000                                                                                                                                    25693925.984 6 133795024.78106      1654.296 6        41.733                                                                    25693921.379 7 108719397.05507      1344.278 7        42.663
E25        39.000    25737477.128 7 135251567.69407     -3016.814 7        43.154                                                                    25737478.261 7 100999676.84607     -2252.888 7        46.444    25737477.541 7 103634435.32907     -2311.604 7        46.929
C12        40.000                                                                                                                                    21799558.367 8 113516231.67908     -1212.745 8        48.556    21799555.036 8  87778048.20108      -937.846 8        52.207    21799554.395 8  92241310.29508      -985.433 8        49.770
S44        42.000    40569152.845 6 213192493.14406      -406.255 6        38.060
G28        43.000    24073162.615 6 126505494.21706     -3867.182 6        41.476                                    24073161.165 4  98575795.66504     -3013.393 4        25.489    24073161.799 6  98575795.67206     -3013.470 6        39.486
C05        44.000                                                                                                                                    39389095.017 6 205109374.64206      -397.665 6        38.183    39389090.136 7 158603599.72007      -307.491 7        42.521    39389091.777 6 166668268.59206      -323.079 6        39.694
C11        45.000                                                                                                                                    22987575.079 7 119702464.75907      1568.091 7        47.438    22987572.541 8  92561596.02708      1212.500 8        50.738    22987570.863 8  97268094.85108      1274.254 8        48.117
R16        46.000    20846455.547 8 111358225.63508     -4030.579 8        50.328                                                                    20846456.717 7  86612066.88307     -3134.927 7        46.509
R17        47.000    24302277.295 6 130046643.13606     -4347.985 6        41.268                                                                    24302278.370 6 101147523.65806     -3381.928 6        36.934
C35        48.000                                                                                                                                    26597604.203 6 138500871.12206     -3435.579 6        40.391                                                                    26597603.274 6 112543368.16906     -2791.653 6        39.279
C24        49.000                                                                                                                                    23949588.570 7 124711863.68607     -3605.251 7        45.631                                                                    23949586.677 7 101338626.64807     -2929.470 7        46.256
R19        50.000    19372404.414 7 103629564.90407      -256.417 7        42.882                                                                    19372404.279 7  80600885.76607      -199.461 7        45.687
S48        51.000    77202451.495 6 405701790.25406      -502.617 6        38.285
C08        52.000                                                                                                                                    37759968.492 7 196626169.48307      -311.882 7        42.432    37759962.951 7 152043855.83307      -241.226 7        45.466    37759962.365 7 159774886.58107      -253.299 7        42.954
C34        53.000                                                                                                                                    21636441.502 8 112666905.25408       457.349 8        51.252                                                                    21636441.195 8  91551205.26008       371.721 8        49.564
C60        54.000                                                                                                                                    40569149.714 6 211254398.87206      -402.641 6        39.312                                                                    40569136.019 6 171661469.61006      -326.962 6        41.027
C25        55.000                                                                                                                                    22260816.326 8 115918157.46708     -1034.596 8        50.403                                                                    22260814.621 8  94193091.24108      -840.608 8        49.260
C02        57.000                                                                                                                                    40743910.619 5 212164268.53005      -372.192 5        34.067    40743906.458 6 164058860.02206      -287.924 6        39.664    40743908.617 5 172400846.86705      -302.076 5        35.295
I03        58.000    84495586.857 6 255793566.89006      1107.542 6        40.191
E30        59.000    25705934.014 7 135085798.70007      1772.373 7        43.793                                                                    25705934.664 7 100875874.12207      1323.476 7        46.760    25705934.271 7 103507402.46407      1358.027 7        47.725
R20        60.000    22958422.428 6 122769151.47706      3155.043 6        36.681                                                                    22958426.821 6  95487173.26706      2453.877 6        41.750
> 2025 01 02 17 30 25.0000000  0 56
G23         1.000    23928335.327 6 125744298.83506      3042.806 6        40.779                                    23928332.689 4  97982585.22104      2371.009 4        26.419    23928333.186 6  97982583.23606      2371.086 6        40.241
E11         2.000    25386535.151 6 133407339.44606     -2700.265 6        40.946                                                                    25386531.907 7  99622488.28407     -2016.305 7        42.770    25386531.466 7 102221322.11007     -2069.051 7        43.266
G16         3.000    21891397.432 7 115040262.84707      2222.150 7        45.508                                    21891393.616 5  89641844.62105      1731.539 5        32.216
G05         4.000    23099078.589 7 121386574.28007     -1627.077 7        43.132                                    23099075.197 6  94586964.95706     -1267.856 6        38.541    23099076.191 6  94586963.96406     -1267.913 6        39.907
S21         5.000    38476299.956 7 202193994.35807      -464.908 7        42.593
G26         6.000    20597062.758 8 108238529.65908       161.370 8        50.068                                    20597062.014 8  84341842.66308       125.742 8        51.252    20597062.341 7  84341829.66007       125.783 7        45.804
G25         7.000    24302343.459 6 127709849.03806     -4245.213 6        39.240                                    24302343.986 5  99514252.68705     -3307.958 5        33.731    24302345.300 6  99514253.70206     -3308.018 6        37.550
E36         9.000    23440542.268 8 123181070.25908      -179.456 8        48.438                                                                    23440542.796 8  91986007.07108      -133.993 8        50.748    23440542.319 8  94385629.38608      -137.504 8        51.176
G27        10.000    24320740.534 6 127806434.95806      2881.178 6        39.024                                    24320741.855 5  99589482.97005      2245.061 5        30.891    24320742.053 5  99589485.02305      2245.014 5        34.386
G20        11.000    25267294.998 5 132780646.78505     -3348.010 5        35.062                                    25267292.012 2 103465499.98302     -2608.815 2        14.238
S27        12.000    39257878.542 6 206301660.92806      -444.879 6        36.272
C23        13.000                                                                                                                                    24955726.966 7 129951054.89307      1874.733 7        43.972                                                                    24955720.061 7 105595865.24907      1523.375 7        44.823
S36        14.000    38247088.232 7 200990315.07807      -464.243 7        44.229
C13        15.000                                                                                                                                    37766093.273 7 196658013.45107       -72.251 7        44.728    37766094.991 7 152068483.56407       -55.895 7        45.607    37766093.308 7 159800766.60807       -58.674 7        43.446
G18        16.000    20597596.942 8 108241331.53208       127.002 8        49.719                                    20597593.100 7  84343991.72307        98.962 7        43.134    20597593.416 8  84343999.72108        98.969 8        49.123
R10        17.000    22053062.726 7 117555251.17807      3122.822 7        42.692
R01        18.000    24190475.715 6 129311950.29906     -2545.707 6        37.433                                                                    24190476.191 5 100575836.26905     -1980.167 5        34.114
E02        19.000    23229745.841 8 122073325.37808      -759.630 8        48.462                                                                    23229745.048 8  91158761.40908      -567.266 8        51.018    23229744.522 8  93536801.16908      -582.042 8        51.362
E10        21.000    27972609.752 6 146997279.23806     -3364.672 6        38.387                                                                    27972609.712 6 109770830.80906     -2512.680 6        41.080    27972609.498 6 112634402.52206     -2578.089 6        41.247
I06        22.000    38761664.966 6 152109306.59106      -345.111 6        41.905
S28        23.000    40952881.371 5 215208856.27105      -460.922 5        34.471
E29        24.000    28891482.918 5 151825789.17605     -1209.664 5        34.662                                                                    28891482.845 6 113376403.98606      -903.423 6        37.501    28891482.457 6 116334049.48206      -926.990 6        39.222
S23        25.000    38200664.294 7 200745774.45607      -467.557 7        45.019
S45        26.000    63458162.237 6 333476396.28106      -522.946 6        37.062
R09        27.000    19473089.116 8 103985413.26808       146.781 8        52.172                                                                    19473088.145 8  80877654.97208       114.128 8        49.764
R18        28.000    20409354.508 8 108946815.49108     -3165.534 8        49.990                                                                    20409354.944 7  84736563.71807     -2462.104 7        46.946
C38        29.000                                                                                                                                    38698251.167 7 201512066.15207      -831.284 7        43.972                                                                    38698249.295 7 163745104.46107      -675.357 7        43.862
C44        30.000                                                                                                                                    22523603.554 8 117286537.24908     -2412.231 8        48.805                                                                    22523602.312 8  95305003.92908     -1960.139 8        48.426
C43        31.000                                                                                                                                    24836257.673 7 129328975.23007      2267.687 7        44.239                                                                    24836258.201 7 105090420.00707      1842.796 7        43.268
R02        32.000    23320041.018 7 124440224.19207       593.525 7        43.300                                                                    23320041.697 6  96786846.86706       461.717 6        39.012
I02        33.000    38622680.597 6 151563745.20006      -904.697 6        40.944
R03        34.000    24124202.885 6 129138762.11206      2959.546 6        40.920                                                                    24124203.905 6 100441254.97206      2301.836 6        38.138
E34        35.000    25669751.169 7 134895635.60207      2204.989 7        44.143                                                                    25669752.942 7 100733857.53007      1646.657 7        46.499    25669752.594 7 103361686.91207      1689.530 7        47.445
G29        36.000    21833127.252 7 114734155.32007     -2710.751 7        46.654                                    21833123.087 7  89403348.29307     -2112.272 7        45.114    21833123.737 7  89403358.29807     -2112.384 7        42.231
G31        37.000    22870638.622 7 120186240.07907     -3075.878 7        45.242                                    22870635.403 6  93651712.84706     -2396.789 6        41.411    22870635.897 6  93651718.85606     -2396.799 6        41.311
C22        38.000                                                                                                                                    25692338.347 6 133786757.45606      1652.600 6        41.528                                                                    25692333.638 7 108712679.17907      1342.946 7        42.351
E25        39.000    25740348.031 7 135266653.86007     -3017.677 7        43.124                                                                    25740349.160 7 101010942.47907     -2253.470 7        46.506    25740348.160 7 103645994.85707     -2312.279 7        46.689
C12        40.000                                                                                                                                    21800723.525 8 113522299.18108     -1214.274 8        48.582    21800720.028 8  87782739.96908      -938.947 8        52.225    21800719.624 8  92246240.62008      -986.639 8        49.613
S44        42.000    40569538.729 6 213194523.35006      -405.929 6        38.096
G28        43.000    24076842.365 6 126524831.89106     -3867.764 6        41.237                                    24076840.827 4  98590863.97104     -3013.854 4        25.549    24076841.966 6  98590863.97306     -3014.028 6        39.970
C05        44.000                                                                                                                                    39389476.898 6 205111362.30406      -397.565 6        37.928    39389471.865 7 158605136.71107      -307.369 7        42.627    39389473.466 6 166669883.71606      -322.820 6        39.282
C11        45.000                                                                                                                                    22986070.390 7 119694627.20307      1566.836 7        47.780    22986067.385 8  92555535.52808      1211.616 8        50.751    22986065.747 7  97261726.20507      1273.244 7        47.988
R16        46.000    20850229.558 8 111378384.75008     -4033.115 8        50.125                                                                    20850230.243 7  86627746.19507     -3136.857 7        45.952
R17        47.000    24306339.559 6 130068381.63206     -4347.530 6        41.087                                                                    24306340.634 6 101164431.36906     -3381.563 6        37.229
C35        48.000                                                                                                                                    26600902.729 6 138518047.94206     -3435.419 6        40.300                                                                    26600901.925 6 112557325.73706     -2791.291 6        39.048
C24        49.000                                                                                                                                    23953050.888 7 124729892.31907     -3606.229 7        45.896                                                                    23953048.575 7 101353276.38407     -2930.283 7        45.994
R19        50.000    19372645.620 7 103630854.33907      -259.443 7        42.747                                                                    19372645.101 7  80601888.67707      -201.741 7        45.696
S48        51.000    77202900.083 6 405704302.37806      -502.444 6        38.342
C08        52.000                                                                                                                                    37760268.986 7 196627731.10307      -312.873 7        42.707    37760263.027 7 152045063.38407      -241.909 7        45.371    37760262.149 7 159776155.53907      -254.205 7        42.717
C34        53.000                                                                                                                                    21636002.771 8 112664622.10708       455.850 8        51.190                                                                    21636002.743 8  91549350.01908       370.504 8        49.406
C60        54.000                                                                                                                                    40569536.035 6 211256410.62206      -402.272 6        39.399                                                                    40569522.331 6 171663104.32706      -326.862 6        40.937
C25        55.000                                                                                                                                    22261810.973 8 115923336.90908     -1037.187 8        50.240                                                                    22261809.314 8  94197299.95108      -842.747 8        49.107
C02        57.000                                                                                                                                    40744268.389 5 212166129.36305      -371.964 5        33.922    40744263.973 6 164060298.95006      -287.677 6        39.715    40744265.837 5 172402358.98105      -302.452 5        34.857
I03        58.000    84494176.406 6 255788028.60406      1107.752 6        40.384
E30        59.000    25704247.910 7 135076938.68107      1771.555 7        43.922                                                                    25704248.664 7 100869257.87807      1322.871 7        46.660    25704248.239 7 103500613.62407      1357.396 7        47.912
R20        60.000    22955471.494 6 122753379.13606      3153.897 6        36.575                                                                    22955477.544 6  95474906.00006      2452.928 6        41.304
> 2025 01 02 17 30 30.0000000  0 56
G23         1.000    23925440.781 6 125729086.06206      3042.107 6        41.113                                    23925437.926 4  97970731.14004      2370.472 4        26.683    23925438.649 6  97970729.15106      2370.499 6        40.427
E11         2.000    25389105.011 6 133420844.23006     -2701.728 6        41.249                                                                    25389101.901 7  99632573.04207     -2017.632 7        42.986    25389101.299 7 102231669.93207     -2070.174 7        43.274
G16         3.000    21889283.924 7 115029157.38607      2220.011 7        45.416                                    21889280.282 5  89633191.03205      1729.873 5        32.443
G05         4.000    23100628.726 7 121394717.85907     -1630.538 7        42.872                                    23100624.846 6  94593310.61306     -1270.551 6        38.736    23100625.229 6  94593309.61806     -1270.601 6        39.718
S21         5.000    38476742.655 7 202196319.14907      -465.042 7        42.639
G26         6.000    20596910.654 8 108237730.65508       158.174 8        50.162                                    20596909.970 8  84341220.06708       123.249 8        51.394    20596909.961 7  84341207.07207       123.218 7        45.973
G25         7.000    24306382.894 6 127731076.23806     -4245.866 6        38.634                                    24306383.431 5  99530793.35605     -3308.468 5        33.647    24306384.402 6  99530794.35706     -3308.459 6        37.595
E36         9.000    23440713.987 8 123181972.94408      -181.729 8        48.447                                                                    23440714.569 8  91986681.15908      -135.738 8        50.821    23440714.108 8  94386321.05708      -139.253 8        51.181
G27        10.000    24317999.211 6 127792030.69506      2880.486 6        39.483                                    24318000.849 5  99578258.91505      2244.521 5        30.928    24318001.627 5  99578260.94705      2244.229 5        34.167
G20        11.000    25270481.562 5 132797391.12305     -3349.817 5        35.343                                    25270478.267 2 103478547.56502     -2610.264 2        14.667
S27        12.000    39258299.066 6 206303885.75906      -445.111 6        36.238
C23        13.000                                                                                                                                    24953928.253 7 129941686.51007      1872.577 7        44.324                                                                    24953920.970 7 105588252.66607      1521.836 7        44.966
S36        14.000    38247530.051 7 200992635.99707      -464.370 7        44.209
C13        15.000                                                                                                                                    37766163.135 7 196658377.45307       -73.413 7        44.856    37766164.928 7 152068765.04807       -56.795 7        45.464    37766163.391 7 159801062.39707       -59.471 7        43.645
G18        16.000    20597477.550 8 108240703.94408       123.884 8        49.875                                    20597473.663 7  84343502.69707        96.532 7        43.283    20597473.957 8  84343510.69708        96.584 8        49.189
R10        17.000    22050133.740 6 117539642.33906      3120.608 6        41.805
R01        18.000    24192858.801 6 129324687.24506     -2549.399 6        37.550                                                                    24192860.048 5 100585742.79705     -1982.687 5        33.838
E02        19.000    23230469.521 8 122077128.51608      -761.676 8        48.622                                                                    23230468.796 8  91161601.42108      -568.840 8        51.047    23230468.171 8  93539715.26908      -583.669 8        51.372
E10        21.000    27975811.135 6 147014103.58606     -3365.143 6        38.697                                                                    27975811.267 6 109783394.42906     -2513.107 6        41.032    27975811.064 6 112647293.88006     -2578.486 6        41.602
I06        22.000    38762104.521 6 152111032.06806      -345.327 6        41.883
S28        23.000    40953327.258 5 215211160.92305      -461.249 5        34.433
E29        24.000    28892634.565 5 151831843.34705     -1211.927 5        34.705                                                                    28892634.456 6 113380924.99206      -905.365 6        37.036    28892634.322 6 116338688.39806      -928.825 6        38.967
S23        25.000    38201110.016 7 200748112.45207      -467.788 7        44.989
S45        26.000    63458604.602 6 333477310.93216      -523.356 6        36.972
R09        27.000    19472953.379 8 103984690.36508       142.219 8        52.128                                                                    19472952.589 8  80877092.71508       110.642 8        49.186
R18        28.000    20412320.311 8 108962647.71608     -3167.521 8        49.548                                                                    20412321.114 7  84748877.66007     -2463.571 7        46.763
C38        29.000                                                                                                                                    38699049.888 7 201516225.04707      -832.380 7        43.996                                                                    38699047.860 7 163748483.90507      -676.156 7        44.060
C44        30.000                                                                                                                                    22525920.409 8 117298601.50208     -2413.644 8        48.802                                                                    22525919.109 8  95314807.11208     -1961.000 8        48.556
C43        31.000                                                                                                                                    24834080.282 7 129317639.04707      2266.729 7        43.790                                                                    24834081.123 7 105081208.45907      1842.067 7        43.329
R02        32.000    23319487.364 7 124437267.04807       589.305 7        43.581                                                                    23319488.212 6  96784546.90306       458.423 6        39.234
I02        33.000    38623833.731 6 151568269.51206      -905.070 6        41.080
R03        34.000    24121438.741 6 129123968.92806      2957.552 6        41.018                                                                    24121440.013 6 100429749.17906      2300.329 6        38.300
E34        35.000    25667653.760 7 134884613.78407      2203.535 7        44.497                                                                    25667655.623 7 100725626.97707      1645.471 7        46.604    25667655.215 7 103353241.63907      1688.468 7        47.523
G29        36.000    21835707.106 7 114747712.60807     -2712.315 7        46.614                                    21835702.940 7  89413912.41407     -2113.496 7        45.243    21835703.654 7  89413922.41907     -2113.436 7        42.430
G31        37.000    22873566.322 7 120201625.13307     -3078.226 7        45.395                                    22873563.117 6  93663701.20206     -2398.619 6        41.650    22873562.909 6  93663707.20206     -2398.493 6        41.046
C22        38.000                                                                                                                                    25690752.721 6 133778498.83806      1650.683 6        41.945                                                                    25690747.544 7 108705968.39907      1341.609 7        42.233
E25        39.000    25743219.579 7 135281745.29007     -3018.911 7        43.162                                                                    25743221.113 7 101022212.05507     -2254.404 7        46.689    25743219.830 7 103657558.42307     -2313.286 7        46.524
C12        40.000                                                                                                                                    21801890.565 8 113528374.99308     -1216.195 8        48.598    21801887.050 8  87787438.17408      -940.415 8        52.175    21801886.398 8  92251177.72608      -987.993 8        49.707
S44        42.000    40569925.479 6 213196553.66606      -406.384 6        38.291
G28        43.000    24080522.632 6 126544173.03006     -3868.696 6        40.412                                    24080521.380 4  98605934.99204     -3014.559 4        25.429    24080522.378 6  98605934.96906     -3014.510 6        40.241
C05        44.000                                                                                                                                    39389858.368 6 205113349.88506      -397.525 6        38.042    39389853.684 7 158606673.65007      -307.482 7        42.383    39389855.078 6 166671498.81106      -323.038 6        39.363
C11        45.000                                                                                                                                    22984566.950 7 119686796.53907      1565.231 7        47.633    22984563.646 8  92549480.38308      1210.384 8        50.929    22984561.883 8  97255363.15908      1272.108 8        48.134
R16        46.000    20854006.366 8 111398557.51008     -4036.069 8        50.594                                                                    20854006.510 7  86643436.10207     -3139.125 7        46.226
R17        47.000    24310402.203 6 130090118.21106     -4347.426 6        40.768                                                                    24310402.045 6 101181337.55006     -3381.215 6        37.456
C35        48.000                                                                                                                                    26604200.698 6 138535224.25106     -3435.371 6        39.886                                                                    26604200.424 6 112571282.91006     -2791.396 6        39.147
C24        49.000                                                                                                                                    23956514.072 7 124747926.53707     -3607.623 7        46.605                                                                    23956511.816 7 101367930.67407     -2931.242 7        46.062
R19        50.000    19372889.826 7 103632159.59407      -262.823 7        42.277                                                                    19372888.917 7  80602903.86607      -204.326 7        45.619
S48        51.000    77203354.427 6 405706814.46106      -502.639 6        38.243
C08        52.000                                                                                                                                    37760570.201 7 196629298.14007      -314.151 7        42.713    37760564.000 7 152046275.11307      -242.850 7        45.222    37760563.188 7 159777428.88107      -255.045 7        42.910
C34        53.000                                                                                                                                    21635566.048 8 112662347.57508       453.885 8        51.111                                                                    21635565.942 8  91547501.77908       369.030 8        49.528
C60        54.000                                                                                                                                    40569922.312 6 211258422.47006      -402.521 6        39.123                                                                    40569908.746 6 171664739.14406      -327.029 6        40.975
C25        55.000                                                                                                                                    22262808.241 8 115928530.30808     -1040.281 8        50.243                                                                    22262806.668 8  94201520.01508      -845.076 8        49.193
C02        57.000                                                                                                                                    40744625.381 5 212167990.21105      -372.264 5        33.677    40744621.175 6 164061737.87706      -287.983 6        39.417    40744623.272 5 172403871.07505      -302.398 5        35.233
I03        58.000    84492764.754 6 255782490.31306      1107.360 6        40.706
E30        59.000    25702562.903 7 135068083.47207      1770.349 7        43.994                                                                    25702563.562 7 100862645.23207      1322.049 7        46.772    25702563.176 7 103493828.47407      1356.561 7        47.959
R20        60.000    22952525.018 6 122737613.64406      3152.177 6        37.255                                                                    22952528.837 6  95462643.96806      2451.671 6        40.834
> 2025 01 02 17 30 35.0000000  0 56
G23         1.000    23922546.677 6 125713876.26606      3041.755 6        41.235                                    23922543.633 4  97958879.37704      2370.196 4        26.826    23922544.676 6  97958877.39406      2370.143 6        40.932
E11         2.000    25391676.211 6 133434355.08806     -2702.769 6        41.395                                                                    25391672.933 7  99642662.31607     -2018.335 7        42.754    25391672.342 7 102242022.40907     -2071.042 7        43.295
G16         3.000    21887172.465 7 115018061.66707      2218.261 7        45.433                                    21887168.867 5  89624545.02805      1728.517 5        32.479
G05         4.000    23102181.488 7 121402878.38407     -1633.810 7        42.425                                    23102177.742 6  94599669.46506     -1273.103 6        38.814    23102178.452 6  94599668.46806     -1273.145 6        39.489
S21         5.000    38477185.185 7 202198644.14307      -464.984 7        42.555
G26         6.000    20596761.569 8 108236946.69108       155.298 8        50.062                                    20596760.774 8  84340609.19208       121.013 8        51.477    20596760.975 7  84340596.19107       121.014 7        46.002
G25         7.000    24310423.046 6 127752306.12206     -4246.228 6        38.228                                    24310423.376 5  99547336.11905     -3308.748 5        33.419    24310424.661 6  99547337.11506     -3308.690 6        37.490
E36         9.000    23440887.841 8 123182886.44208      -183.752 8        48.581                                                                    23440888.397 8  91987363.31608      -137.203 8        50.646    23440887.947 8  94387021.01008      -140.805 8        51.163
G27        10.000    24315258.361 6 127777628.76306      2880.319 6        38.883                                    24315260.392 5  99567036.68705      2244.400 5        31.034    24315262.201 5  99567038.71905      2244.105 5        35.014
G20        11.000    25273669.626 5 132814143.85405     -3351.415 5        35.414                                    25273666.060 2 103491601.63102     -2611.504 2        14.619
S27        12.000    39258726.791 6 206306110.43706      -445.152 6        36.280
C23        13.000                                                                                                                                    24952131.307 7 129932327.63707      1870.897 7        44.123                                                                    24952123.635 7 105580647.82107      1520.249 7        44.889
S36        14.000    38247971.494 7 200994957.01707      -464.104 7        44.156
C13        15.000                                                                                                                                    37766234.361 7 196658746.75707       -74.364 7        45.007    37766235.866 7 152069050.61107       -57.548 7        45.466    37766234.264 7 159801362.47707       -60.357 7        43.500
G18        16.000    20597360.758 8 108240091.08408       121.160 8        49.915                                    20597357.034 7  84343025.14507        94.411 7        43.316    20597357.448 8  84343033.14708        94.367 8        49.317
R10        17.000    22047208.267 6 117524044.51006      3118.546 6        41.957
R01        18.000    24195243.958 6 129337441.63006     -2552.648 6        37.164                                                                    24195246.216 5 100595662.88405     -1985.255 5        34.724
E02        19.000    23231195.082 8 122080941.33808      -763.485 8        48.567                                                                    23231194.335 8  91164448.65908      -570.162 8        50.855    23231193.752 8  93542636.78208      -585.025 8        51.340
E10        21.000    27979012.869 6 147030929.72906     -3365.376 6        38.913                                                                    27979013.087 6 109795959.36706     -2513.139 6        40.584    27979012.774 6 112660186.61706     -2578.719 6        41.213
I06        22.000    38762544.079 6 152112757.45106      -345.018 6        41.950
S28        23.000    40953760.232 5 215213465.76405      -460.933 5        34.357
E29        24.000    28893788.822 5 151837908.70305     -1213.981 5        35.124                                                                    28893788.361 6 113385454.35106      -906.517 6        37.130    28893788.631 6 116343335.92806      -930.245 6        40.117
S23        25.000    38201553.794 7 200750450.73707      -467.707 7        45.008
S45        26.000    63459050.463 6 333479925.61406      -522.995 6        36.919
R09        27.000    19472822.395 8 103983989.44308       138.024 8        52.149                                                                    19472821.070 8  80876547.56508       107.312 8        48.976
R18        28.000    20415288.148 8 108978488.81208     -3169.115 8        49.943                                                                    20415289.017 7  84761198.51207     -2464.824 7        47.288
C38        29.000                                                                                                                                    38699849.487 7 201520388.60207      -833.163 7        43.941                                                                    38699847.484 7 163751867.13207      -676.893 7        44.033
C44        30.000                                                                                                                                    22528238.314 8 117310671.54008     -2414.573 8        48.576                                                                    22528237.050 8  95324615.00408     -1961.990 8        48.357
C43        31.000                                                                                                                                    24831903.840 7 129306306.93607      2265.998 7        43.346                                                                    24831904.965 7 105072000.19607      1841.422 7        43.211
R02        32.000    23318936.941 7 124434330.03807       585.453 7        43.968                                                                    23318937.963 6  96782262.55306       455.410 6        39.553
I02        33.000    38624986.382 6 151572794.29706      -905.030 6        40.901
R03        34.000    24118677.240 6 129109183.10906      2956.490 6        41.487                                                                    24118677.464 6 100418249.10206      2299.310 6        38.027
E34        35.000    25665557.541 7 134873597.99207      2202.558 7        44.557                                                                    25665559.369 7 100717400.91507      1644.674 7        46.466    25665558.950 7 103344800.98307      1687.678 7        47.573
G29        36.000    21838288.049 7 114761276.44707     -2713.374 7        46.491                                    21838284.068 7  89424481.63907     -2114.315 7        45.353    21838284.626 7  89424491.63907     -2114.294 7        42.199
G31        37.000    22876496.152 7 120217020.54307     -3080.095 7        45.135                                    22876492.790 6  93675697.62806     -2400.075 6        41.676    22876492.696 6  93675703.64106     -2400.049 6        40.920
C22        38.000                                                                                                                                    25689168.523 6 133770249.10206      1649.067 6        41.886                                                                    25689163.146 6 108699264.82906      1340.073 6        41.940
E25        39.000    25746092.468 7 135296842.15807     -3019.910 7        43.075                                                                    25746094.119 7 101033485.68607     -2255.084 7        46.748    25746092.952 7 103669126.14807     -2313.944 7        46.379
C12        40.000                                                                                                                                    21803059.121 8 113534459.23308     -1217.704 8        48.625    21803055.618 8  87792142.89208      -941.562 8        52.213    21803054.806 8  92256121.66608      -989.430 8        49.564
S44        42.000    40570314.170 6 213198584.26406      -406.077 6        37.819
G28        43.000    24084203.744 6 126563517.77706     -3869.367 6        40.734                                    24084202.665 4  98621008.79704     -3015.087 4        25.789    24084203.185 6  98621008.79506     -3015.019 6        40.138
C05        44.000                                                                                                                                    39390239.824 6 205115337.60306      -397.466 6        38.069    39390235.439 7 158608210.68107      -307.384 7        42.315    39390236.959 6 166673113.98606      -323.074 6        39.300
C11        45.000                                                                                                                                    22983063.472 7 119678972.91607      1564.117 7        47.425    22983061.166 8  92543430.67208      1209.412 8        50.760    22983059.417 7  97249005.83207      1270.936 7        47.860
R16        46.000    20857786.053 8 111418743.89708     -4038.630 8        51.544                                                                    20857785.724 7  86659136.62407     -3141.136 7        46.319
R17        47.000    24314463.052 6 130111853.34606     -4346.835 6        39.952                                                                    24314463.254 6 101198242.67806     -3381.053 6        37.221
C35        48.000                                                                                                                                    26607499.262 6 138552400.23206     -3435.192 6        39.099                                                                    26607498.952 6 112585239.78606     -2791.298 6        38.901
C24        49.000                                                                                                                                    23959978.714 7 124765966.52007     -3608.488 7        46.844                                                                    23959976.536 7 101382589.63807     -2932.243 7        46.337
R19        50.000    19373136.370 7 103633480.81607      -265.877 7        42.110                                                                    19373136.064 7  80603931.48307      -206.801 7        45.335
S48        51.000    77203803.078 6 405709326.52606      -502.474 6        38.153
C08        52.000                                                                                                                                    37760872.682 7 196630870.87907      -315.095 7        42.641    37760866.055 7 152047491.25707      -243.616 7        45.141    37760865.130 7 159778706.85407      -256.018 7        42.730
C34        53.000                                                                                                                                    21635130.948 8 112660081.81608       452.348 8        51.084                                                                    21635130.785 8  91545660.66508       367.572 8        49.368
C60        54.000                                                                                                                                    40570308.888 6 211260434.60906      -402.419 6        39.300                                                                    40570295.193 6 171666374.15406      -326.924 6        40.968
C25        55.000                                                                                                                                    22263808.236 8 115933737.86908     -1042.896 8        50.344                                                                    22263806.699 8  94205751.58608      -847.410 8        49.059
C02        57.000                                                                                                                                    40744982.409 5 212169851.29905      -372.260 5        34.210    40744978.364 6 164063176.99506      -287.960 6        39.477    40744980.622 5 172405383.35005      -302.410 5        34.867
I03        58.000    84491353.258 6 255776952.13606      1107.678 6        40.722
E30        59.000    25700878.648 7 135059233.25207      1769.623 7        44.128                                                                    25700879.410 7 100856036.31007      1321.447 7        46.540    25700879.006 7 103487047.14407      1355.892 7        47.863
R20        60.000    22949577.430 6 122721854.92606      3151.251 6        36.045                                                                    22949581.476 6  95450387.23406      2450.835 6        40.574
> 2025 01 02 17 30 40.0000000  0 56
G23         1.000    23919652.450 6 125698669.39906      3040.954 6        41.256                                    23919649.996 4  97947029.89704      2369.562 4        26.946    23919650.778 6  97947027.89506      2369.606 6        41.206
E11         2.000    25394248.460 6 133447871.89306     -2704.090 6        41.395                                                                    25394244.997 7  99652756.04707     -2019.433 7        42.944    25394244.504 7 102252379.44907     -2071.968 7        43.268
G16         3.000    21885062.776 7 115006975.62307      2216.140 7        45.518                                    21885059.272 5  89615906.56005      1726.855 5        32.311
G05         4.000    23103737.456 7 121411055.83607     -1637.275 7        42.781                                    23103733.881 6  94606041.50606     -1275.799 6        38.613    23103733.986 6  94606040.49506     -1275.735 6        39.769
S21         5.000    38477625.792 7 202200969.24307      -465.027 7        42.567
G26         6.000    20596614.953 8 108236177.70808       152.177 8        50.174                                    20596614.436 8  84340009.98708       118.578 8        51.257    20596614.540 7  84339996.99207       118.534 7        45.893
G25         7.000    24314463.897 6 127773538.66606     -4247.049 6        38.306                                    24314463.845 5  99563880.95305     -3309.385 5        33.048    24314465.328 6  99563881.95306     -3309.347 6        37.448
E36         9.000    23441063.719 8 123183810.65008      -186.065 8        48.668                                                                    23441064.254 8  91988053.47308      -138.931 8        50.763    23441063.829 8  94387729.16908      -142.546 8        51.044
G27        10.000    24312518.104 6 127763229.11606      2879.661 6        38.646                                    24312520.312 5  99555816.23205      2243.874 5        30.785    24312521.356 5  99555818.26105      2243.952 5        35.486
G20        11.000    25276858.443 5 132830905.03705     -3353.059 5        35.395                                    25276855.619 2 103504662.25602     -2612.778 2        14.333
S27        12.000    39259150.544 6 206308335.04206      -445.035 6        36.503
C23        13.000                                                                                                                                    24950335.648 7 129922978.21207      1868.841 7        44.053                                                                    24950328.121 7 105573050.66107      1518.483 7        44.885
S36        14.000    38248413.661 7 200997278.34607      -464.495 7        44.194
C13        15.000                                                                                                                                    37766306.737 7 196659121.18607       -75.573 7        44.933    37766307.997 7 152069340.14007       -58.369 7        45.443    37766306.085 7 159801666.72407       -61.401 7        43.642
G18        16.000    20597246.813 8 108239492.87408       118.041 8        49.839                                    20597243.191 7  84342559.01307        91.982 7        43.145    20597243.418 8  84342567.01408        91.990 8        49.053
R10        17.000    22044284.012 7 117508457.47207      3116.169 7        42.457
R01        18.000    24197632.341 6 129350213.48306     -2556.450 6        36.023                                                                    24197633.859 5 100605596.53205     -1988.168 5        34.681
E02        19.000    23231922.506 8 122084763.75908      -765.608 8        48.587                                                                    23231921.703 8  91167303.06708      -571.724 8        51.031    23231921.145 8  93545565.65108      -586.634 8        51.197
E10        21.000    27982215.513 6 147047757.55206     -3365.762 6        39.135                                                                    27982215.268 6 109808525.62106     -2513.412 6        40.753    27982215.098 6 112673080.68806     -2579.262 6        41.209
I06        22.000    38762984.172 6 152114482.69006      -345.219 6        41.702
S28        23.000    40954202.672 5 215215770.70105      -460.986 5        34.448
E29        24.000    28894945.253 5 151843984.89305     -1216.415 5        35.781                                                                    28894944.578 6 113389991.73706      -908.268 6        36.945    28894945.047 6 116347991.67006      -932.056 6        39.372
S23        25.000    38201998.447 7 200752789.14407      -467.818 7        45.019
S45        26.000    63459495.081 6 333482540.36506      -522.925 6        37.089
R09        27.000    19472695.132 8 103983310.42608       133.445 8        51.875                                                                    19472694.422 8  80876019.44108       103.786 8        49.309
R18        28.000    20418257.422 8 108994338.73908     -3170.997 8        49.766                                                                    20418257.868 7  84773526.23507     -2466.348 7        47.175
C38        29.000                                                                                                                                    38700649.952 7 201524556.71607      -834.202 7        43.894                                                                    38700647.925 7 163755254.07007      -677.951 7        44.012
C44        30.000                                                                                                                                    22530557.286 8 117322747.28508     -2415.823 8        48.705                                                                    22530556.034 8  95334427.53508     -1963.108 8        48.398
C43        31.000                                                                                                                                    24829728.888 7 129294978.79407      2265.123 7        43.424                                                                    24829729.435 7 105062795.17307      1840.599 7        43.230
R02        32.000    23318390.464 7 124431412.89207       581.284 7        44.197                                                                    23318391.518 6  96779993.65206       451.895 6        39.129
I02        33.000    38626139.697 6 151577319.76506      -905.320 6        40.803
R03        34.000    24115916.774 6 129094404.66206      2954.865 6        41.085                                                                    24115917.583 6 100406754.75906      2298.188 6        38.655
E34        35.000    25663462.463 7 134862588.14807      2201.248 7        44.477                                                                    25663464.224 7 100709179.30207      1643.770 7        46.636    25663463.828 7 103336364.89307      1686.646 7        47.472
G29        36.000    21840870.435 7 114774846.73207     -2714.789 7        46.320                                    21840866.430 7  89435055.88907     -2115.421 7        45.070    21840866.992 7  89435065.88807     -2115.465 7        42.135
G31        37.000    22879427.209 7 120232426.25807     -3082.306 7        45.135                                    22879424.395 6  93687702.07506     -2401.799 6        41.490    22879424.765 6  93687708.08306     -2401.915 6        41.254
C22        38.000                                                                                                                                    25687585.514 6 133762008.18706      1647.096 6        41.609                                                                    25687580.642 7 108692568.41207      1338.371 7        42.154
E25        39.000    25748966.555 7 135311944.38007     -3021.131 7        43.101                                                                    25748967.939 7 101044763.32207     -2256.057 7        46.876    25748967.290 7 103680697.98007     -2314.887 7        46.434
C12        40.000                                                                                                                                    21804229.504 8 113540551.85908     -1219.553 8        48.507    21804225.656 8  87796854.10208      -943.034 8        52.163    21804224.870 8  92261072.41608      -991.024 8        49.595
S44        42.000    40570699.325 6 213200615.05706      -406.339 6        38.093
G28        43.000    24087886.095 6 126582866.03706     -3870.016 6        41.309                                    24087884.649 4  98636085.35704     -3015.597 4        25.940    24087884.891 6  98636085.35106     -3015.666 6        40.443
C05        44.000                                                                                                                                    39390621.996 6 205117325.38906      -397.615 6        38.060    39390617.016 7 158609747.77907      -307.444 7        42.398    39390618.635 6 166674729.23606      -323.351 6        39.429
C11        45.000                                                                                                                                    22981562.667 7 119671156.26107      1562.537 7        47.549    22981559.902 8  92537386.34508      1208.225 8        50.755    22981558.352 7  97242654.15607      1269.692 7        47.978
R16        46.000    20861567.383 8 111438943.88208     -4041.464 8        51.126                                                                    20861567.451 7  86674847.72507     -3143.373 7        46.265
R17        47.000    24318523.707 6 130133586.83906     -4346.606 6        39.426                                                                    24318524.104 6 101215146.47406     -3380.589 6        36.949
C35        48.000                                                                                                                                    26610797.744 6 138569575.80306     -3435.184 6        38.868                                                                    26610797.382 6 112599196.34106     -2791.428 6        39.243
C24        49.000                                                                                                                                    23963444.170 7 124784012.18007     -3609.819 7        46.334                                                                    23963442.296 7 101397253.20207     -2933.352 7        46.500
R19        50.000    19373386.441 7 103634817.97107      -269.167 7        42.402                                                                    19373386.167 7  80604971.50807      -209.341 7        45.699
S48        51.000    77204255.244 6 405711838.68506      -502.487 6        38.195
C08        52.000                                                                                                                                    37761175.340 7 196632449.10207      -316.393 7        42.753    37761168.917 7 152048711.64007      -244.561 7        45.040    37761168.232 7 159779989.29907      -257.049 7        42.798
C34        53.000                                                                                                                                    21634697.611 8 112657824.75808       450.375 8        50.927                                                                    21634697.416 8  91543826.61908       365.937 8        49.449
C60        54.000                                                                                                                                    40570695.495 6 211262446.94606      -402.594 6        39.231                                                                    40570681.599 6 171668009.34806      -327.198 6        40.903
C25        55.000                                                                                                                                    22264811.259 8 115938959.49408     -1045.871 8        50.376                                                                    22264809.417 8  94209994.58908      -849.899 8        49.174
C02        57.000                                                                                                                                    40745340.223 5 212171712.44205      -372.198 5        33.533    40745336.026 6 164064616.17406      -287.836 6        39.450    40745338.141 5 172406895.72005      -302.795 5        35.043
I03        58.000    84489942.243 6 255771414.00606      1107.355 6        40.458
E30        59.000    25699195.485 7 135050387.93007      1768.468 7        44.047                                                                    25699196.248 7 100849431.04807      1320.572 7        46.626    25699195.816 7 103480269.57207      1354.978 7        47.714
R20        60.000    22946630.443 6 122706103.04106      3149.510 6        36.964                                                                    22946636.307 6  95438135.81406      2449.514 6        40.231
> 2025 01 02 17 30 45.0000000  0 56
G23         1.000    23916758.960 6 125683465.46206      3040.655 6        40.861                                    23916756.857 4  97935182.70204      2369.326 4        27.126    23916757.249 6  97935180.71306      2369.317 6        41.173
E11         2.000    25396821.604 6 133461394.71606     -2705.110 6        41.170                                                                    25396818.284 7  99662854.23307     -2019.928 7        42.963    25396817.890 7 102262741.08107     -2072.747 7        43.035
G16         3.000    21882955.304 7 114995899.30407      2214.455 7        45.704                                    21882951.452 5  89607275.67805      1725.550 5        32.449
G05         4.000    23105296.862 7 121419250.17007     -1640.440 7        43.424                                    23105293.278 6  94612426.70506     -1278.264 6        38.781    23105293.742 6  94612425.69306     -1278.173 6        39.580
S21         5.000    38478069.963 7 202203294.42007      -464.991 7        42.766
G26         6.000    20596471.707 8 108235423.71608       149.498 8        50.142                                    20596470.951 8  84339422.46208       116.492 8        51.399    20596471.241 7  84339409.46507       116.446 7        45.959
G25         7.000    24318504.354 6 127794773.81306     -4247.039 6        38.231                                    24318504.747 5  99580427.81405     -3309.379 5        32.958    24318505.743 6  99580428.83606     -3309.497 6        37.119
E36         9.000    23441241.615 8 123184745.59008      -187.899 8        48.759                                                                    23441242.211 8  91988751.64608      -140.365 8        50.748    23441241.739 8  94388445.55308      -143.977 8        50.989
G27        10.000    24309778.738 6 127748831.80606      2879.551 6        38.423                                    24309780.660 5  99544597.58805      2243.792 5        31.019    24309780.888 5  99544599.64905      2243.417 5        35.109
G20        11.000    25280049.749 5 132847674.76305     -3354.534 5        35.305                                    25280046.667 2 103517729.53902     -2613.953 2        14.619
S27        12.000    39259570.769 6 206310559.66206      -445.043 6        36.299
C23        13.000                                                                                                                                    24948542.189 7 129913638.24107      1867.166 7        44.403                                                                    24948534.527 7 105565461.15907      1517.135 7        44.892
S36        14.000    38248856.379 7 200999600.01707      -464.245 7        44.439
C13        15.000                                                                                                                                    37766380.106 7 196659500.77207       -76.317 7        45.163    37766380.865 7 152069633.67107       -59.016 7        45.312    37766379.036 7 159801975.17107       -62.166 7        43.439
G18        16.000    20597135.779 8 108238909.32808       115.404 8        49.817                                    20597132.161 7  84342104.30407        89.924 7        43.354    20597132.456 8  84342112.30508        89.886 8        49.044
R10        17.000    22041361.919 7 117492881.50107      3114.193 7        42.095
R01        18.000    24200024.654 6 129363002.73906     -2559.363 6        36.953                                                                    24200025.996 5 100615543.67705     -1990.664 5        34.733
E02        19.000    23232651.645 8 122088595.80308      -767.218 8        48.617                                                                    23232650.910 8  91170164.65408      -572.887 8        50.985    23232650.355 8  93548501.89108      -587.855 8        51.220
E10        21.000    27985417.699 6 147064587.05406     -3365.806 6        39.123                                                                    27985417.695 6 109821093.11306     -2513.493 6        40.520    27985417.730 6 112685976.02006     -2579.023 6        41.104
I06        22.000    38763423.672 6 152116207.80506      -344.996 6        41.850
S28        23.000    40954643.320 5 215218075.93805      -460.985 5        34.257
E29        24.000    28896103.510 5 151850072.02505     -1218.431 5        35.967                                                                    28896103.230 6 113394537.22106      -909.683 6        37.641    28896102.682 6 116352655.76006      -933.609 6        39.180
S23        25.000    38202444.590 7 200755127.55907      -467.479 7        45.153
S45        26.000    63459940.195 6 333485155.23706      -522.790 6        37.270
R09        27.000    19472572.176 8 103982653.38108       129.386 8        52.054                                                                    19472571.407 8  80875508.39708       100.681 8        48.814
R18        28.000    20421228.279 8 109010197.47808     -3172.493 8        50.214                                                                    20421228.873 7  84785860.80507     -2467.531 7        47.207
C38        29.000                                                                                                                                    38701451.137 7 201528729.42907      -834.891 7        44.083                                                                    38701449.276 7 163758644.73207      -678.500 7        43.954
C44        30.000                                                                                                                                    22532877.622 8 117334828.76208     -2416.668 8        49.009                                                                    22532876.196 8  95344244.72008     -1963.795 8        48.311
C43        31.000                                                                                                                                    24827554.640 7 129283654.66507      2264.611 7        43.503                                                                    24827554.727 7 105053593.39807      1840.175 7        43.154
R02        32.000    23317847.377 7 124428515.91007       577.566 7        43.714                                                                    23317848.424 6  96777740.45106       449.233 6        39.279
I02        33.000    38627293.240 6 151581845.99906      -905.096 6        40.775
R03        34.000    24113156.890 6 129079633.47906      2953.696 6        41.175                                                                    24113157.890 6 100395266.06506      2297.222 6        38.613
E34        35.000    25661368.383 7 134851584.28907      2200.313 7        44.448                                                                    25661370.175 7 100700962.14907      1643.096 7        46.553    25661369.896 7 103327933.38007      1685.956 7        47.478
G29        36.000    21843454.104 7 114788423.47407     -2715.853 7        46.074                                    21843450.026 7  89445635.16507     -2116.246 7        45.144    21843450.597 7  89445645.15507     -2116.257 7        42.123
G31        37.000    22882360.917 7 120247842.27507     -3084.078 7        44.629                                    22882357.972 6  93699714.55406     -2403.177 6        41.630    22882358.540 6  93699720.55806     -2403.215 6        41.089
C22        38.000                                                                                                                                    25686004.200 6 133753776.11806      1645.624 6        41.278                                                                    25686000.074 7 108685879.17107      1337.303 7        42.229
E25        39.000    25751841.539 7 135327051.96007     -3021.842 7        43.335                                                                    25751842.719 7 101056044.95707     -2256.602 7        46.875    25751842.513 7 103692273.92007     -2315.494 7        46.723
C12        40.000                                                                                                                                    21805401.020 8 113546652.86408     -1220.850 8        48.556    21805396.880 8  87801571.78308      -944.064 8        52.062    21805396.488 8  92266029.97908      -992.169 8        49.470
S44        42.000    40571084.801 6 213202646.08006      -406.150 6        38.147
G28        43.000    24091568.428 6 126602217.82806     -3870.646 6        41.433                                    24091567.414 4  98651164.65904     -3016.080 4        26.323    24091567.691 6  98651164.66006     -3016.128 6        40.017
C05        44.000                                                                                                                                    39391003.680 6 205119313.25706      -397.412 6        38.147    39390998.888 7 158611284.91907      -307.343 7        42.438    39391000.310 6 166676344.51906      -323.099 6        39.279
C11        45.000                                                                                                                                    22980063.051 7 119663346.60307      1561.395 7        47.357    22980060.311 8  92531347.42808      1207.345 8        50.625    22980058.564 7  97236308.16907      1268.788 7        47.916
R16        46.000    20865350.801 8 111459157.41808     -4043.926 8        51.059                                                                    20865351.452 7  86690569.36507     -3145.254 7        46.256
R17        47.000    24322586.809 6 130155318.60606     -4346.035 6        40.484                                                                    24322585.543 6 101232048.95506     -3380.239 6        36.242
C35        48.000                                                                                                                                    26614096.249 6 138586750.94606     -3434.468 6        38.820                                                                    26614095.550 6 112613152.55806     -2791.153 6        39.138
C24        49.000                                                                                                                                    23966910.569 7 124802063.52007     -3610.690 7        46.477                                                                    23966908.742 7 101411921.38107     -2934.040 7        46.316
R19        50.000    19373639.764 7 103636171.02307      -272.076 7        42.499                                                                    19373638.952 7  80606023.86807      -211.655 7        45.962
S48        51.000    77204707.410 6 405714350.95106      -502.352 6        38.444
C08        52.000                                                                                                                                    37761479.475 7 196634032.86507      -317.172 7        42.806    37761473.006 7 152049936.30107      -245.238 7        45.070    37761472.420 7 159781276.22507      -257.899 7        42.798
C34        53.000                                                                                                                                    21634265.849 8 112655576.41108       448.948 8        51.097                                                                    21634265.646 8  91541999.64708       364.727 8        49.327
C60        54.000                                                                                                                                    40571081.946 6 211264459.49306      -402.405 6        39.150                                                                    40571068.202 6 171669644.70506      -327.036 6        40.744
C25        55.000                                                                                                                                    22265816.726 8 115944195.21308     -1048.330 8        50.452                                                                    22265814.947 8  94214249.03208      -851.887 8        49.049
C02        57.000                                                                                                                                    40745697.461 5 212173573.77005      -371.811 5        33.689    40745693.483 6 164066055.45006      -287.655 6        39.204    40745695.607 5 172408408.18505      -302.524 5        34.981
I03        58.000    84488530.556 6 255765875.96506      1107.792 6        40.448
E30        59.000    25697513.151 7 135041547.55007      1767.806 7        44.056                                                                    25697513.965 7 100842829.48307      1320.038 7        46.738    25697513.562 7 103473495.78907      1354.466 7        47.682
R20        60.000    22943687.035 6 122690358.00306      3148.510 6        37.146                                                                    22943691.880 6  95425889.72706      2448.885 6        40.710
> 2025 01 02 17 30 50.0000000  0 56
G23         1.000    23913865.883 6 125668264.29706      3039.883 6        40.925                                    23913864.455 4  97923337.66604      2368.731 4        26.766    23913864.737 6  97923335.67706      2368.607 6        41.278
E11         2.000    25399395.806 6 133474923.31406     -2706.466 6        41.213                                                                    25399392.641 7  99672956.76807     -2021.081 7        43.058    25399392.278 7 102273107.14307     -2073.766 7        43.213
G16         3.000    21880849.453 7 114984832.50607      2212.300 7        45.755                                    21880845.483 5  89598652.20805      1723.871 5        32.455
G05         4.000    23106859.494 7 121427461.18507     -1644.088 7        43.807                                    23106855.856 6  94618824.90606     -1281.106 6        38.877    23106856.390 6  94618823.90106     -1281.139 6        40.050
S21         5.000    38478512.175 7 202205619.79907      -465.298 7        42.902
G26         6.000    20596331.100 8 108234684.52008       146.165 8        50.367                                    20596330.278 8  84338846.46908       113.894 8        51.370    20596330.537 7  84338833.47707       113.848 7        46.025
G25         7.000    24322545.830 6 127816011.39706     -4247.852 6        38.351                                    24322546.079 5  99596976.57905     -3310.012 5        32.880    24322547.065 6  99596977.57406     -3310.103 6        37.191
E36         9.000    23441421.405 8 123185691.05908      -190.260 8        48.691                                                                    23441422.157 8  91989457.69008      -142.168 8        50.789    23441421.670 8  94389170.01408      -145.851 8        51.038
G27        10.000    24307039.312 6 127734436.61106      2878.634 6        39.547                                    24307041.353 5  99533380.60005      2243.084 5        31.057    24307042.018 5  99533382.61805      2243.146 5        34.843
G20        11.000    25283242.899 5 132864452.79705     -3356.525 5        35.548                                    25283239.343 2 103530803.31902     -2615.451 2        14.952
S27        12.000    39259996.083 6 206312784.67606      -445.156 6        36.832
C23        13.000                                                                                                                                    24946750.093 7 129904307.54707      1865.010 7        44.430                                                                    24946742.675 7 105557879.21107      1515.438 7        44.950
S36        14.000    38249297.889 7 201001921.67707      -464.364 7        44.432
C13        15.000                                                                                                                                    37766453.674 7 196659885.32607       -77.592 7        45.088    37766454.540 7 152069931.03707       -60.036 7        45.278    37766452.881 7 159802287.65307       -63.113 7        43.488
G18        16.000    20597027.510 8 108238340.25108       112.204 8        50.053                                    20597023.871 7  84341660.87207        87.431 7        43.259    20597024.161 8  84341668.87508        87.388 8        49.101
R10        17.000    22038442.445 7 117477316.28907      3111.759 7        42.821
R01        18.000    24202421.256 6 129375808.98706     -2563.203 6        37.282                                                                    24202423.295 5 100625504.03105     -1993.641 5        33.719
E02        19.000    23233382.772 8 122092437.26708      -769.393 8        48.757                                                                    23233381.907 8  91173033.28808      -574.549 8        51.046    23233381.341 8  93551445.35908      -589.550 8        51.247
E10        21.000    27988620.827 6 147081417.99806     -3366.397 6        39.246                                                                    27988620.620 6 109833661.69206     -2514.003 6        40.582    27988620.629 6 112698872.47306     -2579.567 6        41.132
I06        22.000    38763862.877 6 152117932.64706      -345.164 6        41.683
S28        23.000    40955072.484 5 215220381.03805      -461.262 5        34.310
E29        24.000    28897263.833 6 151856169.89706     -1220.752 6        36.261                                                                    28897263.584 6 113399090.73606      -911.632 6        37.410    28897263.226 6 116357328.05206      -935.341 6        39.366
S23        25.000    38202889.275 7 200757465.94707      -467.710 7        45.254
S45        26.000    63460383.677 6 333487769.87406      -523.119 6        37.032
R09        27.000    19472453.236 8 103982018.03208       124.711 8        51.921                                                                    19472452.048 8  80875014.24808        96.962 8        48.671
R18        28.000    20424200.805 8 109026064.81808     -3174.554 8        49.754                                                                    20424201.181 7  84798202.07507     -2469.117 7        46.816
C38        29.000                                                                                                                                    38702253.364 7 201532906.53707      -836.058 7        44.102                                                                    38702251.409 7 163762038.97607      -679.326 7        43.972
C44        30.000                                                                                                                                    22535198.667 8 117346915.76908     -2418.111 8        48.858                                                                    22535197.306 8  95354066.40108     -1964.950 8        48.433
C43        31.000                                                                                                                                    24825380.612 7 129272334.34207      2263.458 7        43.797                                                                    24825380.783 7 105044394.72407      1839.283 7        43.257
R02        32.000    23317307.751 7 124425638.83407       573.369 7        43.259                                                                    23317308.095 6  96775502.74206       445.816 6        39.814
I02        33.000    38628446.291 6 151586372.38006      -905.482 6        40.632
R03        34.000    24110399.756 6 129064869.53006      2951.900 6        41.645                                                                    24110399.055 6 100383782.99506      2295.937 6        38.709
E34        35.000    25659275.672 7 134840586.21207      2198.938 7        44.543                                                                    25659277.250 7 100692749.32507      1641.962 7        46.532    25659276.854 7 103319506.30407      1684.775 7        47.603
G29        36.000    21846038.639 7 114802006.47807     -2717.355 7        46.351                                    21846034.794 7  89456219.32407     -2117.419 7        45.090    21846035.526 7  89456229.32807     -2117.592 7        42.250
G31        37.000    22885296.558 7 120263268.35107     -3086.417 7        44.838                                    22885293.462 6  93711734.87506     -2405.000 6        41.452    22885294.024 6  93711740.88106     -2405.109 6        41.597
C22        38.000                                                                                                                                    25684424.745 6 133745552.69506      1643.553 6        40.787                                                                    25684421.180 7 108679196.98807      1335.588 7        42.749
E25        39.000    25754717.128 7 135342164.72607     -3023.244 7        43.325                                                                    25754718.502 7 101067330.45907     -2257.602 7        46.905    25754718.466 7 103703853.82807     -2316.489 7        47.027
C12        40.000                                                                                                                                    21806573.782 8 113552762.07408     -1222.819 8        48.524    21806570.080 8  87806295.81808      -945.603 8        52.123    21806569.725 8  92270994.21808      -993.609 8        49.612
S44        42.000    40571472.482 6 213204677.11906      -406.440 6        38.354
G28        43.000    24095251.677 6 126621572.91906     -3871.572 6        41.445                                    24095250.650 4  98666246.53904     -3016.810 4        26.251    24095251.326 6  98666246.53106     -3016.703 6        40.315
C05        44.000                                                                                                                                    39391385.727 6 205121300.95606      -397.555 6        38.120    39391380.515 7 158612821.94907      -307.486 7        42.451    39391382.026 6 166677959.70406      -323.150 6        39.420
C11        45.000                                                                                                                                    22978564.621 7 119655543.74907      1559.698 7        47.530    22978561.691 8  92525313.77808      1206.022 8        50.482    22978560.112 8  97229967.71908      1267.357 8        48.006
R16        46.000    20869137.068 8 111479384.36608     -4046.871 8        50.905                                                                    20869137.702 7  86706301.42707     -3147.535 7        46.139
R17        47.000    24326648.850 6 130177048.58406     -4346.008 6        41.347                                                                    24326647.294 5 101248950.03405     -3380.141 5        35.662
C35        48.000                                                                                                                                    26617394.347 6 138603925.53606     -3434.916 6        38.712                                                                    26617393.789 6 112627108.28306     -2791.192 6        39.456
C24        49.000                                                                                                                                    23970378.349 7 124820120.32007     -3612.017 7        46.542                                                                    23970375.999 7 101426594.01007     -2935.119 7        46.279
R19        50.000    19373895.081 7 103637539.76707      -275.443 7        42.476                                                                    19373894.920 7  80607088.44007      -214.266 7        45.830
S48        51.000    77205156.934 6 405716863.30406      -502.531 6        38.321
C08        52.000                                                                                                                                    37761784.720 7 196635621.99507      -318.467 7        42.650    37761778.145 7 152051165.13707      -246.293 7        45.147    37761777.559 7 159782567.53907      -258.850 7        42.796
C34        53.000                                                                                                                                    21633835.730 8 112653336.58308       447.006 8        51.121                                                                    21633835.462 8  91540179.61308       363.136 8        49.450
C60        54.000                                                                                                                                    40571468.339 6 211266472.08506      -402.819 6        39.529                                                                    40571454.559 6 171671280.10106      -327.328 6        40.992
C25        55.000                                                                                                                                    22266824.663 8 115949444.82408     -1051.512 8        50.389                                                                    22266823.098 8  94218514.76608      -854.436 8        49.156
C02        57.000                                                                                                                                    40746055.111 5 212175435.06005      -372.318 5        33.784    40746050.471 6 164067494.72506      -288.003 6        39.363    40746052.791 5 172409920.61505      -302.429 5        35.271
I03        58.000    84487119.357 6 255760337.84606      1107.459 6        40.427
E30        59.000    25695831.566 7 135032711.93907      1766.455 7        44.140                                                                    25695832.565 7 100836231.46507      1319.092 7        46.695    25695832.156 7 103466725.64807      1353.483 7        47.711
R20        60.000    22940744.708 6 122674619.54106      3146.972 6        38.003                                                                    22940749.368 6  95413648.75806      2447.484 6        40.489
> 2025 01 02 17 30 55.0000000  0 56
G23         1.000    23910973.868 6 125653065.77806      3039.522 6        40.403                                    23910972.276 4  97911494.69704      2368.448 4        26.766    23910972.191 6  97911492.70106      2368.438 6        41.168
E11         2.000    25401971.310 6 133488457.54706     -2707.389 6        41.278                                                                    25401968.177 7  99683063.49807     -2021.750 7        42.789    25401967.785 7 102283477.52907     -2074.445 7        43.170
G16         3.000    21878745.267 7 114973775.09507      2210.498 7        46.029                                    21878741.343 5  89590036.05005      1722.466 5        32.605
G05         4.000    23108424.611 7 121435688.74407     -1647.035 7        43.587                                    23108421.572 6  94625235.99106     -1283.407 6        39.003    23108421.725 6  94625234.99306     -1283.409 6        39.811
S21         5.000    38478954.624 7 202207944.92607      -464.964 7        43.035
G26         6.000    20596193.065 8 108233960.00008       143.458 8        50.170                                    20596192.386 8  84338281.91108       111.784 8        51.504    20596192.350 7  84338268.92007       111.710 7        45.708
G25         7.000    24326587.675 6 127837251.25806     -4248.044 6        38.523                                    24326587.898 5  99613527.11005     -3310.165 5        33.000    24326589.582 6  99613528.12806     -3310.433 6        37.017
E36         9.000    23441603.276 8 123186646.94008      -192.147 8        48.505                                                                    23441603.990 8  91990171.49708      -143.503 8        50.852    23441603.532 8  94389902.44808      -147.272 8        51.028
G27        10.000    24304300.412 6 127720043.35206      2878.561 6        38.559                                    24304302.257 5  99522165.10105      2243.030 5        31.653    24304302.294 5  99522167.09005      2243.118 5        33.545
G20        11.000    25286436.433 5 132881238.87705     -3358.172 5        35.162                                    25286433.602 2 103543883.28702     -2616.735 2        15.619
S27        12.000    39260421.133 6 206315009.19706      -444.720 6        36.726
C23        13.000                                                                                                                                    24944959.840 7 129894986.00307      1863.414 7        44.065                                                                    24944952.628 7 105550304.72807      1514.277 7        44.959
S36        14.000    38249738.903 7 201004242.42707      -463.989 7        44.560
C13        15.000                                                                                                                                    37766527.658 7 196660274.74607       -78.413 7        44.956    37766529.333 7 152070232.16007       -60.634 7        45.291    37766527.635 7 159802604.11807       -63.658 7        43.579
G18        16.000    20596921.908 8 108237785.50508       109.516 8        50.171                                    20596918.323 7  84341228.60207        85.337 7        43.418    20596918.663 8  84341236.60608        85.325 8        49.307
R10        17.000    22035524.974 7 117461761.66807      3109.916 7        42.351
R01        18.000    24204819.829 6 129388632.71806     -2566.443 6        36.964                                                                    24204821.671 5 100635478.09905     -1996.664 5        33.850
E02        19.000    23234115.715 8 122096288.02808      -771.049 8        48.799                                                                    23234114.706 8  91175908.85908      -575.787 8        51.061    23234114.107 8  93554395.94508      -590.816 8        51.193
E10        21.000    27991823.705 6 147098250.27306     -3366.409 6        39.153                                                                    27991823.777 6 109846231.25206     -2514.004 6        40.772    27991823.777 6 112711769.92406     -2579.524 6        41.199
I06        22.000    38764302.496 6 152119657.09406      -344.777 6        41.535
S28        23.000    40955517.736 5 215222685.85205      -460.895 5        34.800
E29        24.000    28898425.641 5 151862278.60905     -1222.940 5        35.295                                                                    28898426.053 6 113403652.42206      -913.126 6        38.093    28898425.939 6 116362008.75106      -936.950 6        40.107
S23        25.000    38203334.725 7 200759804.17107      -467.567 7        45.308
S45        26.000    63460826.694 6 333490384.17606      -522.725 6        37.319
R09        27.000    19472338.489 8 103981404.25308       120.587 8        52.381                                                                    19472337.410 8  80874536.86108        93.809 8        48.746
R18        28.000    20427174.706 8 109041940.57908     -3176.003 8        50.115                                                                    20427175.648 7  84810549.89407     -2470.242 7        47.134
C38        29.000                                                                                                                                    38703056.368 7 201537087.90507      -836.698 7        44.087                                                                    38703054.486 7 163765436.71507      -679.811 7        44.092
C44        30.000                                                                                                                                    22537520.815 8 117359008.15908     -2418.995 8        48.819                                                                    22537519.518 8  95363892.49308     -1965.626 8        48.390
C43        31.000                                                                                                                                    24823207.063 7 129261017.69307      2263.025 7        43.687                                                                    24823207.460 7 105035199.08907      1838.865 7        43.249
R02        32.000    23316772.336 7 124422781.41107       569.474 7        43.166                                                                    23316773.824 6  96773280.29906       442.963 6        39.556
I02        33.000    38629599.779 6 151590899.36306      -905.397 6        40.515
R03        34.000    24107643.190 6 129050112.63806      2950.620 6        41.948                                                                    24107642.800 6 100372305.44006      2294.852 6        39.309
E34        35.000    25657183.559 7 134829593.79607      2197.948 7        44.453                                                                    25657185.455 7 100684540.71807      1641.362 7        46.559    25657185.094 7 103311083.55807      1684.129 7        47.607
G29        36.000    21848624.913 7 114815595.60907     -2718.407 7        46.924                                    21848620.733 7  89466808.25807     -2118.238 7        45.216    21848621.463 7  89466818.26407     -2118.280 7        42.229
G31        37.000    22888234.556 7 120278704.33507     -3088.093 7        45.205                                    22888230.844 6  93723762.91206     -2406.307 6        41.611    22888230.955 6  93723768.91406     -2406.318 6        41.399
C22        38.000                                                                                                                                    25682847.559 6 133737337.79906      1642.172 6        40.181                                                                    25682843.487 7 108672521.77207      1334.414 7        42.880
E25        39.000    25757593.885 7 135357282.51307     -3024.017 7        42.781                                                                    25757595.255 7 101078619.71907     -2258.154 7        46.740    25757595.142 7 103715437.59007     -2317.097 7        47.109
C12        40.000                                                                                                                                    21807748.381 8 113558879.31108     -1224.129 8        48.346    21807745.205 8  87811026.05108      -946.604 8        52.155    21807744.480 8  92275965.01108      -994.782 8        49.619
S44        42.000    40571858.503 6 213206708.03406      -406.052 6        38.438
G28        43.000    24098935.292 6 126640931.18806     -3871.945 6        41.163                                    24098934.413 4  98681330.90004     -3017.096 4        26.156    24098934.942 6  98681330.89906     -3017.121 6        40.493
C05        44.000                                                                                                                                    39391767.107 6 205123288.41706      -397.442 6        38.075    39391762.302 7 158614358.79107      -307.370 7        42.381    39391763.808 6 166679574.71806      -322.955 6        39.387
C11        45.000                                                                                                                                    22977067.462 7 119647747.57507      1558.554 7        47.303    22977064.498 8  92519285.29308      1205.139 8        50.518    22977062.942 8  97223632.72708      1266.529 8        48.016
R16        46.000    20872926.114 8 111499624.56508     -4049.308 8        50.163                                                                    20872926.774 7  86722043.80907     -3149.514 7        46.377
R17        47.000    24330708.373 6 130198776.50406     -4345.265 6        40.856                                                                    24330707.282 6 101265849.50306     -3379.747 6        36.117
C35        48.000                                                                                                                                    26620692.157 6 138621099.37706     -3434.617 6        38.634                                                                    26620691.885 6 112641063.48206     -2790.970 6        39.568
C24        49.000                                                                                                                                    23973847.061 7 124838182.46107     -3612.874 7        45.946                                                                    23973844.374 7 101441271.00307     -2935.801 7        46.110
R19        50.000    19374154.108 7 103638923.91107      -278.431 7        42.330                                                                    19374153.352 7  80608165.01707      -216.474 7        46.050
S48        51.000    77205609.198 6 405719375.13206      -502.231 6        38.637
C08        52.000                                                                                                                                    37762090.653 7 196637216.43707      -319.423 7        42.423    37762084.532 7 152052398.05907      -246.973 7        45.156    37762083.695 7 159783863.18007      -259.530 7        42.855
C34        53.000                                                                                                                                    21633407.208 8 112651105.14108       445.481 8        51.124                                                                    21633406.969 8  91538366.41508       361.999 8        49.427
C60        54.000                                                                                                                                    40571854.643 6 211268484.52806      -402.411 6        39.039                                                                    40571840.925 6 171672915.41706      -327.060 6        40.849
C25        55.000                                                                                                                                    22267835.478 8 115954708.19208     -1054.068 8        50.296                                                                    22267833.798 8  94222791.72408      -856.524 8        49.110
C02        57.000                                                                                                                                    40746412.071 5 212177296.16805      -372.261 5        33.707    40746408.402 6 164068933.85806      -288.008 6        39.453    40746410.360 5 172411432.97605      -302.709 5        34.976
I03        58.000    84485708.057 6 255754799.55106      1107.754 6        40.331
E30        59.000    25694151.330 7 135023880.92807      1765.826 7        43.837                                                                    25694152.139 7 100829636.89007      1318.609 7        46.811    25694151.703 7 103459959.04207      1352.943 7        47.693
R20        60.000    22937802.296 6 122658887.61906      3145.721 6        38.027                                                                    22937806.979 6  95401412.86006      2446.569 6        39.856
> 2025 01 02 17 31  0.0000000  0 56
G23         1.000    23908081.707 6 125637870.29106      3038.703 6        39.874                                    23908080.643 4  97899654.08304      2367.821 4        26.335    23908080.605 6  97899652.11006      2367.763 6        41.161
E11         2.000    25404548.137 6 133501997.77806     -2708.643 6        41.197                                                                    25404544.816 7  99693174.71407     -2022.614 7        42.942    25404544.448 7 102293852.52307     -2075.423 7        43.141
G16         3.000    21876642.677 7 114962727.45807      2208.498 7        45.761                                    21876639.086 5  89581427.50805      1720.907 5        32.491
G05         4.000    23109993.392 7 121443933.25707     -1650.717 7        42.950                                    23109990.539 6  94631660.28806     -1286.274 6        38.937    23109990.767 6  94631659.30306     -1286.337 6        40.002
S21         5.000    38479399.296 7 202210270.16107      -465.164 7        42.861
G26         6.000    20596057.957 8 108233250.53808       140.250 8        49.945                                    20596057.357 8  84337729.08608       109.285 8        51.444    20596057.580 7  84337716.08307       109.268 7        45.678
G25         7.000    24330629.864 6 127858493.78706     -4248.782 6        38.727                                    24330630.200 5  99630079.72905     -3310.732 5        32.916    24330631.674 6  99630080.73206     -3310.861 6        37.153
E36         9.000    23441787.099 8 123187613.60208      -194.548 8        48.358                                                                    23441787.990 8  91990893.35008      -145.203 8        50.801    23441787.459 8  94390643.13508      -149.065 8        50.966
G27        10.000    24301561.468 6 127705652.48906      2877.807 6        38.820                                    24301563.710 5  99510951.48105      2242.434 5        30.906    24301564.193 5  99510953.49705      2242.481 5        34.152
G20        11.000    25289632.596 5 132898033.70405     -3359.981 5        34.590                                    25289629.560 2 103556970.14502     -2618.169 2        15.000
S27        12.000    39260842.271 6 206317233.63306      -444.856 6        36.590
C23        13.000                                                                                                                                    24943171.704 7 129885674.01107      1861.341 7        44.485                                                                    24943164.341 7 105542737.96807      1512.467 7        45.035
S36        14.000    38250179.926 7 201006562.19707      -464.053 7        44.358
C13        15.000                                                                                                                                    37766603.051 7 196660669.39707       -79.574 7        45.097    37766605.083 7 152070537.33007       -61.578 7        45.029    37766603.444 7 159802924.78907       -64.680 7        43.685
G18        16.000    20596819.163 8 108237245.46008       106.416 8        49.823                                    20596815.552 7  84340807.79307        82.920 7        43.331    20596815.929 8  84340815.79408        82.933 8        49.176
R10        17.000    22032607.057 7 117446218.15307      3107.459 7        42.135
R01        18.000    24207222.192 6 129401473.93206     -2570.204 6        37.293                                                                    24207224.918 5 100645465.74805     -1998.865 5        34.443
E02        19.000    23234850.231 8 122100148.45908      -773.163 8        48.418                                                                    23234849.309 8  91178791.65208      -577.351 8        51.098    23234848.735 8  93557353.93708      -592.406 8        51.154
E10        21.000    27995027.017 6 147115084.27206     -3367.094 6        38.685                                                                    27995027.068 6 109858802.11206     -2514.497 6        40.734    27995027.137 6 112724668.71606     -2579.889 6        41.039
I06        22.000    38764741.864 6 152121381.47706      -344.927 6        41.595
S28        23.000    40955955.007 5 215224990.77305      -461.188 5        34.448
E29        24.000    28899590.080 6 151868398.49706     -1224.953 6        36.442                                                                    28899590.506 6 113408222.61006      -914.970 6        38.288    28899590.690 6 116366698.12006      -938.626 6        40.574
S23        25.000    38203778.412 7 200762142.35107      -467.733 7        45.127
S45        26.000    63461270.950 6 333491398.61816      -522.916 6        37.161
R09        27.000    19472227.760 8 103980812.55608       115.980 8        52.225                                                                    19472226.529 8  80874076.65208        90.281 8        48.361
R18        28.000    20430150.502 8 109057825.19908     -3177.959 8        50.259                                                                    20430151.204 7  84822904.58407     -2471.779 7        47.003
C38        29.000                                                                                                                                    38703860.179 7 201541273.91107      -837.796 7        43.936                                                                    38703858.367 7 163768838.17907      -680.776 7        44.194
C44        30.000                                                                                                                                    22539844.221 8 117371106.31008     -2420.339 8        48.971                                                                    22539842.865 8  95373723.21508     -1966.781 8        48.537
C43        31.000                                                                                                                                    24821034.317 7 129249705.10907      2262.069 7        44.059                                                                    24821034.957 7 105026006.69507      1838.053 7        43.505
R02        32.000    23316240.544 7 124419944.06107       565.297 7        43.560                                                                    23316241.342 6  96771073.46106       439.694 6        39.874
I02        33.000    38630753.508 6 151595426.95606      -905.573 6        40.617
R03        34.000    24104888.466 6 129035363.06006      2948.985 6        41.437                                                                    24104887.155 6 100360833.55106      2293.794 6        39.105
E34        35.000    25655092.990 7 134818607.41207      2196.580 7        44.277                                                                    25655094.807 7 100676336.62607      1640.274 7        46.479    25655094.381 7 103302665.43807      1683.073 7        47.484
G29        36.000    21851212.023 7 114829191.21707     -2719.844 7        47.252                                    21851207.907 7  89477402.23607     -2119.359 7        45.255    21851208.492 7  89477412.24807     -2119.467 7        42.047
G31        37.000    22891173.661 7 120294150.62807     -3090.413 7        45.270                                    22891170.158 6  93735798.98806     -2408.114 6        41.528    22891169.862 6  93735804.99606     -2408.122 6        40.977
C22        38.000                                                                                                                                    25681271.789 6 133729131.83706      1640.281 6        40.238                                                                    25681267.521 7 108665853.75307      1332.748 7        42.863
E25        39.000    25760471.927 7 135372405.71607     -3025.278 7        42.593                                                                    25760473.059 7 101089913.01907     -2259.164 7        46.674    25760472.564 7 103727025.49807     -2318.124 7        46.962
C12        40.000                                                                                                                                    21808924.727 8 113565004.98108     -1226.119 8        48.454    21808921.509 8  87815762.80708      -948.139 8        51.999    21808920.837 8  92280942.60008      -996.368 8        49.728
S44        42.000    40572242.361 6 213208739.22706      -406.336 6        38.180
G28        43.000    24102619.602 6 126660292.99706     -3872.925 6        40.889                                    24102618.895 4  98696418.00704     -3017.863 4        25.970    24102618.800 6  98696417.99706     -3017.744 6        40.462
C05        44.000                                                                                                                                    39392148.210 6 205125275.99406      -397.729 6        38.075    39392143.830 7 158615895.70507      -307.567 7        42.205    39392145.506 6 166681189.76206      -323.154 6        39.532
C11        45.000                                                                                                                                    22975571.658 7 119639958.44207      1557.036 7        47.552    22975568.761 8  92513262.24508      1204.000 8        50.416    22975567.047 8  97217303.41508      1265.101 8        48.095
R16        46.000    20876717.661 8 111519878.22808     -4052.293 8        50.672                                                                    20876718.479 7  86737796.65107     -3151.705 7        46.496
R17        47.000    24334766.063 6 130220502.69006     -4345.105 6        40.050                                                                    24334766.425 6 101282747.67306     -3379.553 6        36.715
C35        48.000                                                                                                                                    26623989.952 6 138638272.85106     -3434.802 6        38.751                                                                    26623989.952 6 112655018.30906     -2791.004 6        39.748
C24        49.000                                                                                                                                    23977316.645 7 124856250.28307     -3614.214 7        46.331                                                                    23977314.117 7 101455952.57907     -2936.902 7        46.098
R19        50.000    19374415.975 7 103640324.00007      -281.735 7        42.391                                                                    19374415.261 7  80609253.97407      -219.161 7        45.726
S48        51.000    77206060.975 6 405721887.59406      -502.634 6        38.444
C08        52.000                                                                                                                                    37762398.140 7 196638816.45707      -320.589 7        42.504    37762391.794 7 152053635.27807      -247.975 7        45.088    37762391.068 7 159785163.29307      -260.588 7        42.904
C34        53.000                                                                                                                                    21632980.182 8 112648882.47308       443.486 8        51.217                                                                    21632980.084 8  91536560.30108       360.365 8        49.592
C60        54.000                                                                                                                                    40572241.179 6 211270497.26506      -402.872 6        39.384                                                                    40572227.506 6 171674550.89806      -327.219 6        41.113
C25        55.000                                                                                                                                    22268848.990 8 115959985.68308     -1057.008 8        50.398                                                                    22268847.297 8  94227080.10408      -858.921 8        49.250
C02        57.000                                                                                                                                    40746769.752 5 212179157.43505      -372.470 5        33.814    40746765.537 6 164070373.10706      -288.018 6        39.204    40746767.920 5 172412945.39305      -302.661 5        35.114
I03        58.000    84484296.556 6 255749261.37306      1107.503 6        40.310
E30        59.000    25692471.656 7 135015054.92207      1764.611 7        43.822                                                                    25692472.630 7 100823046.05107      1317.750 7        46.782    25692472.103 7 103453196.26807      1352.024 7        47.627
R20        60.000    22934861.680 6 122643162.61606      3144.161 6        37.690                                                                    22934866.164 6  95389182.34606      2445.268 6        40.415
> 2025 01 02 17 31  5.0000000  0 56
G23         1.000    23905191.057 6 125622677.63806      3038.547 6        40.181                                    23905189.596 4  97887815.68504      2367.689 4        26.359    23905189.456 6  97887813.70006      2367.548 6        41.437
E11         2.000    25407125.709 6 133515543.82606     -2709.535 6        41.106                                                                    25407122.537 7  99703290.25507     -2023.302 7        43.027    25407122.163 7 102304231.94407     -2076.110 7        43.007
G16         3.000    21874542.039 7 114951689.41007      2206.902 7        45.299                                    21874538.586 5  89572826.44005      1719.662 5        32.653
G05         4.000    23111565.274 7 121452194.43907     -1653.616 7        42.882                                    23111562.686 6  94638097.57606     -1288.536 6        38.952    23111562.533 6  94638096.58106     -1288.505 6        40.515
S21         5.000    38479839.576 7 202212595.04407      -464.687 7        42.663
G26         6.000    20595925.744 8 108232555.90408       137.697 8        50.250                                    20595925.167 8  84337187.81708       107.296 8        51.524    20595925.464 7  84337174.82507       107.198 7        45.889
G25         7.000    24334672.626 6 127879738.74706     -4248.998 6        38.862                                    24334673.061 5  99646634.23805     -3310.906 5        33.150    24334673.757 6  99646635.21906     -3310.840 6        37.422
E36         9.000    23441973.240 8 123188590.80608      -196.270 8        48.448                                                                    23441973.943 8  91991623.08608      -146.639 8        50.866    23441973.420 8  94391391.89708      -150.377 8        50.880
G27        10.000    24298823.754 6 127691263.78506      2877.794 6        38.742                                    24298825.534 5  99499739.55905      2242.423 5        31.019    24298825.555 5  99499741.60705      2242.322 5        34.624
G20        11.000    25292829.707 5 132914836.70805     -3361.132 5        34.476                                    25292827.007 2 103570063.39602     -2619.072 2        15.476
S27        12.000    39261265.076 6 206319457.87906      -444.710 6        36.544
C23        13.000                                                                                                                                    24941384.961 7 129876371.35507      1859.774 7        43.981                                                                    24941377.786 7 105535178.81007      1511.092 7        44.936
S36        14.000    38250621.668 7 201008881.87107      -463.832 7        44.227
C13        15.000                                                                                                                                    37766679.934 7 196661069.04107       -80.260 7        44.841    37766681.868 7 152070846.35407       -62.014 7        45.070    37766680.189 7 159803249.53707       -65.242 7        43.676
G18        16.000    20596719.004 8 108236719.91008       103.915 8        49.776                                    20596715.535 7  84340398.27607        80.973 7        43.484    20596715.848 8  84340406.27608        80.944 8        49.257
R10        17.000    22029693.805 7 117430685.54307      3105.621 7        42.358
R01        18.000    24209628.740 6 129414332.32906     -2573.270 6        37.422                                                                    24209628.396 5 100655466.77605     -2001.460 5        34.595
E02        19.000    23235586.491 8 122104018.34508      -774.723 8        48.596                                                                    23235585.716 8  91181681.50008      -578.495 8        51.097    23235585.149 8  93560319.17508      -593.595 8        51.101
E10        21.000    27998230.694 6 147131919.73606     -3367.119 6        38.477                                                                    27998230.838 6 109871374.05306     -2514.308 6        40.930    27998230.728 6 112737568.61606     -2579.806 6        41.061
I06        22.000    38765181.335 6 152123105.58006      -344.529 6        41.714
S28        23.000    40956390.526 5 215227295.90405      -460.766 5        34.481
E29        24.000    28900757.161 6 151874529.24006     -1226.897 6        36.246                                                                    28900757.286 6 113412800.90506      -916.391 6        38.174    28900757.351 6 116371395.84206      -940.152 6        40.093
S23        25.000    38204224.627 7 200764480.50807      -467.514 7        44.989
S45        26.000    63461714.226 6 333494013.07106      -522.700 6        36.987
R09        27.000    19472120.783 8 103980242.55908       112.050 8        52.009                                                                    19472120.036 8  80873633.33408        87.106 8        49.172
R18        28.000    20433127.305 8 109073718.37708     -3179.323 8        49.341                                                                    20433128.154 7  84835265.95307     -2472.774 7        46.975
C38        29.000                                                                                                                                    38704664.738 7 201545464.33507      -838.346 7        43.537                                                                    38704663.019 7 163772243.24407      -681.317 7        44.051
C44        30.000                                                                                                                                    22542168.620 8 117383209.98808     -2421.034 8        48.797                                                                    22542167.211 8  95383558.45408     -1967.465 8        48.472
C43        31.000                                                                                                                                    24818862.126 7 129238396.34607      2261.566 7        43.162                                                                    24818863.232 7 105016817.43107      1837.588 7        43.329
R02        32.000    23315713.119 7 124417126.56007       561.633 7        43.255                                                                    23315713.150 6  96768882.08206       436.904 6        40.393
I02        33.000    38631907.733 6 151599955.20706      -905.459 6        40.484
R03        34.000    24102133.163 6 129020620.74506      2947.943 6        40.839                                                                    24102132.986 6 100349367.35706      2292.813 6        39.417
E34        35.000    25653003.402 7 134807626.85607      2195.784 7        44.176                                                                    25653005.247 7 100668136.87607      1639.672 7        46.526    25653004.884 7 103294251.78407      1682.453 7        47.511
G29        36.000    21853800.037 7 114842793.12207     -2720.775 7        46.705                                    21853796.247 7  89488001.12407     -2120.083 7        45.360    21853796.711 7  89488011.13407     -2120.146 7        42.337
G31        37.000    22894114.398 7 120309606.98107     -3092.067 7        45.815                                    22894111.350 6  93747842.89806     -2409.404 6        41.683    22894111.362 6  93747848.88906     -2409.378 6        41.414
C22        38.000                                                                                                                                    25679698.746 6 133720934.58406      1638.718 6        41.128                                                                    25679693.050 7 108659192.83807      1331.408 7        42.756
E25        39.000    25763350.868 7 135387534.10107     -3025.990 7        43.067                                                                    25763352.049 7 101101210.17607     -2259.625 7        46.732    25763351.147 7 103738617.36807     -2318.607 7        46.765
C12        40.000                                                                                                                                    21810102.666 8 113571138.83908     -1227.361 8        48.125    21810099.220 8  87820505.88408      -949.069 8        51.946    21810098.811 8  92285926.86108      -997.414 8        49.711
S44        42.000    40572630.909 6 213210770.45306      -406.123 6        37.974
G28        43.000    24106304.331 6 126679658.07406     -3873.150 6        41.573                                    24106303.879 4  98711507.66204     -3018.043 4        26.072    24106303.489 6  98711507.66606     -3018.086 6        39.955
C05        44.000                                                                                                                                    39392530.314 6 205127263.43906      -397.185 6        38.114    39392525.527 7 158617432.54307      -307.104 7        42.548    39392527.105 6 166682804.75706      -322.899 6        39.730
C11        45.000                                                                                                                                    22974077.229 7 119632176.14107      1556.024 7        47.505    22974074.203 8  92507244.49108      1203.173 8        50.661    22974072.540 8  97210979.66608      1264.260 8        48.073
R16        46.000    20880512.046 8 111540145.31708     -4054.526 8        50.525                                                                    20880512.473 7  86753559.93407     -3153.477 7        46.739
R17        47.000    24338826.215 6 130242227.02606     -4344.374 6        39.153                                                                    24338827.077 6 101299644.37706     -3379.079 6        36.805
C35        48.000                                                                                                                                    26627287.471 6 138655445.73906     -3434.375 6        38.943                                                                    26627288.083 6 112668972.67906     -2790.856 6        39.856
C24        49.000                                                                                                                                    23980787.646 7 124874323.58907     -3615.054 7        45.983                                                                    23980785.132 7 101470638.61707     -2937.542 7        46.035
R19        50.000    19374680.815 7 103641739.77607      -284.501 7        42.464                                                                    19374679.796 7  80610355.13207      -221.288 7        45.624
S48        51.000    77206509.546 6 405724399.86606      -502.193 6        38.213
C08        52.000                                                                                                                                    37762706.232 7 196640421.84307      -321.353 7        42.339    37762700.460 7 152054876.67207      -248.475 7        45.386    37762699.194 7 159786467.83107      -261.353 7        42.832
C34        53.000                                                                                                                                    21632554.931 8 112646668.33608       442.200 8        51.018                                                                    21632554.861 8  91534761.14608       359.223 8        49.520
C60        54.000                                                                                                                                    40572627.849 6 211272510.01906      -402.455 6        39.360                                                                    40572614.172 6 171676186.45006      -327.034 6        41.094
C25        55.000                                                                                                                                    22269865.182 8 115965277.09608     -1059.451 8        50.230                                                                    22269863.495 8  94231379.81408      -861.009 8        49.214
C02        57.000                                                                                                                                    40747127.397 5 212181018.68805      -372.034 5        33.653    40747122.820 6 164071812.34206      -287.679 6        39.363    40747125.180 5 172414457.78805      -302.498 5        35.290
I03        58.000    84482885.889 6 255743723.10606      1107.824 6        40.493
E30        59.000    25690792.926 7 135006233.70607      1763.936 7        44.214                                                                    25690794.015 7 100816458.78407      1317.302 7        46.783    25690793.481 7 103446437.15007      1351.634 7        47.539
R20        60.000    22931921.719 6 122627444.36206      3143.179 6        37.032                                                                    22931926.841 6  95376957.08506      2444.667 6        40.305
> 2025 01 02 17 31 10.0000000  0 56
G23         1.000    23902301.083 6 125607487.77106      3037.577 6        40.753                                    23902299.050 4  97875979.46604      2366.932 4        26.850    23902299.270 6  97875977.46206      2366.952 6        41.654
E11         2.000    25409704.475 6 133529095.57606     -2711.016 6        41.230                                                                    25409701.310 7  99713410.07107     -2024.399 7        42.887    25409701.044 7 102314615.76307     -2077.264 7        43.156
G16         3.000    21872443.524 7 114940660.86407      2204.635 7        45.383                                    21872439.901 5  89564232.77805      1717.900 5        32.647
G05         4.000    23113141.157 7 121460472.21907     -1657.329 7        42.284                                    23113137.976 6  94644547.80106     -1291.426 6        38.994    23113137.912 6  94644546.80406     -1291.481 6        40.493
S21         5.000    38480283.541 7 202214919.53907      -464.992 7        42.538
G26         6.000    20595796.642 8 108231876.05208       134.414 8        50.156                                    20595795.789 8  84336658.06608       104.736 8        51.607    20595796.034 7  84336645.07707       104.679 7        46.166
G25         7.000    24338716.098 6 127900986.05406     -4249.958 6        38.619                                    24338716.289 5  99663190.58405     -3311.651 5        33.144    24338717.200 6  99663191.57606     -3311.601 6        37.474
E36         9.000    23442161.151 8 123189578.50208      -198.737 8        48.535                                                                    23442161.848 8  91992360.65308      -148.412 8        50.854    23442161.376 8  94392148.70408      -152.249 8        51.101
G27        10.000    24296086.599 6 127676877.17206      2876.974 6        39.508                                    24296087.716 5  99488529.26305      2241.797 5        31.562    24296087.735 5  99488531.25605      2241.850 5        34.519
G20        11.000    25296030.051 5 132931647.91805     -3363.015 5        34.576                                    25296026.127 2 103583163.00802     -2620.524 2        14.238
S27        12.000    39261689.308 6 206321682.48106      -445.002 6        36.302
C23        13.000                                                                                                                                    24939600.102 7 129867077.96807      1857.542 7        44.042                                                                    24939593.148 7 105527627.14007      1509.487 7        45.043
S36        14.000    38251064.037 7 201011202.62907      -464.476 7        44.041
C13        15.000                                                                                                                                    37766757.902 7 196661473.60507       -81.515 7        44.990    37766759.543 7 152071159.19207       -63.055 7        45.109    37766757.865 7 159803578.25907       -66.283 7        43.657
G18        16.000    20596621.865 8 108236208.77708       100.695 8        49.759                                    20596618.286 7  84339999.99507        78.463 7        43.536    20596618.438 8  84340007.99808        78.439 8        49.120
R10        17.000    22026782.664 7 117415163.84507      3103.082 7        42.144
R01        18.000    24212035.643 6 129427207.68806     -2576.935 6        36.416                                                                    24212037.441 5 100665480.91105     -2004.333 5        34.733
E02        19.000    23236324.736 8 122107897.62008      -776.995 8        48.780                                                                    23236323.897 8  91184578.36308      -580.159 8        51.071    23236323.361 8  93563291.60908      -595.284 8        51.298
E10        21.000    28001434.597 6 147148756.59306     -3367.586 6        38.159                                                                    28001434.839 6 109883947.04506     -2514.698 6        41.104    28001434.523 6 112750469.60706     -2580.369 6        41.178
I06        22.000    38765620.458 6 152124829.38906      -344.800 6        41.523
S28        23.000    40956834.245 5 215229600.88405      -460.959 5        34.076
E29        24.000    28901926.097 6 151880670.52106     -1229.398 6        36.166                                                                    28901926.288 6 113417386.90506      -918.080 6        38.742    28901925.413 6 116376101.47706      -942.016 6        40.391
S23        25.000    38204667.322 7 200766818.58207      -467.660 7        44.864
S45        26.000    63462161.661 6 333496627.44506      -522.899 6        36.998
R09        27.000    19472017.824 8 103979694.24908       107.349 8        52.259                                                                    19472017.130 8  80873206.87308        83.525 8        49.048
R18        28.000    20436105.969 8 109089620.07308     -3181.346 8        49.077                                                                    20436107.419 7  84847633.94007     -2474.375 7        46.992
C38        29.000                                                                                                                                    38705470.404 7 201549659.09607      -839.559 7        43.505                                                                    38705468.617 7 163775651.80607      -682.185 7        44.224
C44        30.000                                                                                                                                    22544494.061 8 117395319.12608     -2422.438 8        48.867                                                                    22544492.763 8  95393398.08808     -1968.440 8        48.462
C43        31.000                                                                                                                                    24816691.393 7 129227091.38307      2260.482 7        43.192                                                                    24816692.253 7 105007631.19807      1836.877 7        43.498
R02        32.000    23315189.007 7 124414329.03607       557.444 7        44.238                                                                    23315189.028 6  96766706.23606       433.544 6        40.367
I02        33.000    38633061.509 6 151604483.75506      -905.865 6        40.515
R03        34.000    24099380.525 7 129005885.46507      2946.263 7        42.499                                                                    24099381.208 6 100337906.59106      2291.490 6        39.363
E34        35.000    25650915.004 7 134796652.06907      2194.176 7        44.277                                                                    25650916.858 7 100659941.43307      1638.540 7        46.559    25650916.509 7 103285842.54707      1681.305 7        47.672
G29        36.000    21856389.570 7 114856401.26107     -2722.347 7        45.937                                    21856385.760 7  89498604.87007     -2121.308 7        45.394    21856386.220 7  89498614.87307     -2121.374 7        42.061
G31        37.000    22897057.891 7 120325073.31607     -3094.387 7        44.667                                    22897054.438 6  93759894.59006     -2411.208 6        41.623    22897054.744 6  93759900.58706     -2411.274 6        40.765
C22        38.000                                                                                                                                    25678126.281 6 133712745.98906      1636.758 6        41.888                                                                    25678120.290 7 108652538.91607      1329.965 7        42.408
E25        39.000    25766230.560 7 135402667.58307     -3027.357 7        43.344                                                                    25766231.946 7 101112511.15807     -2260.630 7        46.736    25766231.024 7 103750213.15607     -2319.596 7        46.845
C12        40.000                                                                                                                                    21811281.992 8 113577280.81108     -1229.323 8        48.296    21811278.859 8  87825255.25208      -950.594 8        52.108    21811278.279 8  92290917.69708      -998.979 8        49.646
S44        42.000    40573016.224 6 213212801.65206      -406.518 6        37.939
G28        43.000    24109990.529 6 126699026.36506     -3874.353 6        41.697                                    24109989.457 4  98726599.83004     -3018.983 4        26.036    24109989.423 6  98726599.82206     -3018.615 6        40.007
C05        44.000                                                                                                                                    39392911.735 6 205129250.75906      -397.563 6        38.057    39392907.194 7 158618969.26407      -307.405 7        42.457    39392908.740 6 166684419.59306      -322.894 6        39.547
C11        45.000                                                                                                                                    22972584.060 7 119624400.58907      1554.374 7        47.432    22972580.952 8  92501231.94808      1201.890 8        50.648    22972579.321 8  97204661.37308      1263.023 8        48.065
R16        46.000    20884308.229 8 111560425.66408     -4057.492 8        50.219                                                                    20884309.087 7  86769333.53407     -3155.801 7        46.314
R17        47.000    24342886.872 6 130263949.49606     -4344.562 6        39.676                                                                    24342886.024 6 101316539.61406     -3379.207 6        36.594
C35        48.000                                                                                                                                    26630586.307 6 138672617.97306     -3434.624 6        39.132                                                                    26630585.712 6 112682926.48506     -2790.737 6        39.634
C24        49.000                                                                                                                                    23984259.380 7 124892402.27607     -3616.375 7        45.702                                                                    23984257.098 7 101485328.99707     -2938.600 7        46.218
R19        50.000    19374948.511 7 103643171.18407      -287.927 7        42.423                                                                    19374947.186 7  80611468.45307      -223.994 7        45.254
S48        51.000    77206962.235 6 405725312.02716      -502.443 6        38.102
C08        52.000                                                                                                                                    37763015.049 7 196642032.54507      -322.753 7        42.243    37763009.515 7 152056122.17907      -249.633 7        45.479    37763008.556 7 159787776.63307      -262.351 7        42.918
C34        53.000                                                                                                                                    21632131.270 8 112644462.67808       440.155 8        51.062                                                                    21632131.343 8  91532968.83808       357.671 8        49.456
C60        54.000                                                                                                                                    40573014.161 6 211274522.75306      -402.578 6        39.150                                                                    40573000.645 6 171677821.95306      -327.276 6        40.980
C25        55.000                                                                                                                                    22270883.815 8 115970582.34308     -1062.624 8        50.278                                                                    22270882.310 8  94235690.73508      -863.442 8        49.214
C02        57.000                                                                                                                                    40747485.153 5 212182879.83505      -372.518 5        33.820    40747480.451 6 164073251.50006      -287.973 6        39.465    40747482.678 5 172415970.10905      -302.789 5        35.109
I03        58.000    84481474.338 6 255738184.76106      1107.582 6        40.474
E30        59.000    25689115.320 7 134997417.20907      1762.650 7        44.185                                                                    25689116.206 7 100809875.05607      1316.293 7        46.821    25689115.707 7 103439681.66907      1350.628 7        47.786
R20        60.000    22928984.191 6 122611732.73006      3141.641 6        37.527                                                                    22928987.616 6  95364737.01506      2443.444 6        40.243
> 2025 01 02 17 31 15.0000000  0 56
G23         1.000    23899410.840 6 125592300.58606      3037.294 6        40.717                                    23899408.893 4  97864145.31604      2366.724 4        26.647    23899409.057 6  97864143.31206      2366.837 6        41.273
E11         2.000    25412284.159 6 133542652.91906     -2711.890 6        41.182                                                                    25412281.012 7  99723534.06707     -2024.993 7        42.880    25412280.951 7 102325003.86307     -2077.919 7        43.137
G16         3.000    21870346.846 7 114929641.72207      2203.163 7        45.129                                    21870343.001 5  89555646.44505      1716.748 5        32.659
G05         4.000    23114719.457 7 121468766.39807     -1660.347 7        42.690                                    23114716.369 6  94651010.79906     -1293.777 6        38.985    23114716.734 6  94651009.79806     -1293.684 6        40.398
S21         5.000    38480722.856 7 202217243.73007      -464.740 7        42.383
G26         6.000    20595670.041 8 108231210.87908       131.708 8        50.178                                    20595669.202 8  84336139.75408       102.630 8        51.527    20595669.309 7  84336126.76407       102.589 7        45.786
G25         7.000    24342759.265 6 127922235.59406     -4250.012 6        38.498                                    24342759.968 5  99679748.65805     -3311.696 5        32.958    24342760.726 6  99679749.64706     -3311.604 6        37.679
E36         9.000    23442351.150 8 123190576.56008      -200.465 8        48.535                                                                    23442351.802 8  91993105.96308      -149.660 8        50.805    23442351.284 8  94392913.46408      -153.606 8        51.039
G27        10.000    24293348.965 6 127662492.51506      2876.971 6        39.453                                    24293350.283 5  99477320.48205      2241.788 5        31.177    24293351.528 5  99477322.49505      2241.901 5        34.329
G20        11.000    25299230.278 5 132948467.29405     -3364.571 5        34.662                                    25299226.771 2 103596269.00302     -2621.733 2        15.143
S27        12.000    39262113.843 6 206323906.58206      -444.509 6        36.302
C23        13.000                                                                                                                                    24937817.081 7 129857793.75107      1856.136 7        43.757                                                                    24937810.140 7 105520082.99407      1508.172 7        45.123
S36        14.000    38251505.001 7 201013523.69807      -464.146 7        43.869
C13        15.000                                                                                                                                    37766836.778 7 196661882.94207       -82.176 7        45.061    37766838.230 7 152071475.72907       -63.598 7        45.162    37766836.470 7 159803910.91707       -66.865 7        43.718
G18        16.000    20596527.506 8 108235711.96408        98.119 8        49.918                                    20596523.743 7  84339612.87007        76.457 7        43.410    20596524.184 8  84339620.87108        76.438 8        49.199
R10        17.000    22023872.374 7 117399652.76507      3101.346 7        42.707
R01        18.000    24214447.795 6 129440099.97306     -2579.880 6        37.463                                                                    24214448.289 5 100675508.20605     -2006.562 5        34.305
E02        19.000    23237064.824 8 122111786.18008      -778.464 8        48.741                                                                    23237063.879 8  91187482.16408      -581.314 8        51.032    23237063.303 8  93566271.15908      -596.474 8        51.218
E10        21.000    28004638.921 6 147165594.75206     -3367.562 6        37.664                                                                    28004639.077 6 109896521.01106     -2514.654 6        41.097    28004638.575 6 112763371.58806     -2580.390 6        41.073
I06        22.000    38766060.105 6 152126552.80406      -344.496 6        41.590
S28        23.000    40957275.196 5 215231905.43305      -460.687 5        34.205
E29        24.000    28903096.976 5 151886822.17605     -1231.187 5        35.857                                                                    28903097.086 6 113421980.53906      -919.332 6        38.183    28903096.621 6 116380814.96506      -943.448 6        40.060
S23        25.000    38205113.085 7 200769156.16307      -467.291 7        44.760
S45        26.000    63462605.049 6 333499241.38706      -522.295 6        36.858
R09        27.000    19471919.326 8 103979167.62808       103.344 8        52.289                                                                    19471918.661 8  80872797.28608        80.326 8        49.231
R18        28.000    20439086.609 8 109105530.13908     -3182.607 8        48.806                                                                    20439087.979 7  84860008.44607     -2475.450 7        46.723
C38        29.000                                                                                                                                    38706276.837 7 201553858.09207      -840.058 7        43.276                                                                    38706274.961 7 163779063.86507      -682.699 7        44.290
C44        30.000                                                                                                                                    22546820.709 8 117407433.62208     -2423.207 8        48.622                                                                    22546819.189 8  95403242.13408     -1969.162 8        48.545
C43        31.000                                                                                                                                    24814521.525 7 129215790.06907      2260.203 7        43.082                                                                    24814521.946 7 104998448.01907      1836.443 7        43.575
R02        32.000    23314668.589 7 124411551.34507       553.763 7        44.069                                                                    23314668.627 6  96764545.80506       430.592 6        39.928
I02        33.000    38634216.040 6 151609012.71006      -905.581 6        40.651
R03        34.000    24096630.109 7 128991157.45207      2945.094 7        42.677                                                                    24096629.937 6 100326451.46606      2290.695 6        39.204
E34        35.000    25648827.833 7 134785682.92707      2193.524 7        44.506                                                                    25648829.432 7 100651750.21707      1638.011 7        46.506    25648829.119 7 103277437.64407      1680.694 7        47.596
G29        36.000    21858980.298 7 114870015.50907     -2723.270 7        46.281                                    21858976.430 7  89509213.37407     -2122.026 7        45.308    21858977.068 6  89509223.37906     -2122.045 6        41.962
G31        37.000    22900002.691 7 120340549.53807     -3096.023 7        45.323                                    22899999.449 6  93771953.98106     -2412.484 6        41.487    22899999.727 6  93771959.99306     -2412.458 6        40.980
C22        38.000                                                                                                                                    25676554.790 7 133704565.95207      1635.319 7        42.112                                                                    25676549.379 7 108645891.99107      1328.914 7        42.461
E25        39.000    25769111.053 7 135417806.07707     -3028.028 7        43.010                                                                    25769112.809 7 101123815.87207     -2261.172 7        46.877    25769111.766 7 103761812.78107     -2320.148 7        46.691
C12        40.000                                                                                                                                    21812463.625 8 113583430.80808     -1230.599 8        48.276    21812459.783 8  87830010.82408      -951.589 8        52.016    21812459.338 8  92295915.09708     -1000.064 8        49.806
S44        42.000    40573404.500 6 213214832.74006      -406.011 6        37.860
G28        43.000    24113676.443 6 126718397.74206     -3874.350 6        41.442                                    24113675.742 4  98741694.40104     -3018.971 4        25.970    24113676.155 6  98741694.41506     -3019.092 6        40.720
C05        44.000                                                                                                                                    39393293.737 6 205131237.75506      -397.211 6        37.985    39393288.824 7 158620505.74307      -307.135 7        42.512    39393290.295 6 166686034.21006      -322.728 6        39.631
C11        45.000                                                                                                                                    22971091.605 7 119616631.70307      1553.286 7        47.124    22971088.968 8  92495224.56408      1201.094 8        50.691    22971087.430 8  97198348.56108      1262.045 8        48.217
R16        46.000    20888107.421 8 111580719.14208     -4059.843 8        50.630                                                                    20888107.392 7  86785117.35607     -3157.715 7        45.892
R17        47.000    24346946.434 6 130285669.85006     -4343.638 6        40.656                                                                    24346944.561 6 101333433.21506     -3378.445 6        36.374
C35        48.000                                                                                                                                    26633883.490 6 138689789.43706     -3434.095 6        39.261                                                                    26633883.169 6 112696879.74106     -2790.594 6        39.916
C24        49.000                                                                                                                                    23987732.294 7 124910486.25007     -3617.106 7        45.937                                                                    23987730.003 7 101500023.73607     -2939.273 7        46.264
R19        50.000    19375218.178 7 103644618.08507      -290.859 7        42.063                                                                    19375218.251 7  80612593.81807      -226.189 7        45.342
S48        51.000    77207412.961 6 405727823.86406      -502.224 6        37.864
C08        52.000                                                                                                                                    37763325.189 7 196643648.52807      -323.491 7        42.152    37763319.805 7 152057371.76607      -250.166 7        45.616    37763319.002 7 159789089.77607      -262.930 7        42.952
C34        53.000                                                                                                                                    21631709.374 8 112642265.38808       438.849 8        50.910                                                                    21631709.339 8  91531183.39508       356.510 8        49.608
C60        54.000                                                                                                                                    40573400.755 6 211276535.37006      -402.240 6        39.204                                                                    40573387.069 6 171679457.38506      -326.984 6        41.194
C25        55.000                                                                                                                                    22271905.254 8 115975901.32308     -1064.913 8        50.246                                                                    22271903.743 8  94240012.87908      -865.396 8        49.350
C02        57.000                                                                                                                                    40747842.660 5 212184740.78705      -372.103 5        33.647    40747837.770 6 164074690.51706      -287.740 6        39.495    40747840.036 5 172417482.29705      -302.204 5        35.281
I03        58.000    84480062.730 6 255732646.20606      1108.022 6        40.760
E30        59.000    25687438.509 7 134988605.33207      1762.120 7        44.113                                                                    25687439.378 7 100803294.76707      1315.828 7        46.834    25687438.917 7 103432929.72307      1350.224 7        47.726
R20        60.000    22926046.860 6 122596027.62006      3140.608 6        36.711                                                                    22926051.757 6  95352521.97806      2442.629 6        41.046
> 2025 01 02 17 31 20.0000000  0 56
G23         1.000    23896521.318 6 125577116.28506      3036.562 6        40.248                                    23896519.254 4  97852313.42004      2366.144 4        26.072    23896518.911 6  97852311.42206      2366.096 6        40.484
E11         2.000    25414865.256 6 133556216.04506     -2713.224 6        41.128                                                                    25414862.051 7  99733662.37707     -2026.137 7        43.086    25414861.902 7 102335396.37707     -2078.890 7        43.433
G16         3.000    21868251.974 7 114918632.20907      2200.977 7        45.362                                    21868247.939 5  89547067.61205      1715.038 5        32.353
G05         4.000    23116301.439 7 121477077.27207     -1663.845 7        43.192                                    23116297.960 6  94657486.80806     -1296.501 6        38.940    23116298.198 6  94657485.80206     -1296.449 6        40.272
S21         5.000    38481167.456 7 202219567.97007      -464.810 7        42.444
G26         6.000    20595546.163 8 108230560.57808       128.610 8        49.985                                    20595545.450 8  84335633.02808       100.215 8        51.366    20595545.660 7  84335620.03207       100.203 7        45.690
G25         7.000    24346803.535 6 127943487.55506     -4250.595 6        38.195                                    24346804.090 5  99696308.62905     -3312.151 5        32.611    24346805.337 6  99696309.65206     -3312.416 6        37.055
E36         9.000    23442543.178 8 123191585.18308      -202.774 8        48.518                                                                    23442543.767 8  91993859.15908      -151.370 8        50.869    23442543.242 8  94393686.30608      -155.370 8        51.215
G27        10.000    24290612.193 6 127648110.01706      2876.370 6        38.360                                    24290613.278 5  99466113.38605      2241.313 5        30.762    24290614.570 5  99466115.39305      2241.551 5        34.457
G20        11.000    25302431.797 5 132965294.87505     -3366.394 5        34.914                                    25302429.083 2 103609381.41002     -2623.190 2        15.143
S27        12.000    39262534.145 6 206326130.60106      -444.688 6        36.253
C23        13.000                                                                                                                                    24936036.058 7 129848518.91407      1854.010 7        43.871                                                                    24936028.957 7 105512546.43407      1506.473 7        44.968
S36        14.000    38251946.878 7 201015845.37107      -464.300 7        44.078
C13        15.000                                                                                                                                    37766916.128 7 196662297.33207       -83.362 7        45.025    37766917.896 7 152071796.16307       -64.521 7        45.052    37766916.021 7 159804247.63507       -67.830 7        43.570
G18        16.000    20596435.542 8 108235229.64808        95.078 8        49.627                                    20596431.949 7  84339237.04107        74.086 7        43.285    20596432.269 8  84339245.04308        74.049 8        49.369
R10        17.000    22020964.792 6 117384152.38006      3099.018 6        41.919
R01        18.000    24216864.147 6 129453009.59006     -2583.518 6        37.716                                                                    24216864.205 5 100685548.98605     -2009.275 5        34.152
E02        19.000    23237806.624 8 122115684.20708      -780.515 8        48.702                                                                    23237805.628 8  91190393.03508      -582.879 8        51.063    23237805.084 8  93569257.96308      -598.033 8        51.442
E10        21.000    28007843.375 6 147182434.37206     -3368.141 6        37.607                                                                    28007843.640 6 109909096.05406     -2514.948 6        41.173    28007842.958 6 112776274.68206     -2580.712 6        40.956
I06        22.000    38766498.691 6 152128275.99206      -344.579 6        41.669
S28        23.000    40957711.336 5 215234209.93905      -460.895 5        34.119
E29        24.000    28904269.722 6 151892984.77006     -1233.721 6        36.582                                                                    28904269.317 6 113426582.39306      -921.202 6        38.411    28904269.243 6 116385536.88406      -945.079 6        40.470
S23        25.000    38205559.151 7 200771493.65407      -467.525 7        44.772
S45        26.000    63463047.999 6 333501855.40106      -522.798 6        36.881
R09        27.000    19471824.787 8 103978662.60608        98.829 8        51.927                                                                    19471824.015 8  80872404.48908        76.880 8        49.047
R18        28.000    20442069.354 8 109121448.76008     -3184.532 8        49.485                                                                    20442070.023 7  84872389.59307     -2476.933 7        46.997
C38        29.000                                                                                                                                    38707084.035 7 201558061.51907      -841.123 7        43.386                                                                    38707082.198 7 163782479.48907      -683.592 7        44.110
C44        30.000                                                                                                                                    22549148.085 8 117419553.64308     -2424.553 8        48.660                                                                    22549146.737 8  95413090.63408     -1970.256 8        48.384
C43        31.000                                                                                                                                    24812352.322 7 129204492.62107      2259.214 7        43.602                                                                    24812352.372 7 104989267.92607      1835.623 7        43.371
R02        32.000    23314151.185 7 124408793.50107       549.547 7        43.484                                                                    23314151.889 6  96762400.83106       427.276 6        40.091
I02        33.000    38635370.128 6 151613541.89906      -905.759 6        40.787
R03        34.000    24093880.000 7 128976436.65107      2943.392 7        43.452                                                                    24093879.239 6 100315001.95506      2289.402 6        39.354
E34        35.000    25646741.633 7 134774719.64707      2192.044 7        44.656                                                                    25646743.183 7 100643563.37307      1636.950 7        46.563    25646742.823 7 103269037.22207      1679.633 7        47.747
G29        36.000    21861572.743 7 114883636.06207     -2724.669 7        46.656                                    21861568.317 7  89519826.79207     -2123.120 7        45.163    21861568.879 6  89519836.79406     -2123.149 6        41.902
G31        37.000    22902949.535 7 120356035.81407     -3098.173 7        45.287                                    22902946.373 6  93784021.21006     -2414.160 6        41.359    22902946.921 6  93784027.20906     -2414.221 6        40.615
C22        38.000                                                                                                                                    25674984.858 6 133696394.69006      1633.340 6        41.945                                                                    25674980.260 7 108639252.18707      1327.146 7        42.415
E25        39.000    25771992.942 7 135432949.74407     -3029.146 7        43.183                                                                    25771994.575 7 101135124.46107     -2262.103 7        46.915    25771993.685 7 103773416.37707     -2321.125 7        47.001
C12        40.000                                                                                                                                    21813646.146 8 113589588.97908     -1232.489 8        48.333    21813642.284 8  87834772.70508      -953.016 8        51.910    21813641.951 8  92300919.10508     -1001.558 8        49.632
S44        42.000    40573788.152 6 213216863.85706      -406.096 6        38.009
G28        43.000    24117363.312 6 126737772.39606     -3875.181 6        40.605                                    24117362.640 4  98756791.53304     -3019.619 4        25.684    24117362.929 6  98756791.52306     -3019.626 6        40.622
C05        44.000                                                                                                                                    39393675.211 6 205133224.69406      -397.299 6        38.015    39393670.419 7 158622042.19207      -307.320 7        42.478    39393671.818 6 166687648.76206      -322.936 6        39.700
C11        45.000                                                                                                                                    22969600.477 7 119608869.65307      1551.854 7        47.229    22969598.342 8  92489222.45908      1199.934 8        50.738    22969596.802 8  97192041.25508      1260.884 8        48.078
R16        46.000    20891909.038 8 111601025.92208     -4062.677 8        50.594                                                                    20891909.131 7  86800911.50307     -3159.854 7        46.183
R17        47.000    24351004.747 6 130307388.36706     -4343.381 6        40.620                                                                    24351004.560 6 101350325.39606     -3378.176 6        37.149
C35        48.000                                                                                                                                    26637180.478 6 138706960.34806     -3434.125 6        39.159                                                                    26637180.767 6 112710832.49206     -2790.573 6        39.607
C24        49.000                                                                                                                                    23991206.146 7 124928575.67407     -3618.453 7        45.764                                                                    23991203.846 7 101514722.85907     -2940.346 7        46.106
R19        50.000    19375491.789 7 103646080.63007      -294.054 7        42.358                                                                    19375491.756 7  80613731.35307      -228.780 7        45.309
S48        51.000    77207864.492 6 405730335.59306      -502.244 6        38.177
C08        52.000                                                                                                                                    37763636.843 7 196645269.79707      -324.748 7        42.167    37763631.416 7 152058625.43907      -251.125 7        45.682    37763630.231 7 159790407.18507      -264.059 7        42.918
C34        53.000                                                                                                                                    21631289.066 8 112640076.65208       436.950 8        51.068                                                                    21631289.010 8  91529404.86208       354.941 8        49.468
C60        54.000                                                                                                                                    40573787.511 6 211278548.05706      -402.690 6        39.210                                                                    40573773.650 6 171681092.85706      -327.259 6        40.994
C25        55.000                                                                                                                                    22272929.529 8 115981234.23008     -1067.980 8        50.367                                                                    22272927.887 8  94244346.29308      -867.931 8        49.150
C02        57.000                                                                                                                                    40748199.745 5 212186601.73805      -372.359 5        33.814    40748194.797 6 164076129.52306      -287.807 6        39.667    40748197.341 5 172418994.50205      -302.595 5        35.348
I03        58.000    84478651.520 6 255727107.62506      1107.511 6        40.470
E30        59.000    25685762.646 7 134979798.29407      1760.922 7        44.373                                                                    25685763.481 7 100796718.09507      1315.015 7        46.808    25685762.922 7 103426181.48507      1349.325 7        47.941
R20        60.000    22923110.417 6 122580329.23106      3139.036 6        37.070                                                                    22923115.745 6  95340312.16906      2441.450 6        40.122
> 2025 01 02 17 31 25.0000000  0 56
G23         1.000    23893631.861 6 125561934.63506      3035.862 6        40.539                                    23893630.121 4  97840483.59004      2365.599 4        25.774    23893629.958 6  97840481.59306      2365.658 6        40.186
E11         2.000    25417447.436 6 133569784.71806     -2714.647 6        40.801                                                                    25417444.187 7  99743794.83007     -2027.170 7        43.007    25417443.853 7 102345793.16307     -2080.022 7        43.263
G16         3.000    21866158.410 7 114907632.08007      2198.840 7        45.460                                    21866154.625 5  89538496.09305      1713.379 5        32.401
G05         4.000    23117885.837 7 121485404.60307     -1667.326 7        43.467                                    23117882.649 6  94663975.64006     -1299.218 6        38.979    23117882.226 6  94663974.65006     -1299.319 6        40.296
S21         5.000    38481609.458 7 202221891.93207      -465.078 7        42.692
G26         6.000    20595425.086 8 108229924.91808       125.406 8        50.005                                    20595424.479 8  84335137.71308        97.719 8        51.319    20595424.822 7  84335124.72007        97.671 7        45.457
G25         7.000    24350848.160 6 127964741.70206     -4251.263 6        37.936                                    24350848.619 5  99712870.29905     -3312.672 5        32.263    24350849.701 6  99712871.27606     -3312.636 6        36.749
E36         9.000    23442737.020 8 123192604.14408      -205.125 8        48.611                                                                    23442737.600 8  91994620.07308      -153.150 8        50.862    23442737.127 8  94394467.06908      -157.128 8        51.034
G27        10.000    24287874.544 6 127633729.50406      2875.634 6        39.718                                    24287876.690 5  99454907.83405      2240.749 5        31.079    24287877.899 5  99454909.84405      2240.849 5        34.843
G20        11.000    25305636.116 5 132982130.54305     -3368.099 5        35.576                                    25305632.751 2 103622500.13802     -2624.499 2        15.857
S27        12.000    39262957.174 6 206328354.17006      -444.835 6        36.688
C23        13.000                                                                                                                                    24934257.048 7 129839253.22407      1851.981 7        44.485                                                                    24934249.623 7 105505017.30107      1504.934 7        44.960
S36        14.000    38252390.110 7 201018166.36607      -464.392 7        44.244
C13        15.000                                                                                                                                    37766996.465 7 196662716.49707       -84.502 7        44.954    37766998.209 7 152072120.29607       -65.402 7        44.817    37766996.466 7 159804588.22807       -68.694 7        43.611
G18        16.000    20596346.327 8 108234761.60308        91.914 8        49.826                                    20596342.879 7  84338872.33907        71.621 7        43.223    20596343.265 8  84338880.33308        71.638 8        49.458
R10        17.000    22018058.334 7 117368662.79407      3096.435 7        42.250
R01        18.000    24219281.896 6 129465936.01906     -2587.309 6        38.006                                                                    24219283.332 5 100695602.86205     -2012.400 5        33.952
E02        19.000    23238549.983 8 122119591.48508      -782.596 8        48.803                                                                    23238549.202 8  91193310.81108      -584.434 8        51.096    23238548.631 8  93572251.86008      -599.690 8        51.240
E10        21.000    28011048.077 6 147199275.21506     -3368.626 6        37.410                                                                    28011048.350 6 109921672.02706     -2515.545 6        41.194    28011047.640 6 112789178.72806     -2581.141 6        40.801
I06        22.000    38766937.953 6 152129998.74706      -344.717 6        41.685
S28        23.000    40958146.563 5 215236514.39305      -461.235 5        34.314
E29        24.000    28905443.904 5 151899157.89905     -1235.931 5        35.724                                                                    28905443.782 6 113431192.15806      -922.896 6        37.664    28905444.131 6 116390266.90706      -947.033 6        40.317
S23        25.000    38206003.295 7 200773830.90507      -467.643 7        45.035
S45        26.000    63463491.186 6 333504469.11706      -523.135 6        37.051
R09        27.000    19471734.221 8 103978179.31208        94.231 8        51.893                                                                    19471733.096 8  80872028.60108        73.327 8        48.936
R18        28.000    20445053.488 8 109137375.72008     -3186.475 8        49.761                                                                    20445053.766 7  84884777.22607     -2478.386 7        46.803
C38        29.000                                                                                                                                    38707892.072 7 201562269.13607      -842.232 7        43.445                                                                    38707890.121 7 163785898.50607      -684.351 7        44.119
C44        30.000                                                                                                                                    22551476.906 8 117431678.96208     -2425.844 8        48.732                                                                    22551475.219 8  95422943.43908     -1971.190 8        48.372
C43        31.000                                                                                                                                    24810183.267 7 129193198.82707      2258.107 7        43.972                                                                    24810183.398 7 104980090.79807      1834.900 7        43.318
R02        32.000    23313638.227 7 124406055.39007       545.357 7        43.329                                                                    23313638.693 6  96760271.20306       424.159 6        39.988
I02        33.000    38636524.492 6 151618071.70906      -906.045 6        41.004
R03        34.000    24091131.092 7 128961722.98607      2941.736 7        43.115                                                                    24091131.598 6 100303558.02106      2287.983 6        39.538
E34        35.000    25644656.568 7 134763761.98907      2190.723 7        44.746                                                                    25644657.998 7 100635380.72107      1635.958 7        46.616    25644657.558 7 103260641.11407      1678.623 7        47.628
G29        36.000    21864165.559 7 114897262.68507     -2726.145 7        46.587                                    21864161.393 7  89530444.93807     -2124.268 7        45.109    21864162.163 6  89530454.92706     -2124.190 6        41.981
G31        37.000    22905898.354 7 120371531.87107     -3100.410 7        45.455                                    22905895.220 6  93796096.05506     -2415.910 6        41.337    22905895.780 6  93796102.05906     -2415.936 6        40.863
C22        38.000                                                                                                                                    25673417.110 6 133688231.96506      1631.430 6        41.685                                                                    25673412.699 7 108632619.30307      1325.680 7        42.356
E25        39.000    25774875.863 7 135448098.37407     -3030.431 7        43.386                                                                    25774877.166 7 101146436.74407     -2262.964 7        46.962    25774876.643 7 103785023.77007     -2322.077 7        46.931
C12        40.000                                                                                                                                    21814830.318 8 113595755.11408     -1234.323 8        48.431    21814826.597 8  87839540.75908      -954.442 8        51.645    21814826.078 8  92305929.58908     -1002.961 8        49.600
S44        42.000    40574175.157 6 213218894.83406      -406.400 6        37.716
G28        43.000    24121051.135 6 126757150.08006     -3876.240 6        39.928                                    24121050.244 4  98771891.01804     -3020.446 4        25.609    24121049.739 6  98771891.00206     -3020.279 6        40.310
C05        44.000                                                                                                                                    39394056.703 6 205135211.31906      -397.712 6        38.192    39394051.746 7 158623578.38007      -307.469 7        42.281    39394053.489 6 166689263.03906      -322.896 6        39.580
C11        45.000                                                                                                                                    22968111.519 7 119601114.24107      1550.140 7        47.456    22968109.222 8  92483225.49508      1198.633 8        50.425    22968107.420 8  97185739.34208      1259.674 8        48.039
R16        46.000    20895713.141 8 111621345.82108     -4065.511 8        50.885                                                                    20895713.425 7  86816715.86607     -3162.079 7        46.092
R17        47.000    24355062.457 6 130329104.71206     -4343.415 6        40.620                                                                    24355062.037 6 101367215.88806     -3378.168 6        36.737
C35        48.000                                                                                                                                    26640477.609 6 138724130.45006     -3434.325 6        39.129                                                                    26640478.155 6 112724784.58106     -2790.562 6        39.456
C24        49.000                                                                                                                                    23994680.667 7 124946670.31607     -3619.715 7        46.140                                                                    23994678.485 7 101529426.22407     -2941.271 7        46.088
R19        50.000    19375768.105 7 103647558.65707      -297.420 7        42.398                                                                    19375767.818 7  80614880.92807      -231.260 7        45.210
S48        51.000    77208316.801 6 405732847.07506      -502.643 6        38.378
C08        52.000                                                                                                                                    37763949.311 7 196646896.36607      -326.051 7        42.392    37763943.598 7 152059883.20907      -252.180 7        45.430    37763942.530 7 159791728.89207      -264.936 7        42.851
C34        53.000                                                                                                                                    21630870.386 8 112637896.24608       435.023 8        51.132                                                                    21630870.294 8  91527633.09108       353.462 8        49.443
C60        54.000                                                                                                                                    40574173.890 6 211280560.54106      -402.593 6        39.177                                                                    40574160.034 6 171682728.17206      -327.335 6        40.894
C25        55.000                                                                                                                                    22273956.437 8 115986580.80608     -1070.939 8        50.416                                                                    22273954.648 8  94248690.81308      -870.212 8        49.134
C02        57.000                                                                                                                                    40748556.648 5 212188462.48705      -372.503 5        34.010    40748552.406 6 164077568.37906      -287.971 6        39.501    40748554.767 5 172420506.47405      -302.191 5        35.124
I03        58.000    84477240.122 6 255721568.80306      1107.596 6        40.596
E30        59.000    25684087.554 7 134970995.83607      1759.858 7        44.105                                                                    25684088.349 7 100790144.84707      1314.140 7        46.839    25684087.889 7 103419436.75907      1348.433 7        47.745
R20        60.000    22920175.093 6 122564637.35506      3137.322 6        37.626                                                                    22920180.727 6  95328107.41606      2440.258 6        39.901
> 2025 01 02 17 31 30.0000000  0 56
G23         1.000    23890743.730 6 125546756.57006      3035.671 6        40.698                                    23890741.739 4  97828656.55304      2365.458 4        25.714    23890742.316 6  97828654.56706      2365.270 6        40.594
E11         2.000    25420030.883 6 133583359.79606     -2715.416 6        40.825                                                                    25420027.436 7  99753932.06507     -2027.700 7        43.071    25420027.000 7 102356194.85207     -2080.628 7        43.357
G16         3.000    21864067.264 7 114896642.29207      2197.243 7        45.702                                    21864063.345 5  89529932.63405      1712.135 5        32.419
G05         4.000    23119473.396 7 121493749.20307     -1670.299 7        43.803                                    23119470.527 6  94670477.93006     -1301.536 6        39.093    23119470.418 6  94670476.95206     -1301.786 6        40.215
S21         5.000    38482051.393 7 202224216.55807      -464.632 7        42.552
G26         6.000    20595307.214 8 108229304.78008       122.886 8        49.957                                    20595306.469 8  84334654.49208        95.755 8        51.320    20595306.610 7  84334641.49507        95.730 7        45.487
G25         7.000    24354893.379 6 127985998.90006     -4251.648 6        37.660                                    24354893.716 5  99729434.34205     -3312.979 5        32.192    24354894.610 6  99729435.33106     -3313.004 6        36.900
E36         9.000    23442932.969 8 123193634.31408      -206.911 8        48.409                                                                    23442933.624 8  91995389.35808      -154.477 8        50.941    23442933.160 8  94395256.42108      -158.523 8        51.057
G27        10.000    24285138.798 6 127619351.78706      2875.552 6        38.760                                    24285140.616 5  99443704.46105      2240.678 5        31.479    24285141.022 5  99443706.46005      2240.734 5        33.988
G20        11.000    25308841.402 5 132998975.00805     -3369.551 5        35.381                                    25308838.081 2 103635625.64602     -2625.600 2        15.143
S27        12.000    39263384.102 6 206330578.41506      -444.582 6        36.416
C23        13.000                                                                                                                                    24932479.186 7 129829997.57907      1850.365 7        44.327                                                                    24932472.114 7 105497496.35207      1503.590 7        44.897
S36        14.000    38252831.356 7 201020487.74407      -464.070 7        44.229
C13        15.000                                                                                                                                    37767077.847 7 196663141.28607       -85.203 7        45.068    37767079.821 7 152072448.76007       -65.940 7        45.062    37767078.077 7 159804933.41407       -69.243 7        43.640
G18        16.000    20596260.433 8 108234308.70608        89.376 8        49.663                                    20596256.684 7  84338519.43307        69.645 7        43.291    20596256.997 8  84338527.43708        69.619 8        49.735
R10        17.000    22015155.519 7 117353184.91907      3094.724 7        42.489
R01        18.000    24221702.899 6 129478880.34006     -2590.294 6        38.054                                                                    24221704.469 5 100705670.64405     -2014.579 5        34.162
E02        19.000    23239295.465 8 122123508.90908      -784.205 8        48.528                                                                    23239294.627 8  91196236.15908      -585.566 8        51.165    23239294.103 8  93575253.52008      -600.880 8        51.302
E10        21.000    28014253.175 6 147216118.16906     -3368.696 6        37.550                                                                    28014253.431 6 109934249.56706     -2515.568 6        41.349    28014252.764 6 112802084.36606     -2581.033 6        40.965
I06        22.000    38767376.957 6 152131721.75406      -344.509 6        41.793
S28        23.000    40958586.759 5 215238819.45205      -460.617 5        34.348
E29        24.000    28906621.259 6 151905342.67806     -1237.836 6        36.178                                                                    28906620.694 6 113435810.67206      -924.315 6        38.192    28906621.148 6 116395005.90406      -948.438 6        40.567
S23        25.000    38206448.494 7 200776168.59607      -467.330 7        45.001
S45        26.000    63463938.161 6 333505483.38816      -522.634 6        37.202
R09        27.000    19471647.948 8 103977718.46408        90.269 8        52.038                                                                    19471646.935 8  80871670.16208        70.192 8        48.909
R18        28.000    20448038.184 8 109153311.89008     -3187.811 8        49.610                                                                    20448039.068 7  84897172.02907     -2479.443 7        46.997
C38        29.000                                                                                                                                    38708701.220 7 201566481.81507      -842.817 7        43.325                                                                    38708699.156 7 163789321.66807      -684.871 7        44.035
C44        30.000                                                                                                                                    22553806.375 8 117443810.45608     -2426.588 8        48.516                                                                    22553804.985 8  95432801.27808     -1971.887 8        48.317
C43        31.000                                                                                                                                    24808014.822 7 129181909.53907      2257.689 7        43.752                                                                    24808015.299 7 104970917.37007      1834.482 7        43.160
R02        32.000    23313128.944 7 124403338.06207       541.803 7        43.994                                                                    23313128.774 6  96758157.71606       421.422 6        39.228
I02        33.000    38637678.700 6 151622602.39506      -906.117 6        41.144
R03        34.000    24088383.677 7 128947017.42907      2940.610 7        43.369                                                                    24088384.137 6 100292120.38306      2287.052 6        39.862
E34        35.000    25642572.413 7 134752810.84407      2189.810 7        44.504                                                                    25642574.115 7 100627202.94607      1635.260 7        46.762    25642573.713 7 103252249.99607      1677.968 7        47.548
G29        36.000    21866759.668 7 114910896.22907     -2727.059 7        46.729                                    21866755.806 7  89541068.47907     -2124.984 7        45.085    21866756.573 7  89541078.48407     -2125.078 7        42.419
G31        37.000    22908849.251 7 120387038.59507     -3102.154 7        44.879                                    22908846.107 6  93808179.21706     -2417.261 6        41.452    22908846.655 6  93808185.22606     -2417.263 6        40.472
C22        38.000                                                                                                                                    25671851.976 6 133680078.67706      1629.974 6        41.540                                                                    25671847.101 7 108625994.11407      1324.556 7        42.449
E25        39.000    25777759.537 7 135463252.83807     -3031.179 7        42.883                                                                    25777760.830 7 101157753.39207     -2263.511 7        46.877    25777760.562 7 103796635.62807     -2322.583 7        47.210
C12        40.000                                                                                                                                    21816015.924 8 113601930.09408     -1235.621 8        48.479    21816012.531 8  87844315.64308      -955.401 8        51.790    21816011.911 8  92310947.27408     -1004.058 8        49.632
S44        42.000    40574562.941 6 213220926.51606      -406.048 6        38.066
G28        43.000    24124739.533 6 126776531.65006     -3876.427 6        40.100                                    24124738.416 4  98786993.51904     -3020.586 4        25.338    24124738.137 6  98786993.52006     -3020.593 6        39.967
C05        44.000                                                                                                                                    39394438.521 6 205137198.47106      -397.014 6        38.195    39394433.537 7 158625114.97907      -307.113 7        42.389    39394434.990 6 166690877.79406      -322.639 6        39.583
C11        45.000                                                                                                                                    22966623.774 7 119593366.32107      1549.153 7        47.229    22966621.073 8  92477234.32508      1197.881 8        50.508    22966619.465 8  97179443.54608      1258.810 8        48.070
R16        46.000    20899519.795 8 111641679.63108     -4067.882 8        50.990                                                                    20899520.012 7  86832531.04607     -3163.827 7        46.227
R17        47.000    24359119.638 6 130350819.93106     -4342.512 6        40.107                                                                    24359120.553 6 101384105.51906     -3377.667 6        36.813
C35        48.000                                                                                                                                    26643775.827 6 138741300.58206     -3433.822 6        39.354                                                                    26643775.340 6 112738736.75306     -2790.172 6        39.568
C24        49.000                                                                                                                                    23998157.129 7 124964771.03207     -3620.449 7        46.323                                                                    23998154.576 7 101544134.55607     -2941.908 7        46.039
R19        50.000    19376047.723 7 103649053.00307      -300.185 7        42.483                                                                    19376046.923 7  80616043.20207      -233.475 7        45.071
S48        51.000    77208768.078 6 405735359.37106      -502.169 6        38.432
C08        52.000                                                                                                                                    37764262.952 7 196648528.94707      -326.828 7        42.468    37764256.931 7 152061145.60307      -252.695 7        45.520    37764256.095 7 159793055.48507      -265.573 7        42.868
C34        53.000                                                                                                                                    21630453.575 8 112635725.03508       433.625 8        51.239                                                                    21630453.306 8  91525868.82008       352.314 8        49.451
C60        54.000                                                                                                                                    40574560.542 6 211282573.75506      -402.345 6        39.342                                                                    40574546.713 6 171684364.08406      -327.109 6        40.951
C25        55.000                                                                                                                                    22274985.894 8 115991941.95208     -1073.320 8        50.360                                                                    22274984.216 8  94253047.20008      -872.221 8        49.123
C02        57.000                                                                                                                                    40748914.360 5 212190323.85405      -372.144 5        34.138    40748909.962 6 164079007.69906      -287.755 6        39.456    40748912.193 5 172422018.99705      -302.366 5        35.186
I03        58.000    84475828.421 6 255716030.44806      1107.831 6        40.648
E30        59.000    25682413.434 7 134962198.88807      1759.185 7        43.706                                                                    25682414.325 7 100783575.71007      1313.616 7        46.952    25682413.918 7 103412696.24707      1347.944 7        47.677
R20        60.000    22917242.786 6 122548952.77306      3136.315 6        37.414                                                                    22917247.622 6  95315908.36806      2439.513 6        40.918
> 2025 01 02 17 31 35.0000000  0 56
G23         1.000    23887855.896 6 125531581.04406      3035.012 6        40.210                                    23887854.010 4  97816831.48204      2364.940 4        25.910    23887854.308 6  97816829.48806      2364.969 6        40.596
E11         2.000    25422615.302 6 133596940.23506     -2716.499 6        40.779                                                                    25422611.777 7  99764073.31307     -2028.592 7        42.923    25422611.416 7 102366600.64407     -2081.523 7        43.354
G16         3.000    21861977.923 7 114885661.72507      2195.351 7        45.577                                    21861973.783 5  89521376.35305      1710.664 5        32.485
G05         4.000    23121064.135 7 121502110.11707     -1673.669 7        43.816                                    23121061.467 6  94676992.92806     -1304.157 6        39.078    23121061.378 6  94676991.93706     -1304.119 6        39.748
S21         5.000    38482493.694 7 202226540.62307      -464.677 7        42.595
G26         6.000    20595192.068 8 108228699.13008       119.797 8        49.849                                    20595191.217 8  84334182.56108        93.347 8        51.408    20595191.472 7  84334169.56507        93.322 7        45.240
G25         7.000    24358938.860 6 128007258.09106     -4251.947 6        38.156                                    24358939.242 5  99745999.93905     -3313.205 5        32.395    24358940.131 6  99746000.92506     -3313.030 6        37.017
E36         9.000    23443130.983 8 123194674.64508      -208.938 8        48.390                                                                    23443131.625 8  91996166.23108      -156.015 8        50.928    23443131.131 8  94396053.56008      -160.120 8        51.009
G27        10.000    24282403.295 6 127604975.88206      2875.224 6        39.363                                    24282404.953 5  99432502.48905      2240.428 5        31.245    24282404.919 5  99432504.51705      2240.603 5        33.671
G20        11.000    25312048.435 5 133015827.40905     -3371.195 5        35.405                                    25312044.995 2 103648757.36902     -2626.901 2        15.143
S27        12.000    39263803.951 6 206332802.23006      -444.631 6        36.514
C23        13.000                                                                                                                                    24930703.179 7 129820750.94507      1848.588 7        44.287                                                                    24930696.381 7 105489982.71207      1502.006 7        44.889
S36        14.000    38253271.816 7 201022808.82907      -464.008 7        44.146
C13        15.000                                                                                                                                    37767160.438 7 196663570.72007       -86.228 7        44.992    37767162.367 7 152072780.82607       -66.714 7        45.141    37767160.558 7 159805282.36807       -70.214 7        43.549
G18        16.000    20596176.803 8 108233869.92008        86.523 8        49.490                                    20596173.181 7  84338177.52507        67.416 7        43.293    20596173.243 8  84338185.53008        67.349 8        49.292
R10        17.000    22012253.494 7 117337717.79607      3092.553 7        42.082
R01        18.000    24224126.703 6 129491841.31806     -2593.697 6        37.323                                                                    24224127.806 5 100715751.33205     -2017.432 5        33.024
E02        19.000    23240042.594 8 122127435.41508      -786.057 8        48.714                                                                    23240041.821 8  91199168.29508      -587.019 8        51.157    23240041.247 8  93578262.14408      -602.309 8        51.273
E10        21.000    28017458.563 6 147232962.14206     -3368.788 6        37.565                                                                    28017458.741 6 109946827.85806     -2515.771 6        41.278    28017457.996 6 112814990.79306     -2581.226 6        40.932
I06        22.000    38767816.085 6 152133444.21606      -344.386 6        41.986
S28        23.000    40959027.298 5 215241123.85205      -460.828 5        34.333
E29        24.000    28907800.094 5 151911537.86605     -1239.958 5        35.948                                                                    28907799.807 6 113440436.94406      -925.859 6        38.408    28907799.767 6 116399752.86506      -950.141 6        40.713
S23        25.000    38206893.653 7 200778505.92207      -467.286 7        45.070
S45        26.000    63464381.124 6 333508097.19906      -522.668 6        37.085
R09        27.000    19471565.682 8 103977279.08208        85.876 8        52.029                                                                    19471565.100 8  80871328.41808        66.810 8        49.049
R18        28.000    20451024.534 8 109169256.17108     -3189.482 8        48.800                                                                    20451026.431 7  84909573.12707     -2480.722 7        47.319
C38        29.000                                                                                                                                    38709511.015 7 201570698.53507      -843.573 7        43.409                                                                    38709509.045 7 163792748.09707      -685.603 7        43.833
C44        30.000                                                                                                                                    22556137.035 8 117455947.06708     -2427.647 8        48.664                                                                    22556135.644 8  95442663.27108     -1972.797 8        48.209
C43        31.000                                                                                                                                    24805847.680 7 129170623.73107      2256.949 7        43.979                                                                    24805847.836 7 104961746.74007      1833.879 7        42.906
R02        32.000    23312623.796 7 124400640.18407       537.795 7        44.229                                                                    23312624.437 6  96756059.38206       418.188 6        39.562
I02        33.000    38638833.506 6 151627133.41506      -906.311 6        41.070
R03        34.000    24085637.511 7 128932318.69907      2939.151 7        43.481                                                                    24085637.838 6 100280688.00806      2286.150 6        39.592
E34        35.000    25640489.384 7 134741865.17807      2188.771 7        44.479                                                                    25640491.256 7 100619029.25207      1634.415 7        46.782    25640490.718 7 103243863.07107      1677.077 7        47.561
G29        36.000    21869355.288 7 114924535.65207     -2728.260 7        46.617                                    21869351.337 7  89551696.60107     -2125.917 7        45.204    21869352.153 7  89551706.60807     -2126.022 7        42.036
G31        37.000    22911801.585 7 120402554.90607     -3104.059 7        44.781                                    22911798.840 6  93820269.85606     -2418.748 6        41.468    22911799.718 6  93820275.85706     -2418.798 6        40.815
C22        38.000                                                                                                                                    25670287.684 6 133671933.79506      1628.339 6        41.077                                                                    25670282.811 7 108619375.74107      1322.988 7        42.464
E25        39.000    25780643.969 7 135478412.08707     -3032.143 7        42.402                                                                    25780645.498 7 101169073.61007     -2264.284 7        46.691    25780645.153 7 103808251.15407     -2323.384 7        47.315
C12        40.000                                                                                                                                    21817203.152 8 113608112.85508     -1237.204 8        48.545    21817199.871 8  87849096.54808      -956.696 8        51.688    21817199.272 8  92315971.27108     -1005.449 8        49.445
S44        42.000    40574949.924 6 213222957.86106      -406.069 6        38.006
G28        43.000    24128428.348 6 126795916.05906     -3877.047 6        40.958                                    24128426.963 4  98802098.24004     -3021.077 4        25.098    24128426.987 6  98802098.24906     -3021.223 6        39.459
C05        44.000                                                                                                                                    39394819.937 6 205139185.17006      -397.137 6        38.183    39394814.886 7 158626651.21807      -307.078 7        42.444    39394816.625 6 166692492.15306      -322.738 6        39.510
C11        45.000                                                                                                                                    22965136.485 7 119585624.85307      1547.791 7        47.225    22965134.428 8  92471248.14408      1196.800 8        50.389    22965132.818 7  97173152.97407      1257.644 7        47.901
R16        46.000    20903328.420 8 111662026.29508     -4070.495 8        50.892                                                                    20903328.533 7  86848356.22807     -3165.940 7        45.795
R17        47.000    24363177.241 6 130372532.84606     -4342.173 6        39.703                                                                    24363177.760 6 101400993.32806     -3377.230 6        36.646
C35        48.000                                                                                                                                    26647072.744 6 138758469.75606     -3433.446 6        39.637                                                                    26647072.443 6 112752688.11406     -2790.223 6        39.039
C24        49.000                                                                                                                                    24001634.129 7 124982876.81007     -3621.502 7        45.866                                                                    24001631.765 7 101558846.96807     -2942.902 7        45.887
R19        50.000    19376330.413 7 103650562.67007      -303.177 7        42.673                                                                    19376329.400 7  80617217.38807      -235.856 7        45.064
S48        51.000    77209215.942 6 405737871.65906      -502.342 6        38.108
C08        52.000                                                                                                                                    37764577.689 7 196650166.49607      -327.992 7        42.548    37764571.428 7 152062411.86907      -253.547 7        45.491    37764570.499 7 159794386.14207      -266.547 7        42.711
C34        53.000                                                                                                                                    21630038.186 8 112633561.99208       431.948 8        51.292                                                                    21630037.933 8  91524111.17408       350.889 8        49.295
C60        54.000                                                                                                                                    40574947.110 6 211284586.63406      -402.478 6        39.315                                                                    40574933.191 6 171685999.70006      -326.946 6        40.725
C25        55.000                                                                                                                                    22276018.162 8 115997316.62008     -1076.177 8        50.453                                                                    22276016.364 8  94257414.55208      -874.505 8        48.942
C02        57.000                                                                                                                                    40749272.054 5 212192184.77705      -372.040 5        34.062    40749267.244 6 164080446.69906      -287.706 6        39.369    40749269.440 5 172423531.16405      -302.483 5        35.348
I03        58.000    84474417.223 6 255710491.72606      1107.872 6        40.710
E30        59.000    25680740.308 7 134953406.36907      1758.166 7        43.797                                                                    25680741.183 7 100777009.87807      1312.866 7        46.900    25680740.718 7 103405959.12907      1347.198 7        47.760
R20        60.000    22914310.513 6 122533274.48706      3134.940 6        37.278                                                                    22914315.853 6  95303714.17006      2438.546 6        41.166
> 2025 01 02 17 31 40.0000000  0 56
G23         1.000    23884968.637 6 125516408.75306      3034.305 6        40.036                                    23884966.871 4  97805008.94604      2364.380 4        26.132    23884966.788 6  97805006.97106      2364.246 6        40.734
E11         2.000    25425200.617 6 133610526.75506     -2717.769 6        40.734                                                                    25425197.108 7  99774219.08707     -2029.509 7        43.043    25425196.841 7 102377011.09907     -2082.516 7        43.530
G16         3.000    21859890.183 7 114874691.11907      2193.308 7        45.389                                    21859886.125 5  89512827.84305      1709.071 5        32.431
G05         4.000    23122658.498 7 121510488.07807     -1677.087 7        43.291                                    23122655.583 6  94683521.21206     -1306.819 6        38.787    23122655.683 6  94683520.21806     -1307.035 6        39.405
S21         5.000    38482934.824 7 202228864.66407      -464.748 7        42.463
G26         6.000    20595079.663 8 108228108.68108       116.810 8        50.130                                    20595078.868 8  84333722.47308        91.016 8        51.310    20595079.135 7  84333709.48207        90.999 7        45.497
G25         7.000    24362985.025 6 128028519.98706     -4252.481 6        38.495                                    24362985.278 5  99762567.64205     -3313.631 5        32.695    24362986.097 6  99762568.64906     -3313.621 6        37.157
E36         9.000    23443330.909 8 123195725.84008      -211.103 8        48.371                                                                    23443331.645 8  91996951.21908      -157.639 8        50.971    23443331.181 8  94396859.02708      -161.772 8        51.274
G27        10.000    24279668.543 6 127590602.47806      2874.609 6        39.321                                    24279669.769 5  99421302.47105      2239.949 5        31.155    24279670.437 5  99421304.49205      2239.766 5        34.452
G20        11.000    25315256.931 5 133032688.32405     -3372.875 5        35.343                                    25315253.478 2 103661895.75302     -2628.235 2        15.238
S27        12.000    39264227.749 6 206335025.91106      -444.630 6        36.276
C23        13.000                                                                                                                                    24928929.849 7 129811514.00407      1846.580 7        44.531                                                                    24928922.556 7 105482476.91407      1500.521 7        44.853
S36        14.000    38253714.788 7 201025130.05307      -464.068 7        44.146
C13        15.000                                                                                                                                    37767244.116 7 196664005.45307       -87.231 7        45.130    37767245.949 7 152073116.99707       -67.514 7        45.398    37767244.081 7 159805635.60707       -70.877 7        43.608
G18        16.000    20596096.104 8 108233445.95108        83.473 8        49.436                                    20596092.491 7  84337847.16007        65.043 7        43.335    20596092.430 8  84337855.16508        65.094 8        49.373
R10        17.000    22009354.329 7 117322261.87207      3090.177 7        42.197
R01        18.000    24226555.796 6 129504819.97606     -2597.315 6        37.142                                                                    24226556.574 5 100725845.85505     -2019.978 5        33.707
E02        19.000    23240791.672 8 122131371.71208      -788.003 8        48.513                                                                    23240790.833 8  91202107.74308      -588.489 8        51.173    23240790.306 8  93581278.27308      -603.872 8        51.508
E10        21.000    28020663.854 6 147249807.85306     -3369.078 6        37.399                                                                    28020664.309 6 109959407.42706     -2516.011 6        41.170    28020663.718 6 112827898.53206     -2581.617 6        41.266
I06        22.000    38768254.829 6 152135166.66406      -344.419 6        41.998
S28        23.000    40959466.340 5 215243428.14105      -460.729 5        34.133
E29        24.000    28908980.872 5 151917744.07405     -1242.222 5        35.657                                                                    28908981.101 6 113445071.44606      -927.488 6        38.228    28908980.964 6 116404508.26506      -951.808 6        40.391
S23        25.000    38207338.486 7 200780843.63407      -467.312 7        44.990
S45        26.000    63464824.517 6 333510711.22406      -522.740 6        37.096
R09        27.000    19471487.677 8 103976861.89508        81.397 8        52.066                                                                    19471486.329 8  80871003.94108        63.333 8        48.664
R18        28.000    20454013.232 8 109185209.30908     -3191.304 8        49.416                                                                    20454014.516 7  84921981.12507     -2482.110 7        47.309
C38        29.000                                                                                                                                    38710321.794 7 201574919.97607      -844.585 7        43.460                                                                    38710319.737 7 163796178.34307      -686.327 7        44.075
C44        30.000                                                                                                                                    22558468.753 8 117468089.51008     -2428.916 8        48.878                                                                    22558467.467 8  95452529.97908     -1973.631 8        48.418
C43        31.000                                                                                                                                    24803680.975 7 129159342.10607      2256.035 7        44.290                                                                    24803681.446 7 104952579.50407      1833.257 7        43.238
R02        32.000    23312121.854 7 124397962.45007       533.659 7        44.772                                                                    23312122.016 6  96753976.69406       414.979 6        38.973
I02        33.000    38639988.300 6 151631664.82606      -906.246 6        41.321
R03        34.000    24082893.745 7 128917627.70107      2937.620 7        43.221                                                                    24082894.035 6 100269261.68806      2284.819 6        40.284
E34        35.000    25638407.640 7 134730925.69207      2187.479 7        44.315                                                                    25638409.388 7 100610860.18207      1633.425 7        46.783    25638408.962 7 103235480.88707      1676.151 7        47.695
G29        36.000    21871951.982 7 114938181.67807     -2729.699 7        46.528                                    21871948.124 7  89562329.86607     -2127.041 7        45.169    21871948.662 7  89562339.85907     -2127.051 7        42.275
G31        37.000    22914756.625 7 120418081.50907     -3106.214 7        44.620                                    22914753.518 6  93832368.50206     -2420.427 6        41.507    22914753.980 6  93832374.50506     -2420.406 6        41.528
C22        38.000                                                                                                                                    25668724.970 6 133663798.03806      1626.465 6        41.094                                                                    25668720.566 7 108612764.77807      1321.548 7        42.690
E25        39.000    25783529.926 7 135493576.82807     -3033.292 7        42.510                                                                    25783531.239 7 101180397.92407     -2265.216 7        46.730    25783530.747 7 103819870.88207     -2324.253 7        47.511
C12        40.000                                                                                                                                    21818392.597 8 113614304.10508     -1238.909 8        48.607    21818388.830 8  87853884.01708      -958.027 8        51.875    21818388.220 8  92321002.15108     -1006.657 8        49.614
S44        42.000    40575334.367 6 213224989.57206      -406.198 6        38.039
G28        43.000    24132117.693 6 126815303.98306     -3877.447 6        41.201                                    24132116.267 4  98817205.71004     -3021.389 4        25.414    24132116.531 6  98817205.70906     -3021.704 6        39.513
C05        44.000                                                                                                                                    39395201.228 6 205141172.06606      -397.331 6        38.198    39395196.499 7 158628187.62407      -307.210 7        42.662    39395198.211 6 166694106.65606      -322.833 6        39.607
C11        45.000                                                                                                                                    22963651.338 7 119577890.56907      1546.359 7        47.282    22963649.104 8  92465267.51008      1195.743 8        50.373    22963647.567 8  97166868.23108      1256.467 8        48.148
R16        46.000    20907139.974 8 111682386.57508     -4073.170 8        51.109                                                                    20907140.143 7  86864192.00707     -3168.083 7        46.185
R17        47.000    24367234.116 6 130394244.08706     -4341.846 6        39.390                                                                    24367235.327 6 101417879.85506     -3376.999 6        37.913
C35        48.000                                                                                                                                    26650369.820 6 138775638.66406     -3433.633 6        39.700                                                                    26650369.460 6 112766639.24206     -2790.029 6        39.300
C24        49.000                                                                                                                                    24005111.761 7 125000988.29807     -3622.673 7        46.429                                                                    24005109.918 7 101573564.01707     -2943.741 7        45.943
R19        50.000    19376615.048 7 103652088.25307      -306.534 7        42.419                                                                    19376614.476 7  80618403.95907      -238.383 7        45.270
S48        51.000    77209668.421 6 405740383.79506      -502.303 6        38.189
C08        52.000                                                                                                                                    37764893.408 7 196651809.78907      -329.018 7        42.554    37764886.961 7 152063682.57607      -254.459 7        45.413    37764886.286 7 159795721.43507      -267.336 7        43.016
C34        53.000                                                                                                                                    21629624.319 8 112631407.82308       430.116 8        51.279                                                                    21629624.272 8  91522360.72208       349.486 8        49.481
C60        54.000                                                                                                                                    40575333.708 6 211286599.87906      -402.564 6        39.264                                                                    40575319.870 6 171687635.62506      -327.044 6        40.949
C25        55.000                                                                                                                                    22277053.054 8 116002705.51908     -1079.048 8        50.449                                                                    22277051.161 8  94261793.46008      -876.776 8        49.151
C02        57.000                                                                                                                                    40749628.755 5 212194046.03005      -372.090 5        33.982    40749624.460 6 164081885.94106      -287.891 6        39.559    40749626.968 5 172425043.58805      -302.519 5        35.338
I03        58.000    84473005.965 6 255704953.21006      1107.749 6        40.896
E30        59.000    25679068.237 7 134944619.03507      1757.053 7        43.928                                                                    25679068.974 7 100770447.91007      1312.161 7        46.932    25679068.456 7 103399225.98607      1346.321 7        47.901
R20        60.000    22911380.634 6 122517603.17406      3133.749 6        37.112                                                                    22911385.921 6  95291525.43606      2437.390 6        41.580
> 2025 01 02 17 31 45.0000000  0 56
G23         1.000    23882082.161 6 125501238.99906      3033.978 6        40.617                                    23882080.094 4  97793188.40004      2364.130 4        26.275    23882080.235 6  97793186.40306      2364.155 6        40.148
E11         2.000    25427786.889 6 133624118.57306     -2718.674 6        40.834                                                                    25427783.592 7  99784368.82807     -2030.222 7        42.973    25427783.161 7 102387425.60307     -2083.069 7        43.437
G16         3.000    21857804.166 7 114863729.78407      2191.515 7        45.345                                    21857800.256 5  89504286.55105      1707.669 5        32.629
G05         4.000    23124255.408 7 121518882.32607     -1680.310 7        43.331                                    23124252.744 6  94690062.18106     -1309.332 6        38.718    23124252.769 6  94690061.18706     -1309.451 6        38.354
S21         5.000    38483378.861 7 202231188.16007      -464.544 7        42.487
G26         6.000    20594969.945 8 108227532.71608       113.949 8        50.079                                    20594969.255 8  84333273.67008        88.792 8        51.446    20594969.548 7  84333260.67107        88.808 7        45.210
G25         7.000    24367031.324 6 128049783.84306     -4252.794 6        38.607                                    24367031.734 5  99779136.87305     -3313.866 5        33.192    24367032.488 6  99779137.87606     -3313.857 6        37.406
E36         9.000    23443532.900 8 123196787.17108      -213.058 8        48.342                                                                    23443533.604 8  91997743.77208      -159.147 8        50.967    23443533.128 8  94397672.25108      -163.249 8        51.208
G27        10.000    24276933.550 6 127576230.85306      2874.227 6        39.243                                    24276934.840 5  99410103.83605      2239.651 5        31.570    24276936.069 5  99410105.84605      2239.742 5        34.195
G20        11.000    25318467.328 5 133049556.91905     -3374.325 5        35.510                                    25318463.459 2 103675040.07802     -2629.316 2        15.095
S27        12.000    39264650.523 6 206337248.89006      -444.401 6        36.386
C23        13.000                                                                                                                                    24927157.598 7 129802286.07507      1844.867 7        44.299                                                                    24927150.478 7 105474978.48307      1499.109 7        44.910
S36        14.000    38254156.942 7 201027450.54807      -463.952 7        44.050
C13        15.000                                                                                                                                    37767328.519 7 196664444.80207       -88.103 7        44.888    37767330.390 7 152073456.72007       -68.135 7        45.386    37767328.411 7 159805992.60907       -71.561 7        43.503
G18        16.000    20596018.083 8 108233036.05608        80.770 8        49.758                                    20596014.483 7  84337527.76707        62.938 7        43.293    20596014.762 8  84337535.76308        62.917 8        49.371
R10        17.000    22006456.912 7 117306816.43307      3088.280 7        42.055
R01        18.000    24228985.635 6 129517815.16406     -2600.638 6        38.057                                                                    24228988.301 5 100735953.16105     -2022.502 5        33.335
E02        19.000    23241542.558 8 122135317.09108      -789.821 8        48.546                                                                    23241541.643 8  91205053.96108      -589.811 8        51.163    23241541.088 8  93584301.34508      -605.160 8        51.463
E10        21.000    28023869.779 6 147266654.62106     -3369.183 6        37.565                                                                    28023870.104 6 109971987.80006     -2515.891 6        41.340    28023869.585 6 112840807.10106     -2581.683 6        41.237
I06        22.000    38768693.767 6 152136888.56406      -344.240 6        41.986
S28        23.000    40959902.914 5 215245732.21605      -460.483 5        34.200
E29        24.000    28910163.856 6 151923960.80306     -1244.045 6        36.174                                                                    28910163.894 6 113449713.90606      -929.130 6        38.357    28910163.555 6 116409271.80806      -953.335 6        40.169
S23        25.000    38207781.664 7 200783180.66907      -467.152 7        44.963
S45        26.000    63465271.317 6 333513324.84106      -522.387 6        37.017
R09        27.000    19471413.535 8 103976466.14108        77.298 8        51.783                                                                    19471412.395 8  80870696.14808        60.027 8        48.674
R18        28.000    20457004.228 8 109201170.50908     -3192.882 8        49.297                                                                    20457004.594 7  84934395.39107     -2483.328 7        47.167
C38        29.000                                                                                                                                    38711133.306 7 201579145.41507      -845.360 7        43.084                                                                    38711131.148 7 163799611.85707      -686.863 7        43.968
C44        30.000                                                                                                                                    22560801.639 8 117480237.02708     -2429.796 8        48.857                                                                    22560800.296 8  95462400.84808     -1974.497 8        48.260
C43        31.000                                                                                                                                    24801514.863 7 129148063.94907      2255.455 7        44.023                                                                    24801515.625 7 104943415.09907      1832.740 7        43.084
R02        32.000    23311623.688 7 124395304.54707       529.971 7        44.418                                                                    23311623.096 6  96751909.41906       412.196 6        38.628
I02        33.000    38641142.904 6 151636196.59406      -906.162 6        41.273
R03        34.000    24080150.694 7 128902943.62407      2936.340 7        43.685                                                                    24080150.927 6 100257840.74806      2283.796 6        40.439
E34        35.000    25636327.129 7 134719991.66507      2186.463 7        44.534                                                                    25636328.726 7 100602695.17007      1632.776 7        46.919    25636328.216 7 103227102.88207      1675.368 7        47.718
G29        36.000    21874549.945 7 114951833.53607     -2730.729 7        46.587                                    21874546.016 7  89572967.67707     -2127.841 7        45.294    21874546.304 6  89572977.67706     -2127.790 6        41.928
G31        37.000    22917712.995 7 120433617.65807     -3107.984 7        44.536                                    22917709.989 6  93844474.59106     -2421.806 6        41.421    22917709.898 6  93844480.58506     -2421.813 6        40.996
C22        38.000                                                                                                                                    25667164.271 6 133655670.68406      1624.823 6        41.399                                                                    25667159.823 7 108606160.65407      1320.355 7        42.730
E25        39.000    25786416.793 7 135508746.30307     -3034.209 7        42.925                                                                    25786417.927 7 101191725.77907     -2265.779 7        46.577    25786417.219 7 103831494.24407     -2324.891 7        47.305
C12        40.000                                                                                                                                    21819582.869 8 113620503.13608     -1240.411 8        48.466    21819579.309 8  87858677.48908      -959.150 8        52.086    21819578.651 8  92326039.38108     -1007.952 8        49.506
S44        42.000    40575721.283 6 213227020.93206      -406.005 6        38.093
G28        43.000    24135807.424 6 126834694.68406     -3878.223 6        40.787                                    24135806.138 4  98832315.34104     -3021.983 4        25.489    24135807.194 6  98832315.33806     -3021.979 6        39.988
C05        44.000                                                                                                                                    39395582.823 6 205143158.49306      -397.084 6        38.099    39395577.834 7 158629723.64507      -306.970 7        42.656    39395579.667 6 166695720.79306      -322.729 6        39.550
C11        45.000                                                                                                                                    22962167.768 7 119570162.70107      1545.134 7        47.442    22962165.233 8  92459291.83808      1194.808 8        50.524    22962163.492 7  97160588.71607      1255.511 7        47.982
R16        46.000    20910953.472 8 111702759.61608     -4075.736 8        50.739                                                                    20910954.324 7  86880037.69707     -3170.021 7        46.161
R17        47.000    24371292.476 6 130415953.01406     -4341.222 6        39.447                                                                    24371291.793 6 101434764.55506     -3376.713 6        38.174
C35        48.000                                                                                                                                    26653666.835 6 138792806.55406     -3433.277 6        39.267                                                                    26653666.546 6 112780589.55706     -2789.854 6        38.988
C24        49.000                                                                                                                                    24008591.337 7 125019104.75907     -3623.570 7        47.078                                                                    24008588.896 7 101588285.14707     -2944.509 7        45.818
R19        50.000    19376903.540 7 103653629.17407      -309.508 7        42.381                                                                    19376902.670 7  80619602.45007      -240.761 7        45.106
S48        51.000    77210119.187 6 405742895.25706      -502.027 6        38.096
C08        52.000                                                                                                                                    37765209.319 7 196653458.04407      -329.976 7        42.265    37765203.734 7 152064957.11107      -255.142 7        45.576    37765202.787 7 159797060.79207      -268.142 7        42.675
C34        53.000                                                                                                                                    21629212.090 8 112629261.78008       428.560 8        51.165                                                                    21629212.169 8  91520616.89308       348.235 8        49.346
C60        54.000                                                                                                                                    40575720.083 6 211288612.77606      -402.341 6        39.189                                                                    40575706.522 6 171689271.29006      -327.033 6        40.949
C25        55.000                                                                                                                                    22278090.545 8 116008107.90308     -1081.643 8        50.346                                                                    22278088.655 8  94266183.34608      -878.950 8        49.067
C02        57.000                                                                                                                                    40749986.235 5 212195906.83805      -371.883 5        34.100    40749982.047 6 164083324.83306      -287.521 6        39.556    40749984.255 5 172426555.67905      -302.442 5        35.138
I03        58.000    84471594.558 6 255699414.32306      1107.966 6        40.858
E30        59.000    25677396.518 7 134935836.11907      1756.359 7        44.093                                                                    25677397.632 7 100763889.24507      1311.569 7        47.027    25677397.170 8 103392496.22208      1345.771 8        48.012
R20        60.000    22908452.049 6 122501938.15406      3132.501 6        37.274                                                                    22908456.152 6  95279341.59006      2436.437 6        41.399
