     3.04           OBSERVATION DATA    M                   RINEX VERSION / TYPE
ssrcrin-15.6.1x                         20250102 054500 UTC PGM / RUN BY / DATE 
(00000000023479385599111004) Septentrio proprietary         COMMENT             
rref                                                        MARKER NAME         
01                                                          MARKER NUMBER       
geodetic                                                    MARKER TYPE         
NFB                 CLIMERS@TUW                             OBSERVER / AGENCY   
3297213             SEPT ASTERX SB3 PROB4.14.4              REC # / TYPE / VERS 
Unknown             Unknown                                 ANT # / TYPE        
  4127831.6892  1207193.0924  4695247.5757                  APPROX POSITION XYZ 
        0.0000        0.0000        0.0000                  ANTENNA: DELTA H/E/N
G   23 X1  C1C L1C D1C S1C C1W S1W C2W L2W D2W S2W C2L L2L  SYS / # / OBS TYPES 
       D2L S2L C5Q L5Q D5Q S5Q C1L L1L D1L S1L              SYS / # / OBS TYPES 
E   21 X1  C1C L1C D1C S1C C6C L6C D6C S6C C5Q L5Q D5Q S5Q  SYS / # / OBS TYPES 
       C7Q L7Q D7Q S7Q C8Q L8Q D8Q S8Q                      SYS / # / OBS TYPES 
S    9 X1  C1C L1C D1C S1C C5I L5I D5I S5I                  SYS / # / OBS TYPES 
R   17 X1  C1C L1C D1C S1C C2P L2P D2P S2P C2C L2C D2C S2C  SYS / # / OBS TYPES 
       C3Q L3Q D3Q S3Q                                      SYS / # / OBS TYPES 
C   25 X1  C1P L1P D1P S1P C5P L5P D5P S5P C2I L2I D2I S2I  SYS / # / OBS TYPES 
       C7I L7I D7I S7I C6I L6I D6I S6I C7D L7D D7D S7D      SYS / # / OBS TYPES 
J   17 X1  C1C L1C D1C S1C C2L L2L D2L S2L C5Q L5Q D5Q S5Q  SYS / # / OBS TYPES 
       C1L L1L D1L S1L                                      SYS / # / OBS TYPES 
I    5 X1  C5A L5A D5A S5A                                  SYS / # / OBS TYPES 
SEPTENTRIO RECEIVERS OUTPUT ALIGNED CARRIER PHASES.         COMMENT             
NO FURTHER PHASE SHIFT APPLIED IN THE RINEX ENCODER.        COMMENT             
G L1C                                                       SYS / PHASE SHIFT   
G L2W                                                       SYS / PHASE SHIFT   
G L2L  0.00000                                              SYS / PHASE SHIFT   
G L5Q  0.00000                                              SYS / PHASE SHIFT   
G L1L  0.00000                                              SYS / PHASE SHIFT   
E L1C  0.00000                                              SYS / PHASE SHIFT   
E L6C  0.00000                                              SYS / PHASE SHIFT   
E L5Q  0.00000                                              SYS / PHASE SHIFT   
E L7Q  0.00000                                              SYS / PHASE SHIFT   
E L8Q  0.00000                                              SYS / PHASE SHIFT   
S L1C                                                       SYS / PHASE SHIFT   
S L5I                                                       SYS / PHASE SHIFT   
R L1C                                                       SYS / PHASE SHIFT   
R L2P  0.00000                                              SYS / PHASE SHIFT   
R L2C                                                       SYS / PHASE SHIFT   
R L3Q  0.00000                                              SYS / PHASE SHIFT   
C L1P  0.00000                                              SYS / PHASE SHIFT   
C L5P  0.00000                                              SYS / PHASE SHIFT   
C L2I                                                       SYS / PHASE SHIFT   
C L7I                                                       SYS / PHASE SHIFT   
C L6I                                                       SYS / PHASE SHIFT   
C L7D                                                       SYS / PHASE SHIFT   
J L1C                                                       SYS / PHASE SHIFT   
J L2L  0.00000                                              SYS / PHASE SHIFT   
J L5Q  0.00000                                              SYS / PHASE SHIFT   
J L1L  0.00000                                              SYS / PHASE SHIFT   
I L5A                                                       SYS / PHASE SHIFT   
  2025     1     2     5    45    0.0000000     GPS         TIME OF FIRST OBS   
 C1C    0.000 C2C    0.000 C2P    0.000                     GLONASS COD/PHS/BIS 
DBHZ                                                        SIGNAL STRENGTH UNIT
    18                                                      LEAP SECONDS        
 24 R01  1 R02 -4 R03  5 R04  6 R05  1 R06 -4 R07  5 R08  6 GLONASS SLOT / FRQ #
    R09 -2 R10 -7 R11  0 R12 -1 R13 -2 R14 -7 R15  0 R16 -1 GLONASS SLOT / FRQ #
    R17  4 R18 -3 R19  3 R20  2 R21  4 R22 -3 R23  3 R24  2 GLONASS SLOT / FRQ #
                                                            END OF HEADER       
> 2025 01 02 05 45  0.0000000  0 54
G09         1.000    21512595.899 7 113049483.03907     -2834.971 7        46.060                                    21512593.431 7  88090510.87507     -2209.068 7        46.675    21512593.566 7  88090510.88107     -2209.095 7        43.145
G06         2.000    23931885.461 6 125762916.36206     -3925.404 6        40.400                                    23931884.262 5  97997079.99305     -3058.753 5        35.900    23931884.377 6  97997087.98406     -3058.720 6        39.523
E11         3.000    25258933.283 7 132736607.37307     -2373.800 7        42.051                                                                    25258928.922 7  99121483.11507     -1772.689 7        43.259    25258928.572 7 101707257.11307     -1818.996 7        43.797
G16         4.000    24296766.072 6 127680376.11506     -2868.838 6        38.078                                    24296761.565 2  99491184.06902     -2235.448 2        17.623
S21         5.000    38374635.399 7 201659779.15007      -480.846 7        42.487
E10         6.000    26322301.346 7 138324631.43807     -3393.900 7        43.052                                                                    26322300.523 7 103294362.65807     -2534.502 7        45.347    26322300.381 7 105988997.88207     -2600.670 7        45.669
G20         7.000    20917683.386 8 109923178.33108       955.343 8        48.080                                    20917677.880 6  85654406.22506       744.426 6        38.228
R02         8.000    23171663.164 7 123648435.58507      2969.603 7        44.941                                                                    23171662.259 6  96171005.95306      2309.607 6        40.458
R10         9.000    20405510.117 7 108772852.18307     -2197.687 7        44.486
R17        10.000    22224964.583 7 118930282.69207      -922.403 7        47.437                                                                    22224963.507 7  92501325.32907      -717.390 7        43.843
G30        11.000    21084407.518 8 110799321.30308      1448.671 8        49.648                                    21084405.235 8  86337126.03108      1128.834 8        50.081    21084405.667 7  86337134.03207      1128.823 7        44.173
S27        12.000    39019233.050 6 205047366.48906      -499.631 6        37.263
G13        13.000    24287985.118 6 127634226.28306      2823.623 6        39.063                                    24287980.329 2  99455219.98902      2200.215 2        16.377
S36        14.000    38142707.871 7 200441788.15307      -481.100 7        44.862
I09        15.000    38381690.180 7 150617979.05607      -861.636 7        42.474
E09        16.000    26413370.596 7 138803222.57507      1726.693 7        42.603                                                                    26413369.752 7 103651756.78107      1289.429 7        44.448    26413369.346 7 106355711.83307      1322.968 7        45.126
S45        17.000    63326569.867 6 332783592.63606      -522.728 6        37.233
E36        18.000    26090557.972 7 137106806.36807       247.451 7        42.315                                                                    26090557.637 7 102384973.77107       184.834 7        45.023    26090557.543 7 105055884.29707       189.777 7        45.681
E12        19.000    27873857.565 5 146478103.07405     -3730.816 5        35.771                                                                    27873854.572 6 109382983.24706     -2786.176 6        38.670    27873854.533 6 112236452.34706     -2858.782 6        39.661
E21        20.000    25762341.534 7 135382014.90907        30.568 7        43.399                                                                    25762340.956 7 101096974.38207        22.886 7        45.884    25762340.661 7 103734283.08007        23.480 7        47.131
G11        21.000    22677787.074 7 119172589.31007     -2478.188 7        45.276                                    22677782.614 5  92861739.79405     -1931.056 5        32.742    22677782.994 7  92861752.78807     -1931.062 7        43.873
I06        22.000    37894370.072 7 148705879.04007      -363.783 7        43.573
S28        23.000    40804093.661 5 214426908.27905      -482.781 5        35.148
R08        24.000    20385827.193 8 109165217.03708     -2494.672 8        48.826                                                                    20385825.418 7  84906283.35207     -1940.369 7        46.747
S23        25.000    38079512.411 7 200109177.30807      -477.901 7        44.790
R01        26.000    19662475.049 8 105107207.04308      1175.504 8        49.280                                                                    19662474.356 6  81750043.33106       914.272 6        41.907
C44        27.000                                                                                                                                    25961113.051 6 135186330.14906     -1800.222 6        40.081                                                                    25961110.728 6 109849962.03206     -1462.802 6        38.790
R24        29.000    22967345.325 7 122816725.16307     -3944.425 7        45.189                                                                    22967345.192 6  95524106.84806     -3067.847 6        39.988
E19        30.000    24699471.903 6 129796627.26506     -2363.632 6        41.185                                                                    24699469.800 7  96926053.64507     -1765.081 7        43.333    24699469.363 7  99454556.34307     -1811.155 7        43.344
C37        33.000                                                                                                                                    23611477.257 7 122951155.36007     -2207.329 7        47.638                                                                    23611479.886 7  99907896.46607     -1793.834 7        47.589
E04        34.000    23350067.028 8 122705467.71108        34.477 8        48.662                                                                    23350064.782 8  91630718.06308        25.751 8        51.303    23350064.456 8  94021080.07208        26.390 8        51.475
C16        35.000                                                                                                                                    40731610.173 6 212100190.08406     -1485.355 6        38.700    40731611.026 6 164009327.68206     -1148.606 6        38.553    40731607.958 5 172348773.94205     -1207.361 5        34.286
I01        37.000   386275507.864 7 212687229.61307     -2995.100 7        42.372
E27        38.000    28061587.169 6 147464632.61806     -2402.339 6        36.121                                                                    28061586.676 6 110119703.24606     -1794.046 6        40.403    28061586.361 6 112992387.60406     -1840.861 6        41.039
C19        39.000                                                                                                                                    21850686.952 8 113782265.67308       169.878 8        51.297                                                                    21850681.661 8  92457389.29708       137.834 8        50.013
G05        41.000    23130247.471 7 121550284.54107      2786.461 7        43.390                                    23130242.710 6  94714489.97406      2171.270 6        38.742    23130243.136 6  94714498.97806      2171.293 6        40.067
S44        42.000    40764341.760 6 214218216.16106      -535.390 6        36.972
C36        43.000                                                                                                                                    25111507.400 7 130762208.86907      2953.558 7        42.567                                                                    25111511.612 7 106255026.23007      2399.858 7        43.118
C05        44.000                                                                                                                                    39168638.114 6 203961398.01606      -536.242 6        39.435    39168632.460 7 157715912.62107      -414.673 7        43.608    39168634.610 6 165735444.46506      -435.977 6        40.670
R18        45.000    23781004.432 7 126944632.89507      2038.943 7        42.258                                                                    23781004.289 6  98734697.74006      1585.832 6        40.641
G04        46.000    23884966.623 6 125516351.46306     -3537.341 6        39.354                                    23884965.268 3  97804927.72303     -2756.354 3        23.352    23884965.013 6  97804929.73506     -2756.447 6        39.429
R11        47.000    20107257.964 8 107447073.77808      2162.171 8        51.054                                                                    20107256.562 8  83569950.05708      1681.613 8        48.445
C20        49.000                                                                                                                                    23015831.845 8 119849495.51108     -2454.955 8        50.354                                                                    23015826.191 8  97387515.25108     -1995.090 8        49.083
C06        50.000                                                                                                                                    40171513.874 6 209183628.41206     -1524.523 6        36.718    40171509.219 6 161754029.38106     -1178.817 6        39.504    40171508.776 6 169978810.13906     -1238.837 6        36.991
S48        51.000    77104534.824 6 405186640.25806      -464.980 6        37.720
E06        52.000    24405783.681 7 128253287.10107      1110.572 7        46.449                                                                    24405782.976 8  95773570.93608       829.313 8        49.172    24405782.865 8  98272009.68308       850.990 8        49.903
C09        53.000                                                                                                                                    39446250.318 6 205406991.60506     -1272.393 6        39.261    39446246.986 7 158833704.85407      -984.023 7        43.736    39446244.818 6 166909984.86806     -1034.307 6        40.460
C60        54.000                                                                                                                                    40764343.328 6 212270796.93606      -530.771 6        40.615                                                                    40764328.998 6 172487372.12006      -431.527 6        39.559
R09        55.000    23445490.206 7 125197627.88207     -4465.072 7        42.146                                                                    23445488.159 6  97375925.77106     -3472.815 6        40.226
G07        56.000    20732169.679 8 108948306.81408      -887.421 8        49.302                                    20732164.766 8  84894768.23908      -691.498 8        50.404    20732164.656 7  84894777.24307      -691.535 7        46.392
C02        57.000                                                                                                                                    40735003.022 5 212117851.60005      -557.890 5        35.071    40734999.264 6 164022960.77006      -431.356 6        40.176    40735001.508 6 172363123.94306      -453.482 6        36.314
I03        58.000    98645072.976 6 311319164.52506       844.082 6        41.097
R07        59.000    24276208.379 5 129952410.12305     -3968.966 5        35.238                                                                    24276210.891 5 101074127.95105     -3086.834 5        32.299
C35        60.000                                                                                                                                    26611935.343 6 138575314.51406     -3103.183 6        38.991                                                                    26611932.913 6 112603787.36706     -2521.690 6        38.243
> 2025 01 02 05 45  5.0000000  0 54
G09         1.000    21515293.926 7 113063662.06707     -2836.377 7        46.281                                    21515291.545 7  88101559.46007     -2210.162 7        46.783    21515291.918 7  88101559.45807     -2210.146 7        43.733
G06         2.000    23935621.072 6 125782544.80906     -3926.057 6        41.082                                    23935619.318 6  98012374.88106     -3059.267 6        36.129    23935620.073 6  98012382.88406     -3059.224 6        39.739
E11         3.000    25261192.702 6 132748481.99406     -2375.997 6        41.588                                                                    25261188.553 7  99130350.51307     -1774.189 7        43.088    25261188.284 7 101716355.83707     -1820.489 7        43.826
G16         4.000    24299497.586 6 127694728.05406     -2871.677 6        38.586                                    24299492.501 2  99502367.40202     -2237.670 2        17.811
S21         5.000    38375095.784 7 201662183.78807      -481.023 7        42.345
E10         6.000    26325531.206 7 138341604.16607     -3395.069 7        42.711                                                                    26325530.301 7 103307037.08907     -2535.196 7        45.210    26325530.249 7 106002002.94407     -2601.364 7        45.794
G20         7.000    20916775.689 8 109918409.04908       952.506 8        48.181                                    20916770.319 6  85650689.90206       742.213 6        38.357
R02         8.000    23168880.901 7 123633588.64707      2969.361 7        44.653                                                                    23168880.391 6  96159458.32906      2309.449 6        40.541
R10         9.000    20407573.342 7 108783851.64907     -2201.851 7        44.175
R17        10.000    22225828.806 7 118934906.22807      -926.817 7        47.845                                                                    22225827.009 7  92504921.41107      -720.931 7        43.261
G30        11.000    21083030.513 8 110792084.28108      1446.354 8        49.826                                    21083028.088 8  86331486.79108      1127.028 8        50.236    21083028.218 7  86331494.79307      1126.962 7        44.093
S27        12.000    39019702.257 6 205049865.19106      -499.554 6        37.331
G13        13.000    24285299.635 6 127620109.62806      2823.155 6        39.513                                    24285294.136 2  99444220.01802      2199.860 2        17.019
S36        14.000    38143162.121 7 200444193.86307      -481.036 7        44.834
I09        15.000    38382787.949 7 150622287.48507      -861.656 7        42.427
E09        16.000    26411728.144 7 138794590.82207      1726.207 7        42.692                                                                    26411727.161 7 103645310.99607      1289.040 7        44.423    26411726.675 7 106349097.89407      1322.674 7        45.264
S45        17.000    63327027.108 6 332786206.87706      -522.897 6        37.255
E36        18.000    26090323.550 7 137105574.80107       245.123 7        42.180                                                                    26090323.279 7 102384054.10007       183.128 7        44.877    26090323.153 7 105054940.63307       187.801 7        45.892
E12        19.000    27877407.200 5 146496758.36605     -3730.909 5        35.919                                                                    27877404.610 6 109396914.15806     -2786.301 6        38.459    27877404.454 6 112250746.66506     -2858.861 6        39.754
E21        20.000    25762313.741 7 135381868.61807        28.023 7        43.507                                                                    25762313.161 7 101096865.14207        20.961 7        45.895    25762312.896 7 103734170.98707        21.498 7        47.243
G11        21.000    22680146.416 7 119184987.35207     -2480.823 7        46.048                                    22680141.869 5  92871400.60305     -1933.116 5        32.892    22680142.454 7  92871413.59807     -1933.060 7        43.873
I06        22.000    37894833.682 7 148707697.88407      -363.680 7        43.740
S28        23.000    40804551.976 5 214429321.65705      -482.496 5        35.362
R08        24.000    20388158.076 8 109177695.78508     -2496.727 8        49.239                                                                    20388155.609 7  84915989.03007     -1941.939 7        46.825
S23        25.000    38079971.646 7 200111566.54307      -477.758 7        44.953
R01        26.000    19661376.564 8 105101334.93808      1173.469 8        48.601                                                                    19661375.382 6  81745476.14406       912.754 6        41.139
C44        27.000                                                                                                                                    25962842.693 6 135195336.44206     -1802.412 6        39.495                                                                    25962840.368 6 109857280.37006     -1464.513 6        38.706
R24        29.000    22971035.141 7 122836452.13407     -3946.274 7        44.755                                                                    22971033.894 6  95539450.06306     -3069.330 6        40.255
E19        30.000    24701721.166 6 129808447.78906     -2364.373 6        41.080                                                                    24701719.173 7  96934880.65207     -1765.564 7        43.204    24701718.691 7  99463613.61407     -1811.603 7        43.532
C37        33.000                                                                                                                                    23613597.901 7 122962198.20607     -2209.674 7        47.695                                                                    23613600.554 7  99916869.67607     -1795.534 7        47.315
E04        34.000    23350034.922 8 122705298.56408        33.431 8        48.372                                                                    23350032.571 8  91630591.75408        24.955 8        51.247    23350032.247 8  94020950.46908        25.579 8        51.547
C16        35.000                                                                                                                                    40733037.029 6 212107617.46706     -1485.472 6        38.111    40733036.704 6 164015070.98306     -1148.623 6        38.757    40733034.031 5 172354809.27105     -1206.898 5        34.043
I01        37.000   386279324.437 7 212702205.64307     -2995.229 7        42.421
E27        38.000    28063873.737 6 147476649.90106     -2404.182 6        36.386                                                                    28063873.584 6 110128677.20006     -1795.454 6        40.451    28063873.332 6 113001595.66606     -1842.361 6        41.104
C19        39.000                                                                                                                                    21850524.754 8 113781421.06708       168.106 8        51.207                                                                    21850519.514 8  92456702.96908       136.577 8        49.800
G05        41.000    23127597.194 7 121536355.95007      2785.085 7        43.065                                    23127592.111 6  94703636.52206      2170.192 6        38.934    23127592.528 6  94703645.53506      2170.251 6        40.067
S44        42.000    40764850.577 6 214220894.34006      -535.779 6        37.059
C36        43.000                                                                                                                                    25108671.606 7 130747442.54107      2953.047 7        42.675                                                                    25108676.070 7 106243027.35007      2399.614 7        43.215
C05        44.000                                                                                                                                    39169152.552 6 203964079.64406      -536.226 6        39.117    39169147.747 7 157717986.20507      -414.666 7        43.659    39169149.567 6 165737623.47306      -435.879 6        40.300
R18        45.000    23779095.807 6 126934447.11906      2035.436 6        41.831                                                                    23779095.946 6  98726775.46006      1583.183 6        40.417
G04        46.000    23888332.984 6 125534039.73806     -3537.901 6        38.994                                    23888330.973 3  97818710.77203     -2756.793 3        23.562    23888330.863 6  97818712.75606     -2756.697 6        39.544
R11        47.000    20105236.946 8 107436272.62908      2158.431 8        51.069                                                                    20105235.354 8  83561549.15108      1678.782 8        48.253
C20        49.000                                                                                                                                    23018189.896 8 119861774.44908     -2456.480 8        50.194                                                                    23018184.206 8  97397492.87308     -1996.123 8        48.917
C06        50.000                                                                                                                                    40172977.257 6 209191250.74606     -1524.347 6        36.847    40172972.939 6 161759923.46106     -1178.941 6        39.462    40172972.353 6 169985003.87606     -1238.676 6        36.991
S48        51.000    77104988.188 6 405188965.78706      -464.943 6        37.974
E06        52.000    24404727.402 7 128247736.50307      1109.742 7        46.516                                                                    24404726.656 8  95769426.00008       828.737 8        49.032    24404726.614 8  98267756.62008       850.321 8        50.084
C09        53.000                                                                                                                                    39447471.540 6 205413354.81106     -1272.771 6        39.084    39447469.016 7 158838625.28307      -984.127 7        43.818    39447467.035 6 166915155.46306     -1034.046 6        40.310
C60        54.000                                                                                                                                    40764852.967 6 212273450.76206      -530.664 6        40.279                                                                    40764838.615 6 172489528.53906      -431.260 6        39.408
R09        55.000    23449671.179 6 125219956.99006     -4466.490 6        41.564                                                                    23449670.199 6  97393292.86806     -3474.011 6        40.322
G07        56.000    20733015.359 8 108952750.23008      -889.791 8        49.463                                    20733010.314 8  84898230.64308      -693.342 8        50.570    20733010.535 7  84898239.64507      -693.383 7        46.558
C02        57.000                                                                                                                                    40735538.598 5 212120641.60705      -558.028 5        35.010    40735535.210 6 164025118.16806      -431.448 6        40.207    40735537.338 5 172365391.02005      -453.330 5        35.881
I03        58.000    98643997.838 6 311314944.40506       844.070 6        41.139
R07        59.000    24279913.849 5 129972256.31705     -3969.274 5        35.038                                                                    24279916.627 5 101089563.82905     -3087.708 5        31.841
C35        60.000                                                                                                                                    26614914.386 6 138590831.95406     -3103.753 6        38.781                                                                    26614912.683 6 112616396.53306     -2521.978 6        37.826
> 2025 01 02 05 45 10.0000000  0 54
G09         1.000    21517993.262 7 113077847.52807     -2837.534 7        46.514                                    21517990.907 7  88112613.06007     -2211.065 7        46.586    21517991.313 7  88112613.05707     -2211.033 7        44.084
G06         2.000    23939356.339 6 125802176.48706     -3926.592 6        41.099                                    23939355.091 6  98027672.29106     -3059.682 6        36.223    23939356.334 6  98027680.29106     -3059.742 6        40.086
E11         3.000    25263454.449 6 132760366.51506     -2377.689 6        41.638                                                                    25263449.990 7  99139225.32607     -1775.607 7        43.064    25263449.807 7 101725462.15707     -1821.840 7        43.958
G16         4.000    24302230.942 6 127709093.62006     -2874.546 6        38.012                                    24302226.447 2  99513561.33002     -2239.905 2        17.660
S21         5.000    38375551.621 7 201664588.39207      -480.837 7        42.569
E10         6.000    26328762.011 7 138358581.72507     -3395.752 7        42.436                                                                    26328761.100 7 103319715.13307     -2535.866 7        45.187    26328760.929 7 106015011.71507     -2602.021 7        45.849
G20         7.000    20915870.703 8 109913653.94008       949.788 8        48.059                                    20915865.428 6  85646984.62306       740.096 6        38.183
R02         8.000    23166098.381 7 123618741.79207      2969.396 7        44.433                                                                    23166097.182 6  96147910.78506      2309.630 6        40.491
R10         9.000    20409640.605 7 108794871.80007     -2205.970 7        44.307
R17        10.000    22226697.170 7 118939551.67707      -931.137 7        47.058                                                                    22226694.698 7  92508534.53207      -724.194 7        43.204
G30        11.000    21081655.565 8 110784858.39408      1444.202 8        49.832                                    21081653.046 8  86325856.23008      1125.354 8        50.081    21081653.257 7  86325864.23607      1125.406 7        44.117
S27        12.000    39020177.470 6 205052362.59106      -499.060 6        37.047
G13        13.000    24282612.899 6 127605994.75006      2822.882 6        39.108                                    24282608.207 2  99433221.39902      2199.650 2        16.604
S36        14.000    38143619.886 7 200446599.48907      -481.153 7        44.847
I09        15.000    38383886.330 7 150626596.42207      -861.773 7        42.626
E09        16.000    26410086.091 7 138785961.04407      1725.909 7        42.442                                                                    26410084.984 7 103638866.68507      1288.746 7        44.445    26410084.586 7 106342485.46207      1322.473 7        45.220
S45        17.000    63327478.903 6 332788820.91406      -522.633 6        37.089
E36        18.000    26090091.909 7 137104355.63507       242.757 7        42.068                                                                    26090091.263 7 102383143.68207       181.305 7        44.918    26090091.143 7 105054006.47107       186.037 7        45.874
E12        19.000    27880957.302 5 146515413.80605     -3730.981 5        35.552                                                                    27880954.551 6 109410845.13406     -2786.130 6        38.210    27880954.547 6 112265041.08006     -2858.883 6        39.763
E21        20.000    25762288.320 7 135381734.40707        25.832 7        43.702                                                                    25762287.628 7 101096764.92307        19.163 7        45.854    25762287.407 7 103734068.15207        19.710 7        47.314
G11        21.000    22682507.787 7 119197398.27607     -2483.199 7        45.363                                    22682503.623 5  92881071.45105     -1934.961 5        32.647    22682503.589 7  92881084.45707     -1935.123 7        43.915
I06        22.000    37895297.126 7 148709516.87107      -363.758 7        43.592
S28        23.000    40805008.725 5 214431735.09905      -482.610 5        35.333
R08        24.000    20390489.878 8 109190184.67308     -2498.676 8        48.934                                                                    20390487.248 7  84925702.59907     -1943.388 7        46.684
S23        25.000    38080423.410 7 200113955.56107      -477.603 7        44.799
R01        26.000    19660279.882 8 105095472.92608      1171.576 8        48.861                                                                    19660278.881 6  81740916.80806       911.161 6        41.173
C44        27.000                                                                                                                                    25964573.504 6 135204353.49206     -1804.368 6        39.895                                                                    25964572.232 6 109864607.47606     -1466.230 6        38.892
R24        29.000    22974725.701 7 122856188.48007     -3948.160 7        44.912                                                                    22974724.333 6  95554800.52106     -3070.660 6        40.141
E19        30.000    24703970.922 6 129820271.24106     -2364.794 6        40.648                                                                    24703969.208 7  96943709.84407     -1765.998 7        43.281    24703968.536 7  99472673.14407     -1812.068 7        43.482
C37        33.000                                                                                                                                    23615720.771 7 122973252.38307     -2211.862 7        47.825                                                                    23615723.366 7  99925852.09607     -1797.305 7        47.342
E04        34.000    23350003.567 8 122705134.56808        32.410 8        48.328                                                                    23350001.385 8  91630469.28208        24.226 8        51.249    23350001.056 8  94020824.80208        24.843 8        51.700
C16        35.000                                                                                                                                    40734462.779 6 212115044.17306     -1485.207 6        38.306    40734463.476 6 164020813.74706     -1148.452 6        38.997    40734460.228 5 172360844.03405     -1206.746 5        33.862
I01        37.000   386283140.782 7 212717182.28607     -2995.370 7        42.307
E27        38.000    28066162.295 6 147488676.19506     -2405.919 6        36.306                                                                    28066162.244 6 110137657.85506     -1796.725 6        40.729    28066161.650 6 113010810.59806     -1843.556 6        41.099
C19        39.000                                                                                                                                    21850364.249 8 113780585.22508       166.423 8        51.459                                                                    21850358.948 8  92456023.78208       135.211 8        49.791
G05        41.000    23124947.761 7 121522434.16807      2783.860 7        43.674                                    23124942.795 6  94692788.38706      2169.243 6        38.748    23124943.491 6  94692797.38106      2169.344 6        40.298
S44        42.000    40765360.950 6 214223572.33006      -535.621 6        36.646
C36        43.000                                                                                                                                    25105836.809 7 130732678.82207      2952.646 7        43.481                                                                    25105841.185 7 106231030.63607      2399.210 7        43.782
C05        44.000                                                                                                                                    39169667.294 6 203966761.21006      -536.211 6        39.207    39169662.864 7 157720059.75407      -414.558 7        43.471    39169664.501 6 165739802.45506      -435.755 6        40.365
R18        45.000    23777191.180 7 126924277.93207      2032.389 7        42.083                                                                    23777190.634 6  98718866.11106      1580.780 6        40.267
G04        46.000    23891699.600 6 125551730.24406     -3538.249 6        39.763                                    23891697.224 3  97832495.54903     -2757.074 3        23.524    23891697.517 6  97832497.54006     -2757.017 6        39.748
R11        47.000    20103219.135 8 107425489.79208      2154.914 8        51.088                                                                    20103217.186 8  83553162.50708      1675.977 8        48.041
C20        49.000                                                                                                                                    23020549.466 8 119874060.75408     -2457.853 8        50.237                                                                    23020543.606 8  97407476.50108     -1997.214 8        48.863
C06        50.000                                                                                                                                    40174441.425 6 209198872.63006     -1524.362 6        36.699    40174436.717 6 161765817.15006     -1178.615 6        39.108    40174436.044 6 169991197.29406     -1238.697 6        36.783
S48        51.000    77105431.196 6 405191291.29206      -464.976 6        37.698
E06        52.000    24403671.886 7 128242189.76107      1109.139 7        46.145                                                                    24403671.184 8  95765283.94908       828.233 8        49.028    24403671.171 8  98263506.51908       849.832 8        50.047
C09        53.000                                                                                                                                    39448694.344 6 205419718.10306     -1272.506 6        39.520    39448691.101 7 158843545.78307      -983.995 7        43.983    39448689.044 6 166920326.15806     -1033.956 6        40.303
C60        54.000                                                                                                                                    40765362.656 6 212276104.40306      -530.489 6        40.403                                                                    40765348.398 6 172491684.81306      -431.008 6        39.354
R09        55.000    23453854.106 6 125242293.71606     -4467.990 6        41.578                                                                    23453853.453 6  97410665.85306     -3475.160 6        40.689
G07        56.000    20733863.151 8 108957205.16108      -891.912 8        49.584                                    20733858.071 8  84901702.01408      -694.996 8        50.354    20733858.033 7  84901711.01907      -695.044 7        46.342
C02        57.000                                                                                                                                    40736074.012 5 212123431.50905      -557.815 5        35.033    40736070.472 6 164027275.46006      -431.298 6        40.036    40736073.097 6 172367658.04306      -453.340 6        36.042
I03        58.000    98642922.158 6 311310724.20506       844.118 6        41.099
R07        59.000    24283620.907 5 129992105.17405     -3970.131 5        35.152                                                                    24283625.348 5 101105001.77305     -3087.606 5        31.487
C35        60.000                                                                                                                                    26617894.380 6 138606351.87206     -3104.181 6        38.883                                                                    26617892.942 6 112629007.74506     -2522.532 6        37.369
> 2025 01 02 05 45 15.0000000  0 54
G09         1.000    21520693.846 7 113092039.73007     -2839.091 7        46.646                                    21520691.575 7  88123671.91107     -2212.279 7        46.570    21520691.795 7  88123671.91407     -2212.309 7        43.683
G06         2.000    23943092.562 6 125821811.63106     -3927.348 6        40.944                                    23943091.726 6  98042972.39606     -3060.263 6        36.405    23943092.437 6  98042980.38306     -3060.327 6        40.393
E11         3.000    25265718.009 6 132772261.26606     -2379.831 6        41.080                                                                    25265713.634 7  99148107.76807     -1777.226 7        43.156    25265713.247 7 101734576.31607     -1823.533 7        43.761
G16         4.000    24304967.075 6 127723473.10906     -2877.520 6        38.048                                    24304962.910 2  99524766.11002     -2242.217 2        17.094
S21         5.000    38376010.580 7 201666993.17207      -480.943 7        42.518
E10         6.000    26331993.808 7 138375564.40107     -3397.003 7        42.512                                                                    26331992.762 7 103332396.99707     -2536.790 7        45.199    26331992.591 7 106028024.40907     -2602.863 7        45.759
G20         7.000    20914968.537 8 109908913.22808       946.708 8        48.168                                    20914963.310 6  85643290.55806       737.696 6        38.150
R02         8.000    23163316.092 7 123603895.63507      2969.295 7        44.551                                                                    23163315.750 6  96136363.77806      2309.448 6        40.877
R10         9.000    20411712.095 7 108805913.23407     -2210.391 7        44.199
R17        10.000    22227569.184 7 118944219.46207      -935.823 7        47.278                                                                    22227567.329 7  92512165.03307      -727.847 7        43.589
G30        11.000    21080282.700 8 110777643.95708      1441.747 8        49.829                                    21080280.191 8  86320234.59108      1123.440 8        50.006    21080280.757 7  86320242.59107      1123.415 7        44.084
S27        12.000    39020654.552 6 205054860.50506      -499.515 6        37.146
G13        13.000    24279926.933 6 127591881.93106      2822.451 6        39.021                                    24279922.792 2  99422224.41102      2199.302 2        16.906
S36        14.000    38144077.641 7 200449006.03407      -481.381 7        44.847
I09        15.000    38384984.802 7 150630906.08707      -862.083 7        42.595
E09        16.000    26408443.959 7 138777333.52107      1725.276 7        42.411                                                                    26408443.214 7 103632424.06207      1288.288 7        44.411    26408442.809 7 106335874.77107      1321.912 7        45.166
S45        17.000    63327936.198 6 332791435.22306      -522.931 6        37.127
E36        18.000    26089862.080 7 137103149.18207       240.015 7        42.178                                                                    26089861.677 7 102382242.75407       179.222 7        44.849    26089861.554 7 105053082.03607       183.865 7        45.779
E12        19.000    27884507.823 6 146534069.62406     -3731.082 6        36.038                                                                    27884504.548 6 109424776.40906     -2786.047 6        38.327    27884504.470 6 112279335.77806     -2858.946 6        39.138
E21        20.000    25762264.559 7 135381612.59907        23.033 7        43.979                                                                    25762264.441 7 101096673.95207        17.252 7        45.901    25762264.282 7 103733974.80807        17.727 7        47.168
G11        21.000    22684871.744 7 119209822.34307     -2486.105 7        45.553                                    22684867.909 5  92890752.53905     -1937.222 5        32.635    22684867.926 7  92890765.53607     -1937.234 7        43.754
I06        22.000    37895760.781 7 148711336.18307      -363.952 7        43.725
S28        23.000    40805467.375 5 214434148.90505      -482.364 5        35.057
R08        24.000    20392824.249 8 109202684.02408     -2500.940 8        49.039                                                                    20392821.989 7  84935424.31007     -1945.155 7        47.590
S23        25.000    38080877.467 7 200116344.96907      -477.966 7        44.698
R01        26.000    19659185.640 8 105089621.09308      1169.337 8        49.021                                                                    19659184.887 6  81736365.37706       909.375 6        41.447
C44        27.000                                                                                                                                    25966307.569 6 135213381.60606     -1806.688 6        39.586                                                                    25966305.875 6 109871943.53506     -1468.121 6        38.832
R24        29.000    22978419.232 7 122875934.61807     -3950.220 7        45.994                                                                    22978416.636 6  95570158.63006     -3072.433 6        39.075
E19        30.000    24706221.555 6 129832097.89306     -2365.775 6        40.942                                                                    24706219.665 7  96952541.43907     -1766.648 7        43.179    24706219.183 7  99481735.11807     -1812.610 7        43.327
C37        33.000                                                                                                                                    23617845.512 7 122984318.15207     -2214.292 7        47.800                                                                    23617848.484 7  99934843.93007     -1799.303 7        47.299
E04        34.000    23349973.330 8 122704976.01308        31.131 8        48.271                                                                    23349971.257 8  91630350.87808        23.300 8        51.181    23349970.860 8  94020703.30808        23.882 8        51.477
C16        35.000                                                                                                                                    40735888.594 6 212122470.48206     -1485.260 6        37.883    40735889.857 6 164026556.23306     -1148.466 6        38.712    40735886.169 5 172366878.49705     -1207.019 5        33.707
I01        37.000   386286957.397 7 212732159.76107     -2995.502 7        42.290
E27        38.000    28068453.015 6 147500711.74006     -2408.055 6        36.132                                                                    28068452.498 6 110146645.41906     -1798.188 6        40.722    28068451.836 6 113020032.62106     -1844.956 6        41.008
C19        39.000                                                                                                                                    21850205.622 8 113779758.43408       164.451 8        51.396                                                                    21850200.163 8  92455351.93908       133.630 8        49.818
G05        41.000    23122299.886 7 121508519.52807      2782.182 7        42.717                                    23122294.919 6  94681945.81506      2167.929 6        38.778    23122295.724 6  94681954.82606      2167.908 6        39.955
S44        42.000    40765874.355 6 214226250.41906      -535.430 6        36.665
C36        43.000                                                                                                                                    25103001.801 7 130717918.02207      2951.913 7        43.513                                                                    25103006.852 7 106219036.26707      2398.632 7        44.160
C05        44.000                                                                                                                                    39170182.644 6 203969443.02706      -536.413 6        39.198    39170177.588 7 157722133.49507      -414.794 7        43.416    39170179.690 6 165741981.62306      -435.763 6        40.234
R18        45.000    23775289.352 7 126914125.66307      2028.709 7        42.178                                                                    23775288.987 6  98710969.88406      1577.899 6        40.100
G04        46.000    23895066.705 6 125569423.31206     -3538.913 6        40.269                                    23895064.213 3  97846282.33003     -2757.586 3        23.905    23895064.743 6  97846284.29006     -2757.438 6        39.697
R11        47.000    20101204.463 8 107414725.68908      2150.997 8        50.907                                                                    20101203.035 8  83544790.42508      1672.998 8        48.196
C20        49.000                                                                                                                                    23022910.092 8 119886354.70808     -2459.544 8        50.266                                                                    23022904.418 8  97417466.33508     -1998.600 8        48.888
C06        50.000                                                                                                                                    40175904.974 6 209206494.38806     -1524.425 6        36.658    40175900.604 6 161771710.75206     -1178.608 6        39.201    40175899.852 6 169997390.54906     -1238.566 6        36.934
S48        51.000    77105888.496 6 405193616.76706      -465.107 6        38.114
E06        52.000    24402617.145 7 128236647.14507      1108.066 7        46.236                                                                    24402616.480 8  95761144.99508       827.475 8        49.096    24402616.450 8  98259259.58808       849.074 8        50.007
C09        53.000                                                                                                                                    39449916.499 6 205426081.77706     -1272.765 6        39.577    39449913.306 7 158848466.58107      -984.272 7        43.970    39449911.133 6 166925497.16106     -1034.227 6        40.439
C60        54.000                                                                                                                                    40765872.609 6 212278758.15606      -530.697 6        40.560                                                                    40765858.056 6 172493841.19806      -431.356 6        39.150
R09        55.000    23458039.083 6 125264638.20706     -4469.699 6        41.642                                                                    23458038.027 6  97428044.89706     -3476.438 6        41.051
G07        56.000    20734713.004 8 108961671.87708      -894.501 8        49.311                                    20734708.073 8  84905182.56908      -697.013 8        50.282    20734708.074 7  84905191.57107      -697.017 7        46.400
C02        57.000                                                                                                                                    40736609.819 5 212126221.60905      -558.028 5        35.062    40736606.217 6 164029432.92906      -431.491 6        39.925    40736608.846 5 172369925.21305      -453.492 5        35.914
I03        58.000    98641846.829 6 311306504.16706       843.951 6        41.182
R07        59.000    24287331.021 5 130011957.14505     -3970.922 5        34.938                                                                    24287333.613 5 101120442.14205     -3088.449 5        31.057
C35        60.000                                                                                                                                    26620875.864 6 138621874.58306     -3104.871 6        39.847                                                                    26620873.867 6 112641621.21406     -2522.762 6        37.391
> 2025 01 02 05 45 20.0000000  0 54
G09         1.000    21523395.896 7 113106238.67507     -2840.315 7        46.177                                    21523393.535 7  88134736.01707     -2213.233 7        46.576    21523393.444 7  88134736.01907     -2213.196 7        43.354
G06         2.000    23946829.970 7 125841450.23107     -3927.941 7        42.119                                    23946829.082 6  98058275.18306     -3060.729 6        36.737    23946829.762 6  98058283.18106     -3060.648 6        40.453
E11         3.000    25267983.549 6 132784166.24606     -2381.863 6        41.325                                                                    25267978.970 7  99156997.84107     -1778.636 7        43.202    25267978.769 7 101743698.30207     -1825.029 7        43.843
G16         4.000    24307706.166 6 127737866.45506     -2880.006 6        38.099                                    24307701.806 2  99535981.69502     -2244.144 2        17.321
S21         5.000    38376468.188 7 201669398.09107      -480.886 7        42.823
E10         6.000    26335226.345 7 138392552.20407     -3397.873 7        42.595                                                                    26335225.440 7 103345082.68307     -2537.425 7        45.231    26335225.207 7 106041041.03407     -2603.642 7        45.740
G20         7.000    20914069.486 8 109904186.97808       943.927 8        48.010                                    20914063.914 6  85639607.76706       735.527 6        38.174
R02         8.000    23160534.878 7 123589049.97207      2969.051 7        45.245                                                                    23160533.661 6  96124817.15606      2309.380 6        40.579
R10         9.000    20413786.944 7 108816975.79707     -2214.548 7        44.369
R17        10.000    22228445.957 7 118948909.49007      -940.225 7        47.933                                                                    22228443.872 7  92515812.81807      -731.247 7        43.471
G30        11.000    21078911.889 8 110770440.98308      1439.534 8        49.647                                    21078909.509 8  86314621.88208      1121.717 8        49.976    21078910.095 7  86314629.87807      1121.713 7        44.199
S27        12.000    39021130.261 6 205057359.39206      -499.660 6        37.267
G13        13.000    24277241.938 6 127577771.20006      2822.038 6        38.523                                    24277237.614 2  99411229.04302      2198.983 2        16.981
S36        14.000    38144534.873 7 200451412.88707      -481.161 7        44.895
I09        15.000    38386083.143 7 150635216.48007      -862.148 7        42.629
E09        16.000    26406802.934 7 138768708.28207      1724.917 7        42.802                                                                    26406801.920 7 103625983.12007      1288.126 7        44.439    26406801.459 7 106329265.81107      1321.748 7        45.118
S45        17.000    63328387.237 6 332794049.81906      -522.740 6        37.629
E36        18.000    26089634.411 7 137101955.42507       237.648 7        42.500                                                                    26089634.618 7 102381351.31607       177.382 7        44.886    26089634.383 7 105052167.34107       181.998 7        45.747
E12        19.000    27888057.708 6 146552725.84306     -3731.078 6        36.310                                                                    27888054.666 6 109438707.98006     -2786.102 6        38.207    27888054.694 6 112293630.78606     -2858.842 6        39.201
E21        20.000    25762243.761 7 135381503.17807        20.833 7        43.884                                                                    25762243.700 7 101096592.24507        15.462 7        45.949    25762243.411 7 103733890.97107        15.919 7        47.126
G11        21.000    22687238.865 7 119222259.57707     -2488.710 7        45.102                                    22687234.622 5  92900443.88405     -1939.255 5        32.647    22687234.857 7  92900456.87507     -1939.228 7        43.884
I06        22.000    37896224.414 7 148713155.84707      -363.840 7        43.809
S28        23.000    40805928.565 5 214436562.41205      -482.726 5        35.262
R08        24.000    20395159.968 8 109215193.83008     -2502.917 8        48.707                                                                    20395157.606 7  84945154.16207     -1946.743 7        46.543
S23        25.000    38081334.100 7 200118734.64807      -477.776 7        45.028
R01        26.000    19658092.839 8 105083779.50708      1167.346 8        49.314                                                                    19658092.301 6  81731821.92006       908.030 6        41.738
C44        27.000                                                                                                                                    25968043.700 6 135222420.77106     -1808.700 6        40.148                                                                    25968041.600 6 109879288.62506     -1469.871 6        38.739
R24        29.000    22982114.045 7 122895690.51807     -3951.975 7        46.231                                                                    22982111.425 6  95585524.33206     -3073.850 6        39.036
E19        30.000    24708472.737 6 129843927.81106     -2366.235 6        41.211                                                                    24708470.894 7  96961375.45207     -1767.039 7        43.285    24708470.331 7  99490799.58807     -1813.080 7        43.346
C37        33.000                                                                                                                                    23619972.931 7 122995395.53107     -2216.546 7        47.831                                                                    23619975.875 7  99943845.20607     -1801.104 7        47.315
E04        34.000    23349944.289 8 122704822.92108        30.106 8        48.353                                                                    23349942.061 8  91630236.55908        22.499 8        51.213    23349941.714 8  94020586.00508        23.101 8        51.463
C16        35.000                                                                                                                                    40737314.522 6 212129896.42206     -1485.156 6        37.395    40737315.434 6 164032298.39906     -1148.317 6        38.811    40737312.477 5 172372912.67105     -1206.733 5        33.850
I01        37.000   386290774.121 7 212747138.14107     -2995.596 7        42.176
E27        38.000    28070745.107 6 147512756.53206     -2409.878 6        36.367                                                                    28070744.462 6 110155639.90506     -1799.531 6        40.813    28070743.767 6 113029261.74906     -1846.419 6        40.994
C19        39.000                                                                                                                                    21850048.493 8 113778940.73208       162.748 8        51.390                                                                    21850043.164 8  92454687.48708       132.241 8        49.785
G05        41.000    23119653.399 7 121494612.05607      2780.917 7        42.627                                    23119648.421 6  94671108.82006      2166.944 6        38.766    23119649.011 6  94671117.82106      2166.912 6        40.033
S44        42.000    40766379.344 6 214228928.64406      -535.552 6        36.609
C36        43.000                                                                                                                                    25100166.854 7 130703160.17707      2951.429 7        42.940                                                                    25100172.775 7 106207044.30407      2398.266 7        44.406
C05        44.000                                                                                                                                    39170697.900 6 203972125.07906      -536.187 6        39.144    39170692.831 7 157724207.41307      -414.578 7        43.465    39170694.682 6 165744161.02806      -435.893 6        40.253
R18        45.000    23773391.340 7 126903990.30707      2025.434 7        42.648                                                                    23773390.570 6  98703086.83206      1575.514 6        40.541
G04        46.000    23898433.819 6 125587118.91606     -3539.265 6        40.923                                    23898431.734 4  97860071.06904     -2757.859 4        24.165    23898431.648 6  97860073.04906     -2757.998 6        40.122
R11        47.000    20099193.754 8 107403980.29908      2147.281 8        51.095                                                                    20099192.461 7  83536432.90107      1670.105 7        47.698
C20        49.000                                                                                                                                    23025272.706 8 119898656.31208     -2461.000 8        50.102                                                                    23025266.834 8  97427462.39008     -1999.761 8        48.857
C06        50.000                                                                                                                                    40177368.723 6 209214115.92206     -1524.128 6        36.363    40177363.924 6 161777604.19606     -1178.688 6        39.147    40177363.706 6 170003583.65506     -1238.528 6        36.518
S48        51.000    77106334.285 6 405195942.88306      -465.118 6        38.309
E06        52.000    24401563.077 7 128231108.72107      1107.361 7        46.484                                                                    24401562.550 8  95757009.15308       826.955 8        49.033    24401562.512 8  98255015.85508       848.503 8        50.085
C09        53.000                                                                                                                                    39451138.547 6 205432445.83806     -1272.577 6        39.285    39451135.565 7 158853387.66407      -984.216 7        44.214    39451133.188 6 166930668.47306     -1034.124 6        40.281
C60        54.000                                                                                                                                    40766382.173 6 212281412.01806      -530.735 6        40.360                                                                    40766367.597 6 172495997.66206      -431.299 6        39.264
R09        55.000    23462224.478 6 125286990.50006     -4471.141 6        41.442                                                                    23462223.752 6  97445429.99806     -3477.656 6        40.846
G07        56.000    20735564.977 8 108966150.38708      -896.779 8        49.236                                    20735560.306 8  84908672.31508      -698.787 8        50.263    20735560.511 7  84908681.31407      -698.757 7        46.331
C02        57.000                                                                                                                                    40737145.377 5 212129011.88605      -557.767 5        34.681    40737142.396 6 164031590.53706      -431.444 6        39.991    40737144.793 5 172372192.52205      -453.476 5        35.467
I03        58.000    98640771.671 6 311302284.27806       844.150 6        41.001
R07        59.000    24291039.289 5 130031811.94805     -3971.436 5        34.552                                                                    24291044.459 5 101135884.68005     -3088.241 5        30.717
C35        60.000                                                                                                                                    26623857.848 6 138637400.06206     -3105.257 6        39.513                                                                    26623855.990 6 112654236.92906     -2523.152 6        37.811
> 2025 01 02 05 45 25.0000000  0 54
G09         1.000    21526098.784 7 113120444.16507     -2841.605 7        45.541                                    21526096.756 7  88145805.22107     -2214.236 7        46.513    21526097.055 7  88145805.23007     -2214.369 7        43.564
G06         2.000    23950567.910 7 125861092.09507     -3928.534 7        42.273                                    23950566.964 6  98073580.52106     -3061.192 6        36.975    23950567.123 6  98073588.52406     -3061.289 6        40.098
E11         3.000    25270250.764 6 132796081.25006     -2383.922 6        41.340                                                                    25270246.280 7  99165895.41007     -1780.157 7        43.149    25270246.049 7 101752827.97807     -1826.542 7        43.972
G16         4.000    24310447.908 6 127752273.54806     -2882.733 6        38.285                                    24310443.375 3  99547208.00203     -2246.288 3        18.060
S21         5.000    38376925.813 7 201671803.03507      -480.932 7        42.679
E10         6.000    26338460.004 7 138409544.91607     -3399.011 7        42.734                                                                    26338459.121 7 103357772.03607     -2538.257 7        45.168    26338458.718 7 106054061.40707     -2604.370 7        45.840
G20         7.000    20913172.666 7 109899475.00107       941.111 7        47.891                                    20913167.265 6  85635936.09506       733.336 6        38.174
R02         8.000    23157753.153 7 123574204.57407      2969.063 7        45.189                                                                    23157751.812 6  96113270.73506      2309.266 6        39.838
R10         9.000    20415866.517 7 108828059.24507     -2218.792 7        44.752
R17        10.000    22229326.230 7 118953621.56107      -944.662 7        46.868                                                                    22229324.346 7  92519477.77407      -734.695 7        43.202
G30        11.000    21077543.277 8 110763249.26408      1437.240 8        49.813                                    21077540.960 8  86309017.94308      1119.924 8        50.050    21077541.452 7  86309025.95207      1119.968 7        44.245
S27        12.000    39021604.297 6 205059858.98306      -499.962 6        37.456
G13        13.000    24274556.895 6 127563662.34906      2821.671 6        39.240                                    24274552.878 2  99400235.12802      2198.698 2        16.377
S36        14.000    38144994.789 7 200453820.07107      -481.353 7        45.007
I09        15.000    38387181.715 7 150639527.45707      -862.168 7        42.610
E09        16.000    26405161.910 7 138760085.09407      1724.434 7        42.798                                                                    26405160.913 7 103619543.73007      1287.785 7        44.465    26405160.515 7 106322658.43707      1321.388 7        45.305
S45        17.000    63328844.545 6 332796664.42406      -522.895 6        37.240
E36        18.000    26089409.710 7 137100774.17007       235.090 7        42.512                                                                    26089409.856 7 102380469.21507       175.446 7        45.043    26089409.598 7 105051262.22407       180.117 7        46.025
E12        19.000    27891608.169 6 146571382.25106     -3731.318 6        36.522                                                                    27891605.036 6 109452639.71706     -2786.414 6        38.219    27891604.782 6 112307925.94906     -2859.047 6        39.228
E21        20.000    25762225.621 7 135381405.96307        18.262 7        44.006                                                                    25762225.158 7 101096519.63907        13.657 7        46.029    25762224.871 7 103733816.47407        14.030 7        47.372
G11        21.000    22689607.687 7 119234709.72007     -2491.245 7        45.055                                    22689603.795 5  92910145.29105     -1941.229 5        32.587    22689604.165 7  92910158.29407     -1941.238 7        44.274
I06        22.000    37896688.107 7 148714975.71407      -363.923 7        43.877
S28        23.000    40806383.964 5 214438976.22105      -482.835 5        34.957
R08        24.000    20397497.668 8 109227713.84408     -2504.995 8        48.775                                                                    20397495.771 7  84954891.93907     -1948.300 7        46.485
S23        25.000    38081787.590 7 200121124.21607      -477.874 7        45.196
R01        26.000    19657001.874 8 105077947.90808      1165.360 8        49.223                                                                    19657000.362 6  81727286.22106       906.438 6        41.504
C44        27.000                                                                                                                                    25969781.428 6 135231470.82906     -1811.203 6        40.350                                                                    25969779.552 6 109886642.50306     -1471.568 6        38.595
R24        29.000    22985808.917 7 122915455.85407     -3953.920 7        45.986                                                                    22985808.559 6  95600897.37006     -3075.443 6        39.739
E19        30.000    24710724.612 6 129855760.79706     -2366.882 6        41.330                                                                    24710722.523 7  96970211.76407     -1767.514 7        43.187    24710722.139 7  99499866.41707     -1813.610 7        43.725
C37        33.000                                                                                                                                    23622102.448 7 123006484.29107     -2218.868 7        47.876                                                                    23622105.404 7  99952855.72907     -1802.937 7        47.244
E04        34.000    23349916.277 8 122704675.07608        29.095 8        48.613                                                                    23349913.919 8  91630126.15108        21.730 8        51.228    23349913.621 8  94020472.71608        22.307 8        51.729
C16        35.000                                                                                                                                    40738739.658 6 212137321.76906     -1484.930 6        37.255    40738741.599 6 164038040.12206     -1148.297 6        39.189    40738738.604 5 172378946.35505     -1206.576 5        34.005
I01        37.000   386294590.958 7 212762117.23807     -2995.798 7        42.140
E27        38.000    28073038.934 6 147524810.37306     -2411.479 6        36.594                                                                    28073038.207 6 110164641.14606     -1800.877 6        40.961    28073037.632 6 113038497.79406     -1847.741 6        41.042
C19        39.000                                                                                                                                    21849893.084 8 113778131.89608       160.912 8        51.395                                                                    21849887.781 8  92454030.23908       130.767 8        49.775
G05        41.000    23117008.272 7 121480711.55507      2779.435 7        42.842                                    23117003.273 6  94660277.26506      2165.795 6        38.730    23117004.060 6  94660286.25606      2165.865 6        40.739
S44        42.000    40766889.722 6 214231606.77806      -535.663 6        36.692
C36        43.000                                                                                                                                    25097332.995 7 130688405.06807      2950.658 7        42.516                                                                    25097339.069 7 106195054.56207      2397.760 7        44.349
C05        44.000                                                                                                                                    39171212.499 6 203974807.20906      -536.343 6        39.033    39171207.806 7 157726281.39407      -414.724 7        43.386    39171209.916 6 165746340.45606      -435.780 6        40.291
R18        45.000    23771496.247 7 126893871.66207      2022.099 7        42.245                                                                    23771494.604 6  98695216.78406      1572.875 6        40.281
G04        46.000    23901801.750 6 125604816.86606     -3539.841 6        41.302                                    23901799.639 4  97873861.64004     -2758.312 4        24.436    23901799.788 6  97873863.63006     -2758.268 6        40.207
R11        47.000    20097186.691 8 107393253.38508      2143.574 8        51.378                                                                    20097185.030 8  83528089.73608      1667.234 8        48.217
C20        49.000                                                                                                                                    23027636.480 8 119910965.37308     -2462.492 8        50.140                                                                    23027630.703 8  97437464.50508     -2000.939 8        48.841
C06        50.000                                                                                                                                    40178831.986 6 209221737.08506     -1524.055 6        36.703    40178827.573 6 161783497.33806     -1178.467 6        38.997    40178827.357 6 170009776.46906     -1238.615 6        36.881
S48        51.000    77106779.610 6 405198268.79806      -465.173 6        38.171
E06        52.000    24400510.020 7 128225574.24007      1106.513 7        46.491                                                                    24400509.360 8  95752876.26208       826.282 8        49.122    24400509.292 8  98250775.14908       847.889 8        50.210
C09        53.000                                                                                                                                    39452360.549 6 205438810.03806     -1272.489 6        39.216    39452357.560 7 158858308.85707      -984.161 7        44.466    39452355.464 6 166935839.90806     -1034.158 6        40.465
C60        54.000                                                                                                                                    40766891.571 6 212284065.79506      -530.654 6        40.303                                                                    40766877.215 6 172498154.07106      -431.217 6        39.291
R09        55.000    23466412.198 6 125309350.46606     -4472.653 6        41.375                                                                    23466411.244 6  97462821.08906     -3478.741 6        40.930
G07        56.000    20736419.627 8 108970640.48608      -899.108 8        49.392                                    20736414.748 8  84912171.09208      -700.603 8        50.361    20736414.771 7  84912180.09207      -700.570 7        46.234
C02        57.000                                                                                                                                    40737681.395 5 212131802.11105      -557.948 5        34.843    40737678.217 6 164033748.08806      -431.482 6        40.219    40737680.497 5 172374459.76805      -453.325 5        35.905
I03        58.000    98639696.407 6 311298064.40706       843.915 6        41.130
R07        59.000    24294750.389 5 130051669.53405     -3971.639 5        34.943                                                                    24294752.037 5 101151329.43605     -3088.919 5        30.604
C35        60.000                                                                                                                                    26626839.162 6 138652928.11106     -3105.844 6        40.010                                                                    26626838.068 6 112666854.72706     -2523.521 6        38.261
> 2025 01 02 05 45 30.0000000  0 54
G09         1.000    21528803.520 7 113134655.98907     -2843.152 7        45.597                                    21528801.216 7  88156879.36307     -2215.441 7        46.491    21528801.729 7  88156879.35607     -2215.444 7        43.676
G06         2.000    23954305.798 6 125880736.99606     -3929.320 6        41.409                                    23954305.187 6  98088888.23106     -3061.809 6        36.692    23954305.162 6  98088896.23906     -3061.840 6        39.399
E11         3.000    25272519.993 6 132808006.05206     -2385.959 6        41.843                                                                    25272515.605 7  99174800.29507     -1781.709 7        43.164    25272515.317 7 101761965.17207     -1828.209 7        43.803
G16         4.000    24313191.873 6 127766694.06506     -2885.547 6        38.637                                    24313187.556 3  99558444.76103     -2248.484 3        18.806
S21         5.000    38377378.802 7 201674207.93107      -481.158 7        42.512
E10         6.000    26341694.539 7 138426542.29107     -3400.021 7        42.802                                                                    26341693.583 7 103370464.88407     -2538.983 7        45.136    26341693.290 7 106067085.37807     -2605.190 7        45.812
G20         7.000    20912278.704 7 109894777.11607       938.184 7        47.738                                    20912273.271 6  85632275.40106       731.050 6        38.171
R02         8.000    23154969.767 7 123559359.28207      2968.880 7        43.454                                                                    23154969.662 6  96101724.40806      2309.037 6        40.224
R10         9.000    20417950.106 7 108839163.20107     -2222.874 7        44.567
R17        10.000    22230209.977 7 118958355.46207      -948.876 7        47.500                                                                    22230209.080 7  92523159.67707      -737.923 7        43.020
G30        11.000    21076176.963 8 110756068.59908      1434.976 8        50.097                                    21076174.508 8  86303422.62308      1118.163 8        50.066    21076175.101 7  86303430.62407      1118.172 7        44.017
S27        12.000    39022080.141 6 205062357.73606      -499.585 6        37.248
G13        13.000    24271872.789 6 127549555.12906      2821.270 6        38.249                                    24271868.483 2  99389242.49302      2198.396 2        16.943
S36        14.000    38145452.075 7 200456227.42607      -481.496 7        44.829
I09        15.000    38388280.230 7 150643838.85907      -862.328 7        42.267
E09        16.000    26403521.857 7 138751463.76707      1724.049 7        43.143                                                                    26403520.419 7 103613105.72907      1287.531 7        44.465    26403519.902 7 106316052.48707      1320.959 7        45.281
S45        17.000    63329299.484 6 332799278.84706      -522.965 6        37.077
E36        18.000    26089188.033 7 137099605.21607       232.599 7        42.874                                                                    26089187.379 7 102379596.29307       173.738 7        44.968    26089187.100 7 105050366.54307       178.155 7        45.812
E12        19.000    27895158.722 6 146590038.64606     -3731.176 6        36.594                                                                    27895155.271 6 109466571.41906     -2786.480 6        38.207    27895155.086 6 112322221.08406     -2859.011 6        39.012
E21        20.000    25762208.875 7 135381320.74507        15.827 7        43.443                                                                    25762208.941 7 101096455.99607        11.824 7        45.917    25762208.690 7 103733751.17207        12.091 7        47.167
G11        21.000    22691979.542 7 119247172.58807     -2493.889 7        45.366                                    22691975.347 5  92919856.60805     -1943.294 5        32.725    22691975.537 7  92919869.60907     -1943.261 7        44.030
I06        22.000    37897151.988 7 148716795.63207      -364.001 7        43.621
S28        23.000    40806848.154 5 214441389.85405      -482.625 5        34.943
R08        24.000    20399838.697 8 109240243.89508     -2507.040 8        49.432                                                                    20399835.741 7  84964637.53007     -1949.912 7        46.359
S23        25.000    38082242.667 7 200123513.56807      -477.805 7        44.873
R01        26.000    19655912.676 8 105072126.31208      1163.273 8        49.375                                                                    19655911.663 6  81722758.30806       904.698 6        41.571
C44        27.000                                                                                                                                    25971521.298 6 135240531.46106     -1813.104 6        40.138                                                                    25971519.688 6 109894005.04906     -1473.592 6        38.318
R24        29.000    22989507.052 7 122935230.46607     -3955.918 7        46.416                                                                    22989506.251 6  95616277.62106     -3076.717 6        39.691
E19        30.000    24712976.802 6 129867596.60106     -2367.523 6        41.428                                                                    24712974.875 7  96979050.18307     -1767.921 7        43.075    24712974.468 7  99508935.40207     -1814.013 7        43.524
C37        33.000                                                                                                                                    23624234.237 7 123017584.24107     -2221.111 7        47.857                                                                    23624237.004 7  99961875.34107     -1804.822 7        47.151
E04        34.000    23349889.116 8 122704532.28108        28.020 8        48.732                                                                    23349886.774 8  91630019.52208        20.934 8        51.193    23349886.474 8  94020363.31008        21.484 8        51.495
C16        35.000                                                                                                                                    40740165.628 6 212144746.35506     -1484.933 6        37.009    40740167.312 6 164043781.26006     -1148.210 6        38.982    40740164.501 5 172384979.40805     -1206.455 5        33.844
I01        37.000   386298408.762 7 212777096.89107     -2996.018 7        42.116
E27        38.000    28075334.156 6 147536873.04706     -2413.362 6        36.681                                                                    28075333.764 6 110173648.97706     -1802.333 6        40.894    28075333.148 6 113047740.62106     -1849.200 6        40.980
C19        39.000                                                                                                                                    21849739.562 8 113777331.73608       159.081 8        51.512                                                                    21849734.129 8  92453380.04308       129.301 8        49.697
G05        41.000    23114364.230 7 121466817.79307      2778.074 7        43.772                                    23114359.408 6  94649450.96006      2164.733 6        38.712    23114360.207 6  94649459.95806      2164.779 6        40.555
S44        42.000    40767399.983 6 214234284.59206      -535.606 6        36.975
C36        43.000                                                                                                                                    25094500.642 7 130673652.50407      2950.283 7        42.222                                                                    25094505.708 7 106183066.89207      2397.312 7        43.953
C05        44.000                                                                                                                                    39171727.907 6 203977489.17106      -536.301 6        38.946    39171723.017 7 157728355.24807      -414.759 7        43.727    39171724.805 6 165748519.76406      -435.907 6        40.298
R18        45.000    23769602.994 6 126883769.56206      2018.828 6        41.702                                                                    23769602.296 6  98687359.60106      1570.181 6        40.503
G04        46.000    23905169.396 6 125622516.92606     -3540.229 6        41.323                                    23905167.777 4  97887653.86704     -2758.605 4        24.331    23905167.734 6  97887655.86906     -2758.606 6        39.489
R11        47.000    20095182.588 8 107382544.86408      2139.786 8        51.356                                                                    20095181.298 8  83519760.88908      1664.350 8        48.276
C20        49.000                                                                                                                                    23030001.616 8 119923281.68408     -2464.055 8        50.114                                                                    23029996.002 8  97447472.50708     -2002.171 8        48.665
C06        50.000                                                                                                                                    40180296.034 6 209229357.68506     -1523.995 6        36.715    40180291.227 6 161789390.06406     -1178.690 6        39.126    40180290.756 6 170015968.82706     -1238.502 6        36.639
S48        51.000    77107230.434 6 405200594.53506      -465.243 6        37.724
E06        52.000    24399457.595 7 128220043.52007      1105.697 7        46.487                                                                    24399456.935 8  95748746.18008       825.738 8        49.068    24399456.855 8  98246537.32408       847.259 8        50.074
C09        53.000                                                                                                                                    39453582.386 6 205445174.24406     -1273.018 6        38.946    39453579.890 7 158863230.06707      -984.217 7        44.778    39453577.578 6 166941011.34706     -1034.410 6        40.162
C60        54.000                                                                                                                                    40767401.193 6 212286719.28806      -530.692 6        40.260                                                                    40767386.805 6 172500310.23206      -431.440 6        38.838
R09        55.000    23470600.845 6 125331717.79806     -4474.371 6        41.473                                                                    23470599.880 6  97480217.87806     -3480.039 6        40.939
G07        56.000    20737276.334 8 108975141.96408      -901.478 8        49.565                                    20737271.364 8  84915678.73608      -702.450 8        50.366    20737271.591 7  84915687.74107      -702.493 7        46.090
C02        57.000                                                                                                                                    40738218.088 5 212134592.16205      -558.092 5        35.233    40738213.967 6 164035905.52306      -431.714 6        40.434    40738216.395 5 172376726.91105      -453.271 5        35.633
I03        58.000    98638621.093 6 311293844.36406       844.029 6        40.958
R07        59.000    24298460.933 5 130071529.83205     -3972.380 5        34.890                                                                    24298462.392 5 101166776.27105     -3089.721 5        30.521
C35        60.000                                                                                                                                    26629822.416 6 138668458.48206     -3106.444 6        39.967                                                                    26629820.395 6 112679474.43306     -2524.081 6        38.168
> 2025 01 02 05 45 35.0000000  0 54
G09         1.000    21531509.434 7 113148874.07807     -2844.385 7        45.977                                    21531506.892 7  88167958.38407     -2216.401 7        46.485    21531507.179 7  88167958.37907     -2216.366 7        43.826
G06         2.000    23958043.943 6 125900384.86206     -3929.878 6        40.901                                    23958043.906 6  98104198.25506     -3062.240 6        36.200    23958044.230 6  98104206.26006     -3062.335 6        39.595
E11         3.000    25274790.984 6 132819940.59806     -2388.032 6        41.728                                                                    25274786.708 7  99183712.45507     -1783.287 7        43.232    25274786.356 7 101771109.82107     -1829.743 7        44.111
G16         4.000    24315938.817 6 127781128.02606     -2888.059 6        37.784                                    24315934.242 2  99569692.01202     -2250.443 2        17.811
S21         5.000    38377839.330 7 201676612.51207      -480.899 7        42.578
E10         6.000    26344930.221 7 138443544.32607     -3400.898 7        43.018                                                                    26344928.989 7 103383161.18907     -2539.667 7        45.193    26344928.813 7 106080112.89507     -2605.961 7        45.959
G20         7.000    20911387.585 7 109890093.26107       935.281 7        47.970                                    20911381.974 6  85628625.64406       728.790 6        38.078
R02         8.000    23152187.176 7 123544514.06507      2969.021 7        45.225                                                                    23152187.642 6  96090178.11906      2309.301 6        40.353
R10         9.000    20420036.025 7 108850287.69407     -2227.048 7        44.751
R17        10.000    22231099.486 7 118963111.21907      -953.403 7        47.365                                                                    22231097.497 7  92526858.61107      -741.469 7        43.263
G30        11.000    21074812.542 8 110748898.95108      1432.724 8        50.134                                    21074810.162 8  86297835.88208      1116.411 8        50.016    21074810.780 7  86297843.87607      1116.390 7        44.241
S27        12.000    39022554.320 6 205064856.00706      -499.690 6        37.282
G13        13.000    24269188.626 6 127535449.55706      2820.786 6        38.384                                    24269184.078 2  99378251.14702      2198.023 2        16.868
S36        14.000    38145910.300 7 200458634.81907      -481.497 7        45.026
I09        15.000    38389378.320 6 150648150.66306      -862.528 6        41.969
E09        16.000    26401881.692 7 138742844.25807      1723.750 7        42.737                                                                    26401880.191 7 103606669.08507      1287.137 7        44.552    26401879.630 7 106309447.93307      1320.685 7        45.294
S45        17.000    63329756.027 6 332800192.98216      -522.806 6        37.236
E36        18.000    26088967.508 7 137098448.52807       230.037 7        42.483                                                                    26088967.297 7 102378732.54107       171.777 7        44.938    26088967.016 7 105049480.25207       176.193 7        45.916
E12        19.000    27898708.907 6 146608694.92806     -3731.235 6        36.575                                                                    27898705.446 6 109480503.04106     -2786.303 6        38.249    27898705.477 6 112336516.15606     -2859.192 6        39.189
E21        20.000    25762195.125 7 135381247.46307        13.359 7        43.482                                                                    25762194.859 7 101096401.27307        10.007 7        45.910    25762194.758 7 103733695.02107        10.262 7        47.328
G11        21.000    22694353.536 7 119259648.11507     -2496.513 7        45.217                                    22694349.282 5  92929577.80405     -1945.324 5        32.623    22694349.496 7  92929590.79907     -1945.279 7        44.032
I06        22.000    37897615.689 7 148718615.54507      -364.025 7        43.274
S28        23.000    40807304.130 5 214443803.43205      -482.741 5        35.310
R08        24.000    20402180.251 8 109252784.01208     -2509.115 8        49.078                                                                    20402178.097 7  84974390.94307     -1951.488 7        46.636
S23        25.000    38082695.392 7 200125902.84207      -477.833 7        45.011
R01        26.000    19654825.106 8 105066314.44908      1161.282 8        48.999                                                                    19654825.094 7  81718237.98207       903.230 7        42.195
C44        27.000                                                                                                                                    25973264.122 6 135249602.71406     -1815.311 6        39.835                                                                    25973261.503 6 109901376.17706     -1475.102 6        38.517
R24        29.000    22993206.119 7 122955014.32507     -3957.832 7        45.774                                                                    22993205.652 6  95631665.06106     -3078.204 6        39.477
E19        30.000    24715229.631 6 129879435.27706     -2368.087 6        41.130                                                                    24715227.684 7  96987890.73307     -1768.357 7        43.031    24715227.432 7  99518006.58707     -1814.596 7        43.539
C37        33.000                                                                                                                                    23626368.111 7 123028695.30707     -2223.344 7        47.687                                                                    23626370.739 7  99970904.00607     -1806.704 7        47.271
E04        34.000    23349862.820 8 122704394.48808        26.995 8        48.627                                                                    23349860.571 8  91629916.61608        20.141 8        51.195    23349860.222 8  94020257.71808        20.661 8        51.679
C16        35.000                                                                                                                                    40741591.386 6 212152170.06406     -1484.821 6        37.282    40741592.835 6 164049521.72906     -1148.023 6        39.054    40741590.187 5 172391011.79805     -1206.404 5        33.784
I01        37.000   386302226.200 6 212792077.06706     -2996.149 6        41.702
E27        38.000    28077631.259 6 147548944.50906     -2415.326 6        36.749                                                                    28077630.780 6 110182663.37406     -1803.599 6        41.058    28077630.438 6 113056990.17806     -1850.648 6        41.271
C19        39.000                                                                                                                                    21849587.585 8 113776540.20308       157.387 8        51.389                                                                    21849582.212 8  92452736.87208       127.881 8        49.764
G05        41.000    23111721.953 7 121452930.67207      2776.622 7        43.528                                    23111716.786 6  94638629.82506      2163.601 6        38.691    23111717.245 6  94638638.82706      2163.725 6        40.014
S44        42.000    40767910.526 6 214236962.08306      -535.410 6        37.301
C36        43.000                                                                                                                                    25091668.412 7 130658902.44807      2949.730 7        42.531                                                                    25091672.787 7 106171081.27807      2396.810 7        43.801
C05        44.000                                                                                                                                    39172243.431 6 203980170.97006      -536.372 6        38.802    39172237.763 7 157730428.95707      -414.767 7        43.500    39172239.842 6 165750698.94606      -435.953 6        40.224
R18        45.000    23767712.807 6 126873683.96906      2015.486 6        41.580                                                                    23767713.460 6  98679515.28106      1567.501 6        40.777
G04        46.000    23908537.784 6 125640219.09206     -3540.650 6        40.820                                    23908536.371 3  97901447.74303     -2758.954 3        23.981    23908536.029 6  97901449.73406     -2758.880 6        39.444
R11        47.000    20093182.547 8 107371854.59708      2136.169 8        51.687                                                                    20093180.023 7  83511446.23107      1661.499 7        47.886
C20        49.000                                                                                                                                    23032368.335 8 119935605.19008     -2465.465 8        50.257                                                                    23032362.658 8  97457486.37508     -2003.420 8        48.818
C06        50.000                                                                                                                                    40181759.688 6 209236977.65406     -1523.846 6        36.677    40181754.474 6 161795282.27906     -1178.510 6        39.294    40181754.190 6 170022160.65606     -1238.406 6        36.624
S48        51.000    77107680.624 6 405202920.20706      -465.305 6        38.081
E06        52.000    24398406.063 7 128214516.50507      1104.925 7        46.348                                                                    24398405.174 8  95744618.85608       825.130 8        49.141    24398405.094 8  98242302.33708       846.604 8        50.174
C09        53.000                                                                                                                                    39454805.077 6 205451538.37506     -1272.913 6        39.150    39454802.113 7 158868151.21807      -984.248 7        44.873    39454799.783 6 166946182.73806     -1034.329 6        40.350
C60        54.000                                                                                                                                    40767910.703 6 212289372.42206      -530.525 6        40.162                                                                    40767896.302 6 172502466.11706      -431.329 6        39.165
R09        55.000    23474790.775 6 125354092.45406     -4475.714 6        41.154                                                                    23474789.921 6  97497620.37106     -3481.143 6        40.467
G07        56.000    20738135.021 8 108979654.77208      -903.774 8        49.363                                    20738130.125 8  84919195.20608      -704.239 8        50.288    20738130.482 7  84919204.20707      -704.173 7        46.446
C02        57.000                                                                                                                                    40738753.305 5 212137381.92705      -558.007 5        35.224    40738749.761 6 164038062.68406      -431.391 6        40.160    40738752.238 5 172378993.79405      -453.362 5        35.814
I03        58.000    98637545.571 6 311289624.14006       843.929 6        40.620
R07        59.000    24302169.604 5 130091392.44605     -3973.018 5        34.595                                                                    24302172.067 5 101182224.92405     -3090.169 5        30.657
C35        60.000                                                                                                                                    26632804.993 6 138683991.15806     -3106.852 6        39.586                                                                    26632803.345 6 112692095.99906     -2524.567 6        38.138
> 2025 01 02 05 45 40.0000000  0 54
G09         1.000    21534216.377 7 113163098.71807     -2845.597 7        46.345                                    21534213.829 7  88179042.51007     -2217.346 7        46.479    21534214.111 7  88179042.51407     -2217.390 7        43.710
G06         2.000    23961784.162 6 125920035.96506     -3930.484 6        40.882                                    23961783.337 6  98119510.79306     -3062.715 6        36.034    23961783.875 6  98119518.80306     -3062.822 6        39.634
E11         3.000    25277064.217 6 132831885.19606     -2390.028 6        41.917                                                                    25277059.695 7  99192632.11007     -1784.645 7        43.244    25277059.279 7 101780262.17007     -1831.298 7        44.092
G16         4.000    24318687.830 6 127795575.71106     -2890.989 6        37.043                                    24318683.516 2  99580949.92802     -2252.698 2        17.434
S21         5.000    38378297.452 7 201679017.09707      -480.753 7        42.717
E10         6.000    26348166.256 7 138460551.26107     -3401.827 7        43.615                                                                    26348165.284 7 103395861.17607     -2540.334 7        45.195    26348165.245 7 106093144.18807     -2606.618 7        46.097
G20         7.000    20910499.123 8 109885423.72508       932.451 8        48.116                                    20910493.395 6  85624987.04806       726.586 6        38.084
R02         8.000    23149406.517 7 123529669.26707      2968.931 7        44.817                                                                    23149405.581 6  96078632.18006      2309.154 6        39.715
R10         9.000    20422126.925 7 108861433.20207     -2231.248 7        44.378
R17        10.000    22231992.280 7 118967889.05307      -957.740 7        47.130                                                                    22231990.872 7  92530574.71007      -744.922 7        43.388
G30        11.000    21073450.239 8 110741740.60708      1430.557 8        49.990                                    21073447.976 8  86292257.95008      1114.721 8        49.979    21073448.424 7  86292265.94707      1114.753 7        44.256
S27        12.000    39023030.360 6 205067354.09206      -499.576 6        36.991
G13        13.000    24266505.281 6 127521345.90006      2820.461 6        38.880                                    24266500.099 2  99367261.28402      2197.756 2        16.755
S36        14.000    38146364.966 7 200461042.22607      -481.363 7        44.685
I09        15.000    38390477.322 6 150652463.07306      -862.568 6        41.845
E09        16.000    26400241.417 7 138734226.86307      1723.284 7        42.817                                                                    26400240.280 7 103600234.01807      1286.902 7        44.518    26400239.698 7 106302844.99907      1320.436 7        45.562
S45        17.000    63330209.249 6 332802807.08706      -522.935 6        36.998
E36        18.000    26088749.417 7 137097304.40307       227.574 7        43.156                                                                    26088749.551 7 102377878.16007       169.933 7        44.959    26088749.294 7 105048603.57907       174.337 7        46.145
E12        19.000    27902258.964 6 146627351.42606     -3731.308 6        36.760                                                                    27902255.786 6 109494434.82606     -2786.337 6        38.504    27902255.671 6 112350811.37806     -2859.025 6        39.333
E21        20.000    25762183.531 7 135381186.43107        10.987 7        43.805                                                                    25762183.105 7 101096355.69507         8.208 7        45.940    25762183.200 7 103733648.25307         8.452 7        47.431
G11        21.000    22696730.163 7 119272136.57107     -2499.013 7        44.823                                    22696725.793 5  92939309.06805     -1947.280 5        32.611    22696725.817 7  92939322.06407     -1947.204 7        43.767
I06        22.000    37898079.574 7 148720435.69807      -363.983 7        43.350
S28        23.000    40807762.037 5 214446216.87805      -482.583 5        35.033
R08        24.000    20404523.767 8 109265334.30708     -2511.047 8        49.353                                                                    20404521.411 7  84984152.26907     -1952.969 7        46.302
S23        25.000    38083148.010 7 200128292.16007      -477.884 7        44.864
R01        26.000    19653739.896 8 105060512.73508      1159.371 8        49.282                                                                    19653739.053 6  81713725.53106       901.741 6        41.621
C44        27.000                                                                                                                                    25975008.090 6 135258684.83506     -1817.559 6        40.248                                                                    25975005.772 6 109908756.13106     -1476.722 6        38.556
R24        29.000    22996907.142 7 122974807.65907     -3959.630 7        45.363                                                                    22996906.171 6  95647059.86006     -3079.610 6        38.892
E19        30.000    24717483.097 6 129891276.95806     -2368.717 6        41.282                                                                    24717481.132 7  96996733.54407     -1768.856 7        43.105    24717480.680 7  99527080.06907     -1815.025 7        43.740
C37        33.000                                                                                                                                    23628504.078 7 123039817.79007     -2225.664 7        47.780                                                                    23628506.660 7  99979941.92407     -1808.426 7        47.217
E04        34.000    23349837.496 8 122704261.97208        25.966 8        48.856                                                                    23349835.344 8  91629817.65608        19.378 8        51.284    23349834.963 8  94020156.17908        19.912 8        51.823
C16        35.000                                                                                                                                    40743016.971 6 212159593.24206     -1484.443 6        37.391    40743018.321 6 164055261.80206     -1147.786 6        39.120    40743015.756 5 172397043.73705     -1206.145 5        33.844
I01        37.000   386306043.562 6 212807057.98406     -2996.302 6        41.855
E27        38.000    28079929.958 6 147561025.04406     -2417.092 6        36.480                                                                    28079929.595 6 110191684.53906     -1804.902 6        41.156    28079929.104 6 113066246.69206     -1852.010 6        41.385
C19        39.000                                                                                                                                    21849437.164 8 113775757.60708       155.606 8        51.578                                                                    21849431.914 8  92452100.93908       126.538 8        49.718
G05        41.000    23109080.158 7 121439050.60607      2775.312 7        43.560                                    23109075.506 6  94627814.19506      2162.582 6        38.673    23109075.754 6  94627823.20006      2162.442 6        40.629
S44        42.000    40768418.283 6 214239639.52206      -535.312 6        36.968
C36        43.000                                                                                                                                    25088836.403 7 130644155.19907      2949.113 7        42.923                                                                    25088840.686 7 106159097.91507      2396.628 7        43.564
C05        44.000                                                                                                                                    39172758.433 6 203982852.83006      -536.390 6        39.162    39172753.006 7 157732502.74007      -414.836 7        43.653    39172754.812 6 165752878.15906      -435.711 6        40.069
R18        45.000    23765827.233 6 126863615.24006      2012.086 6        41.902                                                                    23765827.265 6  98671684.04306      1564.914 6        40.596
G04        46.000    23911907.079 6 125657923.65406     -3541.146 6        40.126                                    23911905.296 3  97915243.47103     -2759.338 3        23.410    23911905.546 6  97915245.44906     -2759.312 6        39.057
R11        47.000    20091185.466 8 107361182.88608      2132.417 8        51.467                                                                    20091183.356 8  83503146.01108      1658.569 8        48.057
C20        49.000                                                                                                                                    23034736.478 8 119947936.18608     -2466.980 8        50.275                                                                    23034730.663 8  97467506.30708     -2004.464 8        48.763
C06        50.000                                                                                                                                    40183222.788 6 209244597.28606     -1523.998 6        36.548    40183217.906 6 161801174.22706     -1178.313 6        39.030    40183217.439 6 170028352.19406     -1238.230 6        36.733
S48        51.000    77108128.962 6 405205245.85806      -465.258 6        38.144
E06        52.000    24397355.207 7 128208993.48907      1104.183 7        46.568                                                                    24397354.184 8  95740494.52408       824.608 8        49.179    24397354.122 8  98238070.41408       846.070 8        50.330
C09        53.000                                                                                                                                    39456028.122 6 205457902.72806     -1272.920 6        39.225    39456024.291 7 158873072.51307      -984.180 7        45.007    39456021.977 6 166951354.27306     -1034.190 6        40.274
C60        54.000                                                                                                                                    40768420.352 6 212292025.53806      -530.624 6        40.629                                                                    40768405.866 6 172504621.95706      -431.218 6        39.198
R09        55.000    23478982.429 6 125376474.74006     -4477.086 6        41.654                                                                    23478981.054 6  97515028.81106     -3482.182 6        40.782
G07        56.000    20738995.979 8 108984179.21508      -906.068 8        49.328                                    20738991.101 8  84922720.74408      -706.024 8        50.266    20738991.458 7  84922729.74307      -705.953 7        46.400
C02        57.000                                                                                                                                    40739289.099 5 212140171.66805      -558.010 5        34.976    40739285.515 6 164040219.90106      -431.740 6        40.093    40739287.889 5 172381260.68205      -453.260 5        35.510
I03        58.000    98636470.126 6 311285403.95906       844.117 6        40.870
R07        59.000    24305879.593 5 130111257.86805     -3973.589 5        34.148                                                                    24305885.842 5 101197675.83005     -3090.603 5        30.181
C35        60.000                                                                                                                                    26635788.512 6 138699526.37506     -3107.258 6        40.327                                                                    26635786.511 6 112704719.64606     -2524.971 6        38.228
> 2025 01 02 05 45 45.0000000  0 54
G09         1.000    21536924.170 7 113177329.92507     -2847.289 7        46.537                                    21536922.004 7  88190131.75407     -2218.668 7        46.458    21536921.900 7  88190131.76607     -2218.647 7        43.719
G06         2.000    23965524.886 6 125939690.33006     -3931.467 6        40.620                                    23965523.513 6  98134825.87206     -3063.479 6        36.000    23965523.835 6  98134833.87206     -3063.517 6        39.474
E11         3.000    25279338.908 7 132843839.82307     -2392.367 7        42.004                                                                    25279334.538 7  99201559.25607     -1786.364 7        43.156    25279334.271 7 101789422.20307     -1833.130 7        44.033
G16         4.000    24321439.264 6 127810037.07206     -2893.785 6        36.367                                    24321435.446 2  99592218.52002     -2254.894 2        16.943
S21         5.000    38378754.738 7 201681421.68807      -481.331 7        42.527
E10         6.000    26351403.208 7 138477563.10207     -3403.103 7        43.213                                                                    26351402.507 7 103408564.81607     -2541.265 7        45.172    26351402.423 7 106106179.22307     -2607.467 7        46.049
G20         7.000    20909613.065 8 109880768.52808       929.267 8        48.109                                    20909607.518 6  85621359.61306       724.104 6        38.036
R02         8.000    23146625.338 7 123514824.79007      2968.538 7        45.463                                                                    23146623.423 6  96067086.45506      2308.725 6        40.567
R10         9.000    20424222.013 7 108872599.52507     -2235.655 7        44.488
R17        10.000    22232888.980 7 118972688.98107      -962.491 7        46.808                                                                    22232887.715 7  92534307.99207      -748.633 7        43.602
G30        11.000    21072090.145 8 110734593.58308      1427.941 8        49.658                                    21072087.946 8  86286688.83608      1112.683 8        49.975    21072088.498 7  86286696.84107      1112.695 7        44.293
S27        12.000    39023504.934 6 205069853.24506      -500.417 6        37.051
G13        13.000    24263821.665 6 127507244.19406      2819.829 6        39.165                                    24263816.571 2  99356272.95302      2197.271 2        17.094
S36        14.000    38146827.470 7 200463448.94707      -481.353 7        44.957
I09        15.000    38391576.728 7 150656776.10407      -863.014 7        42.053
E09        16.000    26398602.195 7 138725611.56907      1722.465 7        43.166                                                                    26398600.859 7 103593800.53107      1286.307 7        44.466    26398600.308 7 106296243.67307      1319.794 7        45.493
S45        17.000    63330662.716 6 332805421.19306      -523.228 6        37.028
E36        18.000    26088534.091 7 137096172.82407       224.647 7        42.538                                                                    26088534.209 7 102377033.14607       167.845 7        44.978    26088533.994 7 105047736.52507       172.168 7        46.128
E12        19.000    27905809.240 6 146646008.10506     -3731.583 6        36.193                                                                    27905805.917 6 109508366.76006     -2786.600 6        38.285    27905806.148 6 112365106.75606     -2859.328 6        39.204
E21        20.000    25762174.410 7 135381137.63707         8.161 7        43.987                                                                    25762173.929 7 101096319.26107         6.150 7        45.931    25762173.899 7 103733610.86507         6.284 7        47.597
G11        21.000    22699108.587 7 119284637.95607     -2501.823 7        44.783                                    22699104.723 5  92949050.39305     -1949.472 5        32.515    22699104.892 7  92949063.39907     -1949.532 7        43.566
I06        22.000    37898543.605 7 148722256.06507      -364.397 7        43.615
S28        23.000    40808219.793 5 214448630.30505      -483.134 5        34.962
R08        24.000    20406869.216 8 109277894.96708     -2513.469 8        49.265                                                                    20406866.966 7  84993921.66907     -1954.913 7        46.650
S23        25.000    38083605.139 7 200130681.28607      -478.144 7        44.564
R01        26.000    19652656.754 8 105054721.21208      1157.040 8        49.028                                                                    19652655.517 6  81709221.02006       899.935 6        41.290
C44        27.000                                                                                                                                    25976753.950 6 135267777.80306     -1820.054 6        40.391                                                                    25976752.095 6 109916144.92106     -1478.763 6        38.643
R24        29.000    23000610.778 7 122994610.39707     -3961.877 7        45.457                                                                    23000609.461 6  95662461.98806     -3081.333 6        39.504
E19        30.000    24719737.073 6 129903121.73306     -2369.571 6        41.220                                                                    24719735.239 7  97005578.66007     -1769.534 7        43.154    24719734.491 7  99536155.92307     -1815.606 7        43.687
C37        33.000                                                                                                                                    23630642.122 8 123050951.65908     -2228.217 8        48.027                                                                    23630644.756 7  99988989.09607     -1810.369 7        47.359
E04        34.000    23349813.337 8 122704134.75108        24.712 8        48.683                                                                    23349811.161 8  91629722.65508        18.445 8        51.246    23349810.803 8  94020058.69708        18.918 8        51.939
C16        35.000                                                                                                                                    40744442.421 6 212167015.87906     -1484.656 6        37.943    40744444.480 6 164061001.43206     -1148.077 6        39.363    40744441.133 5 172403075.21205     -1206.383 5        33.934
I01        37.000   386309861.034 6 212822039.61706     -2996.673 6        41.988
E27        38.000    28082230.209 5 147573114.63805     -2419.083 5        35.838                                                                    28082230.286 6 110200712.47106     -1806.527 6        41.204    28082229.690 6 113075510.13606     -1853.582 6        41.528
C19        39.000                                                                                                                                    21849288.572 8 113774983.93808       153.511 8        51.797                                                                    21849283.290 8  92451472.26708       124.918 8        49.883
G05        41.000    23106440.265 7 121425177.55807      2773.598 7        43.397                                    23106435.554 6  94617004.02806      2161.251 6        38.634    23106436.143 6  94617013.03206      2161.132 6        40.231
S44        42.000    40768931.438 6 214242316.90106      -535.599 6        36.960
C36        43.000                                                                                                                                    25086004.565 7 130629410.74807      2948.271 7        42.798                                                                    25086009.330 7 106147116.85507      2395.970 7        43.500
C05        44.000                                                                                                                                    39173272.920 6 203985534.81006      -536.861 6        39.219    39173268.141 7 157734576.58807      -415.039 7        43.663    39173270.010 6 165755057.45706      -435.855 6        40.393
R18        45.000    23763944.051 6 126853563.35706      2008.362 6        41.673                                                                    23763943.656 6  98663865.90906      1562.024 6        40.415
G04        46.000    23915276.764 6 125675630.57206     -3541.900 6        39.480                                    23915274.784 3  97929041.02803     -2759.907 3        22.990    23915274.910 6  97929043.00606     -2759.908 6        39.357
R11        47.000    20089191.350 8 107350529.83008      2128.403 8        51.439                                                                    20089189.986 8  83494860.30808      1655.395 8        48.429
C20        49.000                                                                                                                                    23037105.816 8 119960274.67208     -2468.762 8        50.424                                                                    23037100.128 8  97477532.33008     -2005.867 8        48.920
C06        50.000                                                                                                                                    40184686.183 6 209252216.57006     -1524.198 6        37.142    40184681.302 6 161807065.92706     -1178.514 6        39.090    40184680.740 6 170034543.47706     -1238.400 6        36.941
S48        51.000    77108578.306 6 405207571.89806      -465.501 6        37.629
E06        52.000    24396304.865 7 128203474.46707      1103.090 7        46.386                                                                    24396303.995 8  95736373.17708       823.748 8        49.115    24396303.876 8  98233841.55108       845.232 8        50.272
C09        53.000                                                                                                                                    39457249.976 6 205464267.28406     -1273.324 6        39.273    39457246.484 7 158877993.99707      -984.579 7        45.270    39457244.114 6 166956525.98706     -1034.436 6        40.222
C60        54.000                                                                                                                                    40768929.607 6 212294678.58706      -531.021 6        40.789                                                                    40768915.295 6 172506777.74706      -431.175 6        39.252
R09        55.000    23483176.362 7 125398864.61807     -4479.062 7        42.394                                                                    23483174.492 6  97532443.14406     -3483.746 6        40.915
G07        56.000    20739859.225 8 108988715.22308      -908.682 8        49.128                                    20739854.276 8  84926255.29508      -708.064 8        50.259    20739854.418 7  84926264.29507      -708.035 7        46.267
C02        57.000                                                                                                                                    40739824.272 5 212142961.44605      -558.466 5        35.210    40739821.122 6 164042377.10706      -431.770 6        40.224    40739823.670 5 172383527.58505      -453.512 5        35.681
I03        58.000    98635394.613 6 311281183.80406       843.751 6        40.887
R07        59.000    24309592.389 5 130131126.07005     -3974.382 5        34.148                                                                    24309594.907 5 101213128.79805     -3090.898 5        30.770
C35        60.000                                                                                                                                    26638773.004 6 138715064.15706     -3108.124 6        39.688                                                                    26638770.548 6 112717345.35306     -2525.393 6        38.489
> 2025 01 02 05 45 50.0000000  0 54
G09         1.000    21539633.732 7 113191567.65007     -2848.218 7        46.171                                    21539631.356 7  88201226.07807     -2219.391 7        46.439    21539631.637 7  88201226.07307     -2219.351 7        43.949
G06         2.000    23969265.278 6 125959347.85506     -3931.903 6        39.937                                    23969264.191 5  98150143.41805     -3063.816 5        35.705    23969264.653 6  98150151.40506     -3063.641 6        39.147
E11         3.000    25281615.530 7 132855804.39907     -2394.009 7        42.042                                                                    25281611.328 7  99210493.84707     -1787.621 7        43.268    25281611.009 7 101798589.86007     -1834.239 7        44.080
G16         4.000    24324194.629 6 127824512.07706     -2896.280 6        37.051                                    24324189.814 2  99603497.73502     -2256.856 2        16.943
S21         5.000    38379214.926 7 201683826.34207      -480.792 7        42.635
E10         6.000    26354641.213 7 138494579.79407     -3403.660 7        42.929                                                                    26354640.650 7 103421272.07907     -2541.812 7        45.162    26354640.615 7 106119217.98307     -2608.091 7        45.944
G20         7.000    20908729.761 7 109876127.62107       926.704 7        47.950                                    20908724.404 6  85617743.32306       722.103 6        38.075
R02         8.000    23143842.902 7 123499980.56207      2968.832 7        43.592                                                                    23143842.451 6  96055540.97106      2309.106 6        40.007
R10         9.000    20426321.137 7 108883786.66407     -2239.483 7        45.011
R17        10.000    22233790.446 7 118977510.82107      -966.547 7        46.658                                                                    22233788.242 7  92538058.31507      -751.739 7        43.198
G30        11.000    21070732.456 8 110727457.82608      1426.026 8        49.814                                    21070730.057 8  86281128.50908      1111.188 8        50.006    21070730.519 7  86281136.50407      1111.215 7        44.105
S27        12.000    39023977.709 6 205072352.67606      -499.832 6        37.161
G13        13.000    24261138.820 6 127493144.34406      2819.638 6        38.820                                    24261133.539 2  99345286.06902      2197.132 2        16.981
S36        14.000    38147286.486 7 200465855.45507      -481.374 7        44.879
I09        15.000    38392676.219 7 150661089.68107      -862.726 7        42.188
E09        16.000    26396962.956 7 138716998.35407      1722.365 7        43.238                                                                    26396961.802 7 103587368.57307      1286.203 7        44.590    26396961.348 7 106289643.93207      1319.683 7        45.365
S45        17.000    63331118.218 6 332808035.44406      -522.686 6        36.851
E36        18.000    26088321.148 7 137095053.75907       222.569 7        42.912                                                                    26088321.284 7 102376197.48107       166.230 7        45.005    26088320.962 7 105046879.05807       170.519 7        46.024
E12        19.000    27909359.203 6 146664664.92306     -3731.417 6        36.333                                                                    27909356.240 6 109522298.75606     -2786.345 6        38.541    27909356.570 6 112379402.20506     -2859.123 6        39.339
E21        20.000    25762167.189 7 135381101.04707         6.133 7        43.657                                                                    25762166.989 7 101096291.93207         4.539 7        45.971    25762166.874 7 103733582.82307         4.667 7        47.401
G11        21.000    22701490.744 7 119297152.21107     -2504.009 7        44.375                                    22701486.166 5  92958801.76205     -1951.175 5        32.515    22701486.382 7  92958814.75907     -1951.244 7        43.270
I06        22.000    37899007.239 7 148724076.63307      -364.145 7        43.500
S28        23.000    40808683.040 5 214451043.60905      -482.653 5        35.190
R08        24.000    20409217.037 8 109290465.81308     -2515.212 8        49.719                                                                    20409214.568 7  85003698.98707     -1956.224 7        46.459
S23        25.000    38084058.472 7 200133070.47507      -477.961 7        44.731
R01        26.000    19651575.051 8 105048939.78708      1155.260 8        48.920                                                                    19651574.394 6  81704724.36206       898.539 6        41.638
C44        27.000                                                                                                                                    25978502.405 6 135276881.58406     -1821.795 6        39.958                                                                    25978500.463 6 109923542.47606     -1480.484 6        38.538
R24        29.000    23004316.092 7 123014422.54707     -3963.415 7        45.588                                                                    23004314.921 6  95677871.46406     -3082.754 6        39.036
E19        30.000    24721991.468 6 129914969.51806     -2369.835 6        41.661                                                                    24721989.846 7  97014426.02207     -1769.751 7        43.228    24721989.130 7  99545234.09707     -1815.831 7        43.517
C37        33.000                                                                                                                                    23632782.527 7 123062096.88607     -2230.225 7        47.750                                                                    23632785.090 7  99998045.48607     -1812.152 7        47.319
E04        34.000    23349790.313 8 122704012.78308        23.885 8        48.866                                                                    23349788.016 8  91629631.57208        17.839 8        51.323    23349787.565 8  94019965.23908        18.318 8        51.738
C16        35.000                                                                                                                                    40745867.672 6 212174437.92206     -1484.223 6        37.951    40745869.426 6 164066740.60006     -1147.728 6        39.580    40745866.906 5 172409106.20905     -1206.130 5        34.095
I01        37.000   386313679.230 6 212837021.94906     -2996.437 6        41.754
E27        38.000    28084532.456 5 147585213.26205     -2420.687 5        35.714                                                                    28084532.470 6 110209747.12806     -1807.591 6        41.173    28084532.058 6 113084780.48106     -1854.732 6        41.325
C19        39.000                                                                                                                                    21849141.704 8 113774219.15508       152.062 8        51.614                                                                    21849136.443 8  92450850.80408       123.626 8        49.800
G05        41.000    23103801.186 7 121411311.48107      2772.538 7        43.460                                    23103796.939 6  94606199.29306      2160.417 6        38.637    23103797.328 6  94606208.30106      2160.349 6        40.231
S44        42.000    40769436.186 6 214244994.18306      -535.289 6        36.813
C36        43.000                                                                                                                                    25083173.619 7 130614669.10207      2948.090 7        42.282                                                                    25083178.489 7 106135138.04807      2395.526 7        43.526
C05        44.000                                                                                                                                    39173788.198 6 203988216.79606      -536.437 6        39.303    39173783.044 7 157736650.46307      -414.727 7        43.388    39173785.208 6 165757236.77606      -435.780 6        40.374
R18        45.000    23762064.297 7 126843528.28007      2005.276 7        42.696                                                                    23762064.718 6  98656060.84906      1559.768 6        40.973
G04        46.000    23918646.710 6 125693339.80506     -3542.048 6        38.709                                    23918644.671 3  97942840.40303     -2760.039 3        22.552    23918645.046 6  97942842.38906     -2759.923 6        39.129
R11        47.000    20087201.257 8 107339895.34408      2124.974 8        51.282                                                                    20087199.524 8  83486589.03708      1652.843 8        48.536
C20        49.000                                                                                                                                    23039476.721 8 119972620.59208     -2469.948 8        50.275                                                                    23039471.009 8  97487564.37808     -2006.930 8        48.805
C06        50.000                                                                                                                                    40186148.960 6 209259835.45006     -1523.829 6        36.877    40186144.412 6 161812957.31006     -1178.280 6        39.192    40186143.465 6 170040734.39306     -1237.990 6        36.767
S48        51.000    77109026.148 6 405209897.77406      -465.020 6        37.675
E06        52.000    24395255.379 7 128197959.40307      1102.602 7        46.330                                                                    24395254.493 8  95732254.78108       823.434 8        49.192    24395254.392 8  98229615.71708       844.913 8        50.156
C09        53.000                                                                                                                                    39458471.732 6 205470632.00706     -1272.875 6        39.246    39458468.630 7 158882915.59207      -984.237 7        45.360    39458466.370 6 166961697.82206     -1034.333 6        40.226
C60        54.000                                                                                                                                    40769439.363 6 212297331.52306      -530.442 6        40.639                                                                    40769424.810 6 172508933.45906      -431.181 6        39.234
R09        55.000    23487370.217 7 125421261.94607     -4480.185 7        42.669                                                                    23487368.827 6  97549863.28606     -3484.643 6        41.378
G07        56.000    20740724.637 8 108993262.77708      -910.661 8        49.348                                    20740719.646 8  84929798.84208      -709.605 8        50.270    20740719.746 7  84929807.84507      -709.571 7        46.361
C02        57.000                                                                                                                                    40740360.075 5 212145751.22505      -557.864 5        34.829    40740357.193 6 164044534.29306      -431.378 6        40.255    40740359.455 5 172385794.47605      -453.351 5        35.829
I03        58.000    98634319.446 6 311276963.64606       843.982 6        40.863
R07        59.000    24313305.545 5 130150997.24305     -3974.521 5        33.228                                                                    24313307.812 5 101228584.14405     -3091.322 5        30.808
C35        60.000                                                                                                                                    26641756.201 6 138730604.46006     -3108.373 6        38.748                                                                    26641754.841 6 112729973.07906     -2525.735 6        38.429
> 2025 01 02 05 45 55.0000000  0 54
G09         1.000    21542344.007 7 113205811.50707     -2849.511 7        45.360                                    21542341.857 7  88212325.18007     -2220.397 7        46.404    21542341.821 7  88212325.16807     -2220.292 7        43.841
G06         2.000    23973006.208 6 125979008.16506     -3932.337 6        39.541                                    23973005.294 5  98165463.13005     -3064.155 5        35.271    23973005.952 6  98165471.12106     -3064.184 6        39.736
E11         3.000    25283894.026 6 132867778.55606     -2395.804 6        41.759                                                                    25283889.921 7  99219435.59007     -1789.024 7        43.276    25283889.589 7 101807764.87307     -1835.721 7        43.928
G16         4.000    24326951.607 6 127839000.33006     -2898.928 6        37.051                                    24326946.663 2  99614787.28202     -2258.909 2        16.491
S21         5.000    38379673.281 7 201686230.62407      -480.929 7        42.916
E10         6.000    26357880.532 7 138511600.95207     -3404.720 7        43.062                                                                    26357879.580 7 103433982.67707     -2542.483 7        45.266    26357879.670 7 106132260.15807     -2608.771 7        46.012
G20         7.000    20907849.307 7 109871500.64607       923.923 7        47.919                                    20907843.923 6  85614137.88806       719.939 6        38.024
R02         8.000    23141060.252 7 123485136.39407      2968.781 7        44.626                                                                    23141060.750 6  96043995.49406      2309.200 6        40.064
R10         9.000    20428423.485 7 108894994.36707     -2243.615 7        44.278
R17        10.000    22234694.921 7 118982354.37707      -971.011 7        46.898                                                                    22234693.914 7  92541825.52507      -755.219 7        43.435
G30        11.000    21069376.565 8 110720332.98008      1423.734 8        49.398                                    21069374.243 8  86275576.67908      1109.403 8        49.929    21069374.918 7  86275584.68307      1109.282 7        44.305
S27        12.000    39024455.230 6 205074851.14106      -499.891 6        37.406
G13        13.000    24258455.555 6 127479046.04006      2819.455 6        37.894                                    24258450.552 2  99334300.35602      2196.980 2        16.604
S36        14.000    38147742.082 7 200468261.29207      -481.048 7        45.081
I09        15.000    38393775.330 7 150665403.56607      -862.818 7        42.353
E09        16.000    26395323.834 7 138708386.81107      1722.101 7        43.120                                                                    26395323.136 7 103580937.88307      1285.960 7        44.643    26395322.631 7 106283045.47407      1319.558 7        45.508
S45        17.000    63331573.988 6 332810649.29706      -522.773 6        37.195
E36        18.000    26088110.959 7 137093946.83807       220.087 7        42.711                                                                    26088110.442 7 102375370.88307       164.460 7        45.111    26088110.399 7 105046030.90107       168.701 7        45.949
E12        19.000    27912909.388 6 146683321.48506     -3731.674 6        36.068                                                                    27912906.377 6 109536230.58806     -2786.347 6        38.474    27912906.747 6 112393697.47706     -2859.063 6        39.354
E21        20.000    25762162.744 7 135381076.29507         3.642 7        43.809                                                                    25762162.316 7 101096273.44407         2.719 7        46.007    25762162.300 7 103733563.85207         2.819 7        47.475
G11        21.000    22703874.553 7 119309678.93707     -2506.705 7        44.737                                    22703869.997 5  92968562.84805     -1953.277 5        32.485    22703870.140 7  92968575.84407     -1953.268 7        43.227
I06        22.000    37899471.110 7 148725897.10807      -364.143 7        43.405
S28        23.000    40809143.827 5 214453457.08905      -482.938 5        35.400
R08        24.000    20411566.294 8 109303046.53908     -2517.302 8        49.788                                                                    20411563.850 7  85013483.98207     -1957.857 7        46.322
S23        25.000    38084516.899 7 200135459.45307      -477.903 7        45.043
R01        26.000    19650495.399 8 105043168.05108      1153.281 8        48.411                                                                    19650494.520 6  81700235.22106       896.960 6        41.866
C44        27.000                                                                                                                                    25980252.800 6 135285995.79006     -1824.028 6        40.272                                                                    25980250.592 6 109930948.50906     -1482.164 6        38.486
R24        29.000    23008023.702 7 123034243.68007     -3965.216 7        45.919                                                                    23008022.228 6  95693287.88806     -3084.062 6        39.192
E19        30.000    24724246.477 6 129926820.01806     -2370.494 6        41.294                                                                    24724244.904 7  97023275.41107     -1770.107 7        43.329    24724244.218 7  99554314.33407     -1816.317 7        43.446
C37        33.000                                                                                                                                    23634924.886 7 123073253.07807     -2232.419 7        47.708                                                                    23634927.506 7 100007110.81607     -1814.132 7        47.267
E04        34.000    23349768.070 8 122703895.69208        22.796 8        48.768                                                                    23349765.684 8  91629544.13408        17.046 8        51.360    23349765.312 8  94019875.51808        17.513 8        51.710
C16        35.000                                                                                                                                    40747293.345 6 212181859.00306     -1484.233 6        38.102    40747294.394 6 164072479.02406     -1147.564 6        39.712    40747291.699 5 172415136.41805     -1206.042 5        34.324
I01        37.000   386317497.225 6 212852004.70506     -2996.565 6        41.638
E27        38.000    28086836.727 6 147597320.47806     -2422.581 6        36.026                                                                    28086836.404 6 110218788.22106     -1808.864 6        41.216    28086836.112 6 113094057.42606     -1856.032 6        41.344
C19        39.000                                                                                                                                    21848996.484 8 113773462.89608       150.291 8        51.677                                                                    21848991.222 8  92450236.29108       122.075 8        49.787
G05        41.000    23101164.020 7 121397452.01307      2771.124 7        43.416                                    23101159.608 6  94595399.71206      2159.314 6        38.640    23101159.917 6  94595408.71606      2159.382 6        40.229
S44        42.000    40769951.281 6 214247671.00906      -535.362 6        36.949
C36        43.000                                                                                                                                    25080343.638 7 130599929.86807      2947.509 7        42.711                                                                    25080347.889 7 106123161.21907      2394.989 7        43.325
C05        44.000                                                                                                                                    39174303.414 6 203990898.46306      -536.500 6        39.270    39174297.849 7 157738724.08207      -414.746 7        43.500    39174300.022 6 165759415.86906      -435.979 6        40.229
R18        45.000    23760187.787 6 126833509.63906      2001.977 6        41.604                                                                    23760187.272 6  98648268.57406      1557.087 6        40.515
G04        46.000    23922016.988 6 125711050.98806     -3542.605 6        38.835                                    23922015.116 3  97956641.30103     -2760.466 3        22.457    23922015.362 6  97956643.28006     -2760.393 6        39.264
R11        47.000    20085214.551 8 107329279.04908      2121.265 8        50.892                                                                    20085213.147 8  83478331.91808      1649.903 8        48.768
C20        49.000                                                                                                                                    23041848.761 8 119984973.58408     -2471.362 8        50.527                                                                    23041843.296 8  97497602.20408     -2008.206 8        48.814
C06        50.000                                                                                                                                    40187612.042 6 209267453.55406     -1523.555 6        36.994    40187607.131 6 161818848.12106     -1178.084 6        39.159    40187606.469 6 170046924.76806     -1237.865 6        36.775
S48        51.000    77109476.472 6 405212223.13506      -465.127 6        38.081
E06        52.000    24394206.422 7 128192447.92407      1101.859 7        46.353                                                                    24394205.672 8  95728139.06508       822.871 8        49.191    24394205.610 8  98225392.63808       844.319 8        50.248
C09        53.000                                                                                                                                    39459694.238 6 205476996.53306     -1273.018 6        39.273    39459690.705 7 158887837.03907      -984.242 7        45.332    39459688.682 6 166966869.53706     -1034.509 6        40.114
C60        54.000                                                                                                                                    40769948.498 6 212299984.00906      -530.494 6        40.570                                                                    40769934.387 6 172511088.82406      -431.284 6        39.384
R09        55.000    23491565.989 7 125443666.47107     -4481.809 7        42.567                                                                    23491564.779 6  97567288.99706     -3485.791 6        41.185
G07        56.000    20741592.283 8 108997821.51608      -912.967 8        49.374                                    20741587.141 8  84933351.10408      -711.401 8        50.219    20741587.465 7  84933360.10207      -711.368 7        46.351
C02        57.000                                                                                                                                    40740896.218 5 212148540.58405      -558.174 5        35.029    40740892.679 6 164046691.18906      -431.352 6        40.188    40740895.379 5 172388061.05305      -453.366 5        35.743
I03        58.000    98633243.880 6 311272743.21206       843.969 6        40.865
R07        59.000    24317015.492 5 130170870.47105     -3974.809 5        32.952                                                                    24317021.177 5 101244041.05305     -3091.465 5        30.083
C35        60.000                                                                                                                                    26644741.023 6 138746146.82306     -3108.675 6        38.889                                                                    26644739.328 6 112742602.54106     -2526.099 6        37.750
> 2025 01 02 05 46  0.0000000  0 54
G09         1.000    21545055.779 7 113220061.98007     -2850.561 7        45.943                                    21545053.605 7  88223429.43407     -2221.214 7        46.495    21545053.697 7  88223429.43007     -2221.235 7        43.450
G06         2.000    23976748.460 6 125998671.74506     -3932.839 6        40.903                                    23976747.094 5  98180785.39205     -3064.550 5        35.462    23976748.103 6  98180793.38606     -3064.519 6        39.880
E11         3.000    25286174.993 6 132879762.83406     -2397.593 6        41.635                                                                    25286170.426 7  99228384.88307     -1790.446 7        43.342    25286170.213 7 101816947.61907     -1837.125 7        43.973
G16         4.000    24329711.380 6 127853502.33206     -2901.631 6        36.514                                    24329706.432 2  99626087.52202     -2260.988 2        17.019
S21         5.000    38380129.002 7 201688634.97907      -480.723 7        42.775
E10         6.000    26361120.473 7 138528627.07107     -3405.682 7        42.785                                                                    26361119.687 7 103446696.97207     -2543.066 7        45.497    26361119.444 7 106145306.13807     -2609.409 7        45.877
G20         7.000    20906971.592 7 109866888.11507       921.226 7        47.922                                    20906966.184 6  85610543.70306       717.836 6        38.018
R02         8.000    23138280.202 7 123470292.63107      2968.805 7        45.013                                                                    23138278.881 6  96032450.35606      2308.977 6        41.037
R10         9.000    20430529.390 7 108906222.92807     -2247.618 7        44.625
R17        10.000    22235604.529 7 118987220.07007      -975.190 7        47.119                                                                    22235602.936 7  92545609.94707      -758.479 7        43.056
G30        11.000    21068022.890 8 110713219.52208      1421.695 8        49.514                                    21068020.607 8  86270033.72408      1107.816 8        49.934    21068020.929 7  86270041.72407      1107.727 7        44.143
S27        12.000    39024928.117 6 205077349.16506      -499.536 6        37.244
G13        13.000    24255772.793 6 127464949.79406      2819.180 6        38.619                                    24255768.245 2  99323316.28202      2196.758 2        16.906
S36        14.000    38148198.675 7 200470667.20907      -481.056 7        45.090
I09        15.000    38394874.939 7 150669718.13707      -862.880 7        42.442
E09        16.000    26393685.840 7 138699777.47307      1721.784 7        42.722                                                                    26393684.688 7 103574508.82107      1285.819 7        44.688    26393684.318 7 106276448.69807      1319.366 7        45.550
S45        17.000    63332030.151 6 332813263.17106      -522.550 6        37.289
E36        18.000    26087902.838 7 137092852.56207       217.705 7        42.191                                                                    26087902.337 7 102374553.73507       162.607 7        45.093    26087902.162 7 105045192.42607       166.874 7        46.084
E12        19.000    27916459.746 6 146701978.28506     -3731.196 6        36.219                                                                    27916456.624 6 109550162.61406     -2786.393 6        38.697    27916457.091 6 112407992.93906     -2858.992 6        39.535
E21        20.000    25762160.768 7 135381063.86807         1.389 7        43.649                                                                    25762159.839 7 101096264.15407         1.071 7        46.048    25762159.903 7 103733554.32707         1.072 7        47.505
G11        21.000    22706260.530 7 119322218.63507     -2509.025 7        45.124                                    22706256.176 5  92978334.03305     -1955.084 5        32.707    22706256.761 7  92978347.02807     -1955.116 7        43.750
I06        22.000    37899935.262 7 148727717.85907      -363.996 7        43.579
S28        23.000    40809602.244 5 214455870.48105      -482.441 5        35.419
R08        24.000    20413917.240 8 109315637.63008     -2519.042 8        49.516                                                                    20413914.758 7  85023277.05307     -1959.268 7        46.513
S23        25.000    38084974.171 7 200137848.51207      -477.677 7        45.208
R01        26.000    19649416.790 8 105037406.59908      1151.476 8        48.806                                                                    19649417.491 6  81695754.09006       895.665 6        41.943
C44        27.000                                                                                                                                    25982005.219 6 135295120.91306     -1825.768 6        40.200                                                                    25982002.805 6 109938363.42406     -1483.783 6        38.559
R24        29.000    23011732.161 7 123054074.30207     -3966.882 7        45.902                                                                    23011729.773 6  95708711.70406     -3085.301 6        39.547
E19        30.000    24726502.435 6 129938673.68906     -2370.899 6        41.385                                                                    24726500.518 7  97032127.16807     -1770.452 7        43.390    24726500.007 7  99563397.01107     -1816.583 7        43.681
C37        33.000                                                                                                                                    23637069.632 7 123084420.71407     -2234.475 7        47.993                                                                    23637072.068 7 100016185.44007     -1815.673 7        47.299
E04        34.000    23349746.818 8 122703783.97408        21.944 8        48.575                                                                    23349744.408 8  91629460.70008        16.430 8        51.426    23349744.074 8  94019789.90908        16.850 8        51.703
C16        35.000                                                                                                                                    40748718.564 6 212189279.60906     -1483.846 6        38.520    40748719.682 6 164078217.07206     -1147.426 6        39.715    40748716.876 5 172421166.24605     -1205.786 5        34.467
I01        37.000   386321315.010 6 212866988.22306     -2996.630 6        41.642
E27        38.000    28089142.178 6 147609436.81606     -2423.979 6        36.064                                                                    28089142.028 6 110227836.14106     -1810.200 6        41.232    28089141.788 6 113103341.36406     -1857.329 6        41.425
C19        39.000                                                                                                                                    21848853.101 8 113772715.66508       148.670 8        51.653                                                                    21848847.730 8  92449629.10208       120.902 8        49.865
G05        41.000    23098528.242 7 121383599.68107      2769.929 7        43.587                                    23098523.595 6  94584605.69006      2158.385 6        38.784    23098524.167 6  94584614.68806      2158.457 6        39.952
S44        42.000    40770454.441 6 214250347.86706      -535.115 6        37.006
C36        43.000                                                                                                                                    25077514.158 7 130585193.53907      2947.143 7        43.507                                                                    25077517.958 7 106111186.74707      2394.879 7        43.393
C05        44.000                                                                                                                                    39174818.223 6 203993580.26706      -536.176 6        39.222    39174813.033 7 157740797.82807      -414.613 7        43.691    39174814.942 6 165761595.04006      -435.614 6        40.322
R18        45.000    23758312.490 6 126823507.90406      1998.777 6        41.714                                                                    23758313.564 6  98640489.42306      1554.683 6        40.451
G04        46.000    23925387.785 6 125728764.61606     -3542.752 6        38.646                                    23925385.950 3  97970444.08403     -2760.579 3        22.552    23925386.652 6  97970446.06706     -2760.707 6        39.426
R11        47.000    20083231.446 8 107318681.48308      2117.866 8        51.321                                                                    20083229.689 8  83470089.37008      1647.205 8        48.251
C20        49.000                                                                                                                                    23044222.734 8 119997334.12208     -2472.704 8        50.715                                                                    23044217.006 8  97507646.15308     -2009.193 8        48.916
C06        50.000                                                                                                                                    40189075.456 6 209275071.44606     -1523.319 6        37.077    40189070.461 6 161824738.71606     -1178.049 6        39.520    40189069.715 6 170053114.90306     -1237.951 6        36.639
S48        51.000    77109928.294 6 405214549.04606      -465.237 6        38.069
E06        52.000    24393158.297 7 128186940.51707      1101.301 7        46.414                                                                    24393157.639 8  95724026.39608       822.344 8        49.344    24393157.570 8  98221172.67608       843.837 8        50.227
C09        53.000                                                                                                                                    39460916.699 6 205483361.34006     -1272.908 6        39.372    39460912.869 7 158892758.70407      -984.220 7        45.324    39460910.967 6 166972041.45106     -1034.295 6        39.946
C60        54.000                                                                                                                                    40770458.187 6 212302636.53206      -530.430 6        40.749                                                                    40770443.745 6 172513244.17206      -430.790 6        39.565
R09        55.000    23495762.169 7 125466078.59107     -4483.086 7        42.000                                                                    23495761.566 6  97584720.64506     -3486.809 6        41.168
G07        56.000    20742461.672 8 109002391.91808      -915.048 8        49.087                                    20742456.867 8  84936912.45308      -713.023 8        50.234    20742457.065 7  84936921.45907      -713.087 7        46.172
C02        57.000                                                                                                                                    40741431.914 5 212151330.02505      -557.589 5        35.538    40741428.259 6 164048848.13406      -431.327 6        40.391    40741431.022 5 172390327.68705      -453.033 5        35.871
I03        58.000    98632168.533 6 311268522.86506       844.161 6        40.841
R07        59.000    24320728.479 5 130190746.62605     -3975.441 5        33.234                                                                    24320733.602 4 101259500.24104     -3092.612 4        28.673
C35        60.000                                                                                                                                    26647726.684 6 138761691.80606     -3109.197 6        39.153                                                                    26647724.618 6 112755234.11506     -2526.325 6        38.333
> 2025 01 02 05 46  5.0000000  0 54
G09         1.000    21547769.109 7 113234318.88807     -2852.095 7        46.036                                    21547766.588 7  88234538.71207     -2222.411 7        46.570    21547766.539 7  88234538.70107     -2222.348 7        43.065
G06         2.000    23980490.925 6 126018338.35806     -3933.636 6        41.750                                    23980489.547 6  98196110.02206     -3065.170 6        36.231    23980490.009 6  98196118.01606     -3065.195 6        40.062
E11         3.000    25288457.148 6 132891756.96106     -2399.768 6        41.445                                                                    25288452.932 7  99237341.53007     -1791.979 7        43.501    25288452.626 7 101826137.92307     -1838.803 7        44.001
G16         4.000    24332472.987 6 127868017.83006     -2904.408 6        36.711                                    24332468.741 2  99637398.29302     -2263.163 2        17.208
S21         5.000    38380585.479 7 201691039.20307      -480.993 7        42.631
E10         6.000    26364361.533 7 138545657.93007     -3406.834 7        43.018                                                                    26364360.542 7 103459414.81607     -2543.976 7        45.619    26364360.109 7 106158355.74707     -2610.268 7        45.934
G20         7.000    20906096.326 8 109862289.80108       918.183 8        48.012                                    20906091.195 6  85606960.59906       715.468 6        38.153
R02         8.000    23135498.708 7 123455449.06107      2968.601 7        44.476                                                                    23135496.818 6  96020905.35206      2308.882 6        40.265
R10         9.000    20432640.303 7 108917472.19907     -2251.947 7        44.533
R17        10.000    22236518.060 7 118992107.70107      -979.815 7        46.807                                                                    22236516.737 7  92549411.45207      -762.132 7        43.632
G30        11.000    21066671.434 8 110706117.26408      1419.301 8        49.599                                    21066669.095 8  86264499.49408      1105.950 8        50.089    21066669.559 7  86264507.49507      1105.967 7        44.304
S27        12.000    39025410.310 6 205079847.96506      -499.898 6        37.293
G13        13.000    24253091.177 6 127450855.35106      2818.594 6        39.679                                    24253086.036 2  99312333.59702      2196.305 2        17.019
S36        14.000    38148656.623 7 200473072.64907      -481.065 7        45.105
I09        15.000    38395974.666 7 150674033.21107      -863.120 7        42.400
E09        16.000    26392048.195 7 138691170.10607      1721.296 7        42.491                                                                    26392046.767 7 103568081.25007      1285.368 7        44.764    26392046.450 7 106269853.45707      1318.904 7        45.401
S45        17.000    63332484.383 6 332815877.01406      -522.658 6        37.180
E36        18.000    26087696.525 7 137091770.73107       215.115 7        42.480                                                                    26087696.484 7 102373745.87307       160.626 7        45.267    26087696.352 7 105044363.49607       164.724 7        46.026
E12        19.000    27920010.275 6 146720635.05106     -3731.351 6        36.204                                                                    27920007.096 6 109564094.61906     -2786.447 6        38.724    27920007.268 6 112422288.39706     -2859.245 6        39.441
E21        20.000    25762160.642 7 135381063.56107        -1.167 7        43.532                                                                    25762159.642 7 101096263.93007        -0.937 7        46.140    25762159.800 7 103733554.09407        -0.879 7        47.549
G11        21.000    22708649.159 7 119334771.07307     -2511.760 7        44.822                                    22708644.841 5  92988115.15905     -1957.213 5        32.719    22708644.907 7  92988128.16207     -1957.284 7        43.517
I06        22.000    37900399.482 7 148729538.76207      -364.264 7        43.536
S28        23.000    40810059.624 5 214458283.78405      -482.924 5        35.186
R08        24.000    20416270.428 8 109328238.82208     -2521.344 8        49.089                                                                    20416268.678 7  85033077.97807     -1961.025 7        47.011
S23        25.000    38085425.268 7 200140237.42007      -477.827 7        45.211
R01        26.000    19648341.714 8 105031655.10808      1149.260 8        49.397                                                                    19648340.624 6  81691280.72306       893.828 6        41.664
C44        27.000                                                                                                                                    25983758.964 6 135304256.73706     -1828.248 6        40.386                                                                    25983757.244 6 109945787.00406     -1485.704 6        38.483
R24        29.000    23015441.797 7 123073914.15607     -3968.947 7        45.240                                                                    23015439.976 6  95724142.70106     -3086.928 6        39.168
E19        30.000    24728758.635 6 129950530.29906     -2371.662 6        40.930                                                                    24728756.725 7  97040981.13107     -1771.162 7        43.482    24728756.325 7  99572481.94207     -1817.245 7        43.621
C37        33.000                                                                                                                                    23639216.483 7 123095599.61607     -2236.915 7        47.755                                                                    23639218.995 7 100025269.18807     -1817.742 7        47.362
E04        34.000    23349726.514 8 122703677.40408        20.781 8        48.452                                                                    23349724.150 8  91629381.12508        15.483 8        51.559    23349723.758 8  94019708.25508        15.911 8        51.747
C16        35.000                                                                                                                                    40750143.320 6 212196699.53806     -1483.842 6        38.586    40750144.302 6 164083954.61606     -1147.529 6        39.685    40750141.967 5 172427195.51005     -1205.660 5        34.457
I01        37.000   386325133.961 6 212881972.36706     -2996.958 6        41.883
E27        38.000    28091449.669 6 147621562.07506     -2425.864 6        36.004                                                                    28091449.375 6 110236890.69806     -1811.570 6        41.192    28091449.120 6 113112632.14706     -1858.876 6        41.387
C19        39.000                                                                                                                                    21848711.237 8 113771977.25108       146.742 8        51.777                                                                    21848705.904 8  92449029.07008       119.185 8        49.912
G05        41.000    23095893.457 7 121369754.24407      2768.361 7        43.689                                    23095888.866 6  94573817.04206      2157.167 6        38.898    23095889.201 6  94573826.03706      2157.167 6        40.074
S44        42.000    40770965.561 6 214253024.54506      -535.374 6        36.987
C36        43.000                                                                                                                                    25074684.547 7 130570459.95107      2946.382 7        43.803                                                                    25074688.549 7 106099214.48107      2394.232 7        43.354
C05        44.000                                                                                                                                    39175333.300 6 203996262.07506      -536.413 6        39.261    39175328.102 7 157742871.55707      -414.911 7        43.697    39175330.123 6 165763774.20006      -435.917 6        40.489
R18        45.000    23756443.496 7 126813522.91007      1995.282 7        42.311                                                                    23756443.269 6  98632723.33606      1551.840 6        40.236
G04        46.000    23928759.007 6 125746480.47506     -3543.264 6        39.282                                    23928757.437 3  97984248.61403     -2760.981 3        22.438    23928757.768 6  97984250.60606     -2761.222 6        39.219
R11        47.000    20081251.491 8 107308102.47108      2113.922 8        51.061                                                                    20081249.981 8  83461861.26608      1644.106 8        48.032
C20        49.000                                                                                                                                    23046598.067 8 120009702.02608     -2474.333 8        50.701                                                                    23046592.107 8  97517696.06908     -2010.639 8        48.851
C06        50.000                                                                                                                                    40190538.555 6 209282688.85706     -1523.345 6        37.187    40190533.522 6 161830628.95606     -1178.019 6        39.844    40190532.250 6 170059304.63206     -1237.876 6        36.635
S48        51.000    77110376.288 6 405216874.21606      -464.992 6        37.951
E06        52.000    24392111.073 7 128181437.00407      1100.216 7        46.324                                                                    24392110.340 8  95719916.62908       821.592 8        49.508    24392110.322 8  98216955.69608       843.075 8        50.245
C09        53.000                                                                                                                                    39462138.786 6 205489726.23406     -1273.062 6        39.489    39462135.347 7 158897680.43907      -984.402 7        45.315    39462133.386 6 166977213.42706     -1034.557 6        40.117
C60        54.000                                                                                                                                    40770967.451 6 212305288.86706      -530.414 6        40.880                                                                    40770953.327 6 172515399.40106      -431.136 6        39.541
R09        55.000    23499960.199 7 125488498.04707     -4484.733 7        42.301                                                                    23499960.173 6  97602157.99906     -3488.147 6        40.615
G07        56.000    20743333.610 8 109006973.77308      -917.557 8        49.346                                    20743328.771 8  84940482.73008      -714.979 8        50.389    20743328.834 7  84940491.72807      -714.938 7        46.056
C02        57.000                                                                                                                                    40741968.133 5 212154119.34105      -557.825 5        35.329    40741964.191 6 164051005.00206      -431.442 6        40.417    40741966.570 5 172392594.20705      -453.322 5        35.881
I03        58.000    98631093.042 6 311264302.45806       843.973 6        40.787
R07        59.000    24324444.957 5 130210625.57005     -3976.377 5        32.748                                                                    24324446.946 4 101274961.55104     -3092.742 4        29.052
C35        60.000                                                                                                                                    26650712.095 6 138777239.15006     -3109.575 6        39.420                                                                    26650710.580 6 112767867.58806     -2526.875 6        38.691
> 2025 01 02 05 46 10.0000000  0 54
G09         1.000    21550483.119 7 113248582.50207     -2853.517 7        46.039                                    21550480.854 7  88245653.20507     -2223.519 7        46.363    21550480.990 7  88245653.20707     -2223.500 7        42.904
G06         2.000    23984233.948 6 126038008.31906     -3934.393 6        40.813                                    23984232.738 6  98211437.25506     -3065.757 6        36.446    23984233.141 6  98211445.25806     -3065.824 6        39.745
E11         3.000    25290741.294 6 132903761.24806     -2402.044 6        41.511                                                                    25290737.264 7  99246305.75807     -1793.525 7        43.625    25290736.838 7 101835336.00907     -1840.485 7        44.048
G16         4.000    24335238.099 6 127882547.14206     -2907.219 6        36.488                                    24335233.693 2  99648719.83002     -2265.370 2        16.717
S21         5.000    38381042.572 7 201693443.59207      -480.986 7        42.510
E10         6.000    26367603.329 7 138562693.80807     -3407.799 7        43.151                                                                    26367602.324 7 103472136.41107     -2544.794 7        45.640    26367601.963 7 106171409.21007     -2611.144 7        45.952
G20         7.000    20905224.433 7 109857706.03207       915.219 7        47.923                                    20905218.929 6  85603388.83006       713.156 6        38.009
R02         8.000    23132716.587 7 123440606.07007      2968.377 7        45.309                                                                    23132714.909 6  96009360.80206      2308.777 6        40.338
R10         9.000    20434754.709 7 108928742.36507     -2256.302 7        44.525
R17        10.000    22237434.719 7 118997017.47307      -984.317 7        45.940                                                                    22237434.226 7  92553230.15407      -765.453 7        42.957
G30        11.000    21065322.142 8 110699026.53908      1416.912 8        49.318                                    21065319.783 8  86258974.25308      1104.086 8        49.946    21065320.182 7  86258982.25707      1104.023 7        44.265
S27        12.000    39025880.300 6 205082347.44806      -499.925 6        36.987
G13        13.000    24250409.316 6 127436762.97706      2818.178 6        38.736                                    24250404.458 2  99301352.52802      2196.002 2        16.868
S36        14.000    38149113.650 7 200475478.93507      -481.477 7        44.798
I09        15.000    38397074.271 7 150678349.04607      -863.284 7        42.512
E09        16.000    26390410.632 7 138682565.04107      1720.661 7        42.398                                                                    26390409.248 7 103561655.38807      1284.893 7        44.932    26390409.010 7 106263259.95407      1318.440 7        45.577
S45        17.000    63332938.512 6 332816791.11916      -522.931 6        37.255
E36        18.000    26087493.250 7 137090701.64407       212.486 7        42.381                                                                    26087493.036 7 102372947.52107       158.657 7        45.386    26087492.898 7 105043544.32107       162.790 7        46.124
E12        19.000    27923560.419 6 146739292.18706     -3731.626 6        36.405                                                                    27923557.422 6 109578026.86606     -2786.677 6        38.931    27923557.577 6 112436584.07606     -2859.217 6        39.874
E21        20.000    25762162.753 7 135381075.70507        -3.843 7        43.695                                                                    25762162.151 7 101096272.97807        -2.801 7        46.318    25762162.201 7 103733563.38607        -2.895 7        47.622
G11        21.000    22711040.311 7 119347336.56607     -2514.506 7        44.644                                    22711036.023 5  92997906.44305     -1959.358 5        32.533    22711036.032 7  92997919.43907     -1959.412 7        43.623
I06        22.000    37900863.704 7 148731360.00607      -364.348 7        43.718
S28        23.000    40810522.249 5 214460697.35805      -482.955 5        35.243
R08        24.000    20418625.834 8 109340850.53708     -2523.526 8        49.250                                                                    20418623.583 7  85042887.09307     -1962.739 7        46.750
S23        25.000    38085879.791 7 200142626.59007      -477.998 7        44.719
R01        26.000    19647268.155 8 105025914.02708      1147.081 8        49.337                                                                    19647266.342 6  81686815.42906       892.182 6        41.228
C44        27.000                                                                                                                                    25985515.883 6 135313403.52106     -1830.648 6        41.421                                                                    25985513.924 6 109953219.55706     -1487.634 6        38.664
R24        29.000    23019153.575 7 123093763.59507     -3970.919 7        45.962                                                                    23019152.311 6  95739581.14706     -3088.461 6        38.363
E19        30.000    24731015.338 6 129962390.15106     -2372.373 6        40.803                                                                    24731013.617 7  97049837.50407     -1771.663 7        43.676    24731013.186 7  99581569.35407     -1817.792 7        43.839
C37        33.000                                                                                                                                    23641365.283 7 123106790.04607     -2239.404 7        47.981                                                                    23641368.023 7 100034362.34707     -1819.833 7        47.571
E04        34.000    23349707.081 8 122703576.30508        19.602 8        48.628                                                                    23349704.940 8  91629305.62108        14.618 8        51.678    23349704.540 8  94019630.78708        15.022 8        51.894
C16        35.000                                                                                                                                    40751568.168 6 212204119.09506     -1484.091 6        38.598    40751568.955 6 164089691.84906     -1147.460 6        39.598    40751566.613 5 172433224.49205     -1205.891 5        34.910
I01        37.000   386328952.252 7 212896957.37307     -2997.069 7        42.032
E27        38.000    28093758.952 6 147633696.51606     -2427.976 6        36.076                                                                    28093758.465 6 110245952.12106     -1812.975 6        41.352    28093758.097 6 113121929.95806     -1860.200 6        41.595
C19        39.000                                                                                                                                    21848571.130 8 113771247.96608       144.872 8        51.961                                                                    21848565.858 8  92448436.48308       117.565 8        50.094
G05        41.000    23093260.346 7 121355916.05707      2766.876 7        42.754                                    23093255.527 6  94563034.03106      2156.003 6        38.625    23093256.010 6  94563043.04406      2155.886 6        40.136
S44        42.000    40771477.325 6 214255701.34206      -535.373 6        37.040
C36        43.000                                                                                                                                    25071855.263 7 130555729.38507      2945.742 7        43.498                                                                    25071859.789 7 106087244.70907      2393.499 7        43.985
C05        44.000                                                                                                                                    39175848.458 6 203998944.16506      -536.604 6        39.306    39175843.282 7 157744945.49107      -414.816 7        43.769    39175845.289 6 165765953.62806      -436.089 6        40.782
R18        45.000    23754575.252 6 126803555.03406      1991.762 6        41.037                                                                    23754576.403 6  98624970.55906      1549.080 6        40.627
G04        46.000    23932130.631 6 125764198.87306     -3544.082 6        39.255                                    23932129.175 3  97998055.11003     -2761.607 3        22.419    23932129.107 6  97998057.09506     -2761.487 6        39.078
R11        47.000    20079275.644 8 107297542.26708      2110.003 8        51.514                                                                    20079273.853 7  83453647.76307      1641.149 7        47.908
C20        49.000                                                                                                                                    23048974.453 8 120022077.57908     -2475.933 8        50.649                                                                    23048968.662 8  97527752.23708     -2012.177 8        49.034
C06        50.000                                                                                                                                    40192000.636 6 209290306.06206     -1523.379 6        37.274    40191996.204 6 161836519.06506     -1178.184 6        40.129    40191994.992 6 170065494.24906     -1238.002 6        36.926
S48        51.000    77110823.933 6 405219199.67506      -465.113 6        37.830
E06        52.000    24391064.799 7 128175937.64607      1099.367 7        46.433                                                                    24391063.882 8  95715809.96608       820.922 8        49.549    24391063.790 8  98212741.90908       842.353 8        50.352
C09        53.000                                                                                                                                    39463361.423 6 205496091.48006     -1273.137 6        40.007    39463357.632 7 158902602.44807      -984.555 7        44.980    39463355.669 6 166982385.73906     -1034.814 6        40.410
C60        54.000                                                                                                                                    40771476.746 6 212307941.33206      -530.557 6        40.968                                                                    40771462.685 6 172517554.75906      -431.422 6        39.892
R09        55.000    23504160.918 7 125510925.17407     -4486.271 7        42.237                                                                    23504159.676 6  97619601.30506     -3489.333 6        40.594
G07        56.000    20744207.845 8 109011567.39908      -920.010 8        49.088                                    20744202.911 8  84944062.17408      -716.891 8        50.232    20744203.169 7  84944071.17607      -716.863 7        46.286
C02        57.000                                                                                                                                    40742502.993 5 212156908.89705      -557.980 5        35.609    40742499.668 6 164053162.03706      -431.700 6        40.243    40742502.315 6 172394860.94506      -453.806 6        36.147
I03        58.000    98630017.486 6 311260082.20906       844.035 6        40.796
R07        59.000    24328159.214 5 130230507.21905     -3976.448 5        31.396                                                                    24328162.556 5 101290425.14305     -3093.219 5        30.219
C35        60.000                                                                                                                                    26653698.065 6 138792789.17006     -3110.159 6        39.721                                                                    26653696.646 6 112780503.28906     -2527.820 6        38.769
> 2025 01 02 05 46 15.0000000  0 54
G09         1.000    21553198.527 7 113262852.54107     -2854.539 7        46.185                                    21553196.336 7  88256772.71007     -2224.313 7        46.534    21553196.862 7  88256772.71607     -2224.385 7        43.153
G06         2.000    23987976.618 6 126057681.32406     -3934.748 6        40.133                                    23987976.528 6  98226766.85806     -3066.034 6        36.370    23987976.699 6  98226774.85006     -3065.944 6        39.225
E11         3.000    25293027.815 6 132915775.38806     -2403.674 6        41.366                                                                    25293023.394 7  99255277.37007     -1795.038 7        43.534    25293023.086 7 101844541.64807     -1841.707 7        43.972
G16         4.000    24338005.805 6 127897089.95506     -2909.763 6        36.817                                    24338001.087 2  99660051.87102     -2267.354 2        17.472
S21         5.000    38381498.978 7 201695847.83007      -480.825 7        42.597
E10         6.000    26370846.216 7 138579734.42907     -3408.579 7        43.310                                                                    26370845.075 7 103484861.54507     -2545.364 7        45.634    26370844.883 7 106184466.30507     -2611.689 7        45.950
G20         7.000    20904354.683 7 109853136.54507       912.583 7        47.963                                    20904349.386 6  85599828.19006       711.102 6        38.108
R02         8.000    23129934.169 7 123425763.39907      2968.695 7        44.850                                                                    23129934.226 6  95997816.50306      2309.009 6        40.918
R10         9.000    20436872.375 7 108940033.25107     -2260.136 7        44.343
R17        10.000    22238357.545 7 119001949.28407      -988.385 7        46.216                                                                    22238355.307 7  92557066.01207      -768.781 7        42.749
G30        11.000    21063974.952 8 110691947.03708      1414.825 8        49.516                                    21063972.581 8  86253457.75608      1102.462 8        50.066    21063972.953 7  86253465.75807      1102.416 7        44.119
S27        12.000    39026356.801 6 205084846.37206      -499.592 6        37.130
G13        13.000    24247727.940 6 127422672.45306      2818.080 6        38.216                                    24247723.139 2  99290372.90202      2195.903 2        17.396
S36        14.000    38149571.866 7 200477885.63807      -481.351 7        44.867
I09        15.000    38398174.180 7 150682665.40007      -863.214 7        42.504
E09        16.000    26388773.272 7 138673961.97507      1720.445 7        42.726                                                                    26388772.236 7 103555231.02107      1284.755 7        44.892    26388771.864 7 106256667.99307      1318.370 7        45.574
S45        17.000    63333393.643 6 332819405.14106      -522.805 6        37.206
E36        18.000    26087292.468 7 137089645.01207       210.201 7        42.315                                                                    26087291.978 7 102372158.48907       156.990 7        45.377    26087291.849 7 105042734.69807       161.021 7        46.080
E12        19.000    27927111.285 6 146757949.34106     -3731.400 6        36.612                                                                    27927107.855 6 109591959.14106     -2786.413 6        38.925    27927107.772 6 112450879.81906     -2859.093 6        39.745
E21        20.000    25762167.542 7 135381099.98207        -5.922 7        43.805                                                                    25762166.614 7 101096291.11407        -4.456 7        46.123    25762166.861 7 103733581.98907        -4.572 7        47.540
G11        21.000    22713433.694 7 119359914.79107     -2516.824 7        44.901                                    22713429.598 5  93007707.65605     -1961.159 5        32.665    22713429.997 7  93007720.64407     -1961.047 7        43.801
I06        22.000    37901327.824 7 148733181.39107      -364.169 7        43.663
S28        23.000    40810981.360 5 214463110.58205      -482.417 5        35.429
R08        24.000    20420982.982 8 109353472.39008     -2525.233 8        49.232                                                                    20420980.661 7  85052704.07107     -1964.122 7        47.081
S23        25.000    38086334.497 7 200145015.78007      -477.761 7        45.130
R01        26.000    19646195.702 8 105020183.07408      1145.298 8        49.355                                                                    19646194.753 6  81682358.02506       890.705 6        40.989
C44        27.000                                                                                                                                    25987274.939 6 135322561.00106     -1832.518 6        40.813                                                                    25987272.625 6 109960660.74706     -1488.915 6        38.673
R24        29.000    23022867.989 7 123113622.23607     -3972.548 7        45.982                                                                    23022866.287 6  95755026.76706     -3089.711 6        38.165
E19        30.000    24733273.101 6 129974252.94806     -2372.723 6        40.858                                                                    24733270.975 7  97058696.07407     -1771.898 7        43.409    24733270.601 7  99590659.01607     -1818.143 7        43.736
C37        33.000                                                                                                                                    23643516.444 8 123117991.69708     -2241.346 8        48.169                                                                    23643519.159 7 100043464.59707     -1821.366 7        47.490
E04        34.000    23349688.775 8 122703480.39508        18.779 8        48.572                                                                    23349686.687 8  91629233.99808        14.004 8        51.601    23349686.294 8  94019557.29608        14.378 8        51.853
C16        35.000                                                                                                                                    40752992.617 6 212211537.96706     -1483.771 6        38.279    40752993.852 6 164095428.57206     -1147.137 6        39.652    40752991.342 5 172439252.90105     -1205.310 5        34.662
I01        37.000   386332771.445 6 212911943.05306     -2997.205 6        41.859
E27        38.000    28096070.292 6 147645839.88206     -2429.444 6        36.654                                                                    28096069.400 6 110255020.21006     -1814.271 6        41.004    28096068.877 6 113131234.60406     -1861.569 6        41.344
C19        39.000                                                                                                                                    21848432.905 8 113770527.52308       143.284 8        51.782                                                                    21848427.476 8  92447851.05408       116.367 8        50.041
G05        41.000    23090628.094 7 121342084.88007      2765.620 7        43.401                                    23090623.535 6  94552256.49606      2155.028 6        38.826    23090624.107 6  94552265.48406      2155.134 6        40.219
S44        42.000    40771984.599 6 214258377.96506      -534.963 6        37.036
C36        43.000                                                                                                                                    25069026.705 7 130541001.59307      2945.298 7        43.486                                                                    25069031.641 7 106075277.16807      2393.273 7        44.199
C05        44.000                                                                                                                                    39176363.656 6 204001626.21306      -536.392 6        39.411    39176358.457 7 157747019.41307      -414.645 7        43.685    39176360.527 6 165768132.99306      -435.881 6        40.951
R18        45.000    23752710.768 6 126793603.94506      1988.590 6        40.553                                                                    23752711.214 6  98617230.81106      1546.737 6        40.358
G04        46.000    23935503.310 6 125781919.49906     -3544.275 6        39.508                                    23935501.503 3  98011863.35803     -2761.770 3        22.667    23935501.539 6  98011865.33106     -2761.524 6        39.270
R11        47.000    20077302.959 8 107287000.65908      2106.561 8        51.287                                                                    20077300.963 8  83445448.73608      1638.447 8        48.229
C20        49.000                                                                                                                                    23051352.325 8 120034460.49808     -2477.254 8        50.684                                                                    23051346.722 8  97537814.35508     -2013.021 8        49.017
C06        50.000                                                                                                                                    40193462.901 6 209297922.84806     -1523.184 6        36.692    40193459.029 6 161842408.82206     -1177.931 6        40.129    40193457.806 6 170071683.49706     -1237.712 6        36.749
S48        51.000    77111275.146 6 405221524.75106      -464.726 6        38.159
E06        52.000    24390018.911 7 128170442.20407      1098.856 7        46.251                                                                    24390018.122 8  95711706.22508       820.543 8        49.495    24390018.015 8  98208531.11508       841.966 8        50.315
C09        53.000                                                                                                                                    39464583.390 6 205502456.84006     -1273.039 6        39.946    39464579.822 7 158907524.54607      -984.353 7        44.927    39464577.975 6 166987558.09206     -1034.417 6        40.319
C60        54.000                                                                                                                                    40771985.961 6 212310593.63406      -530.399 6        40.801                                                                    40771972.056 6 172519709.93206      -430.954 6        39.691
R09        55.000    23508361.094 6 125533359.66606     -4487.651 6        41.511                                                                    23508360.918 6  97637050.35206     -3490.327 6        40.367
G07        56.000    20745084.217 8 109016172.48508      -922.091 8        49.020                                    20745079.228 8  84947650.55108      -718.511 8        50.350    20745079.526 7  84947659.55107      -718.457 7        46.471
C02        57.000                                                                                                                                    40743039.065 5 212159698.36105      -557.616 5        35.567    40743035.659 6 164055318.99406      -431.214 6        40.167    40743037.859 6 172397127.56506      -453.063 6        36.132
I03        58.000    98628942.452 6 311255861.92406       844.162 6        40.615
R07        59.000    24331873.059 5 130250391.87905     -3977.238 5        30.928                                                                    24331875.227 5 101305890.89205     -3093.246 5        30.015
C35        60.000                                                                                                                                    26656684.801 6 138808341.57006     -3110.598 6        39.646                                                                    26656683.247 6 112793140.84406     -2527.653 6        38.396
> 2025 01 02 05 46 20.0000000  0 54
G09         1.000    21555915.388 7 113277129.00007     -2855.851 7        45.815                                    21555913.052 7  88267897.21207     -2225.339 7        46.485    21555913.964 7  88267897.21107     -2225.385 7        43.695
G06         2.000    23991721.448 6 126077357.33506     -3935.588 6        40.200                                    23991720.859 6  98242098.80306     -3066.692 6        36.250    23991721.023 6  98242106.80906     -3066.660 6        39.246
E11         3.000    25295316.048 6 132927799.40106     -2405.731 6        40.987                                                                    25295311.506 7  99264256.34107     -1796.490 7        43.412    25295311.143 7 101853754.86507     -1843.381 7        44.056
G16         4.000    24340776.030 6 127911646.20506     -2912.434 6        36.484                                    24340771.181 2  99671394.40802     -2269.438 2        17.283
S21         5.000    38381958.307 7 201698252.01107      -480.811 7        42.739
E10         6.000    26374089.608 7 138596779.77007     -3409.605 7        42.845                                                                    26374088.746 7 103497590.19807     -2546.042 7        45.527    26374088.670 7 106197527.01007     -2612.450 7        45.929
G20         7.000    20903487.938 7 109848581.34007       909.659 7        47.512                                    20903482.535 6  85596278.67806       708.826 6        38.141
R02         8.000    23127152.669 7 123410920.98307      2968.384 7        43.989                                                                    23127151.940 6  95986272.43306      2308.776 6        41.089
R10         9.000    20438994.936 7 108951344.75007     -2264.350 7        44.408
R17        10.000    22239283.670 7 119006903.02707      -992.845 7        46.508                                                                    22239281.474 7  92560918.91407      -772.241 7        42.980
G30        11.000    21062629.961 8 110684878.73408      1412.529 8        49.367                                    21062627.531 8  86247949.98708      1100.674 8        50.076    21062627.969 7  86247957.98907      1100.635 7        44.221
S27        12.000    39026833.771 6 205087344.59906      -499.465 6        37.130
G13        13.000    24245046.358 6 127408583.75106      2817.705 6        38.144                                    24245042.186 2  99279394.69402      2195.635 2        16.981
S36        14.000    38150031.888 7 200480292.83907      -481.470 7        44.770
I09        15.000    38399274.397 7 150686982.25707      -863.262 7        42.523
E09        16.000    26387136.633 7 138665360.89507      1719.965 7        42.726                                                                    26387135.498 7 103548808.12907      1284.433 7        44.819    26387135.197 7 106250077.56107      1317.890 7        45.616
S45        17.000    63333847.535 6 332822019.13606      -522.936 6        36.968
E36        18.000    26087093.375 7 137088600.84707       207.579 7        42.201                                                                    26087093.243 7 102371378.74907       155.007 7        45.228    26087093.131 7 105041934.62007       159.051 7        46.224
E12        19.000    27930661.021 6 146776606.47106     -3731.302 6        36.329                                                                    27930658.243 6 109605891.41006     -2786.455 6        38.796    27930658.330 6 112465175.52706     -2858.917 6        39.838
E21        20.000    25762174.174 7 135381136.39007        -8.483 7        43.509                                                                    25762173.460 7 101096318.30007        -6.292 7        46.108    25762173.644 7 103733609.88407        -6.507 7        47.621
G11        21.000    22715829.888 7 119372505.75407     -2519.465 7        44.679                                    22715825.578 5  93017518.78905     -1963.220 5        32.605    22715825.491 7  93017531.78507     -1963.203 7        43.898
I06        22.000    37901791.731 7 148735002.90607      -364.316 7        43.596
S28        23.000    40811437.577 5 214465523.94105      -482.727 5        35.462
R08        24.000    20423341.788 8 109366104.42608     -2527.450 8        48.870                                                                    20423339.239 7  85062528.98507     -1965.696 7        46.683
S23        25.000    38086787.504 7 200147404.92807      -477.729 7        44.602
R01        26.000    19645125.049 8 105014462.03508      1143.224 8        49.278                                                                    19645124.903 6  81677908.31406       889.210 6        41.630
C44        27.000                                                                                                                                    25989034.769 6 135331729.20806     -1834.693 6        39.928                                                                    25989033.329 6 109968110.65406     -1490.767 6        38.510
R24        29.000    23026582.510 7 123133490.00207     -3974.428 7        45.719                                                                    23026580.931 6  95770479.46206     -3091.300 6        37.947
E19        30.000    24735531.112 6 129986118.70306     -2373.451 6        41.120                                                                    24735528.930 7  97067556.85107     -1772.391 7        43.354    24735528.519 7  99599750.95407     -1818.673 7        43.799
C37        33.000                                                                                                                                    23645669.991 7 123129204.57507     -2243.724 7        47.874                                                                    23645672.539 7 100052575.97907     -1823.084 7        47.554
E04        34.000    23349671.557 8 122703389.66308        17.548 8        48.438                                                                    23349669.451 8  91629166.24608        13.097 8        51.513    23349669.029 8  94019487.77608        13.408 8        51.912
C16        35.000                                                                                                                                    40754416.954 6 212218956.14206     -1483.471 6        38.378    40754418.787 6 164101164.77406     -1147.151 6        39.685    40754416.079 5 172445280.80705     -1205.471 5        34.705
I01        37.000   386336590.320 6 212926929.34006     -2997.371 6        41.721
E27        38.000    28098382.418 6 147657992.11106     -2431.245 6        36.764                                                                    28098381.982 6 110264094.92006     -1815.528 6        40.725    28098381.315 6 113140546.04106     -1862.949 6        41.306
C19        39.000                                                                                                                                    21848296.118 8 113769815.92008       141.456 8        51.516                                                                    21848290.811 8  92447272.82108       115.058 8        50.080
G05        41.000    23087997.359 7 121328260.60507      2764.172 7        42.241                                    23087992.893 6  94541484.33406      2153.902 6        38.769    23087993.236 6  94541493.32406      2153.905 6        40.377
S44        42.000    40772496.175 6 214261054.41706      -535.142 6        36.760
C36        43.000                                                                                                                                    25066199.056 7 130526276.54607      2944.728 7        43.839                                                                    25066203.900 7 106063311.85907      2392.974 7        44.272
C05        44.000                                                                                                                                    39176878.536 6 204004308.22906      -536.274 6        38.961    39176873.562 7 157749093.31507      -414.753 7        43.598    39176875.453 6 165770312.34806      -435.723 6        40.777
R18        45.000    23750850.012 6 126783669.72306      1985.184 6        39.814                                                                    23750850.998 6  98609504.19806      1543.937 6        40.501
G04        46.000    23938875.620 6 125799642.35406     -3544.721 6        39.504                                    23938873.947 3  98025673.33803     -2762.125 3        22.838    23938873.882 6  98025675.30506     -2761.981 6        39.171
R11        47.000    20075333.501 8 107276477.61908      2102.812 8        50.727                                                                    20075332.085 8  83437264.16608      1635.503 8        48.415
C20        49.000                                                                                                                                    23053731.935 8 120046850.76508     -2478.724 8        50.463                                                                    23053726.239 8  97547882.46108     -2014.088 8        49.042
C06        50.000                                                                                                                                    40194925.589 6 209305539.15406     -1522.992 6        36.541    40194921.809 6 161848298.20006     -1177.776 6        40.057    40194920.452 6 170077872.34106     -1237.630 6        36.718
S48        51.000    77111724.661 6 405223849.76906      -464.941 6        38.345
E06        52.000    24388973.967 7 128164950.64007      1097.898 7        46.024                                                                    24388973.149 8  95707605.38008       819.893 8        49.463    24388973.021 8  98204323.28908       841.285 8        50.361
C09        53.000                                                                                                                                    39465806.401 6 205508822.27106     -1273.178 6        39.976    39465802.316 7 158912446.68907      -984.521 7        44.608    39465800.600 6 166992730.51606     -1034.258 6        40.198
C60        54.000                                                                                                                                    40772495.525 6 212313245.74806      -530.356 6        40.956                                                                    40772481.428 6 172521864.98506      -430.912 6        39.784
R09        55.000    23512563.561 6 125555801.63206     -4489.156 6        41.192                                                                    23512563.698 6  97654505.20106     -3491.449 6        40.839
G07        56.000    20745962.711 8 109020789.00408      -924.366 8        48.942                                    20745957.728 8  84951247.83508      -720.284 8        50.357    20745957.868 7  84951256.84207      -720.304 7        46.585
C02        57.000                                                                                                                                    40743574.814 5 212162487.73405      -557.755 5        35.486    40743571.163 6 164057475.88706      -431.390 6        40.365    40743573.671 6 172399394.14506      -453.186 6        36.246
I03        58.000    98627866.747 6 311251641.56406       844.006 6        40.803
R07        59.000    24335588.638 5 130270278.88405     -3977.434 5        31.532                                                                    24335591.679 5 101321358.59205     -3093.607 5        30.106
C35        60.000                                                                                                                                    26659672.527 6 138823896.30506     -3111.160 6        39.553                                                                    26659670.280 6 112805780.34606     -2527.950 6        38.366
> 2025 01 02 05 46 25.0000000  0 54
G09         1.000    21558633.383 7 113291411.64607     -2857.172 7        45.478                                    21558630.958 7  88279026.53807     -2226.367 7        46.305    21558631.463 7  88279026.54107     -2226.467 7        44.077
G06         2.000    23995466.693 6 126097036.11706     -3936.142 6        40.672                                    23995465.547 6  98257432.90806     -3067.122 6        36.261    23995466.377 6  98257440.90506     -3067.049 6        39.742
E11         3.000    25297606.138 6 132939833.03906     -2407.899 6        41.106                                                                    25297601.430 7  99273242.49307     -1798.053 7        43.393    25297601.089 7 101862975.42307     -1844.901 7        44.003
G16         4.000    24343548.127 6 127926215.73906     -2915.192 6        37.214                                    24343543.864 2  99682747.28802     -2271.591 2        16.981
S21         5.000    38382415.571 7 201700655.69807      -480.690 7        42.654
E10         6.000    26377333.858 7 138613829.59207     -3410.512 7        42.184                                                                    26377333.139 7 103510322.19807     -2546.737 7        45.425    26377333.245 7 106210591.15307     -2613.198 7        45.916
G20         7.000    20902623.913 7 109844040.21507       906.772 7        47.431                                    20902618.376 6  85592740.13506       706.576 6        38.099
R02         8.000    23124371.013 7 123396078.55407      2968.455 7        44.488                                                                    23124370.579 6  95974728.33806      2308.653 6        40.429
R10         9.000    20441120.401 7 108962676.76907     -2268.507 7        44.098
R17        10.000    22240212.997 8 119011878.41508      -997.389 8        48.109                                                                    22240211.679 7  92564788.64207      -775.744 7        43.136
G30        11.000    21061286.935 8 110677821.43908      1410.297 8        49.481                                    21061284.573 8  86242450.79608      1098.934 8        50.061    21061285.045 7  86242458.79707      1098.946 7        44.415
S27        12.000    39027306.748 6 205089843.15606      -499.858 6        37.123
G13        13.000    24242365.860 6 127394496.64706      2817.392 6        38.084                                    24242361.448 2  99268417.72302      2195.369 2        16.981
S36        14.000    38150493.923 7 200482699.87007      -481.286 7        44.930
I09        15.000    38400374.856 7 150691299.47807      -863.407 7        42.586
E09        16.000    26385500.105 7 138656761.57907      1719.647 7        42.663                                                                    26385499.190 7 103542386.56607      1284.214 7        44.683    26385498.815 7 106243488.47807      1317.652 7        45.491
S45        17.000    63334302.697 6 332824632.77906      -522.882 6        37.096
E36        18.000    26086896.965 7 137087568.91207       205.139 7        42.207                                                                    26086896.837 7 102370608.14607       153.197 7        45.172    26086896.750 7 105041143.91707       157.137 7        46.135
E12        19.000    27934211.156 5 146795263.42605     -3731.453 5        35.681                                                                    27934208.627 6 109619823.52506     -2786.513 6        38.508    27934208.746 6 112479471.10606     -2859.220 6        39.955
E21        20.000    25762183.398 7 135381184.71407       -10.856 7        43.454                                                                    25762182.770 7 101096354.39907        -8.177 7        46.033    25762182.749 7 103733646.91807        -8.382 7        47.447
G11        21.000    22718228.260 7 119385109.18407     -2521.881 7        44.587                                    22718223.924 5  93027339.64605     -1965.100 5        32.395    22718224.310 7  93027352.63107     -1965.076 7        43.932
I06        22.000    37902255.890 7 148736824.39807      -364.308 7        43.666
S28        23.000    40811903.216 5 214467937.26705      -482.611 5        35.500
R08        24.000    20425702.679 8 109378746.35008     -2529.414 8        48.799                                                                    20425700.055 7  85072361.59307     -1967.335 7        46.267
S23        25.000    38087244.566 7 200149793.64207      -477.847 7        44.945
R01        26.000    19644056.715 8 105008750.93508      1141.163 8        48.871                                                                    19644056.649 6  81673466.34706       887.539 6        41.688
C44        27.000                                                                                                                                    25990797.639 6 135340907.84106     -1836.829 6        39.354                                                                    25990796.011 6 109975569.04806     -1492.561 6        38.733
R24        29.000    23030299.002 7 123153366.74307     -3976.303 7        45.335                                                                    23030299.366 6  95785939.14206     -3092.707 6        38.727
E19        30.000    24737789.424 6 129997987.22106     -2374.062 6        40.937                                                                    24737787.436 7  97076419.69807     -1772.885 7        43.270    24737786.985 7  99608845.00407     -1819.111 7        43.742
C37        33.000                                                                                                                                    23647825.267 7 123140428.45107     -2245.888 7        47.692                                                                    23647827.976 7 100061696.30907     -1825.052 7        47.353
E04        34.000    23349655.220 8 122703303.86108        16.597 8        48.435                                                                    23349653.092 8  91629102.17308        12.370 8        51.404    23349652.677 8  94019422.03408        12.657 8        51.818
C16        35.000                                                                                                                                    40755842.387 6 212226373.44906     -1483.253 6        38.399    40755843.044 6 164106900.28506     -1147.001 6        39.607    40755840.458 5 172451307.93405     -1205.169 5        34.762
I01        37.000   386340408.846 6 212941916.12606     -2997.413 6        41.771
E27        38.000    28100696.132 6 147670153.01406     -2433.220 6        36.775                                                                    28100696.031 6 110273176.10906     -1816.893 6        40.596    28100695.512 6 113149864.13906     -1864.427 6        41.259
C19        39.000                                                                                                                                    21848161.024 8 113769112.94508       139.719 8        51.420                                                                    21848155.852 8  92446701.60208       113.489 8        49.950
G05        41.000    23085368.179 7 121314443.12607      2762.813 7        42.766                                    23085363.507 6  94530717.47006      2152.844 6        38.646    23085364.072 6  94530726.47906      2152.818 6        40.565
S44        42.000    40773003.548 6 214263730.49506      -535.282 6        37.040
C36        43.000                                                                                                                                    25063371.966 7 130511554.04107      2944.235 7        44.144                                                                    25063376.496 7 106051348.62907      2392.443 7        44.093
C05        44.000                                                                                                                                    39177393.542 6 204006990.01406      -536.390 6        39.147    39177388.196 7 157751167.01607      -414.770 7        43.627    39177390.266 6 165772491.50306      -435.835 6        40.672
R18        45.000    23748992.060 6 126773752.09806      1981.747 6        40.064                                                                    23748993.110 6  98601790.49806      1541.428 6        40.920
G04        46.000    23942248.618 6 125817367.19406     -3545.139 6        39.598                                    23942246.793 3  98039484.87103     -2762.440 3        22.952    23942246.611 6  98039486.86706     -2762.651 6        39.186
R11        47.000    20073367.364 8 107265973.00808      2099.000 8        50.766                                                                    20073366.116 8  83429093.90508      1632.597 8        48.410
C20        49.000                                                                                                                                    23056112.633 8 120059248.17808     -2480.219 8        50.167                                                                    23056107.084 8  97557956.37308     -2015.385 8        48.926
C06        50.000                                                                                                                                    40196387.636 6 209313154.76206     -1523.156 6        36.461    40196384.116 6 161854187.06606     -1177.748 6        40.150    40196382.988 6 170084060.65006     -1237.751 6        36.597
S48        51.000    77112172.114 6 405226174.25906      -465.004 6        38.108
E06        52.000    24387929.560 7 128159462.74607      1097.229 7        46.195                                                                    24387928.830 8  95703507.27908       819.328 8        49.315    24387928.775 8  98200118.28108       840.681 8        50.286
C09        53.000                                                                                                                                    39467028.808 6 205515187.56906     -1272.891 6        39.886    39467024.508 7 158917368.74007      -984.347 7        44.683    39467022.952 6 166997902.85206     -1034.380 6        40.160
C60        54.000                                                                                                                                    40773004.744 6 212315897.49806      -530.427 6        40.818                                                                    40772990.526 6 172524019.73006      -431.020 6        39.754
R09        55.000    23516767.683 6 125578250.61406     -4490.686 6        41.178                                                                    23516767.509 6  97671965.50306     -3492.629 6        40.856
G07        56.000    20746843.461 8 109025416.76508      -926.688 8        49.019                                    20746838.356 8  84954853.88108      -722.090 8        50.318    20746838.266 7  84954862.88607      -722.053 7        46.683
C02        57.000                                                                                                                                    40744110.515 5 212165276.74405      -557.778 5        35.100    40744106.523 6 164059632.51206      -431.278 6        40.176    40744109.497 6 172401660.45906      -453.215 6        36.250
I03        58.000    98626791.572 6 311247420.98706       844.117 6        40.939
R07        59.000    24339301.892 4 130290168.53604     -3977.992 4        28.616                                                                    24339305.795 5 101336828.22705     -3094.371 5        30.641
C35        60.000                                                                                                                                    26662659.946 6 138839453.18206     -3111.739 6        38.712                                                                    26662657.829 6 112818421.58206     -2528.508 6        38.087
> 2025 01 02 05 46 30.0000000  0 54
G09         1.000    21561352.363 7 113305701.04607     -2858.597 7        45.257                                    21561350.156 7  88290161.13107     -2227.475 7        46.192    21561350.361 7  88290161.12807     -2227.450 7        43.266
G06         2.000    23999211.986 6 126116718.22206     -3936.810 6        40.341                                    23999210.849 6  98272769.60606     -3067.638 6        36.008    23999211.689 6  98272777.61206     -3067.800 6        39.886
E11         3.000    25299897.734 6 132951876.83506     -2409.931 6        41.137                                                                    25299893.229 7  99282236.23407     -1799.543 7        43.333    25299893.053 7 101872203.78907     -1846.520 7        43.778
G16         4.000    24346323.376 6 127940799.03606     -2917.939 6        37.410                                    24346318.966 2  99694110.90602     -2273.735 2        16.717
S21         5.000    38382874.306 7 201703059.63107      -480.939 7        42.792
E10         6.000    26380579.457 7 138630884.44807     -3411.527 7        42.603                                                                    26380578.630 7 103523057.95707     -2547.564 7        45.229    26380578.729 7 106223659.15607     -2614.045 7        45.792
G20         7.000    20901762.451 7 109839513.73907       903.752 7        47.747                                    20901757.003 6  85589213.01006       704.222 6        37.985
R02         8.000    23121591.068 7 123381236.87907      2968.275 7        45.118                                                                    23121590.230 6  95963184.78406      2308.642 6        40.331
R10         9.000    20443250.182 7 108974029.69607     -2272.688 7        44.322
R17        10.000    22241148.119 8 119016876.02408     -1001.866 8        48.168                                                                    22241144.875 7  92568675.65807      -779.249 7        42.561
G30        11.000    21059946.193 8 110670775.70808      1407.939 8        50.001                                    21059943.806 8  86236960.61308      1097.096 8        49.960    21059944.369 7  86236968.61707      1097.015 7        44.113
S27        12.000    39027783.038 6 205092342.08006      -499.696 6        36.945
G13        13.000    24239686.342 6 127380411.74006      2816.705 6        38.447                                    24239681.189 2  99257442.48302      2194.817 2        17.057
S36        14.000    38150945.423 7 200485106.61507      -481.620 7        44.841
I09        15.000    38401474.764 7 150695617.49407      -863.777 7        42.527
E09        16.000    26383864.146 7 138648164.60307      1719.154 7        42.584                                                                    26383863.318 7 103535966.75507      1283.759 7        44.656    26383862.667 7 106236901.18407      1317.246 7        45.305
S45        17.000    63334762.823 6 332827246.61506      -522.642 6        37.240
E36        18.000    26086703.037 7 137086549.77507       202.468 7        42.161                                                                    26086702.951 7 102369847.10807       151.162 7        45.192    26086702.789 7 105040363.01907       155.148 7        45.922
E12        19.000    27937761.587 5 146813920.66605     -3731.733 5        35.324                                                                    27937758.882 6 109633755.84406     -2786.572 6        38.423    27937759.008 6 112493766.88706     -2859.281 6        39.799
E21        20.000    25762195.087 7 135381245.53007       -13.526 7        43.670                                                                    25762194.358 7 101096399.80007       -10.120 7        46.169    25762194.272 7 103733693.50307       -10.278 7        47.327
G11        21.000    22720628.869 7 119397725.66607     -2524.723 7        45.005                                    22720624.702 5  93037170.66305     -1967.318 5        32.365    22720624.767 7  93037183.65307     -1967.254 7        43.314
I06        22.000    37902720.217 7 148738646.28507      -364.470 7        43.537
S28        23.000    40812359.241 5 214470350.92405      -482.824 5        35.305
R08        24.000    20428064.996 8 109391398.77108     -2531.624 8        49.073                                                                    20428062.955 7  85082202.35007     -1969.045 7        46.518
S23        25.000    38087699.415 7 200152182.80907      -477.981 7        45.004
R01        26.000    19642990.457 8 105003050.26408      1139.027 8        49.191                                                                    19642989.811 6  81669032.49706       885.835 6        41.380
C44        27.000                                                                                                                                    25992562.772 6 135350097.47306     -1839.096 6        39.231                                                                    25992560.746 6 109983036.37706     -1494.250 6        38.384
R24        29.000    23034018.888 7 123173252.99607     -3978.264 7        46.665                                                                    23034018.181 6  95801406.21606     -3094.156 6        39.180
E19        30.000    24740048.815 6 130009859.00606     -2374.874 6        40.925                                                                    24740046.651 7  97085284.98007     -1773.383 7        43.217    24740046.142 7  99617941.56407     -1819.680 7        43.462
C37        33.000                                                                                                                                    23649982.800 7 123151663.87407     -2248.240 7        47.548                                                                    23649985.593 7 100070825.99007     -1826.834 7        47.298
E04        34.000    23349640.045 8 122703223.58408        15.398 8        48.367                                                                    23349637.854 8  91629042.22308        11.518 8        51.424    23349637.401 8  94019360.51608        11.851 8        51.644
C16        35.000                                                                                                                                    40757267.091 6 212233790.42006     -1483.521 6        38.324    40757267.688 6 164112635.55006     -1147.104 6        39.309    40757264.982 5 172457334.82405     -1205.250 5        34.348
I01        37.000   386344228.275 6 212956903.81906     -2997.579 6        41.795
E27        38.000    28103012.155 6 147682323.14406     -2435.056 6        37.346                                                                    28103011.776 6 110282264.18406     -1818.416 6        40.560    28103011.627 6 113159189.28106     -1865.837 6        41.113
C19        39.000                                                                                                                                    21848027.887 8 113768419.15408       137.773 8        51.461                                                                    21848022.615 8  92446137.83008       111.970 8        49.853
G05        41.000    23082740.670 7 121300633.01807      2761.292 7        42.561                                    23082735.534 6  94519956.35006      2151.655 6        38.625    23082736.211 6  94519965.35206      2151.538 6        40.865
S44        42.000    40773510.531 6 214266406.73406      -535.407 6        36.779
C36        43.000                                                                                                                                    25060544.944 7 130496834.65707      2943.484 7        44.008                                                                    25060549.524 7 106039387.91307      2391.836 7        43.706
C05        44.000                                                                                                                                    39177909.053 6 204009672.10206      -536.459 6        39.009    39177903.551 7 157753240.96107      -414.908 7        43.511    39177905.446 6 165774670.89606      -435.844 6        40.455
R18        45.000    23747138.286 6 126763851.62606      1978.074 6        39.532                                                                    23747137.884 6  98594090.11906      1538.738 6        40.598
G04        46.000    23945622.035 6 125835094.60806     -3545.815 6        40.162                                    23945620.212 3  98053298.41103     -2762.966 3        22.857    23945620.050 6  98053300.39906     -2762.927 6        38.805
R11        47.000    20071405.389 8 107255487.36308      2095.170 8        51.034                                                                    20071403.987 8  83420938.40408      1629.566 8        48.177
C20        49.000                                                                                                                                    23058495.008 8 120071653.26208     -2481.837 8        50.059                                                                    23058489.318 8  97568036.49708     -2016.646 8        48.744
C06        50.000                                                                                                                                    40197849.946 6 209320770.25806     -1523.231 6        36.461    40197846.524 6 161860075.81506     -1177.701 6        40.067    40197845.637 6 170090248.81906     -1237.625 6        36.571
S48        51.000    77112629.145 6 405228499.17106      -465.206 6        38.270
E06        52.000    24386886.088 7 128153979.07607      1096.194 7        46.172                                                                    24386885.288 8  95699412.32808       818.612 8        49.292    24386885.197 8  98195916.50608       839.978 8        50.118
C09        53.000                                                                                                                                    39468251.591 6 205521553.28806     -1273.277 6        40.038    39468247.109 7 158922291.10607      -984.544 7        44.430    39468245.470 6 167003075.50806     -1034.707 6        39.940
C60        54.000                                                                                                                                    40773513.995 6 212318549.38806      -530.414 6        40.715                                                                    40773499.813 6 172526174.58306      -431.018 6        39.580
R09        55.000    23520973.239 6 125600707.13606     -4492.188 6        41.223                                                                    23520973.459 6  97689431.69506     -3493.868 6        40.875
G07        56.000    20747726.068 8 109030056.31208      -929.198 8        49.446                                    20747721.237 8  84958469.11008      -724.051 8        50.244    20747721.415 7  84958478.10707      -724.005 7        46.579
C02        57.000                                                                                                                                    40744646.439 5 212168066.02605      -557.922 5        35.071    40744642.371 6 164061789.33706      -431.336 6        39.925    40744644.982 5 172403926.93705      -453.411 5        35.695
I03        58.000    98625716.043 6 311243200.60606       843.995 6        41.023
R07        59.000    24343015.796 4 130310060.95704     -3979.476 4        28.142                                                                    24343026.113 5 101352300.03905     -3094.677 5        30.445
C35        60.000                                                                                                                                    26665647.568 6 138855012.70606     -3112.290 6        38.504                                                                    26665646.216 6 112831064.94306     -2528.825 6        38.096
> 2025 01 02 05 46 35.0000000  0 54
G09         1.000    21564072.777 7 113319997.09307     -2859.947 7        45.688                                    21564070.620 7  88301300.89807     -2228.526 7        46.202    21564070.864 7  88301300.90307     -2228.519 7        43.467
G06         2.000    24002958.082 6 126136403.57806     -3937.538 6        39.429                                    24002956.857 5  98288108.83005     -3068.207 5        35.590    24002957.694 6  98288116.83206     -3068.256 6        39.652
E11         3.000    25302191.476 6 132963930.72606     -2411.978 6        41.700                                                                    25302186.980 7  99291237.50407     -1800.983 7        43.287    25302186.771 7 101881439.88007     -1848.083 7        43.892
G16         4.000    24349100.464 6 127955396.10406     -2920.997 6        38.099                                    24349096.720 2  99705485.20602     -2276.107 2        16.981
S21         5.000    38383328.090 7 201705463.85007      -480.884 7        42.836
E10         6.000    26383826.353 7 138647944.24807     -3412.546 7        42.800                                                                    26383824.997 7 103535797.41507     -2548.302 7        45.323    26383824.926 7 106236730.94807     -2614.756 7        45.884
G20         7.000    20900904.185 7 109835001.83107       900.816 7        47.644                                    20900898.438 6  85585697.23706       701.936 6        38.084
R02         8.000    23118809.899 7 123366395.82807      2968.184 7        45.064                                                                    23118808.333 6  95951641.74006      2308.475 6        41.058
R10         9.000    20445384.383 7 108985403.48107     -2276.926 7        44.656
R17        10.000    22242085.473 7 119021895.80007     -1006.235 7        47.627                                                                    22242082.876 7  92572579.92707      -782.603 7        42.311
G30        11.000    21058607.715 8 110663741.47308      1405.658 8        49.828                                    21058605.230 8  86231479.38708      1095.319 8        50.002    21058605.459 7  86231487.38707      1095.399 7        44.104
S27        12.000    39028258.751 6 205094841.51306      -499.922 6        37.153
G13        13.000    24237006.209 6 127366328.93106      2816.325 6        38.529                                    24237001.234 2  99246468.87502      2194.537 2        17.660
S36        14.000    38151404.368 7 200487513.92707      -481.724 7        44.922
I09        15.000    38402575.110 7 150699936.19807      -863.897 7        42.438
E09        16.000    26382228.741 7 138639569.88007      1718.664 7        42.447                                                                    26382227.768 7 103529548.62207      1283.393 7        44.700    26382227.287 7 106230315.62807      1316.818 7        45.403
S45        17.000    63335216.670 6 332829860.66806      -522.802 6        37.157
E36        18.000    26086511.291 7 137085543.35007       199.901 7        42.265                                                                    26086511.431 7 102369095.55507       149.372 7        45.314    26086511.210 7 105039591.86907       153.193 7        45.874
E12        19.000    27941312.160 5 146832578.11505     -3731.750 5        35.338                                                                    27941309.138 6 109647688.35306     -2786.665 6        38.465    27941309.448 6 112508062.86106     -2859.333 6        39.661
E21        20.000    25762209.033 7 135381318.75207       -15.955 7        43.596                                                                    25762208.320 7 101096454.46807       -11.908 7        46.018    25762208.194 7 103733749.61107       -12.262 7        47.258
G11        21.000    22723032.158 7 119410355.08807     -2527.213 7        44.352                                    22723027.989 5  93047011.76705     -1969.251 5        32.299    22723027.980 7  93047024.76407     -1969.271 7        43.452
I06        22.000    37903184.739 7 148740468.49907      -364.531 7        43.534
S28        23.000    40812820.274 5 214472764.52105      -483.054 5        35.548
R08        24.000    20430430.355 8 109404061.57808     -2533.698 8        48.900                                                                    20430427.546 7  85092051.18307     -1970.663 7        46.593
S23        25.000    38088153.003 7 200154572.30707      -477.976 7        45.186
R01        26.000    19641926.089 8 104997359.89508      1136.959 8        49.532                                                                    19641924.926 6  81664606.65506       884.285 6        41.321
C44        27.000                                                                                                                                    25994329.514 6 135359298.03206     -1841.326 6        39.709                                                                    25994327.513 6 109990512.55406     -1496.016 6        38.402
R24        29.000    23037739.162 7 123193148.68207     -3980.184 7        46.185                                                                    23037737.630 6  95816880.64906     -3095.643 6        38.838
E19        30.000    24742308.499 6 130021734.03306     -2375.489 6        40.963                                                                    24742306.271 7  97094152.69407     -1773.900 7        43.204    24742305.922 7  99627040.59807     -1820.146 7        43.490
C37        33.000                                                                                                                                    23652142.667 7 123162910.76607     -2250.605 7        47.546                                                                    23652145.453 7 100079964.99707     -1828.795 7        47.326
E04        34.000    23349625.771 8 122703148.73508        14.373 8        48.571                                                                    23349623.613 8  91628986.32608        10.707 8        51.430    23349623.200 8  94019303.16008        11.023 8        51.595
C16        35.000                                                                                                                                    40758691.365 6 212241206.96206     -1483.311 6        38.625    40758691.800 6 164118370.46606     -1147.088 6        39.387    40758689.162 5 172463361.36305     -1205.510 5        34.914
I01        37.000   386348048.089 6 212971892.37106     -2997.846 6        41.650
E27        38.000    28105329.778 6 147694502.37106     -2436.924 6        37.176                                                                    28105329.407 6 110291359.06606     -1819.716 6        40.355    28105329.246 6 113168521.41506     -1867.130 6        40.999
C19        39.000                                                                                                                                    21847896.462 8 113767734.47608       135.910 8        51.559                                                                    21847891.133 8  92445581.46708       110.455 8        49.947
G05        41.000    23080113.742 7 121286830.15107      2759.775 7        43.026                                    23080108.962 6  94509200.86906      2150.470 6        38.667    23080109.564 6  94509209.87806      2150.381 6        40.946
S44        42.000    40774020.614 6 214269083.03706      -535.322 6        36.820
C36        43.000                                                                                                                                    25057717.977 7 130482118.31507      2942.941 7        43.069                                                                    25057723.330 7 106027429.67507      2391.250 7        43.661
C05        44.000                                                                                                                                    39178423.647 6 204012354.40506      -536.663 6        39.138    39178418.740 7 157755315.07307      -414.957 7        43.573    39178420.582 6 165776850.46706      -435.955 6        40.539
R18        45.000    23745286.363 6 126753968.27706      1974.888 6        39.604                                                                    23745286.281 6  98586403.09806      1535.909 6        40.939
G04        46.000    23948996.273 6 125852824.50306     -3546.395 6        40.465                                    23948994.320 3  98067113.88003     -2763.415 3        23.238    23948994.263 6  98067115.87506     -2763.461 6        38.883
R11        47.000    20069447.099 8 107245020.63508      2091.387 8        50.932                                                                    20069445.307 8  83412797.61308      1626.599 8        48.550
C20        49.000                                                                                                                                    23060878.747 8 120084065.95608     -2483.372 8        50.041                                                                    23060872.981 8  97578122.81308     -2017.872 8        48.871
C06        50.000                                                                                                                                    40199312.410 6 209328385.51506     -1523.265 6        36.253    40199308.750 6 161865964.40506     -1177.918 6        39.880    40199308.093 6 170096436.83706     -1237.723 6        36.628
S48        51.000    77113072.841 6 405230824.33606      -465.475 6        38.598
E06        52.000    24385843.238 7 128148499.55307      1095.411 7        46.354                                                                    24385842.579 8  95695320.47608       817.998 8        49.377    24385842.471 8  98191717.91108       839.319 8        50.214
C09        53.000                                                                                                                                    39469473.805 6 205527919.36906     -1273.314 6        39.970    39469469.694 7 158927213.76307      -984.666 7        44.394    39469468.186 6 167008248.45806     -1034.720 6        40.331
C60        54.000                                                                                                                                    40774023.393 6 212321201.36506      -530.339 6        40.536                                                                    40774009.032 6 172528329.51906      -430.977 6        39.703
R09        55.000    23525180.582 6 125623171.10706     -4493.539 6        41.595                                                                    23525180.097 6  97706903.67806     -3495.162 6        41.025
G07        56.000    20748611.171 8 109034707.54008      -931.486 8        49.197                                    20748606.337 8  84962093.44308      -725.831 8        50.257    20748606.363 7  84962102.44107      -725.751 7        46.461
C02        57.000                                                                                                                                    40745181.710 5 212170855.49805      -558.343 5        35.200    40745178.193 6 164063946.28706      -431.426 6        40.176    40745180.781 5 172406193.57305      -453.292 5        35.890
I03        58.000    98624640.353 6 311238980.34706       844.086 6        40.687
R07        59.000    24346736.198 4 130329956.49204     -3979.376 4        26.910                                                                    24346739.880 5 101367774.38305     -3094.977 5        30.166
C35        60.000                                                                                                                                    26668636.507 6 138870574.80206     -3112.733 6        39.060                                                                    26668634.756 6 112843710.41806     -2529.310 6        38.237
> 2025 01 02 05 46 40.0000000  0 55
G09         1.000    21566794.759 7 113334299.85607     -2861.418 7        46.002                                    21566792.358 7  88312445.90007     -2229.676 7        46.378    21566792.858 7  88312445.90207     -2229.655 7        43.401
G06         2.000    24006704.445 6 126156092.16706     -3938.208 6        40.822                                    24006703.450 5  98303450.57705     -3068.734 5        35.743    24006703.871 6  98303458.57206     -3068.529 6        38.841
E11         3.000    25304487.155 6 132975994.74006     -2413.951 6        41.905                                                                    25304482.778 7  99300246.35207     -1802.711 7        43.234    25304482.460 7 101890683.73107     -1849.685 7        43.850
G16         4.000    24351881.079 6 127970006.86706     -2923.703 6        37.992                                    24351877.122 2  99716870.21802     -2278.209 2        17.283
S21         5.000    38383785.086 7 201707868.13807      -481.083 7        42.622
E10         6.000    26387073.525 7 138665009.04007     -3413.687 7        42.804                                                                    26387072.424 7 103548540.59407     -2549.166 7        45.400    26387072.030 7 106249806.55307     -2615.557 7        45.822
G20         7.000    20900048.130 7 109830504.52907       897.858 7        47.660                                    20900042.606 6  85582192.84406       699.631 6        38.066
R02         8.000    23116028.011 7 123351555.12107      2967.779 7        43.754                                                                    23116027.512 6  95940098.98006      2308.412 6        40.996
R10         9.000    20447522.118 7 108996798.11807     -2281.158 7        44.378
R17        10.000    22243026.743 7 119026937.84207     -1010.754 7        47.878                                                                    22243025.450 7  92576501.52707      -786.150 7        42.825
G30        11.000    21057271.117 8 110656718.77808      1403.281 8        49.816                                    21057268.859 8  86226007.15608      1093.466 8        50.030    21057269.346 7  86226015.14607      1093.543 7        44.238
S27        12.000    39028735.623 6 205097340.66506      -499.984 6        37.210
G13        13.000    24234326.922 6 127352248.25006      2815.708 6        38.703                                    24234321.641 2  99235496.89502      2194.037 2        17.547
S36        14.000    38151862.356 7 200489921.68407      -481.692 7        45.085
I09        15.000    38403676.114 7 150704255.64307      -864.129 7        42.521
E09        16.000    26380593.380 7 138630977.45507      1718.194 7        42.288                                                                    26380592.615 7 103523132.20307      1282.923 7        44.724    26380592.190 7 106223731.81207      1316.527 7        45.300
S45        17.000    63335671.407 6 332832474.96106      -522.912 6        37.338
E36        18.000    26086322.484 7 137084549.69207       197.352 7        42.512                                                                    26086322.389 7 102368353.54507       147.269 7        45.186    26086322.159 7 105038830.49207       151.251 7        45.889
E12        19.000    27944862.525 5 146851235.82505     -3731.449 5        35.700                                                                    27944859.583 6 109661621.04406     -2786.664 6        38.207    27944860.065 6 112522359.01006     -2859.374 6        39.850
E21        20.000    25762225.140 7 135381404.42607       -18.560 7        43.528                                                                    25762224.675 7 101096518.43407       -13.807 7        46.048    25762224.509 7 103733815.24007       -14.219 7        47.151
G11        21.000    22725437.991 7 119422997.48707     -2529.978 7        44.807                                    22725433.758 5  93056862.98405     -1971.410 5        32.515    22725433.763 7  93056875.98807     -1971.404 7        43.388
I06        22.000    37903649.016 7 148742291.06407      -364.655 7        43.699
S28        23.000    40813274.068 5 214475178.36305      -483.082 5        35.300
R08        24.000    20432796.690 8 109416734.84108     -2535.878 8        49.270                                                                    20432794.419 7  85101908.16207     -1972.325 7        46.698
S23        25.000    38088608.134 7 200156961.81807      -477.988 7        45.090
R01        26.000    19640863.602 8 104991679.98708      1134.807 8        49.407                                                                    19640862.450 6  81660188.94406       882.689 6        41.325
C44        27.000                                                                                                                                    25996098.326 6 135368509.51106     -1843.410 6        39.874                                                                    25996096.285 6 109997997.66106     -1498.046 6        38.369
R24        29.000    23041460.821 7 123213053.75007     -3982.037 7        45.463                                                                    23041460.930 6  95832362.35206     -3097.040 6        39.919
E19        30.000    24744568.596 6 130033612.34206     -2376.061 6        41.175                                                                    24744566.674 7  97103022.84507     -1774.353 7        43.175    24744566.291 7  99636142.14507     -1820.633 7        43.471
C37        33.000                                                                                                                                    23654304.686 7 123174169.13207     -2252.964 7        47.884                                                                    23654307.533 7 100089113.34107     -1830.620 7        47.126
E04        34.000    23349612.618 8 122703079.37208        13.178 8        48.720                                                                    23349610.400 8  91628934.52508         9.834 8        51.382    23349609.986 8  94019250.00808        10.047 8        51.657
C16        35.000                                                                                                                                    40760115.009 6 212248623.13406     -1483.176 6        38.829    40760116.341 6 164124105.09106     -1146.938 6        39.057    40760113.409 5 172469387.57405     -1205.237 5        34.676
R12        36.000    24058609.921 5 128516777.29615      4142.352 5        32.377                                                                    24058611.774 5                      3221.814 5        32.359
I01        37.000   386351867.648 7 212986881.75707     -2998.184 7        42.191
E27        38.000    28107649.196 6 147706690.76406     -2438.541 6        37.399                                                                    28107648.911 6 110300460.79106     -1821.024 6        40.677    28107648.683 6 113177860.57306     -1868.529 6        40.903
C19        39.000                                                                                                                                    21847766.839 8 113767058.95208       134.095 8        51.549                                                                    21847761.376 8  92445032.54208       109.009 8        49.776
G05        41.000    23077488.540 7 121273034.60607      2758.273 7        43.136                                    23077483.735 6  94498451.09706      2149.303 6        38.790    23077484.054 6  94498460.09406      2149.326 6        40.429
S44        42.000    40774533.795 6 214271759.48606      -535.422 6        37.187
C36        43.000                                                                                                                                    25054892.520 7 130467405.07307      2942.181 7        42.671                                                                    25054897.784 7 106015473.93407      2390.819 7        43.615
C05        44.000                                                                                                                                    39178939.042 6 204015036.96406      -536.661 6        38.841    39178933.906 7 157757389.37707      -414.985 7        43.435    39178935.878 6 165779030.25606      -436.049 6        40.503
R18        45.000    23743437.802 6 126744102.10506      1971.429 6        40.441                                                                    23743438.039 6  98578729.41306      1533.232 6        40.946
G04        46.000    23952370.709 6 125870556.90306     -3546.895 6        41.108                                    23952368.651 3  98080931.30003     -2763.803 3        23.676    23952368.859 6  98080933.28906     -2763.742 6        39.204
R11        47.000    20067491.485 8 107234572.81408      2087.503 8        50.453                                                                    20067490.149 8  83404671.53208      1623.609 8        48.464
C20        49.000                                                                                                                                    23063263.898 8 120096486.28008     -2484.952 8        50.067                                                                    23063258.230 8  97588215.34508     -2019.232 8        48.737
C06        50.000                                                                                                                                    40200775.545 6 209336000.60706     -1523.150 6        36.325    40200771.334 6 161871852.83806     -1177.855 6        39.682    40200770.612 6 170102624.68006     -1237.429 6        36.681
S48        51.000    77113521.922 6 405233149.99806      -465.143 6        38.243
E06        52.000    24384801.609 7 128143024.21707      1094.557 7        46.383                                                                    24384800.618 8  95691231.74708       817.335 8        49.357    24384800.571 8  98187522.51608       838.707 8        50.121
C09        53.000                                                                                                                                    39470696.552 6 205534285.81806     -1273.569 6        39.823    39470692.408 7 158932136.67807      -984.725 7        44.199    39470690.731 6 167013421.69506     -1034.592 6        40.138
C60        54.000                                                                                                                                    40774532.944 6 212323853.48306      -530.582 6        40.658                                                                    40774518.547 6 172530484.56906      -431.097 6        39.562
R09        55.000    23529388.872 7 125645642.67507     -4495.256 7        42.260                                                                    23529388.149 6  97724381.53406     -3496.272 6        40.820
G07        56.000    20749498.583 8 109039370.52608      -933.895 8        49.322                                    20749493.677 8  84965726.93208      -727.710 8        50.315    20749493.585 7  84965735.93607      -727.797 7        46.334
C02        57.000                                                                                                                                    40745717.276 5 212173645.13605      -558.189 5        35.014    40745713.790 6 164066103.40606      -431.638 6        40.031    40745716.669 5 172408460.37405      -453.503 5        35.686
I03        58.000    98623565.351 6 311234760.26506       844.027 6        40.687
R07        59.000    24350454.118 4 130349854.90604     -3980.043 4        28.483                                                                    24350454.387 4 101383250.82304     -3095.135 4        29.573
C35        60.000                                                                                                                                    26671625.232 6 138886139.52906     -3113.541 6        38.634                                                                    26671623.427 6 112856358.02706     -2529.880 6        38.294
> 2025 01 02 05 46 45.0000000  0 55
G09         1.000    21569517.742 7 113348608.71607     -2862.403 7        46.249                                    21569515.254 7  88323595.64807     -2230.445 7        46.478    21569515.654 7  88323595.65307     -2230.403 7        43.530
G06         2.000    24010451.797 6 126175783.39706     -3938.535 6        41.044                                    24010450.482 6  98318794.39106     -3068.988 6        36.204    24010450.989 6  98318802.40406     -3068.940 6        38.787
E11         3.000    25306784.821 6 132988068.26106     -2415.647 6        41.700                                                                    25306780.237 7  99309262.28607     -1803.803 7        43.361    25306780.086 7 101899934.86807     -1850.875 7        43.937
G16         4.000    24354664.280 6 127984630.78606     -2926.070 6        38.171                                    24354660.184 2  99728265.47102     -2280.040 2        17.660
S21         5.000    38384240.981 7 201710271.58407      -480.592 7        42.444
E10         6.000    26390321.743 7 138682078.18007     -3414.208 7        42.857                                                                    26390320.602 7 103561287.03207     -2549.646 7        45.357    26390320.257 7 106262885.51107     -2616.117 7        45.830
G20         7.000    20899194.870 7 109826021.15807       895.297 7        47.772                                    20899189.460 6  85578699.30406       697.633 6        38.177
R02         8.000    23113246.017 7 123336714.45707      2968.239 7        44.551                                                                    23113246.563 6  95928556.26506      2308.555 6        40.710
R10         9.000    20449663.235 7 109008213.04607     -2285.013 7        44.515
R17        10.000    22243972.971 7 119032001.36307     -1014.812 7        46.915                                                                    22243971.957 7  92580439.83407      -789.304 7        43.699
G30        11.000    21055936.911 8 110649707.00908      1401.299 8        50.148                                    21055934.567 8  86220543.44308      1091.922 8        50.155    21055935.099 7  86220551.43907      1091.968 7        44.275
S27        12.000    39029209.933 6 205099839.27906      -499.686 6        37.089
G13        13.000    24231647.253 6 127338169.11506      2815.676 6        39.643                                    24231642.477 2  99224526.16502      2194.047 2        17.849
S36        14.000    38152317.335 7 200492329.18907      -481.292 7        44.814
I09        15.000    38404776.980 7 150708575.39107      -863.959 7        42.815
E09        16.000    26378958.762 7 138622386.73007      1718.106 7        42.586                                                                    26378957.842 7 103516717.04307      1282.950 7        44.813    26378957.362 7 106217149.30907      1316.392 7        45.351
S45        17.000    63336122.352 6 332835088.89206      -522.582 6        37.403
E36        18.000    26086136.010 7 137083568.23407       195.078 7        42.341                                                                    26086135.640 7 102367620.63007       145.754 7        45.205    26086135.415 7 105038078.46307       149.477 7        45.982
E12        19.000    27948413.081 5 146869893.21505     -3731.258 5        35.414                                                                    27948409.969 6 109675553.50006     -2786.446 6        38.189    27948410.374 6 112536654.91506     -2859.112 6        39.844
E21        20.000    25762243.607 7 135381501.94807       -20.729 7        43.380                                                                    25762243.225 7 101096591.25707       -15.461 7        46.116    25762243.079 7 103733889.96307       -15.847 7        47.354
G11        21.000    22727846.285 7 119435652.22407     -2532.067 7        44.497                                    22727841.923 5  93066723.81905     -1973.037 5        32.629    22727842.395 7  93066736.82107     -1973.099 7        43.738
I06        22.000    37904113.640 7 148744113.55707      -364.399 7        43.674
S28        23.000    40813738.813 5 214477591.70105      -482.574 5        35.252
R08        24.000    20435165.199 8 109429417.96408     -2537.594 8        49.402                                                                    20435162.633 7  85111772.80807     -1973.653 7        46.411
S23        25.000    38089061.476 7 200159350.85907      -477.766 7        44.859
R01        26.000    19639802.613 8 104986009.86908      1133.060 8        49.449                                                                    19639802.227 6  81655778.84606       881.247 6        41.471
C44        27.000                                                                                                                                    25997869.141 6 135377731.35106     -1845.403 6        39.892                                                                    25997867.335 6 110005491.15806     -1499.406 6        38.432
R24        29.000    23045185.576 7 123232967.43807     -3983.628 7        45.970                                                                    23045184.458 6  95847850.78006     -3098.320 6        39.844
E19        30.000    24746829.574 6 130045493.20606     -2376.447 6        40.675                                                                    24746827.558 7  97111894.90607     -1774.545 7        43.166    24746827.081 7  99645245.66207     -1820.840 7        43.469
C37        33.000                                                                                                                                    23656469.015 8 123185438.38508     -2254.906 8        48.058                                                                    23656471.609 7 100098270.53407     -1832.234 7        47.329
E04        34.000    23349600.319 8 122703014.85908        12.458 8        48.510                                                                    23349598.121 8  91628886.35108         9.264 8        51.445    23349597.716 8  94019200.57708         9.522 8        51.728
C16        35.000                                                                                                                                    40761539.232 6 212256038.33206     -1482.990 6        38.748    40761540.166 6 164129838.95906     -1146.702 6        39.075    40761537.568 5 172475413.00605     -1205.080 5        34.471
R12        36.000    24054734.775 5 128496064.34505      4142.876 5        32.725                                                                    24054735.679 5  99941386.64915      3221.959 5        32.503
I01        37.000   386355687.411 7 213001871.53307     -2997.980 7        42.142
E27        38.000    28109970.244 6 147718887.74506     -2440.198 6        37.327                                                                    28109969.965 6 110309568.91106     -1822.350 6        40.782    28109969.610 6 113187206.30306     -1869.844 6        40.806
C19        39.000                                                                                                                                    21847638.767 8 113766391.99508       132.557 8        51.456                                                                    21847633.321 8  92444490.57908       107.779 8        50.001
G05        41.000    23074864.386 7 121259245.74407      2757.149 7        43.412                                    23074859.791 6  94487706.53206      2148.429 6        38.910    23074859.860 6  94487715.53006      2148.447 6        40.465
S44        42.000    40775041.946 6 214274435.47206      -535.182 6        36.828
C36        43.000                                                                                                                                    25052068.000 7 130452694.30807      2941.971 7        43.003                                                                    25052072.872 7 106003520.23807      2390.597 7        43.945
C05        44.000                                                                                                                                    39179454.343 6 204017719.21306      -536.460 6        39.246    39179448.845 7 157759463.44907      -414.718 7        43.416    39179450.978 6 165781209.78606      -435.710 6        40.667
R18        45.000    23741593.316 6 126734252.56706      1968.314 6        41.282                                                                    23741592.912 6  98571068.64506      1530.902 6        40.539
G04        46.000    23955745.391 6 125888291.22806     -3547.034 6        41.409                                    23955743.429 4  98094750.21704     -2763.923 4        24.256    23955743.711 6  98094752.20906     -2763.844 6        39.207
R11        47.000    20065539.641 8 107224143.37408      2084.082 8        51.058                                                                    20065538.260 8  83396559.74708      1620.976 8        48.076
C20        49.000                                                                                                                                    23065650.475 8 120108913.67708     -2486.137 8        50.016                                                                    23065644.814 8  97598313.61208     -2020.131 8        48.866
C06        50.000                                                                                                                                    40202237.989 6 209343614.90606     -1522.594 6        36.522    40202233.325 6 161877740.69906     -1177.445 6        39.513    40202232.791 6 170108811.93106     -1237.307 6        36.567
S48        51.000    77113968.601 6 405235475.10306      -464.975 6        38.168
E06        52.000    24383760.217 7 128137552.47607      1094.028 7        46.363                                                                    24383759.381 8  95687145.70508       816.988 8        49.349    24383759.317 8  98183329.88508       838.283 8        50.189
C09        53.000                                                                                                                                    39471919.080 6 205540651.99806     -1273.044 6        39.763    39471914.986 7 158937059.42507      -984.462 7        44.023    39471913.364 6 167018594.75106     -1034.447 6        40.474
C60        54.000                                                                                                                                    40775042.127 6 212326505.12806      -530.152 6        40.598                                                                    40775027.704 6 172532639.23306      -430.917 6        39.589
R09        55.000    23533599.086 7 125668121.32007     -4496.363 7        42.322                                                                    23533598.055 6  97741864.91706     -3497.222 6        41.101
G07        56.000    20750388.177 8 109044044.65908      -935.977 8        49.418                                    20750383.140 8  84969369.11508      -729.332 8        50.432    20750383.181 7  84969378.11607      -729.237 7        46.420
C02        57.000                                                                                                                                    40746253.204 5 212176434.37505      -557.755 5        35.119    40746249.119 6 164068260.21406      -431.492 6        39.760    40746252.325 6 172410726.85506      -453.213 6        36.272
I03        58.000    98622489.636 6 311230539.91806       844.148 6        40.782
R07        59.000    24354172.655 4 130369755.85104     -3980.669 4        28.531                                                                    24354174.407 4 101398729.23304     -3095.712 4        29.697
C35        60.000                                                                                                                                    26674614.844 6 138901706.21806     -3113.550 6        39.144                                                                    26674613.076 6 112869007.22406     -2529.958 6        38.580
> 2025 01 02 05 46 50.0000000  0 55
G09         1.000    21572241.841 7 113362924.10307     -2863.717 7        46.018                                    21572239.407 7  88334750.49207     -2231.466 7        46.508    21572239.723 7  88334750.49207     -2231.459 7        43.655
G06         2.000    24014199.504 6 126195477.70706     -3939.173 6        40.651                                    24014198.171 6  98334140.60206     -3069.486 6        36.325    24014199.170 6  98334148.60806     -3069.638 6        39.483
E11         3.000    25309084.464 6 133000151.73106     -2417.639 6        41.495                                                                    25309079.702 7  99318285.65807     -1805.416 7        43.244    25309079.522 7 101909193.63807     -1852.540 7        43.972
G16         4.000    24357449.885 6 127999268.25606     -2929.042 6        37.830                                    24357445.392 2  99739671.29502     -2282.373 2        17.887
S21         5.000    38384700.878 7 201712674.96407      -480.538 7        42.502
E10         6.000    26393570.444 7 138699152.14507     -3415.332 7        42.445                                                                    26393569.553 7 103574037.05907     -2550.381 7        45.312    26393569.457 7 106275968.14607     -2616.893 7        45.950
G20         7.000    20898344.573 7 109821552.30507       892.311 7        47.713                                    20898339.083 6  85575217.08506       695.311 6        38.204
R02         8.000    23110465.901 7 123321874.41907      2967.986 7        45.309                                                                    23110464.436 6  95917013.98006      2308.362 6        38.802
R10         9.000    20451808.254 7 109019648.81807     -2289.255 7        44.006
R17        10.000    22244923.296 7 119037087.03007     -1019.328 7        46.892                                                                    22244921.999 7  92584395.34907      -792.792 7        43.647
G30        11.000    21054604.925 8 110642706.62908      1399.012 8        50.155                                    21054602.444 8  86215088.60008      1090.143 8        50.177    21054602.879 7  86215096.60107      1090.092 7        44.155
S27        12.000    39029688.821 6 205102338.85806      -499.881 6        37.123
G13        13.000    24228969.296 6 127324091.92906      2815.189 6        37.837                                    24228963.689 2  99213556.91802      2193.713 2        17.358
S36        14.000    38152773.006 7 200494736.00307      -481.373 7        44.772
I09        15.000    38405878.027 7 150712895.77207      -864.209 7        43.007
E09        16.000    26377324.806 7 138613798.14707      1717.648 7        42.646                                                                    26377323.460 7 103510303.49507      1282.556 7        44.725    26377322.997 7 106210568.45707      1316.000 7        45.491
S45        17.000    63336579.692 6 332836103.01016      -523.034 6        37.429
E36        18.000    26085951.645 7 137082599.38107       192.505 7        42.269                                                                    26085951.246 7 102366897.13707       143.674 7        45.228    26085951.005 7 105037336.09007       147.508 7        46.049
E12        19.000    27951963.428 5 146888550.69205     -3731.585 5        35.667                                                                    27951960.342 6 109689486.01906     -2786.487 6        38.006    27951960.607 6 112550950.88906     -2859.232 6        39.904
E21        20.000    25762264.593 7 135381611.75007       -23.166 7        43.372                                                                    25762264.176 7 101096673.25507       -17.374 7        46.030    25762264.007 7 103733974.10507       -17.852 7        47.276
G11        21.000    22730256.861 7 119448319.78207     -2534.797 7        44.676                                    22730252.459 5  93076594.63705     -1975.168 5        32.575    22730252.589 7  93076607.63407     -1975.132 7        43.609
I06        22.000    37904578.114 7 148745936.29007      -364.562 7        43.858
S28        23.000    40814193.832 5 214480005.29905      -482.664 5        35.276
R08        24.000    20437535.590 8 109442111.28508     -2539.708 8        48.928                                                                    20437533.255 7  85121645.37207     -1975.333 7        46.503
S23        25.000    38089515.350 7 200161740.21107      -478.048 7        44.876
R01        26.000    19638744.156 8 104980350.06408      1130.952 8        49.335                                                                    19638743.764 6  81651376.77506       879.524 6        41.759
C44        27.000                                                                                                                                    25999642.520 6 135386963.95906     -1847.516 6        40.393                                                                    25999640.583 6 110012993.43106     -1501.370 6        38.423
R24        29.000    23048911.558 7 123252890.36407     -3985.428 7        46.323                                                                    23048909.794 6  95863346.38306     -3099.995 6        39.745
E19        30.000    24749091.020 6 130057377.22006     -2377.185 6        40.663                                                                    24749088.982 7  97120769.33507     -1775.178 7        43.173    24749088.566 7  99654351.59907     -1821.495 7        43.636
C37        33.000                                                                                                                                    23658635.252 7 123196718.97007     -2257.254 7        47.811                                                                    23658637.879 7 100107436.93407     -1834.159 7        47.282
E04        34.000    23349589.033 8 122702955.68808        11.263 8        48.264                                                                    23349586.866 8  91628842.16308         8.354 8        51.442    23349586.452 8  94019155.23608         8.619 8        51.828
C16        35.000                                                                                                                                    40762963.766 6 212263452.98806     -1482.852 6        38.715    40762963.992 6 164135572.42806     -1146.729 6        39.111    40762961.431 5 172481438.01005     -1204.768 5        34.667
R12        36.000    24050858.247 5 128475351.57405      4142.567 5        32.713                                                                    24050858.783 5  99925276.70105      3221.940 5        32.293
I01        37.000   386359507.662 7 213016862.04607     -2998.199 7        42.127
E27        38.000    28112292.948 6 147731093.70506     -2441.958 6        37.036                                                                    28112292.606 6 110318683.74306     -1823.636 6        41.020    28112292.266 6 113196558.91506     -1871.192 6        40.796
C19        39.000                                                                                                                                    21847512.302 8 113765734.04808       130.689 8        51.247                                                                    21847506.979 8  92443955.94908       106.270 8        49.950
G05        41.000    23072242.143 7 121245464.00007      2755.690 7        43.772                                    23072237.202 6  94476967.51506      2147.294 6        38.958    23072237.773 6  94476976.52506      2147.205 6        40.899
S44        42.000    40775550.275 6 214277111.42206      -535.458 6        37.055
C36        43.000                                                                                                                                    25049243.741 7 130437986.52407      2941.256 7        42.921                                                                    25049248.527 7 105991568.96907      2390.003 7        44.176
C05        44.000                                                                                                                                    39179968.781 6 204020401.55406      -536.545 6        38.712    39179964.504 7 157761537.59707      -414.795 7        43.467    39179966.153 6 165783389.42806      -436.025 6        40.684
R18        45.000    23739750.327 6 126724420.02506      1964.825 6        40.837                                                                    23739750.521 6  98563421.12806      1528.167 6        40.953
G04        46.000    23959121.068 6 125906027.89806     -3547.626 6        41.430                                    23959118.668 4  98108570.97004     -2764.375 4        24.632    23959119.100 6  98108572.95806     -2764.333 6        39.339
R11        47.000    20063591.577 8 107213732.74108      2080.255 8        50.882                                                                    20063589.656 7  83388462.58707      1618.017 7        47.857
C20        49.000                                                                                                                                    23068038.242 8 120121348.54508     -2487.720 8        50.104                                                                    23068032.780 8  97608417.96608     -2021.400 8        48.908
C06        50.000                                                                                                                                    40203699.937 5 209351228.90505     -1522.941 5        35.867    40203695.486 6 161883628.28806     -1177.440 6        39.411    40203694.899 6 170114998.89906     -1237.252 6        36.473
S48        51.000    77114414.883 6 405237800.49606      -465.135 6        38.120
E06        52.000    24382719.771 7 128132084.77107      1093.192 7        46.080                                                                    24382718.892 8  95683062.67908       816.293 8        49.389    24382718.848 8  98179140.34608       837.578 8        50.275
C09        53.000                                                                                                                                    39473141.701 6 205547018.46306     -1273.240 6        39.513    39473137.272 7 158941982.35907      -984.591 7        43.797    39473135.780 6 167023768.02306     -1034.645 6        40.410
C60        54.000                                                                                                                                    40775551.311 6 212329156.75506      -530.353 6        40.536                                                                    40775537.075 6 172534793.88606      -430.856 6        39.538
R09        55.000    23537809.590 7 125690607.28007     -4498.000 7        42.798                                                                    23537808.501 6  97759353.97406     -3498.410 6        41.142
G07        56.000    20751279.602 8 109048730.32808      -938.309 8        49.500                                    20751274.786 8  84973020.28208      -731.148 8        50.432    20751274.821 7  84973029.28807      -731.129 7        46.165
C02        57.000                                                                                                                                    40746789.034 5 212179223.64505      -557.747 5        34.886    40746785.598 6 164070417.02206      -431.363 6        39.880    40746788.102 6 172412993.35606      -453.311 6        36.272
I03        58.000    98621414.357 6 311226319.61706       844.036 6        40.825
R07        59.000    24357889.739 4 130389659.33604     -3981.114 4        28.218                                                                    24357891.573 4 101414209.70604     -3096.332 4        29.668
C35        60.000                                                                                                                                    26677604.766 6 138917275.32806     -3113.905 6        39.192                                                                    26677602.881 6 112881658.42306     -2530.532 6        38.264
> 2025 01 02 05 46 55.0000000  0 55
G09         1.000    21574966.968 7 113377246.20107     -2865.037 7        45.419                                    21574964.847 7  88345910.56007     -2232.495 7        46.398    21574964.899 7  88345910.55207     -2232.466 7        43.592
G06         2.000    24017947.676 6 126215175.26306     -3939.830 6        39.973                                    24017946.603 5  98349489.33705     -3069.993 5        35.962    24017947.403 6  98349497.31806     -3069.917 6        39.369
E11         3.000    25311385.706 6 133012245.32506     -2419.562 6        40.918                                                                    25311381.136 7  99327316.57407     -1806.881 7        43.168    25311380.774 7 101918460.14507     -1853.992 7        43.886
G16         4.000    24360237.171 6 128013919.43706     -2931.413 6        37.395                                    24360233.386 2  99751087.79302     -2284.219 2        17.283
S21         5.000    38385161.608 7 201715078.48807      -480.682 7        42.700
E10         6.000    26396820.733 7 138716231.06307     -3416.159 7        42.713                                                                    26396819.600 7 103586790.78407     -2551.026 7        45.238    26396819.418 7 106289054.58307     -2617.650 7        45.849
G20         7.000    20897497.115 7 109817098.12307       889.426 7        47.902                                    20897491.464 6  85571746.28806       693.058 6        38.114
R02         8.000    23107685.222 7 123307034.96507      2967.883 7        44.906                                                                    23107683.792 6  95905472.18006      2308.264 6        39.709
R10         9.000    20453957.294 7 109031105.37307     -2293.286 7        44.575
R17        10.000    22245878.132 7 119042194.89407     -1023.661 7        47.808                                                                    22245876.110 7  92588368.13607      -796.194 7        43.522
G30        11.000    21053274.891 8 110635717.80908      1396.667 8        49.554                                    21053272.525 8  86209642.76208      1088.311 8        50.058    21053272.977 7  86209650.75207      1088.307 7        44.122
S27        12.000    39030162.558 6 205104838.29506      -499.972 6        37.255
G13        13.000    24226289.364 6 127310016.94106      2814.816 6        38.027                                    24226285.295 2  99202589.39302      2193.351 2        17.057
S36        14.000    38153233.753 7 200497142.67907      -481.325 7        44.626
I09        15.000    38406979.126 7 150717216.89307      -864.327 7        43.113
E09        16.000    26375690.801 7 138605211.87207      1717.124 7        42.789                                                                    26375689.442 7 103503891.66607      1282.280 7        44.733    26375689.156 7 106203989.36507      1315.676 7        45.451
S45        17.000    63337037.899 6 332838717.40306      -523.007 6        37.448
E36        18.000    26085769.658 7 137081643.28807       190.083 7        42.318                                                                    26085769.272 7 102366183.17907       141.930 7        45.037    26085769.124 7 105036603.51307       145.631 7        46.061
E12        19.000    27955514.201 5 146907208.38805     -3731.346 5        35.133                                                                    27955510.841 6 109703418.69806     -2786.407 6        37.641    27955510.939 6 112565247.03906     -2859.170 6        39.523
E21        20.000    25762287.897 7 135381734.03007       -25.709 7        43.314                                                                    25762287.457 7 101096764.56307       -19.188 7        45.938    25762287.320 7 103734067.78907       -19.634 7        47.376
G11        21.000    22732669.984 7 119461000.28807     -2537.262 7        44.418                                    22732665.490 5  93086475.55305     -1977.090 5        32.335    22732665.675 7  93086488.54607     -1977.183 7        43.359
I06        22.000    37905042.902 7 148747759.38607      -364.644 7        43.882
S28        23.000    40814655.719 5 214482418.87905      -482.627 5        35.290
R08        24.000    20439907.570 8 109454815.09408     -2541.675 8        48.426                                                                    20439905.083 7  85131526.12007     -1976.917 7        46.398
S23        25.000    38089970.422 7 200164129.87307      -477.922 7        44.819
R01        26.000    19637687.465 8 104974700.69308      1128.911 8        49.516                                                                    19637686.786 6  81646982.82006       878.104 6        41.514
C44        27.000                                                                                                                                    26001416.961 6 135396207.50906     -1849.679 6        39.835                                                                    26001415.613 6 110020504.55206     -1502.882 6        38.426
R24        29.000    23052638.482 7 123272822.74907     -3987.388 7        45.559                                                                    23052637.073 6  95878849.34406     -3101.144 6        39.111
E19        30.000    24751353.053 6 130069264.44706     -2377.640 6        40.853                                                                    24751351.151 7  97129646.14407     -1775.568 7        43.164    24751350.777 7  99663459.97607     -1821.927 7        43.477
C37        33.000                                                                                                                                    23660803.726 7 123208011.02307     -2259.425 7        47.635                                                                    23660806.403 7 100116612.64707     -1835.940 7        47.151
E04        34.000    23349578.775 8 122702901.98608        10.276 8        48.355                                                                    23349576.635 8  91628802.06008         7.658 8        51.350    23349576.234 8  94019114.08808         7.870 8        51.718
C16        35.000                                                                                                                                    40764387.203 6 212270867.24206     -1482.772 6        38.799    40764387.963 6 164141305.57806     -1146.343 6        39.450    40764385.253 5 172487462.69205     -1204.832 5        34.495
R12        36.000    24046979.215 5 128454638.95705      4142.357 5        32.599                                                                    24046980.223 5  99909166.93205      3221.916 5        32.575
I01        37.000   386363328.114 7 213031853.42507     -2998.291 7        42.157
E27        38.000    28114617.079 6 147743308.79506     -2443.635 6        36.571                                                                    28114617.127 6 110327805.39406     -1824.918 6        40.920    28114616.816 6 113205918.54906     -1872.678 6        40.868
C19        39.000                                                                                                                                    21847387.693 8 113765085.27608       128.875 8        51.330                                                                    21847382.335 8  92443428.76708       104.781 8        49.808
G05        41.000    23069620.564 7 121231689.68107      2754.139 7        43.316                                    23069616.009 6  94466234.27906      2146.082 6        38.784    23069616.305 6  94466243.28106      2146.222 6        40.725
S44        42.000    40776061.596 6 214279787.47106      -534.986 6        36.643
C36        43.000                                                                                                                                    25046419.526 7 130423281.84907      2940.705 7        42.709                                                                    25046424.723 7 105979620.22707      2389.505 7        43.913
C05        44.000                                                                                                                                    39180484.109 6 204023084.19706      -536.528 6        38.841    39180479.384 7 157763611.96007      -414.794 7        43.367    39180481.423 6 165785569.26106      -435.766 6        40.636
R18        45.000    23737911.939 6 126714604.73306      1961.452 6        40.923                                                                    23737911.946 6  98555787.00806      1525.489 6        41.194
G04        46.000    23962496.118 6 125923767.08506     -3547.862 6        40.870                                    23962494.501 4  98122393.68004     -2764.562 4        24.571    23962494.622 6  98122395.67606     -2764.887 6        39.486
R11        47.000    20061646.838 8 107203341.08408      2076.526 8        50.807                                                                    20061645.515 7  83380380.19107      1615.029 7        47.641
C20        49.000                                                                                                                                    23070427.841 8 120133791.07008     -2489.194 8        50.364                                                                    23070422.258 8  97618528.52808     -2022.616 8        48.768
C06        50.000                                                                                                                                    40205162.122 6 209358842.70106     -1522.729 6        36.306    40205157.399 6 161889515.75106     -1177.390 6        39.000    40205157.175 6 170121185.72006     -1237.233 6        36.783
S48        51.000    77114867.389 6 405240126.46706      -465.190 6        37.989
E06        52.000    24381680.193 7 128126621.25907      1092.427 7        46.041                                                                    24381679.241 8  95678982.78808       815.747 8        49.254    24381679.215 8  98174954.02508       836.991 8        50.250
C09        53.000                                                                                                                                    39474364.154 6 205553385.24506     -1273.431 6        39.688    39474360.001 7 158946905.56207      -984.562 7        43.786    39474358.482 6 167028941.55806     -1034.627 6        40.310
C60        54.000                                                                                                                                    40776060.316 6 212331808.50906      -530.318 6        40.543                                                                    40776046.227 6 172536948.62506      -430.943 6        39.589
R09        55.000    23542022.123 7 125713100.66007     -4499.458 7        42.882                                                                    23542020.844 6  97776848.80506     -3499.544 6        40.932
G07        56.000    20752173.658 8 109053427.72508      -940.483 8        49.048                                    20752168.668 8  84976680.58708      -732.844 8        50.306    20752168.752 7  84976689.59507      -732.854 7        46.117
C02        57.000                                                                                                                                    40747324.744 5 212182013.13205      -557.606 5        35.486    40747320.574 6 164072574.01106      -431.359 6        39.880    40747323.806 6 172415260.01706      -453.241 6        36.215
I03        58.000    98620338.932 6 311222099.49306       844.170 6        40.775
R07        59.000    24361607.512 4 130409565.75604     -3981.065 4        28.303                                                                    24361613.003 4 101429692.49504     -3097.172 4        28.957
C35        60.000                                                                                                                                    26680594.658 6 138932847.02506     -3114.522 6        39.045                                                                    26680593.086 6 112894311.68306     -2530.777 6        37.871
