     3.04           OBSERVATION DATA    M                   RINEX VERSION / TYPE
ssrcrin-15.6.1x                         20250102 181500 UTC PGM / RUN BY / DATE 
(00000000023479385599111004) Septentrio proprietary         COMMENT             
rref                                                        MARKER NAME         
01                                                          MARKER NUMBER       
geodetic                                                    MARKER TYPE         
NFB                 CLIMERS@TUW                             OBSERVER / AGENCY   
3297213             SEPT ASTERX SB3 PROB4.14.4              REC # / TYPE / VERS 
Unknown             Unknown                                 ANT # / TYPE        
  4127831.7345  1207193.2207  4695247.5738                  APPROX POSITION XYZ 
        0.0000        0.0000        0.0000                  ANTENNA: DELTA H/E/N
G   23 X1  C1C L1C D1C S1C C1W S1W C2W L2W D2W S2W C2L L2L  SYS / # / OBS TYPES 
       D2L S2L C5Q L5Q D5Q S5Q C1L L1L D1L S1L              SYS / # / OBS TYPES 
E   21 X1  C1C L1C D1C S1C C6C L6C D6C S6C C5Q L5Q D5Q S5Q  SYS / # / OBS TYPES 
       C7Q L7Q D7Q S7Q C8Q L8Q D8Q S8Q                      SYS / # / OBS TYPES 
S    9 X1  C1C L1C D1C S1C C5I L5I D5I S5I                  SYS / # / OBS TYPES 
R   17 X1  C1C L1C D1C S1C C2P L2P D2P S2P C2C L2C D2C S2C  SYS / # / OBS TYPES 
       C3Q L3Q D3Q S3Q                                      SYS / # / OBS TYPES 
C   25 X1  C1P L1P D1P S1P C5P L5P D5P S5P C2I L2I D2I S2I  SYS / # / OBS TYPES 
       C7I L7I D7I S7I C6I L6I D6I S6I C7D L7D D7D S7D      SYS / # / OBS TYPES 
J   17 X1  C1C L1C D1C S1C C2L L2L D2L S2L C5Q L5Q D5Q S5Q  SYS / # / OBS TYPES 
       C1L L1L D1L S1L                                      SYS / # / OBS TYPES 
I    5 X1  C5A L5A D5A S5A                                  SYS / # / OBS TYPES 
SEPTENTRIO RECEIVERS OUTPUT ALIGNED CARRIER PHASES.         COMMENT             
NO FURTHER PHASE SHIFT APPLIED IN THE RINEX ENCODER.        COMMENT             
G L1C                                                       SYS / PHASE SHIFT   
G L2W                                                       SYS / PHASE SHIFT   
G L2L  0.00000                                              SYS / PHASE SHIFT   
G L5Q  0.00000                                              SYS / PHASE SHIFT   
G L1L  0.00000                                              SYS / PHASE SHIFT   
E L1C  0.00000                                              SYS / PHASE SHIFT   
E L6C  0.00000                                              SYS / PHASE SHIFT   
E L5Q  0.00000                                              SYS / PHASE SHIFT   
E L7Q  0.00000                                              SYS / PHASE SHIFT   
E L8Q  0.00000                                              SYS / PHASE SHIFT   
S L1C                                                       SYS / PHASE SHIFT   
S L5I                                                       SYS / PHASE SHIFT   
R L1C                                                       SYS / PHASE SHIFT   
R L2P  0.00000                                              SYS / PHASE SHIFT   
R L2C                                                       SYS / PHASE SHIFT   
R L3Q  0.00000                                              SYS / PHASE SHIFT   
C L1P  0.00000                                              SYS / PHASE SHIFT   
C L5P  0.00000                                              SYS / PHASE SHIFT   
C L2I                                                       SYS / PHASE SHIFT   
C L7I                                                       SYS / PHASE SHIFT   
C L6I                                                       SYS / PHASE SHIFT   
C L7D                                                       SYS / PHASE SHIFT   
J L1C                                                       SYS / PHASE SHIFT   
J L2L  0.00000                                              SYS / PHASE SHIFT   
J L5Q  0.00000                                              SYS / PHASE SHIFT   
J L1L  0.00000                                              SYS / PHASE SHIFT   
I L5A                                                       SYS / PHASE SHIFT   
  2025     1     2    18    15    0.0000000     GPS         TIME OF FIRST OBS   
 C1C    0.000 C2C    0.000 C2P    0.000                     GLONASS COD/PHS/BIS 
DBHZ                                                        SIGNAL STRENGTH UNIT
    18                                                      LEAP SECONDS        
 24 R01  1 R02 -4 R03  5 R04  6 R05  1 R06 -4 R07  5 R08  6 GLONASS SLOT / FRQ #
    R09 -2 R10 -7 R11  0 R12 -1 R13 -2 R14 -7 R15  0 R16 -1 GLONASS SLOT / FRQ #
    R17  4 R18 -3 R19  3 R20  2 R21  4 R22 -3 R23  3 R24  2 GLONASS SLOT / FRQ #
                                                            END OF HEADER       
> 2025 01 02 18 15  0.0000000  0 59
G23         1.000    22220550.670 7 116769859.24507      2355.813 7        46.008                                    22220547.583 5  90989522.14405      1835.697 5        33.731    22220547.435 7  90989520.14707      1835.706 7        44.275
E11         2.000    26585631.776 6 139708633.72306     -3127.434 6        37.633                                                                    26585628.366 6 104328000.50806     -2335.309 6        40.410    26585628.056 6 107049586.80806     -2396.131 6        40.493
G16         3.000    20769830.818 8 109146403.59608       908.962 8        48.482                                    20769826.332 6  85049230.26706       708.281 6        38.778
G05         4.000    24045425.107 6 126359660.74706     -3180.505 6        41.430                                    24045421.379 5  98462097.98505     -2478.316 5        32.904    24045422.345 6  98462096.97906     -2478.310 6        36.870
S21         5.000    38410957.522 7 201850643.95307      -459.047 7        42.085
G26         6.000    20631243.439 8 108418157.32708     -1483.417 8        50.056                                    20631242.457 8  84481813.61108     -1155.911 8        50.650    20631242.962 7  84481800.60807     -1155.872 7        45.783
G10         7.000    24885027.635 6 130771728.55206      3193.692 6        40.260                                    24885028.246 5 101900054.05305      2488.581 5        32.437    24885028.514 6 101900048.07406      2488.300 6        36.529
E15         8.000    28769893.591 5 151186811.92605      2483.434 5        34.967                                                                    28769902.066 5 112899278.97705      1854.385 5        34.757    28769900.542 6 115844469.11206      1902.816 6        36.072
E36         9.000    23505374.284 8 123521769.26308     -1220.700 8        48.407                                                                    23505374.569 8  92240426.24108      -911.591 8        50.834    23505374.315 8  94646685.45108      -935.395 8        51.683
G27        10.000    22632496.779 7 118934701.86107      2527.289 7        43.448                                    22632495.301 6  92676456.43206      1969.314 6        40.551    22632495.719 6  92676458.43306      1969.328 6        39.456
G15        11.000    25107845.359 6 131942618.64006      2203.322 6        37.622                                    25107842.460 4 102812417.73204      1716.875 4        27.413    25107842.808 5 102812420.73305      1716.963 5        35.090
E19        12.000    28405087.733 4 149269749.27404      -631.140 4        27.904                                                                    28405090.097 5 111467668.40005      -471.182 5        33.317    28405089.309 5 114375517.44305      -483.216 5        34.281
C23        13.000                                                                                                                                    23988037.149 7 124912053.27407       652.171 7        46.483                                                                    23988029.023 7 101501266.90707       529.938 7        47.131
S36        14.000    38181396.019 7 200645116.93407      -458.357 7        43.754
C13        15.000                                                                                                                                    37635850.559 7 195979808.71907      -579.232 7        45.056    37635851.923 7 151544053.86207      -447.916 7        45.467    37635850.173 7 159249670.69107      -470.616 7        43.956
G18        16.000    20616590.449 8 108341148.82808     -1346.341 8        48.860                                    20616586.758 7  84421772.42207     -1049.096 7        42.152    20616587.074 8  84421780.42208     -1049.120 8        49.640
R10        17.000    20559233.714 7 109592320.49007      1470.736 7        47.299
E27        18.000    28678177.979 6 150704847.74106      2476.526 6        36.722                                                                    28678178.394 6 112539334.65506      1849.215 6        38.135    28678178.184 6 115475141.05206      1897.443 6        39.321
E02        19.000    23579173.163 8 123909579.97408     -1797.110 8        49.067                                                                    23579171.917 8  92529991.41208     -1342.015 8        50.908    23579171.353 8  94943802.28708     -1377.015 8        51.098
S27        20.000    39181098.582 5 205898054.94405      -435.096 5        35.100
R11        21.000    24462144.790 6 130718289.60706      3829.450 6        41.087                                                                    24462144.755 6 101669780.54306      2978.605 6        38.970
I06        22.000    38687357.794 7 151817718.95607      -318.653 7        42.250
S28        23.000    40885145.760 5 214852885.89405      -453.836 5        33.641
S23        25.000    38136483.896 7 200408505.51707      -460.800 7        44.742
S45        26.000    63393556.691 6 333136604.29906      -514.462 6        36.972
R09        27.000    19695206.920 8 105171514.73208     -2220.395 8        52.425                                                                    19695205.648 8  81800179.37608     -1727.040 8        48.611
R18        28.000    21871675.296 7 116752780.72107     -3767.432 7        46.553                                                                    21871675.831 7  90807869.89007     -2930.246 7        44.299
C38        29.000                                                                                                                                    38937170.724 7 202756187.85607     -1248.751 7        42.978                                                                    38937168.430 7 164756056.14207     -1014.677 7        42.842
C44        30.000                                                                                                                                    23592034.606 7 122850136.91607     -2875.100 7        47.109                                                                    23592033.002 7  99825884.45207     -2336.277 7        45.836
C43        31.000                                                                                                                                    23487212.399 7 122304174.32207      1795.095 7        46.530                                                                    23487211.688 7  99382200.00207      1458.622 7        46.384
R02        32.000    23279217.229 7 124222378.90507     -1639.795 7        44.205                                                                    23279217.486 6  96617412.36806     -1275.462 6        40.687
I02        33.000    38955715.332 6 152870653.52406      -952.302 6        40.365
R03        34.000    22630734.337 7 121144124.42307      1631.286 7        46.488                                                                    22630732.727 6  94223208.74406      1268.806 6        41.950
E34        35.000    24423761.136 7 128347932.42707      1478.844 7        47.690                                                                    24423761.378 8  95844344.56408      1104.292 8        49.791    24423761.138 8  98344620.77808      1133.078 8        50.212
G29        36.000    23066767.384 7 121216976.00407     -3283.162 7        43.390                                    23066763.515 6  94454896.14406     -2558.308 6        39.375    23066763.955 6  94454906.15806     -2558.353 6        39.255
G31        37.000    24345158.149 7 127934881.78307     -3762.831 7        42.203                                    24345155.083 5  99689612.87705     -2932.076 5        34.600    24345155.807 6  99689618.86506     -2932.009 6        37.618
C22        38.000                                                                                                                                    24829388.637 7 129293168.53807       453.614 7        43.568                                                                    24829383.302 7 105061273.65607       368.542 7        44.608
E25        39.000    27098926.916 6 142406030.20106     -3458.981 6        38.799                                                                    27098928.291 7 106342293.86407     -2583.046 7        43.338    27098927.580 7 109116425.09807     -2650.459 7        43.645
C12        40.000                                                                                                                                    22328751.737 7 116271881.63207     -1969.867 7        47.468    22328748.204 8  89908892.11908     -1523.330 8        51.678    22328747.660 8  94480502.07608     -1600.720 8        49.357
R04        41.000    24060958.563 5 128845356.89405      3490.224 5        33.126                                                                    24060960.470 5 100213057.37705      2714.632 5        35.667
S44        42.000    40477327.562 6 212709975.38206      -412.689 6        36.726
G28        43.000                                                                                                                                                                    25771284.779 4                     -2996.439 4        28.123
C05        44.000                                                                                                                                    39290747.823 6 204597267.26106      -388.320 6        37.214    39290744.176 7 158207607.82907      -300.385 7        43.427    39290745.848 6 166252141.00306      -315.530 6        40.341
C11        45.000                                                                                                                                    22073217.131 8 114941176.45808       811.355 8        48.692    22073213.944 8  88879868.76608       627.372 8        52.368    22073212.669 8  93399160.43408       659.257 8        49.468
R16        46.000    22852869.326 7 122076110.61707     -5004.777 7        45.291                                                                    22852870.097 7  94948196.84207     -3892.625 7        42.582
G07        47.000    26236463.480 6 137873546.64606      1883.626 6        38.312                                                                                                    26236461.944 5 107433923.56205      1467.727 5        33.174
C21        48.000                                                                                                                                    25781330.736 6 134250171.51006      2436.098 6        41.909                                                                    25781326.544 7 109089246.05107      1979.394 7        43.663
C24        49.000                                                                                                                                    25610198.284 6 133359080.10206     -3922.643 6        41.619                                                                    25610196.794 7 108365195.52707     -3187.374 7        42.991
R19        50.000    19591449.444 6 104801311.44506     -1743.975 6        41.156                                                                    19591448.676 7  81512245.11307     -1356.409 7        45.216
S48        51.000    77142427.519 6 405386488.53906      -497.887 6        37.319
C08        52.000                                                                                                                                    37762247.567 7 196638038.85907      -849.114 7        42.563    37762241.671 7 152053035.12207      -656.625 7        46.225    37762240.845 7 159784532.34807      -689.858 7        42.882
C34        53.000                                                                                                                                    21332154.738 8 111082411.37708      -431.329 8        51.030                                                                    21332154.428 8  90263675.34508      -350.502 8        49.507
C60        54.000                                                                                                                                    40477328.481 6 210776267.70406      -408.824 6        40.307                                                                    40477313.069 6 171272950.91406      -332.114 6        40.763
C25        55.000                                                                                                                                    22860083.897 8 119038703.46708     -2412.877 8        49.229                                                                    22860082.055 8  96728791.05908     -1960.650 8        48.217
I09        56.000    39814767.112 6 156241708.56306       468.809 6        40.727
C02        57.000                                                                                                                                    40634724.833 5 211595710.81005      -371.988 5        34.567    40634717.586 6 163619217.45006      -287.586 6        39.027    40634721.365 5 171938849.06105      -302.252 5        35.648
I03        58.000    83437347.702 6 251640819.57106      1110.490 6        40.586
E30        59.000    24662730.977 7 129603741.72807      1078.057 7        46.765                                                                    24662730.679 8  96782133.95908       805.031 8        49.229    24662730.356 8  99306868.65008       825.992 8        50.191
R20        60.000    21284267.831 6 113816736.40206      2276.865 6        39.405                                                                    21284269.124 7  88524194.89307      1770.824 7        45.281
> 2025 01 02 18 15  5.0000000  0 59
G23         1.000    22218310.195 7 116758085.15307      2353.964 7        45.445                                    22218306.992 5  90980347.52905      1834.256 5        33.826    22218307.052 7  90980345.53407      1834.283 7        44.224
E11         2.000    26588607.306 6 139724271.14506     -3127.767 6        37.671                                                                    26588604.023 6 104339677.80706     -2335.619 6        40.412    26588603.956 6 107061568.72906     -2396.579 6        40.684
G16         3.000    20768967.456 8 109141866.11208       906.133 8        48.444                                    20768962.870 6  85045694.56606       706.078 6        38.853
G05         4.000    24048452.143 6 126375568.90006     -3182.701 6        41.216                                    24048448.739 5  98474493.93905     -2480.027 5        33.072    24048449.775 6  98474492.93106     -2479.833 6        36.843
S21         5.000    38411395.124 7 201852939.04607      -458.918 7        42.209
G26         6.000    20632656.533 8 108425581.75008     -1486.344 8        49.939                                    20632655.288 8  84487598.87808     -1158.190 8        50.793    20632655.615 7  84487585.87507     -1158.114 7        45.476
G10         7.000    24881989.419 6 130755760.01306      3193.689 6        40.184                                    24881989.608 5 101887611.07405      2488.578 5        32.868    24881989.557 6 101887605.09206      2488.694 6        36.892
E15         8.000    28767530.650 6 151174395.50206      2483.135 6        36.265                                                                    28767539.078 6 112890007.04706      1854.343 6        36.367    28767537.662 6 115834955.27806      1902.633 6        37.573
E36         9.000    23506536.590 8 123527877.43308     -1222.357 8        48.321                                                                    23506536.893 8  92244987.53608      -912.805 8        50.876    23506536.695 8  94651365.73508      -936.628 8        51.698
G27        10.000    22630092.321 7 118922068.16407      2526.338 7        43.316                                    22630091.169 6  92666612.00406      1968.577 6        40.698    22630091.834 6  92666614.01106      1968.556 6        39.751
G15        11.000    25105750.074 6 131931605.74706      2201.988 6        36.915                                    25105746.923 4 102803836.26904      1715.828 4        27.748    25105747.271 5 102803839.26605      1715.948 5        34.967
E19        12.000    28405689.903 4 149272909.40104      -633.191 4        27.964                                                                    28405691.147 5 111470028.24305      -472.637 5        32.659    28405690.806 5 114377938.86505      -485.255 5        33.952
C23        13.000                                                                                                                                    23987412.094 7 124908799.06207       649.636 7        46.418                                                                    23987404.105 7 101498622.60107       527.877 7        47.046
S36        14.000    38181833.692 7 200647408.86007      -458.438 7        43.807
C13        15.000                                                                                                                                    37636407.014 7 195982707.12207      -580.055 7        44.820    37636408.435 7 151546295.09007      -448.571 7        45.359    37636406.835 7 159252025.87807      -471.294 7        43.750
G18        16.000    20617872.759 8 108347886.75608     -1348.724 8        48.929                                    20617868.933 7  84427022.75707     -1050.957 7        42.288    20617869.289 8  84427030.76108     -1050.960 8        49.412
R10        17.000    20557856.489 7 109584976.65607      1466.920 7        46.917
E27        18.000    28675821.742 6 150692465.62506      2476.260 6        36.722                                                                    28675822.513 6 112530088.26106      1849.344 6        38.718    28675822.006 6 115465653.45106      1897.606 6        40.153
E02        19.000    23580883.793 8 123918570.14908     -1798.932 8        49.030                                                                    23580882.755 8  92536704.85008     -1343.347 8        50.875    23580882.159 8  94950690.85808     -1378.401 8        51.197
S27        20.000    39181509.824 5 205900226.80605      -434.819 5        35.381
R11        21.000    24458561.767 6 130699143.97506      3828.865 6        41.485                                                                    24458561.070 6 101654889.47806      2978.237 6        36.847
I06        22.000    38687763.358 7 151819311.92107      -318.462 7        42.284
S28        23.000    40885581.162 5 214855153.79905      -453.460 5        34.048
S23        25.000    38136922.549 7 200410809.73807      -460.741 7        44.846
S45        26.000    63393994.963 6 333139176.60806      -514.440 6        36.972
R09        27.000    19697288.280 8 105182627.15208     -2224.516 8        52.498                                                                    19697287.051 8  81808822.35608     -1730.162 8        48.911
R18        28.000    21875203.997 7 116771619.26007     -3767.821 7        46.255                                                                    21875204.478 7  90822522.08907     -2930.577 7        44.153
C38        29.000                                                                                                                                    38938370.004 7 202762433.13807     -1249.322 7        42.802                                                                    38938367.793 7 164761130.96007     -1015.195 7        42.641
C44        30.000                                                                                                                                    23594795.459 7 122864514.21407     -2875.620 7        46.849                                                                    23594794.050 7  99837567.17207     -2336.667 7        45.701
C43        31.000                                                                                                                                    23485489.328 7 122295201.34307      1794.195 7        46.466                                                                    23485488.583 7  99374908.73107      1457.911 7        46.182
R02        32.000    23280755.130 7 124230588.01007     -1643.800 7        44.084                                                                    23280755.410 6  96623797.23406     -1278.562 6        40.193
I02        33.000    38956929.027 6 152875414.98806      -952.274 6        40.107
R03        34.000    22629211.867 7 121135976.39207      1627.953 7        45.621                                                                    22629211.011 6  94216871.40306      1266.269 6        41.912
E34        35.000    24422354.789 7 128340542.06007      1477.390 7        47.897                                                                    24422355.030 8  95838825.78108      1103.319 8        49.700    24422354.863 8  98338958.02708      1132.047 8        50.260
G29        36.000    23069891.500 7 121233394.00107     -3284.000 7        43.388                                    23069887.623 6  94467689.38806     -2558.960 6        39.336    23069888.220 6  94467699.36806     -2558.698 6        38.904
G31        37.000    24348738.510 6 127953697.31306     -3763.243 6        41.897                                    24348735.632 5  99704274.31605     -2932.396 5        34.571    24348736.413 6  99704280.30706     -2932.386 6        37.448
C22        38.000                                                                                                                                    24828954.795 7 129290907.34807       450.953 7        43.367                                                                    24828949.099 7 105059436.23707       366.481 7        44.555
E25        39.000    27102218.280 6 142423326.97306     -3459.596 6        38.838                                                                    27102219.769 7 106355210.28107     -2583.454 7        43.192    27102219.041 7 109129678.46007     -2650.798 7        43.572
C12        40.000                                                                                                                                    22330644.177 7 116281734.21507     -1971.003 7        47.715    22330640.159 8  89916510.75108     -1524.085 8        51.513    22330639.677 8  94488508.10708     -1601.624 8        49.245
R04        41.000    24057700.711 5 128827905.80905      3489.855 5        33.725                                                                    24057701.055 5 100199484.32505      2714.634 5        35.038
S44        42.000    40477717.550 6 212712038.41006      -412.568 6        37.062
G28        43.000    25774936.732 4 135448287.67214     -3844.402 4        26.132                                                                                                    25774942.397 4                     -2995.281 4        28.303
C05        44.000                                                                                                                                    39291121.275 6 204599209.31306      -388.416 6        36.979    39291117.038 7 158209109.54307      -300.266 7        43.217    39291118.916 6 166253719.07606      -315.468 6        40.341
C11        45.000                                                                                                                                    22072438.769 8 114937123.41208       810.015 8        48.575    22072435.725 8  88876734.69708       626.313 8        52.278    22072434.323 8  93395867.00308       658.238 8        49.282
R16        46.000    22857554.646 7 122101136.25207     -5005.429 7        45.740                                                                    22857554.855 7  94967661.23107     -3893.213 7        42.574
G07        47.000    26234672.075 6 137864133.04206      1882.214 6        37.497                                                                                                    26234669.306 5 107426588.31805      1466.585 5        31.887
C21        48.000                                                                                                                                    25778992.623 7 134237993.67307      2435.334 7        42.148                                                                    25778987.738 7 109079350.57407      1978.903 7        43.367
C24        49.000                                                                                                                                    25613964.702 6 133378693.13806     -3922.530 6        41.433                                                                    25613963.202 7 108381132.71507     -3187.368 7        42.792
R19        50.000    19593080.883 6 104810036.81606     -1746.164 6        41.242                                                                    19593079.599 7  81519031.51107     -1358.038 7        45.055
S48        51.000    77142874.198 6 405388977.24306      -497.614 6        37.614
C08        52.000                                                                                                                                    37763062.985 7 196642286.74307      -849.902 7        42.389    37763057.588 7 152056319.84507      -657.313 7        46.152    37763056.695 7 159787984.09507      -690.762 7        42.789
C34        53.000                                                                                                                                    21332569.707 8 111084572.12208      -432.810 8        50.908                                                                    21332569.309 8  90265431.13208      -351.725 8        49.314
C60        54.000                                                                                                                                    40477721.206 6 210778311.98406      -408.788 6        40.334                                                                    40477705.521 6 171274612.05606      -332.063 6        40.663
C25        55.000                                                                                                                                    22862402.027 8 119050773.60208     -2414.979 8        49.162                                                                    22862399.999 8  96738599.03808     -1962.375 8        48.085
I09        56.000    39814169.801 6 156239364.79506       468.797 6        40.594
C02        57.000                                                                                                                                    40635081.892 5 211597569.84905      -371.603 5        34.638    40635074.516 6 163620654.97606      -287.426 6        38.958    40635078.594 5 171940359.68005      -302.065 5        35.229
I03        58.000    83435932.922 6 251635267.13706      1110.612 6        40.462
E30        59.000    24661705.957 7 129598355.73807      1076.478 7        47.020                                                                    24661705.747 8  96778111.95908       803.846 8        49.143    24661705.388 8  99302741.72408       824.799 8        50.250
R20        60.000    21282138.854 6 113805357.12306      2274.888 6        39.366                                                                    21282141.095 7  88515344.34907      1769.422 7        44.798
> 2025 01 02 18 15 10.0000000  0 59
G23         1.000    22216071.826 7 116746321.50007      2351.768 7        45.254                                    22216068.399 5  90971181.06105      1832.545 5        33.515    22216068.464 7  90971179.07007      1832.523 7        44.420
E11         2.000    26591583.281 6 139739911.20006     -3128.281 6        37.932                                                                    26591580.136 6 104351357.05506     -2335.953 6        40.493    26591579.967 6 107073552.65906     -2396.945 6        40.672
G16         3.000    20768107.006 8 109137343.80508       903.064 8        48.667                                    20768102.298 6  85042170.69206       703.686 6        38.775
G05         4.000    24051481.600 6 126391489.08506     -3185.117 6        40.675                                    24051478.376 5  98486899.27705     -2481.907 5        32.928    24051478.670 6  98486898.27006     -2482.063 6        36.594
S21         5.000    38411831.397 7 201855234.44507      -458.923 7        42.449
G26         6.000    20634072.265 8 108433021.75808     -1489.461 8        50.204                                    20634071.067 8  84493396.28808     -1160.620 8        50.700    20634071.137 7  84493383.28407     -1160.543 7        45.120
G10         7.000    24878950.230 6 130739791.58606      3193.868 6        40.055                                    24878950.993 5 101875168.17805      2488.721 5        32.916    24878951.315 6 101875162.19506      2488.588 6        36.941
E15         8.000    28765168.233 6 151161980.89906      2482.992 6        36.276                                                                    28765176.495 6 112880736.49106      1854.156 6        36.601    28765175.416 6 115825442.85506      1902.541 6        38.222
E36         9.000    23507700.619 8 123533994.61608     -1224.274 8        48.600                                                                    23507701.011 8  92249555.56508      -914.218 8        50.746    23507700.736 8  94656052.93108      -938.070 8        51.805
G27        10.000    22627689.000 7 118909439.45807      2525.256 7        43.170                                    22627687.998 6  92656771.46206      1967.725 6        40.629    22627688.412 6  92656773.47306      1967.781 6        39.913
G15        11.000    25103655.287 6 131920599.72706      2200.451 6        37.546                                    25103652.733 4 102795260.14904      1714.630 4        27.856    25103653.507 5 102795263.13305      1714.852 5        35.314
E19        12.000    28406294.026 4 149276081.66804      -635.621 4        28.445                                                                    28406294.867 5 111472397.16205      -474.248 5        32.713    28406294.062 5 114380369.55105      -486.658 5        33.599
C23        13.000                                                                                                                                    23986789.883 7 124905558.45107       646.890 7        46.640                                                                    23986781.747 7 101495989.34607       525.591 7        46.931
S36        14.000    38182268.893 7 200649701.30907      -458.586 7        44.004
C13        15.000                                                                                                                                    37636964.460 7 195985610.28307      -581.072 7        44.882    37636965.774 7 151548539.99207      -449.305 7        45.415    37636964.309 7 159254384.94207      -472.231 7        43.681
G18        16.000    20619157.603 8 108354637.59908     -1351.348 8        49.251                                    20619153.581 7  84432283.15507     -1053.000 7        42.218    20619153.825 8  84432291.15508     -1053.057 8        49.455
R10        17.000    20556482.922 7 109577652.97707      1462.862 7        46.625
E27        18.000    28673465.755 6 150680084.58606      2476.238 6        36.450                                                                    28673466.463 6 112520842.70206      1849.015 6        38.580    28673466.067 6 115456166.71506      1897.362 6        40.093
E02        19.000    23582596.303 8 123927570.33408     -1800.946 8        49.069                                                                    23582595.389 8  92543425.77108     -1344.875 8        50.783    23582594.789 8  94957587.10808     -1379.953 8        51.232
S27        20.000    39181927.268 5 205902399.45105      -434.406 5        35.543
R11        21.000    24454979.443 6 130680002.72606      3827.962 6        41.175                                                                    24454979.081 6 101640001.97906      2977.355 6        38.790
I06        22.000    38688169.168 7 151820904.94307      -318.505 7        42.307
S28        23.000    40886010.880 5 214857421.71105      -453.563 5        33.874
S23        25.000    38137361.335 7 200413114.47907      -460.800 7        44.957
S45        26.000    63394433.621 6 333140149.19716      -514.403 6        37.021
R09        27.000    19699373.231 8 105193761.02308     -2228.842 8        52.616                                                                    19699371.789 8  81817482.04608     -1733.568 8        48.556
R18        28.000    21878733.474 7 116790461.10607     -3768.617 7        45.326                                                                    21878734.466 7  90837176.85807     -2931.203 7        44.194
C38        29.000                                                                                                                                    38939570.352 7 202768682.12607     -1250.072 7        42.982                                                                    38939567.930 7 164766208.76707     -1015.758 7        42.720
C44        30.000                                                                                                                                    23597557.065 7 122878895.11007     -2876.438 7        46.695                                                                    23597555.800 7  99849252.82207     -2337.345 7        45.669
C43        31.000                                                                                                                                    23483767.314 7 122286233.68407      1792.974 7        46.668                                                                    23483766.452 7  99367621.77307      1457.051 7        46.243
R02        32.000    23282297.242 7 124238817.85907     -1647.944 7        44.327                                                                    23282298.469 6  96630198.24506     -1281.770 6        40.083
I02        33.000    38958141.749 6 152880176.86206      -952.433 6        40.515
R03        34.000    22627692.543 7 121127845.95307      1624.381 7        45.962                                                                    22627692.107 7  94210547.74307      1263.377 7        42.305
E34        35.000    24420950.108 8 128333159.61508      1475.822 8        48.206                                                                    24420950.203 8  95833312.92808      1102.062 8        49.692    24420950.020 8  98333301.35808      1130.797 8        50.355
G29        36.000    23073016.801 7 121249816.72407     -3284.994 7        43.511                                    23073012.648 6  94480486.31906     -2559.734 6        39.126    23073014.070 6  94480496.30406     -2559.667 6        38.931
G31        37.000    24352319.674 7 127972515.82307     -3763.775 7        42.118                                    24352316.655 5  99718938.08605     -2932.810 5        34.343    24352317.237 6  99718944.09706     -2933.030 6        36.673
C22        38.000                                                                                                                                    24828523.472 7 129288659.82007       448.259 7        43.725                                                                    24828517.366 7 105057609.94407       364.200 7        44.516
E25        39.000    27105510.320 6 142440627.00106     -3460.192 6        38.889                                                                    27105511.973 7 106368129.13307     -2583.907 7        43.304    27105511.142 7 109142934.32607     -2651.279 7        43.615
C12        40.000                                                                                                                                    22332538.023 7 116291593.13207     -1972.351 7        47.800    22332533.706 8  89924134.28808     -1525.081 8        51.603    22332533.035 8  94496519.28808     -1602.662 8        49.144
R04        41.000    24054441.989 5 128810456.97805      3489.400 5        34.681                                                                    24054442.143 5 100185913.03505      2714.058 5        34.876
S44        42.000    40478109.993 6 212714101.91106      -412.800 6        36.828
G28        43.000    25778594.392 4 135467506.42604     -3843.078 4        26.251                                                                                                    25778598.749 4                     -2994.617 4        28.597
C05        44.000                                                                                                                                    39291493.654 6 204601151.67506      -388.318 6        37.399    39291489.913 7 158210611.51107      -300.345 7        43.177    39291491.871 6 166255297.43106      -315.735 6        40.217
C11        45.000                                                                                                                                    22071661.811 8 114933077.91708       808.410 8        48.634    22071658.862 8  88873606.46108       625.121 8        52.294    22071657.445 8  93392579.70308       656.904 8        49.298
R16        46.000    22862239.977 7 122126166.89107     -5006.505 7        45.833                                                                    22862240.952 7  94987129.48907     -3893.886 7        42.770
G07        47.000    26232882.123 6 137854728.71006      1880.178 6        36.450                                    26232878.560 4 107419252.30514      1465.062 4        24.827    26232880.527 5 107419260.38705      1464.659 5        33.323
C21        48.000                                                                                                                                    25776654.698 7 134225820.36107      2434.219 7        42.354                                                                    25776649.987 7 109069458.75507      1978.118 7        43.035
C24        49.000                                                                                                                                    25617731.313 6 133398306.90706     -3922.740 6        41.499                                                                    25617729.979 7 108397070.50107     -3187.533 7        42.751
R19        50.000    19594713.426 6 104818774.25806     -1748.553 6        41.051                                                                    19594712.870 7  81525827.30207     -1360.031 7        45.335
S48        51.000    77143318.297 6 405391466.62806      -497.693 6        37.709
C08        52.000                                                                                                                                    37763879.576 7 196646539.48207      -850.975 7        42.267    37763874.129 7 152059608.33107      -658.028 7        46.246    37763873.396 7 159791439.79207      -691.459 7        42.646
C34        53.000                                                                                                                                    21332986.232 8 111086741.18608      -434.536 8        50.975                                                                    21332985.839 8  90267193.66908      -353.091 8        49.287
C60        54.000                                                                                                                                    40478113.886 6 210780356.72406      -408.937 6        40.215                                                                    40478098.197 6 171276273.57206      -332.222 6        40.496
C25        55.000                                                                                                                                    22864722.256 8 119062855.32708     -2417.361 8        49.206                                                                    22864720.205 8  96748416.42908     -1964.324 8        48.081
I09        56.000    39813572.477 6 156237021.14006       468.751 6        40.651
C02        57.000                                                                                                                                    40635438.924 5 211599429.32305      -371.742 5        34.600    40635431.638 6 163622092.83606      -287.489 6        38.976    40635435.559 5 171941870.64505      -301.985 5        35.281
I03        58.000    83434518.295 6 251629715.00306      1110.483 6        40.841
E30        59.000    24660682.733 7 129592978.35707      1074.697 7        47.363                                                                    24660682.489 8  96774096.38708       802.568 8        49.111    24660682.111 8  99298621.39808       823.457 8        50.316
R20        60.000    21280012.668 6 113793987.77306      2272.945 6        39.592                                                                    21280014.877 7  88506501.54207      1767.826 7        44.576
> 2025 01 02 18 15 15.0000000  0 59
G23         1.000    22213835.618 7 116734568.51407      2349.793 7        45.029                                    22213831.805 5  90962022.89205      1831.007 5        33.497    22213832.000 7  90962020.89407      1830.992 7        43.553
E11         2.000    26594560.385 6 139755554.10906     -3128.738 6        38.072                                                                    26594556.749 6 104363038.47106     -2336.441 6        39.991    26594556.566 6 107085538.80106     -2397.334 6        40.386
G16         3.000    20767249.107 8 109132836.89608       900.118 8        48.638                                    20767244.636 6  85038658.81706       701.392 6        38.832
G05         4.000    24054513.303 6 126407421.55506     -3187.556 6        40.160                                    24054510.310 5  98499314.18605     -2483.804 5        32.647    24054510.807 6  98499313.17806     -2483.745 6        36.745
S21         5.000    38412269.912 7 201857530.35307      -458.969 7        42.320
G26         6.000    20635491.335 8 108440477.59608     -1492.469 8        49.934                                    20635489.863 8  84499206.03208     -1162.965 8        50.735    20635490.164 7  84499193.03007     -1162.943 7        44.882
G10         7.000    24875911.506 6 130723823.55606      3193.842 6        39.766                                    24875912.441 5 101862725.59405      2488.698 5        33.108    24875912.442 6 101862719.59906      2488.848 6        37.240
E15         8.000    28762806.009 5 151149568.37005      2482.626 5        35.414                                                                    28762814.518 6 112871467.49406      1853.619 6        36.605    28762813.474 6 115815932.05906      1902.317 6        38.574
E36         9.000    23508866.322 8 123540121.03608     -1225.981 8        48.501                                                                    23508866.794 8  92254130.49008      -915.484 8        50.708    23508866.534 8  94660747.20008      -939.391 8        51.733
G27        10.000    22625287.128 7 118896815.98507      2524.448 7        43.117                                    22625285.842 6  92646935.00206      1967.101 6        40.660    22625286.327 6  92646937.00506      1967.134 6        39.480
G15        11.000    25101561.981 6 131909600.75306      2199.363 6        37.119                                    25101559.897 4 102786689.52704      1713.787 4        27.760    25101560.199 5 102786692.54305      1713.663 5        35.419
E19        12.000    28406899.687 4 149279266.16304      -637.840 4        29.630                                                                    28406900.583 5 111474775.17405      -476.404 5        33.760    28406899.953 5 114382809.63505      -488.868 5        34.933
C23        13.000                                                                                                                                    23986170.020 7 124902331.65807       644.198 7        46.728                                                                    23986162.064 7 101493367.32607       523.383 7        47.108
S36        14.000    38182704.179 7 200651994.33107      -458.657 7        44.033
C13        15.000                                                                                                                                    37637523.111 7 195988518.46907      -581.902 7        44.855    37637524.160 7 151550788.78607      -450.042 7        45.424    37637522.834 7 159256748.07807      -472.903 7        43.863
G18        16.000    20620444.713 8 108361401.56708     -1353.862 8        49.315                                    20620440.720 7  84437553.78107     -1054.959 7        42.282    20620440.912 8  84437561.77508     -1054.941 8        49.292
R10        17.000    20555113.066 7 109570349.67707      1458.830 7        47.053
E27        18.000    28671110.148 6 150667704.96506      2475.883 6        36.095                                                                    28671110.830 6 112511598.18806      1848.804 6        38.724    28671110.394 6 115446681.03306      1897.204 6        40.255
E02        19.000    23584311.082 8 123936580.74808     -1802.855 8        49.102                                                                    23584309.996 8  92550154.32808     -1346.327 8        50.705    23584309.417 8  94964491.19408     -1381.448 8        51.097
S27        20.000    39182337.070 5 205904570.03705      -433.465 5        35.210
R11        21.000    24451397.935 6 130660866.03506      3827.023 6        41.507                                                                    24451397.330 6 101625117.79706      2976.408 6        38.297
I06        22.000    38688575.416 7 151822498.17607      -318.466 7        42.368
S28        23.000    40886443.773 5 214859689.90005      -453.579 5        34.248
S23        25.000    38137799.125 7 200415419.59907      -460.885 7        45.077
S45        26.000    63394868.727 6 333142722.27606      -514.550 6        37.369
R09        27.000    19701461.994 8 105204916.52608     -2233.066 8        52.049                                                                    19701460.915 8  81826158.54408     -1736.798 8        48.443
R18        28.000    21882263.464 7 116809306.51407     -3769.262 7        45.407                                                                    21882265.201 7  90851834.38707     -2931.638 7        44.042
C38        29.000                                                                                                                                    38940771.395 7 202774935.04207     -1250.804 7        43.128                                                                    38940768.664 7 164771289.77707     -1016.466 7        42.842
C44        30.000                                                                                                                                    23600319.355 7 122893279.82207     -2877.097 7        46.760                                                                    23600318.283 7  99860941.58607     -2337.993 7        45.765
C43        31.000                                                                                                                                    23482046.088 7 122277271.57507      1792.114 7        46.695                                                                    23482045.377 7  99360339.33807      1456.144 7        46.216
R02        32.000    23283844.297 7 124247068.78407     -1652.007 7        44.221                                                                    23283844.629 6  96636615.60106     -1284.941 6        40.076
I02        33.000    38959355.546 6 152884939.74106      -952.380 6        40.563
R03        34.000    22626177.140 7 121119733.49107      1620.901 7        46.290                                                                    22626176.877 7  94204238.04607      1260.684 7        42.076
E34        35.000    24419546.713 8 128325785.34008      1474.281 8        48.091                                                                    24419546.954 8  95827806.16708      1100.957 8        49.544    24419546.745 8  98327650.94608      1129.624 8        50.321
G29        36.000    23076142.946 7 121266244.49907     -3285.816 7        43.839                                    23076138.683 6  94493287.18106     -2560.376 6        39.234    23076140.102 6  94493297.17706     -2560.423 6        39.000
G31        37.000    24355901.222 6 127991337.58006     -3764.447 6        41.874                                    24355898.228 5  99733604.38105     -2933.332 5        34.257    24355898.878 6  99733610.37406     -2933.350 6        36.624
C22        38.000                                                                                                                                    24828094.381 7 129286426.22807       445.669 7        43.532                                                                    24828088.286 7 105055794.97107       361.946 7        44.415
E25        39.000    27108803.013 6 142457930.55006     -3460.934 6        38.874                                                                    27108804.764 7 106381050.59907     -2584.317 7        43.168    27108803.885 7 109156192.88707     -2651.785 7        43.591
C12        40.000                                                                                                                                    22334432.314 7 116301458.57707     -1973.495 7        47.720    22334428.444 8  89931762.87808     -1526.052 8        51.586    22334427.541 8  94504535.77108     -1603.669 8        49.278
R04        41.000    24051183.509 5 128793011.06005      3489.126 5        35.443                                                                    24051183.886 5 100172343.99105      2713.943 5        35.690
S44        42.000    40478504.404 6 212716166.10106      -412.776 6        37.119
G28        43.000                                                                                                                                                                    25782255.968 4                     -2994.390 4        28.540
C05        44.000                                                                                                                                    39291866.641 6 204603094.60006      -388.396 6        37.134    39291863.088 7 158212113.90507      -300.228 7        43.221    39291864.974 6 166256876.21906      -315.747 6        40.250
C11        45.000                                                                                                                                    22070886.389 8 114929040.19008       807.007 8        48.533    22070883.335 8  88870484.24108       624.000 8        52.252    22070882.099 8  93389298.73308       655.643 8        49.382
R16        46.000    22866925.862 7 122151202.72007     -5007.484 7        45.193                                                                    22866927.488 7  95006601.79407     -3894.625 7        42.353
G07        47.000    26231094.655 6 137845333.83706      1878.403 6        38.249                                    26231091.033 4 107411931.70704      1463.684 4        26.683    26231091.861 5 107411939.75905      1463.584 5        34.395
C21        48.000                                                                                                                                    25774317.849 7 134213651.77207      2433.543 7        42.504                                                                    25774312.963 7 109059570.78607      1977.360 7        42.993
C24        49.000                                                                                                                                    25621498.432 6 133417921.61606     -3922.632 6        41.344                                                                    25621496.716 7 108413009.06207     -3187.656 7        42.828
R19        50.000    19596349.343 6 104827523.88306     -1750.824 6        40.861                                                                    19596348.639 7  81532632.57007     -1361.791 7        45.133
S48        51.000    77143763.980 6 405393956.17306      -497.814 6        37.633
C08        52.000                                                                                                                                    37764696.887 7 196650797.34607      -851.789 7        42.463    37764691.782 7 152062900.78907      -658.745 7        46.257    37764690.981 7 159794899.66707      -692.197 7        42.859
C34        53.000                                                                                                                                    21333404.469 8 111088918.78708      -436.158 8        51.012                                                                    21333404.052 8  90268963.15308      -354.490 8        49.453
C60        54.000                                                                                                                                    40478506.629 6 210782402.14606      -408.895 6        40.367                                                                    40478491.136 6 171277935.65606      -332.417 6        40.641
C25        55.000                                                                                                                                    22867044.365 8 119074948.87608     -2419.669 8        48.877                                                                    22867042.618 8  96758243.42208     -1966.251 8        48.200
I09        56.000    39812975.553 6 156234677.80306       468.763 6        40.965
C02        57.000                                                                                                                                    40635796.395 5 211601289.41305      -371.838 5        34.333    40635788.916 6 163623531.17706      -287.572 6        38.925    40635792.792 5 171943382.13105      -302.222 5        35.624
I03        58.000    83433103.058 6 251624163.30806      1110.549 6        40.751
E30        59.000    24659661.161 7 129587609.82007      1072.972 7        47.289                                                                    24659660.841 8  96770087.41908       801.295 8        48.998    24659660.490 8  99294507.85008       822.183 8        50.251
R20        60.000    21277889.217 6 113782628.47906      2271.224 6        38.880                                                                    21277890.850 7  88497666.54807      1766.414 7        44.498
> 2025 01 02 18 15 20.0000000  0 59
G23         1.000    22211601.067 7 116722825.61007      2347.729 7        45.249                                    22211597.018 5  90952872.57705      1829.401 5        33.473    22211597.486 7  90952870.58207      1829.394 7        43.731
E11         2.000    26597537.419 6 139771199.29206     -3129.074 6        38.201                                                                    26597533.826 6 104374721.55006     -2336.748 6        39.946    26597533.799 6 107097526.66206     -2397.561 6        40.358
G16         3.000    20766394.233 8 109128344.81708       897.082 8        48.428                                    20766389.809 6  85035158.50006       699.022 6        38.820
G05         4.000    24057547.316 6 126423365.65606     -3189.814 6        40.367                                    24057544.480 5  98511738.14905     -2485.571 5        32.683    24057545.366 6  98511737.12706     -2485.497 6        37.565
S21         5.000    38412705.810 7 201859825.97507      -459.015 7        42.463
G26         6.000    20636912.759 8 108447948.63208     -1495.605 8        49.624                                    20636911.553 8  84505027.61808     -1165.405 8        50.722    20636912.061 7  84505014.61507     -1165.382 7        45.242
G10         7.000    24872873.073 6 130707855.31306      3193.976 6        39.544                                    24872873.817 5 101850282.84505      2488.806 5        33.210    24872874.316 6 101850276.87506      2488.689 6        37.592
E15         8.000    28760443.821 5 151137157.27305      2482.092 5        34.305                                                                    28760452.476 6 112862199.57506      1853.790 6        36.817    28760451.518 6 115806422.37606      1901.953 6        38.898
E36         9.000    23510033.942 8 123546256.07308     -1227.740 8        48.551                                                                    23510034.248 8  92258711.85308      -916.787 8        50.791    23510033.990 8  94665448.07708      -940.701 8        51.559
G27        10.000    22622885.810 7 118884197.16207      2523.426 7        43.238                                    22622884.572 6  92637102.16106      1966.303 6        40.672    22622885.357 6  92637104.18206      1966.183 6        39.979
G15        11.000    25099470.510 6 131898608.32706      2197.980 6        36.231                                    25099468.224 4 102778124.00604      1712.705 4        27.701    25099468.024 5 102778127.03105      1712.520 5        35.505
E19        12.000    28407508.043 4 149282462.28004      -640.133 4        29.081                                                                    28407509.280 5 111477161.94405      -477.924 5        32.742    28407508.454 5 114385258.64105      -490.437 5        33.982
C23        13.000                                                                                                                                    23985552.932 7 124899118.12807       641.535 7        46.647                                                                    23985544.913 7 101490756.05607       521.199 7        46.844
S36        14.000    38183140.962 7 200654287.88607      -458.644 7        44.150
C13        15.000                                                                                                                                    37638082.141 7 195991431.03107      -582.785 7        44.935    37638083.569 7 151553040.97207      -450.707 7        45.377    37638082.074 7 159259114.77307      -473.600 7        43.526
G18        16.000    20621734.090 8 108368178.04308     -1356.386 8        48.862                                    20621730.220 7  84442834.15107     -1056.923 7        42.248    20621730.396 8  84442842.15308     -1056.936 8        49.181
R10        17.000    20553746.353 7 109563066.15907      1454.877 7        46.869
E27        18.000    28668754.513 6 150655326.12106      2475.691 6        36.949                                                                    28668755.342 6 112502354.20606      1848.953 6        39.060    28668754.839 6 115437195.92906      1897.060 6        40.510
E02        19.000    23586027.560 8 123945600.80208     -1804.781 8        48.974                                                                    23586026.425 8  92556890.08708     -1347.771 8        50.804    23586025.889 8  94971402.66508     -1382.918 8        51.040
S27        20.000    39182749.072 5 205906741.64905      -434.156 5        35.595
R11        21.000    24447817.531 6 130641733.45006      3826.313 6        41.793                                                                    24447818.032 6 101610236.94506      2975.935 6        38.051
I06        22.000    38688981.286 7 151824091.16007      -318.412 7        42.461
S28        23.000    40886874.677 5 214861958.22405      -453.502 5        34.405
S23        25.000    38138239.593 7 200417724.60007      -460.883 7        45.111
S45        26.000    63395307.702 6 333145295.36006      -514.289 6        37.614
R09        27.000    19703554.702 8 105216093.03308     -2237.242 8        51.931                                                                    19703554.044 8  81834851.38408     -1740.092 8        48.620
R18        28.000    21885794.709 7 116828154.91107     -3769.809 7        45.783                                                                    21885795.640 7  90866494.24607     -2932.069 7        44.262
C38        29.000                                                                                                                                    38941972.743 7 202781191.27407     -1251.363 7        42.995                                                                    38941970.220 7 164776373.47607     -1017.023 7        42.624
C44        30.000                                                                                                                                    23603082.688 7 122907667.75607     -2877.844 7        46.809                                                                    23603081.353 7  99872632.96507     -2338.566 7        45.645
C43        31.000                                                                                                                                    23480325.813 7 122268314.41807      1791.064 7        46.619                                                                    23480325.262 7  99353060.91607      1455.298 7        46.065
R02        32.000    23285394.070 7 124255340.21207     -1656.196 7        43.854                                                                    23285393.946 6  96643048.95206     -1288.142 6        39.994
I02        33.000    38960570.110 6 152889703.01306      -952.663 6        40.729
R03        34.000    22624665.283 7 121111638.47007      1617.352 7        46.476                                                                    22624664.134 6  94197941.92806      1257.873 6        41.116
E34        35.000    24418144.941 7 128318418.62207      1472.694 7        47.900                                                                    24418145.109 8  95822305.05008      1099.805 8        49.602    24418144.942 8  98322006.31908      1128.430 8        50.112
G29        36.000    23079269.960 7 121282676.73407     -3286.809 7        43.699                                    23079265.649 6  94506091.51706     -2561.144 6        39.399    23079266.793 6  94506101.50806     -2561.104 6        39.267
G31        37.000    24359483.908 6 128010161.92006     -3764.974 6        41.816                                    24359480.400 5  99748272.68905     -2933.745 5        34.276    24359481.651 6  99748278.67706     -2933.637 6        37.112
C22        38.000                                                                                                                                    24827667.791 7 129284205.96207       442.872 7        43.556                                                                    24827661.782 7 105053990.82907       359.752 7        44.072
E25        39.000    27112096.345 6 142475236.97606     -3461.474 6        38.616                                                                    27112098.033 7 106393974.21807     -2584.757 7        43.437    27112097.454 7 109169453.64507     -2652.333 7        43.388
C12        40.000                                                                                                                                    22336327.923 7 116311329.95907     -1974.756 7        47.493    22336324.097 8  89939396.06008     -1527.016 8        51.578    22336323.248 8  94512557.07608     -1604.742 8        48.970
R04        41.000    24047927.213 6 128775567.22506      3488.609 6        36.578                                                                    24047926.478 5 100158776.59205      2713.439 5        35.876
S44        42.000    40478898.479 6 212718230.36106      -412.884 6        37.244
G28        43.000    25785909.028 4 135505934.37404     -3841.834 4        25.699                                                                                                    25785913.487 4                     -2993.779 4        29.697
C05        44.000                                                                                                                                    39292239.838 6 204605037.46306      -388.506 6        37.202    39292236.240 7 158213616.23807      -300.229 7        43.086    39292238.167 6 166258454.92406      -315.618 6        40.064
C11        45.000                                                                                                                                    22070112.177 8 114925009.67908       805.551 8        48.376    22070109.210 8  88867367.59708       622.856 8        52.197    22070108.037 8  93386023.60508       654.536 8        49.135
R16        46.000    22871613.279 7 122176242.91407     -5008.312 7        45.138                                                                    22871614.238 7  95026077.48507     -3895.366 7        42.252
G07        47.000    26229308.712 6 137835947.73406      1876.561 6        37.527                                    26229305.206 4 107404617.90404      1462.246 4        26.886    26229306.328 5 107404625.92305      1462.153 5        34.829
C21        48.000                                                                                                                                    25771981.081 7 134201487.32307      2432.694 7        42.082                                                                    25771976.861 7 109049686.18407      1976.581 7        42.614
C24        49.000                                                                                                                                    25625265.331 6 133437536.69906     -3922.880 6        41.147                                                                    25625263.560 7 108428947.90207     -3187.711 7        42.482
R19        50.000    19597987.359 6 104836285.12406     -1753.246 6        40.925                                                                    19597986.751 7  81539446.85607     -1363.701 7        45.539
S48        51.000    77144209.174 6 405396445.47706      -497.728 6        37.921
C08        52.000                                                                                                                                    37765516.299 7 196655059.77007      -852.707 7        42.391    37765510.355 7 152066196.76607      -659.392 7        46.224    37765509.537 7 159798363.23107      -692.998 7        42.535
C34        53.000                                                                                                                                    21333824.295 8 111091104.32508      -437.782 8        50.937                                                                    21333823.761 8  90270739.08108      -355.795 8        49.141
C60        54.000                                                                                                                                    40478899.541 6 210784447.64006      -408.913 6        40.212                                                                    40478883.825 6 171279597.79506      -332.474 6        40.358
C25        55.000                                                                                                                                    22869368.859 8 119087053.60408     -2422.008 8        48.879                                                                    22869367.230 7  96768079.49707     -1968.130 7        47.885
I09        56.000    39812378.245 6 156232334.34306       468.818 6        41.015
C02        57.000                                                                                                                                    40636152.738 5 211603149.54305      -371.957 5        34.343    40636146.082 6 163624969.54406      -287.505 6        39.243    40636149.932 5 171944893.63705      -302.061 5        35.448
I03        58.000    83431688.649 6 251618611.63206      1110.570 6        40.741
E30        59.000    24658640.894 7 129582249.51407      1071.367 7        47.007                                                                    24658640.790 8  96766084.59808       800.076 8        49.092    24658640.466 8  99290400.61008       820.905 8        50.111
R20        60.000    21275765.281 6 113771278.59406      2269.175 6        39.565                                                                    21275767.917 7  88488838.84407      1764.892 7        44.540
> 2025 01 02 18 15 25.0000000  0 59
G23         1.000    22209368.560 7 116711092.72907      2345.363 7        44.838                                    22209364.265 5  90943730.07305      1827.548 5        33.551    22209364.808 7  90943728.08807      1827.558 7        44.129
E11         2.000    26600515.031 6 139786846.63506     -3129.972 6        38.036                                                                    26600511.536 6 104386406.25306     -2337.297 6        40.141    26600511.443 6 107109516.18406     -2398.231 6        40.515
G16         3.000    20765542.153 8 109123867.51608       893.757 8        48.631                                    20765537.800 6  85031669.69606       696.435 6        38.910
G05         4.000    24060583.595 6 126439321.26106     -3192.396 6        40.462                                    24060580.757 5  98524171.08505     -2487.584 5        32.976    24060581.166 6  98524170.09506     -2487.726 6        36.870
S21         5.000    38413141.981 7 201862121.61907      -459.373 7        42.521
G26         6.000    20638337.265 8 108455434.82008     -1498.937 8        50.025                                    20638336.123 8  84510861.01308     -1168.002 8        50.825    20638336.603 7  84510848.01107     -1167.924 7        45.321
G10         7.000    24869834.534 6 130691886.83706      3193.533 6        39.408                                    24869835.063 5 101837839.91105      2488.460 5        33.329    24869835.276 6 101837833.91206      2488.479 6        37.554
E15         8.000    28758082.481 5 151124747.58905      2481.605 5        35.643                                                                    28758090.896 6 112852932.70206      1853.065 6        36.473    28758090.166 6 115796913.74906      1901.562 6        38.739
E36         9.000    23511203.118 8 123552399.69608     -1229.763 8        48.141                                                                    23511203.383 8  92263299.62208      -918.383 8        50.806    23511203.075 8  94670155.52708      -942.314 8        51.606
G27        10.000    22620485.525 7 118871582.94307      2522.187 7        43.534                                    22620484.187 6  92627272.91506      1965.339 6        40.818    22620484.659 6  92627274.91706      1965.341 6        40.131
G15        11.000    25097379.822 6 131887622.35906      2196.268 6        37.021                                    25097377.727 4 102769563.52204      1711.378 4        27.796    25097377.047 5 102769566.52105      1711.410 5        34.871
E19        12.000    28408117.507 4 149285669.92404      -642.293 4        27.820                                                                    28408119.327 5 111479557.15705      -479.692 5        32.162    28408118.897 5 114387716.37105      -492.711 5        33.725
C23        13.000                                                                                                                                    23984938.172 7 124895917.78407       638.572 7        46.441                                                                    23984930.286 7 101488155.52307       518.826 7        46.943
S36        14.000    38183576.006 7 200656581.37507      -458.716 7        44.176
C13        15.000                                                                                                                                    37638642.507 7 195994347.90507      -584.023 7        44.935    37638643.851 7 151555296.48607      -451.652 7        45.314    37638642.291 7 159261484.97507      -474.551 7        43.591
G18        16.000    20623025.959 8 108374966.98108     -1359.250 8        48.898                                    20623022.121 7  84448124.23107     -1059.155 7        42.330    20623022.321 8  84448132.23108     -1059.181 8        49.254
R10        17.000    20552383.716 7 109555802.27307      1450.619 7        46.986
E27        18.000    28666399.156 6 150642947.95306      2475.392 6        36.888                                                                    28666399.613 6 112493110.76106      1848.533 6        39.153    28666399.340 6 115427711.33306      1896.652 6        40.558
E02        19.000    23587745.714 8 123954630.43808     -1807.069 8        48.750                                                                    23587744.684 8  92563632.99108     -1349.412 8        50.810    23587744.177 8  94978321.47408     -1384.649 8        51.141
S27        20.000    39183161.440 5 205908913.80205      -434.577 5        35.633
R11        21.000    24444238.245 6 130622604.77206      3825.107 6        40.822                                                                    24444237.954 6 101595359.11506      2975.228 6        38.769
I06        22.000    38689387.353 7 151825683.89407      -318.632 7        42.178
S28        23.000    40887300.152 5 214864226.34805      -453.743 5        34.357
S23        25.000    38138677.544 7 200420029.57007      -461.149 7        45.226
S45        26.000    63395742.863 6 333147868.30906      -514.816 6        37.471
R09        27.000    19705651.697 8 105227290.46108     -2241.731 8        51.786                                                                    19705651.002 8  81843560.49908     -1743.650 8        48.730
R18        28.000    21889327.005 7 116847006.16407     -3770.690 7        46.120                                                                    21889327.298 7  90881156.34007     -2932.805 7        44.457
C38        29.000                                                                                                                                    38943174.621 7 202787450.77607     -1252.362 7        42.942                                                                    38943172.226 7 164781459.83907     -1017.806 7        42.500
C44        30.000                                                                                                                                    23605846.704 7 122922058.85507     -2878.762 7        46.302                                                                    23605844.955 7  99884326.90207     -2339.265 7        45.666
C43        31.000                                                                                                                                    23478606.567 7 122259362.17107      1789.726 7        46.501                                                                    23478606.075 7  99345786.49107      1454.308 7        46.068
R02        32.000    23286947.677 7 124263631.90307     -1660.630 7        44.187                                                                    23286947.873 6  96649498.04206     -1291.646 6        40.400
I02        33.000    38961784.195 6 152894466.82306      -952.964 6        40.596
R03        34.000    22623156.740 7 121103560.88307      1613.555 7        46.833                                                                    22623155.120 6  94191659.33606      1255.042 6        41.678
E34        35.000    24416744.404 7 128311059.40907      1470.870 7        47.737                                                                    24416744.703 8  95816809.54208      1098.379 8        49.705    24416744.515 8  98316367.44508      1127.047 8        50.190
G29        36.000    23082397.675 7 121299113.37507     -3287.825 7        43.759                                    23082393.526 6  94518899.28406     -2561.942 6        39.817    23082394.722 6  94518909.27906     -2561.894 6        39.739
G31        37.000    24363066.373 7 128028988.75907     -3765.807 7        42.036                                    24363063.176 5  99762942.94005     -2934.392 5        34.571    24363063.731 6  99762948.93206     -2934.315 6        37.698
C22        38.000                                                                                                                                    24827244.071 7 129281998.97707       439.857 7        43.932                                                                    24827237.871 7 105052197.47607       357.452 7        43.915
E25        39.000    27115390.312 6 142492546.20506     -3462.138 6        38.964                                                                    27115391.844 7 106406899.95207     -2585.556 7        43.433    27115391.153 7 109182716.57207     -2652.983 7        43.591
C12        40.000                                                                                                                                    22338224.519 7 116321207.18907     -1976.191 7        47.132    22338220.852 8  89947033.75608     -1528.167 8        51.510    22338220.070 8  94520583.13408     -1605.892 8        49.100
R04        41.000    24044669.822 6 128758125.50106      3488.247 6        37.308                                                                    24044670.330 5 100145210.81205      2713.002 5        35.995
S44        42.000    40479290.023 6 212720294.66806      -413.094 6        37.380
G28        43.000    25789562.174 4 135525142.81104     -3841.550 4        25.895                                                                                                    25789568.345 4                     -2993.325 4        29.640
C05        44.000                                                                                                                                    39292613.129 6 204606980.20106      -388.770 6        37.130    39292609.200 7 158215118.50507      -300.618 7        43.194    39292611.181 6 166260033.58506      -315.957 6        39.937
C11        45.000                                                                                                                                    22069339.559 8 114920986.27808       803.711 8        48.415    22069336.504 8  88864256.44808       621.473 8        52.120    22069335.408 8  93382754.26708       653.059 8        49.126
R16        46.000    22876301.666 7 122201287.65307     -5009.559 7        45.323                                                                    22876303.419 7  95045556.71107     -3896.412 7        42.218
G07        47.000    26227523.988 6 137826570.47906      1874.461 6        38.258                                    26227521.069 4 107397311.01304      1460.609 4        28.351    26227522.628 5 107397319.02005      1460.546 5        35.109
C21        48.000                                                                                                                                    25769645.802 6 134189326.99706      2431.469 6        41.557                                                                    25769641.713 7 109039804.91607      1975.704 7        42.470
C24        49.000                                                                                                                                    25629031.827 6 133457152.06306     -3923.282 6        41.066                                                                    25629030.570 7 108444886.98707     -3188.071 7        42.584
R19        50.000    19599627.052 6 104845057.95606     -1755.828 6        40.911                                                                    19599626.379 7  81546270.18907     -1365.728 7        45.076
S48        51.000    77144654.418 6 405398934.79206      -498.191 6        37.769
C08        52.000                                                                                                                                    37766336.153 7 196659326.66307      -854.022 7        42.442    37766329.895 7 152069496.19107      -660.357 7        46.326    37766329.051 7 159801830.42207      -693.945 7        42.573
C34        53.000                                                                                                                                    21334245.665 8 111093297.75508      -439.650 8        50.797                                                                    21334244.991 8  90272521.42308      -357.290 8        49.140
C60        54.000                                                                                                                                    40479292.208 6 210786493.17706      -409.351 6        40.262                                                                    40479276.639 6 171281259.96406      -332.614 6        40.515
C25        55.000                                                                                                                                    22871695.764 8 119099169.47508     -2424.478 8        49.083                                                                    22871693.882 7  96777924.64407     -1970.213 7        47.904
I09        56.000    39811780.940 6 156229990.67706       468.551 6        40.894
C02        57.000                                                                                                                                    40636510.562 5 211605009.59405      -372.181 5        34.400    40636503.490 6 163626407.86106      -287.821 6        39.198    40636507.183 5 171946405.07305      -302.661 5        35.076
I03        58.000    83430274.048 6 251613059.93006      1110.315 6        40.799
E30        59.000    24657622.341 7 129576897.41007      1069.438 7        46.803                                                                    24657622.323 8  96762087.89908       798.615 8        49.155    24657621.983 8  99286299.64408       819.430 8        50.187
R20        60.000    21273644.607 6 113759938.09806      2267.063 6        39.315                                                                    21273647.638 7  88480018.48907      1763.177 7        45.395
> 2025 01 02 18 15 30.0000000  0 59
G23         1.000    22207137.869 7 116699370.00407      2343.438 7        45.866                                    22207133.502 5  90934595.48805      1826.049 5        33.491    22207134.197 7  90934593.49207      1826.099 7        44.138
E11         2.000    26603492.999 6 139802496.25806     -3130.158 6        37.856                                                                    26603489.795 6 104398092.66606     -2337.472 6        40.112    26603489.459 6 107121507.45106     -2398.365 6        40.729
G16         3.000    20764693.179 8 109119405.05108       890.922 8        48.727                                    20764688.625 6  85028192.45306       694.225 6        38.787
G05         4.000    24063622.266 6 126455288.56606     -3194.738 6        41.018                                    24063619.229 5  98536613.14105     -2489.407 5        32.862    24063619.282 6  98536612.13706     -2489.371 6        36.344
S21         5.000    38413579.292 7 201864417.41007      -459.216 7        42.573
G26         6.000    20639764.985 8 108462936.25208     -1501.867 8        50.171                                    20639763.585 8  84516706.28708     -1170.285 8        50.706    20639763.780 7  84516693.28807     -1170.263 7        45.354
G10         7.000    24866795.719 6 130675918.17206      3193.855 6        39.574                                    24866796.323 5 101825396.83205      2488.714 5        33.293    24866796.013 6 101825390.86306      2488.523 6        37.524
E15         8.000    28755721.440 5 151112339.40105      2481.324 5        35.657                                                                    28755729.396 6 112843666.94306      1852.915 6        36.023    28755728.825 6 115787406.26406      1901.337 6        38.453
E36         9.000    23512373.540 8 123558551.97208     -1231.352 8        48.163                                                                    23512374.147 8  92267893.85208      -919.557 8        51.002    23512373.835 8  94674869.60408      -943.502 8        51.658
G27        10.000    22618086.152 7 118858973.39307      2521.360 7        43.810                                    22618084.661 6  92617447.30206      1964.694 6        40.667    22618085.122 6  92617449.30206      1964.797 6        40.193
G15        11.000    25095290.307 6 131876642.87206      2194.992 6        38.123                                    25095288.277 4 102761008.08204      1710.393 4        27.665    25095288.315 5 102761011.08805      1710.417 5        34.581
E19        12.000    28408730.349 4 149288889.31704      -644.999 4        29.735                                                                    28408731.772 5 111481961.25705      -481.820 5        32.527    28408731.420 5 114390183.16505      -494.353 5        34.262
C23        13.000                                                                                                                                    23984326.409 7 124892730.70707       636.090 7        46.421                                                                    23984318.277 7 101485565.74307       516.834 7        46.772
S36        14.000    38184013.420 7 200658874.62907      -458.708 7        44.239
C13        15.000                                                                                                                                    37639203.841 7 195997269.22407      -584.809 7        45.100    37639204.718 7 151557555.42907      -452.127 7        45.223    37639203.350 7 159263858.76607      -475.109 7        43.433
G18        16.000    20624320.248 8 108381768.45308     -1361.605 8        49.427                                    20624316.414 7  84453424.08107     -1060.990 7        42.171    20624316.684 8  84453432.07708     -1060.945 8        49.107
R10        17.000    20551024.773 7 109548558.29407      1446.783 7        47.277
E27        18.000    28664044.066 6 150630570.54506      2475.232 6        37.414                                                                    28664044.083 6 112483867.88006      1848.362 6        38.700    28664044.083 6 115418227.33206      1896.542 6        40.122
E02        19.000    23589466.003 8 123963669.73908     -1808.858 8        48.578                                                                    23589464.828 8  92570383.11908     -1350.746 8        50.934    23589464.279 8  94985247.69008     -1385.996 8        51.083
S27        20.000    39183575.745 5 205911086.13305      -434.203 5        35.995
R11        21.000    24440659.284 6 130603480.16806      3824.527 6        40.865                                                                    24440658.844 6 101580484.42006      2974.698 6        38.802
I06        22.000    38689793.264 7 151827276.40007      -318.480 7        42.275
S28        23.000    40887739.591 5 214866494.46405      -453.715 5        34.400
S23        25.000    38139115.701 7 200422334.41407      -460.992 7        45.196
S45        26.000    63396181.940 6 333150441.22106      -514.703 6        37.565
R09        27.000    19707752.785 8 105238508.91808     -2245.829 8        52.077                                                                    19707751.515 8  81852285.96808     -1746.767 8        48.345
R18        28.000    21892858.933 7 116865860.32607     -3771.271 7        46.343                                                                    21892859.469 7  90895820.68307     -2933.157 7        44.659
C38        29.000                                                                                                                                    38944377.280 7 202793713.64207     -1253.013 7        43.092                                                                    38944375.030 7 164786548.90507     -1018.139 7        42.495
C44        30.000                                                                                                                                    23608610.685 7 122936453.22007     -2879.281 7        45.794                                                                    23608609.220 7  99896023.47307     -2339.584 7        45.571
C43        31.000                                                                                                                                    23476888.199 7 122250414.92207      1788.937 7        46.482                                                                    23476887.773 7  99338516.09607      1453.739 7        45.968
R02        32.000    23288505.448 7 124271944.03507     -1664.488 7        43.994                                                                    23288506.372 6  96655963.02506     -1294.492 6        40.400
I02        33.000    38962998.204 6 152899230.77206      -952.870 6        40.644
R03        34.000    22621651.328 7 121095500.66107      1610.321 7        46.947                                                                    22621649.707 7  94185390.28107      1252.439 7        42.203
E34        35.000    24415345.548 7 128303707.79807      1469.493 7        47.613                                                                    24415345.772 8  95811319.70608      1097.340 8        49.846    24415345.536 8  98310734.39408      1126.043 8        50.140
G29        36.000    23085526.346 7 121315554.50507     -3288.772 7        44.150                                    23085522.258 6  94531710.55006     -2562.674 6        39.877    23085523.320 6  94531720.54406     -2562.791 6        39.886
G31        37.000    24366648.923 7 128047818.22507     -3766.212 7        42.559                                    24366646.560 5  99777615.24705     -2934.708 5        34.705    24366646.762 6  99777621.24106     -2934.671 6        37.641
C22        38.000                                                                                                                                    24826822.674 7 129279805.37607       437.279 7        44.131                                                                    24826816.545 7 105050414.98007       355.374 7        43.558
E25        39.000    27118684.940 6 142509858.39006     -3462.874 6        38.886                                                                    27118686.233 7 106419827.84907     -2585.814 7        43.627    27118685.504 7 109195981.72307     -2653.222 7        43.710
C12        40.000                                                                                                                                    22340121.841 7 116331090.37607     -1977.272 7        47.085    22340118.785 8  89954676.06808     -1528.996 8        51.443    22340118.019 8  94528614.02508     -1606.740 8        48.931
R04        41.000    24041413.615 6 128740685.90306      3487.843 6        38.210                                                                    24041412.157 5 100131646.69105      2712.694 5        35.295
S44        42.000    40479682.877 6 212722359.08806      -413.025 6        37.153
G28        43.000    25793218.725 4 135544347.65304     -3840.404 4        26.036                                                                                                    25793221.576 4                     -2992.657 4        28.171
C05        44.000                                                                                                                                    39292986.465 6 204608922.94106      -388.516 6        37.161    39292982.313 7 158216620.74807      -300.515 7        42.982    39292984.208 6 166261612.19106      -315.689 6        39.982
C11        45.000                                                                                                                                    22068568.392 8 114916970.11808       802.493 8        48.420    22068565.288 8  88861150.89908       620.541 8        52.080    22068564.134 8  93379490.79408       652.040 8        49.030
R16        46.000    22880991.497 7 122226336.85307     -5010.376 7        45.213                                                                    22880992.123 7  95065039.41307     -3896.967 7        42.127
G07        47.000    26225741.315 6 137817202.06006      1872.619 6        38.252                                    26225738.461 4 107390010.95004      1459.177 4        28.256    26225738.856 5 107390018.99305      1459.294 5        34.281
C21        48.000                                                                                                                                    25767311.289 6 134177170.89306      2430.699 6        41.251                                                                    25767307.196 7 109029927.05207      1975.229 7        42.529
C24        49.000                                                                                                                                    25632799.084 6 133476767.76706     -3923.161 6        40.944                                                                    25632797.543 7 108460826.33507     -3187.890 7        42.226
R19        50.000    19601269.607 6 104853842.45306     -1758.090 6        40.756                                                                    19601268.220 7  81553102.56407     -1367.405 7        44.957
S48        51.000    77145104.872 6 405401424.20406      -497.843 6        38.258
C08        52.000                                                                                                                                    37767156.411 7 196663598.13407      -854.934 7        42.445    37767150.185 7 152072799.16307      -660.948 7        46.234    37767149.375 7 159805301.33107      -694.583 7        42.472
C34        53.000                                                                                                                                    21334668.197 8 111095499.15508      -441.166 8        50.682                                                                    21334667.725 8  90274310.22108      -358.454 8        49.065
C60        54.000                                                                                                                                    40479685.192 6 210788538.83806      -409.230 6        40.262                                                                    40479669.574 6 171282922.20306      -332.408 6        40.367
C25        55.000                                                                                                                                    22874024.626 8 119111296.56108     -2426.587 8        49.129                                                                    22874022.746 7  96787778.87107     -1971.804 7        47.837
I09        56.000    39811183.668 6 156227646.89806       468.772 6        40.789
C02        57.000                                                                                                                                    40636868.363 5 211606869.75305      -372.207 5        34.352    40636860.902 6 163627846.24706      -287.586 6        39.132    40636864.466 5 171947916.60605      -302.586 5        35.067
I03        58.000    83428859.345 6 251607508.27206      1110.299 6        40.658
E30        59.000    24656605.475 7 129571553.58807      1067.906 7        46.623                                                                    24656605.402 8  96758097.38908       797.436 8        49.274    24656605.095 8  99282205.03108       818.291 8        50.192
R20        60.000    21271526.141 6 113748607.11606      2265.195 6        39.354                                                                    21271528.896 7  88471205.51407      1761.815 7        45.576
> 2025 01 02 18 15 35.0000000  0 59
G23         1.000    22204908.695 7 116687657.64307      2341.423 7        46.249                                    22204904.810 5  90925468.98505      1824.486 5        33.689    22204904.912 7  90925466.98807      1824.504 7        43.606
E11         2.000    26606471.288 6 139818148.37006     -3130.594 6        37.535                                                                    26606468.270 6 104409780.93606     -2337.754 6        40.157    26606468.042 6 107133500.63506     -2398.654 6        40.801
G16         3.000    20763846.814 8 109114957.70008       887.949 8        48.953                                    20763842.308 6  85024726.98606       691.908 6        38.748
G05         4.000    24066663.438 6 126471267.77106     -3196.985 6        41.056                                    24066659.820 5  98549064.46905     -2491.156 5        33.024    24066659.928 6  98549063.46206     -2491.249 6        36.605
S21         5.000    38414016.840 7 201866713.39307      -459.237 7        42.502
G26         6.000    20641195.149 8 108470453.13908     -1504.900 8        50.014                                    20641193.990 8  84522563.60008     -1172.653 8        50.683    20641194.195 7  84522550.61007     -1172.687 7        45.255
G10         7.000    24863756.617 6 130659949.62506      3193.647 6        39.652                                    24863757.618 5 101812953.84305      2488.550 5        33.240    24863757.291 6 101812947.86306      2488.626 6        37.807
E15         8.000    28753360.839 5 151099932.95605      2480.699 5        35.776                                                                    28753368.432 6 112834402.45006      1852.867 6        36.771    28753367.880 6 115777900.09706      1901.121 6        39.580
E36         9.000    23513545.924 7 123564713.11507     -1233.157 7        47.992                                                                    23513546.556 8  92272494.70908      -920.866 8        51.009    23513546.267 8  94679590.48908      -944.896 8        51.708
G27        10.000    22615686.852 7 118846368.77107      2520.395 7        44.039                                    22615686.078 6  92607625.53106      1963.943 6        40.675    22615686.723 6  92607627.52606      1964.003 6        39.769
G15        11.000    25093202.346 6 131865670.19806      2193.919 6        37.565                                    25093200.038 4 102752457.94804      1709.544 4        27.341    25093200.301 5 102752460.92905      1709.566 5        33.970
E19        12.000    28409344.620 4 149292120.58404      -648.005 4        26.970                                                                    28409346.832 5 111484374.11505      -483.574 5        31.540    28409346.095 5 114392658.96805      -495.910 5        32.886
C23        13.000                                                                                                                                    23983716.968 7 124889557.16507       633.307 7        46.506                                                                    23983708.799 7 101482987.00607       514.705 7        46.571
S36        14.000    38184448.782 7 200661168.18207      -458.621 7        44.099
C13        15.000                                                                                                                                    37639765.761 7 196000195.17307      -585.557 7        45.038    37639766.558 7 151559817.96407      -452.829 7        45.217    37639765.220 7 159266236.37007      -475.817 7        43.367
G18        16.000    20625616.936 8 108388582.68608     -1364.125 8        49.723                                    20625613.113 7  84458733.87307     -1062.952 7        42.226    20625613.271 8  84458741.87508     -1062.963 8        49.147
R10        17.000    20549669.393 7 109541334.37307      1442.705 7        47.157
E27        18.000    28661688.892 6 150618194.27406      2474.861 6        37.002                                                                    28661689.138 6 112474625.89406      1848.273 6        38.883    28661688.839 6 115408744.25106      1896.445 6        40.086
E02        19.000    23591187.956 8 123972718.92608     -1810.859 8        48.349                                                                    23591186.837 8  92577140.63008     -1352.275 8        50.989    23591186.306 8  94992181.48308     -1387.503 8        51.167
S27        20.000    39183989.880 5 205913257.27905      -434.039 5        35.757
R11        21.000    24437080.959 6 130584359.99006      3823.593 6        40.479                                                                    24437080.982 6 101565613.21506      2973.894 6        39.030
I06        22.000    38690198.863 7 151828868.89407      -318.560 7        42.368
S28        23.000    40888167.651 5 214868763.24705      -453.784 5        34.471
S23        25.000    38139554.058 7 200424639.41807      -461.050 7        45.192
S45        26.000    63396618.853 6 333153014.35606      -514.771 6        37.516
R09        27.000    19709857.968 8 105249748.68208     -2250.037 8        52.154                                                                    19709856.467 8  81861027.99808     -1750.005 8        48.598
R18        28.000    21896391.957 7 116884717.69407     -3771.777 7        46.983                                                                    21896391.569 7  90910487.51607     -2933.600 7        44.415
C38        29.000                                                                                                                                    38945581.043 7 202799980.07907     -1253.692 7        43.122                                                                    38945578.397 7 164791640.91907     -1018.761 7        42.385
C44        30.000                                                                                                                                    23611375.606 7 122950851.03807     -2879.884 7        45.982                                                                    23611374.106 7  99907722.89907     -2340.111 7        45.145
C43        31.000                                                                                                                                    23475171.206 7 122241472.89207      1787.922 7        46.487                                                                    23475170.566 7  99331249.99707      1452.863 7        45.818
R02        32.000    23290067.052 7 124280276.79907     -1668.615 7        43.293                                                                    23290067.470 6  96662444.05406     -1297.772 6        40.348
I02        33.000    38964212.286 6 152903995.13106      -952.869 6        40.877
R03        34.000    22620149.282 7 121087458.05807      1606.734 7        46.770                                                                    22620147.416 7  94179134.93507      1249.808 7        42.051
E34        35.000    24413948.075 7 128296364.00607      1468.000 7        47.512                                                                    24413948.305 8  95805835.71708      1096.185 8        49.880    24413948.015 8  98305107.34608      1124.792 8        50.235
G29        36.000    23088656.011 7 121332000.30307     -3289.622 7        44.444                                    23088651.871 6  94544525.45806     -2563.341 6        39.796    23088652.932 6  94544535.45906     -2563.350 6        39.850
G31        37.000    24370232.893 7 128066650.54807     -3766.689 7        42.857                                    24370230.364 5  99792289.76705     -2935.086 5        34.948    24370230.403 6  99792295.75706     -2935.027 6        37.312
C22        38.000                                                                                                                                    24826403.336 7 129277625.38207       434.574 7        43.765                                                                    24826397.958 7 105048643.57107       353.187 7        43.323
E25        39.000    27121979.891 6 142527173.66006     -3463.337 6        39.177                                                                    27121981.233 7 106432758.08907     -2586.303 7        43.617    27121980.613 7 109209249.28307     -2653.776 7        43.937
C12        40.000                                                                                                                                    22342021.460 7 116340979.74307     -1978.462 7        47.436    22342017.836 8  89962323.15408     -1529.884 8        51.267    22342017.151 8  94536649.96408     -1607.692 8        48.714
R04        41.000    24038156.666 6 128723248.93706      3487.157 6        38.616                                                                    24038156.011 5 100118084.57805      2712.128 5        34.948
S44        42.000    40480077.274 6 212724423.85206      -412.862 6        37.353
G28        43.000    25796871.727 3                     -3839.202 3        23.467                                                                                                    25796874.923 4                     -2992.251 4        26.587
C05        44.000                                                                                                                                    39293359.452 6 204610865.87606      -388.626 6        36.915    39293355.197 7 158218123.14807      -300.509 7        42.991    39293357.504 6 166263191.01006      -315.780 6        39.769
C11        45.000                                                                                                                                    22067798.687 8 114912961.39708       800.993 8        48.443    22067795.659 8  88858051.10508       619.343 8        52.199    22067794.244 8  93376233.39208       650.915 8        48.820
R16        46.000    22885681.314 7 122251390.74407     -5011.262 7        44.719                                                                    22885682.832 7  95084525.75707     -3897.653 7        42.089
G07        47.000    26223961.300 6 137807842.95506      1870.896 6        37.694                                    26223957.651 4 107382718.18704      1457.826 4        27.892    26223957.774 5 107382726.21505      1457.879 5        34.243
C21        48.000                                                                                                                                    25764977.974 6 134165019.20906      2429.801 6        41.349                                                                    25764973.579 7 109020052.84207      1974.588 7        42.406
C24        49.000                                                                                                                                    25636566.472 6 133496384.06906     -3923.214 6        40.713                                                                    25636564.588 6 108476766.18606     -3187.942 6        41.993
R19        50.000    19602914.245 6 104862638.90506     -1760.458 6        40.949                                                                    19602913.308 7  81559944.24807     -1369.220 7        45.121
S48        51.000    77145548.586 6 405403913.22306      -497.964 6        37.958
C08        52.000                                                                                                                                    37767977.295 7 196667874.33407      -855.748 7        42.214    37767971.284 7 152076105.80107      -661.706 7        46.330    37767970.423 7 159808776.10807      -695.276 7        42.263
C34        53.000                                                                                                                                    21335092.437 8 111097708.74608      -442.761 8        50.604                                                                    21335092.098 8  90276105.71308      -359.707 8        48.904
C60        54.000                                                                                                                                    40480078.051 6 210790584.83006      -409.200 6        40.224                                                                    40480062.455 6 171284584.75706      -332.402 6        40.281
C25        55.000                                                                                                                                    22876355.912 8 119123435.06608     -2428.866 8        49.234                                                                    22876353.823 7  96797642.42807     -1973.594 7        47.547
I09        56.000    39810586.469 6 156225303.19406       468.695 6        40.880
C02        57.000                                                                                                                                    40637224.841 5 211608730.19705      -372.014 5        34.519    40637218.234 6 163629284.87306      -287.737 6        38.754    40637221.596 5 171949428.37805      -302.337 5        34.733
I03        58.000    83427444.495 6 251601956.80406      1110.271 6        40.703
E30        59.000    24655589.994 7 129566218.28507      1066.256 7        46.748                                                                    24655590.133 8  96754113.23308       796.180 8        49.319    24655589.827 8  99278116.94508       816.960 8        50.267
R20        60.000    21269409.443 6 113737285.93106      2263.304 6        40.105                                                                    21269411.939 7  88462400.14607      1760.299 7        45.309
> 2025 01 02 18 15 40.0000000  0 59
G23         1.000    22202681.728 7 116675955.52807      2339.418 7        46.752                                    22202678.027 5  90916350.45705      1822.930 5        34.029    22202678.077 7  90916348.46107      1822.885 7        43.638
E11         2.000    26609450.385 6 139833802.84406     -3131.094 6        37.452                                                                    26609447.178 6 104421470.96306     -2338.076 6        40.117    26609446.992 6 107145495.61206     -2399.033 6        40.889
G16         3.000    20763003.364 8 109110525.30708       885.034 8        48.770                                    20762998.866 6  85021273.17506       689.638 6        38.703
G05         4.000    24069706.130 6 126487258.73606     -3199.390 6        40.992                                    24069702.715 5  98561524.95805     -2493.032 5        33.054    24069702.626 6  98561523.97106     -2493.151 6        36.336
S21         5.000    38414452.725 7 201869009.38907      -459.191 7        42.370
G26         6.000    20642628.452 8 108477985.33208     -1507.917 8        50.060                                    20642627.302 8  84528432.84208     -1175.001 8        50.624    20642627.677 7  84528419.84807     -1175.125 7        45.196
G10         7.000    24860718.079 6 130643981.02206      3193.838 6        39.444                                    24860718.896 5 101800510.81205      2488.700 5        33.162    24860718.721 6 101800504.82906      2488.600 6        37.815
E15         8.000    28751000.068 6 151087528.04206      2480.766 6        36.026                                                                    28751007.892 6 112825139.16506      1852.590 6        37.357    28751007.245 6 115768395.14306      1900.940 6        40.076
E36         9.000    23514720.181 8 123570882.97608     -1234.779 8        48.181                                                                    23514720.617 8  92277102.06908      -922.072 8        50.874    23514720.336 8  94684318.04208      -946.148 8        51.722
G27        10.000    22613289.336 7 118833768.92707      2519.453 7        44.006                                    22613288.381 6  92597807.48006      1963.206 6        40.644    22613288.945 6  92597809.49406      1963.294 6        39.829
G15        11.000    25091115.764 6 131854704.27206      2192.338 6        36.926                                    25091113.083 4 102743913.07204      1708.316 4        27.102    25091112.961 5 102743916.05405      1708.580 5        33.641
E19        12.000    28409961.807 4 149295363.35804      -649.426 4        27.760                                                                    28409964.245 5 111486795.57905      -485.634 5        32.269    28409963.093 5 114395143.60405      -497.811 5        34.157
C23        13.000                                                                                                                                    23983110.014 7 124886396.96107       630.733 7        46.521                                                                    23983101.937 7 101480419.07507       512.628 7        46.567
S36        14.000    38184886.554 7 200663461.75407      -458.789 7        44.012
C13        15.000                                                                                                                                    37640328.126 7 196003125.63307      -586.632 7        45.261    37640329.453 7 151562083.98207      -453.484 7        45.344    37640328.024 7 159268617.59307      -476.534 7        43.293
G18        16.000    20626916.128 8 108395409.51608     -1366.643 8        49.421                                    20626912.209 7  84464053.48407     -1064.917 7        42.140    20626912.628 8  84464061.47508     -1064.870 8        49.066
R10        17.000    20548318.128 7 109534130.44007      1438.738 7        46.942
E27        18.000    28659333.553 6 150605818.81406      2475.035 6        36.919                                                                    28659334.019 6 112465384.48206      1848.340 6        38.408    28659333.608 6 115399261.74806      1896.421 6        39.634
E02        19.000    23592911.937 8 123981777.85308     -1812.706 8        48.475                                                                    23592910.692 8  92583905.41108     -1353.632 8        50.855    23592910.157 8  94999122.73908     -1388.954 8        51.150
S27        20.000    39184403.849 5 205915428.14305      -434.189 5        35.667
R11        21.000    24433503.592 6 130565244.01706      3822.800 6        41.049                                                                    24433503.823 6 101550745.23906      2973.280 6        38.874
I06        22.000    38690604.915 7 151830461.21707      -318.373 7        42.383
S28        23.000    40888598.384 5 214871031.82305      -453.802 5        34.433
S23        25.000    38139993.248 7 200426944.52307      -460.960 7        45.070
S45        26.000    63397057.032 6 333153987.49216      -514.511 6        37.456
R09        27.000    19711966.403 8 105261009.41208     -2254.274 8        52.053                                                                    19711965.525 8  81869786.34508     -1753.366 8        48.902
R18        28.000    21899924.899 7 116903578.14407     -3772.280 7        46.192                                                                    21899925.155 7  90925156.76607     -2934.114 7        44.126
C38        29.000                                                                                                                                    38946784.914 7 202806249.93907     -1254.374 7        43.350                                                                    38946782.631 7 164796735.68407     -1019.095 7        42.391
C44        30.000                                                                                                                                    23614141.444 7 122965252.16807     -2880.510 7        46.329                                                                    23614139.755 7  99919424.98907     -2340.615 7        45.139
C43        31.000                                                                                                                                    23473454.850 7 122232535.93507      1786.923 7        46.773                                                                    23473454.308 7  99323987.97707      1452.130 7        45.859
R02        32.000    23291632.395 7 124288630.13907     -1672.694 7        44.248                                                                    23291631.930 6  96668941.07606     -1300.975 6        39.508
I02        33.000    38965426.005 6 152908760.28706      -953.019 6        40.849
R03        34.000    22618649.554 7 121079433.00907      1603.280 7        46.276                                                                    22618648.032 7  94172893.22907      1247.116 7        42.281
E34        35.000    24412551.996 7 128289027.89607      1466.448 7        47.761                                                                    24412552.318 8  95800357.45408      1095.097 8        49.743    24412552.003 8  98299486.17108      1123.640 8        50.306
G29        36.000    23091786.284 7 121348450.65307     -3290.528 7        44.372                                    23091782.315 6  94557343.90606     -2564.051 6        39.565    23091783.188 6  94557353.91006     -2563.929 6        39.664
G31        37.000    24373816.958 7 128085485.50807     -3767.258 7        42.665                                    24373814.616 5  99806966.35205     -2935.523 5        35.014    24373814.704 6  99806972.34206     -2935.340 6        37.221
C22        38.000                                                                                                                                    24825987.623 7 129275458.84607       431.964 7        43.930                                                                    24825981.966 7 105046883.06907       351.099 7        43.295
E25        39.000    27125275.233 6 142544491.92706     -3463.809 6        39.078                                                                    27125276.709 7 106445690.54907     -2586.625 7        43.361    27125276.400 7 109222519.11407     -2654.174 7        44.211
C12        40.000                                                                                                                                    22343922.328 7 116350875.13207     -1979.673 7        47.554    22343918.075 8  89969974.89208     -1530.776 8        51.138    22343917.516 8  94544690.76508     -1608.533 8        48.766
R04        41.000    24034901.316 6 128705814.14006      3486.649 6        39.634                                                                    24034901.132 5 100104524.17305      2712.079 5        35.143
S44        42.000    40480467.298 6 212726488.82706      -413.165 6        37.013
G28        43.000    25800525.588 4                     -3839.701 4        24.045                                                                                                    25800528.525 4                     -2991.413 4        26.335
C05        44.000                                                                                                                                    39293732.492 6 204612808.84106      -388.662 6        37.233    39293728.488 7 158219625.57607      -300.405 7        42.993    39293730.459 6 166264769.81806      -315.660 6        39.832
C11        45.000                                                                                                                                    22067030.360 8 114908959.95008       799.580 8        48.472    22067027.312 8  88854956.93608       618.328 8        52.240    22067025.829 8  93372981.87908       649.809 8        48.866
R16        46.000    22890372.287 7 122276449.17507     -5012.076 7        44.668                                                                    22890374.190 7  95104015.66107     -3898.418 7        42.201
G07        47.000    26222181.328 6 137798492.70206      1869.284 6        38.309                                    26222178.320 4 107375432.29004      1456.587 4        27.437    26222177.943 5 107375440.26505      1456.794 5        33.808
C21        48.000                                                                                                                                    25762645.703 6 134152871.83606      2428.963 6        41.480                                                                    25762640.870 7 109010182.10107      1973.881 7        42.561
C24        49.000                                                                                                                                    25640333.728 6 133516000.78706     -3923.323 6        40.763                                                                    25640331.745 7 108492706.35207     -3187.896 7        42.042
R19        50.000    19604560.997 6 104871447.14506     -1762.749 6        40.899                                                                    19604559.587 7  81566795.09807     -1371.008 7        45.079
S48        51.000    77145999.710 6 405406402.25606      -498.083 6        37.607
C08        52.000                                                                                                                                    37768798.770 7 196672155.24907      -856.618 7        42.341    37768793.523 7 152079416.06007      -662.390 7        46.283    37768792.547 7 159812254.68707      -696.027 7        42.235
C34        53.000                                                                                                                                    21335518.361 8 111099926.37808      -444.282 8        50.817                                                                    21335517.984 8  90277907.71108      -360.921 8        48.934
C60        54.000                                                                                                                                    40480470.999 6 210792631.00306      -409.117 6        40.355                                                                    40480455.404 6 171286247.43506      -332.416 6        40.169
C25        55.000                                                                                                                                    22878688.890 8 119135584.85808     -2431.067 8        49.040                                                                    22878687.135 7  96807515.10907     -1975.360 7        47.589
I09        56.000    39809989.073 6 156222959.41006       468.788 6        40.872
C02        57.000                                                                                                                                    40637582.535 5 211610590.73105      -371.961 5        34.386    40637575.137 6 163630723.55906      -287.736 6        38.826    40637578.915 5 171950940.21305      -302.242 5        34.733
I03        58.000    83426030.023 6 251596405.43906      1110.251 6        40.772
E30        59.000    24654576.479 7 129560891.36107      1064.545 7        46.607                                                                    24654576.427 8  96750135.33708       794.965 8        49.162    24654576.120 8  99274035.27608       815.752 8        50.266
R20        60.000    21267294.515 6 113725974.25606      2261.274 6        39.532                                                                    21267295.731 7  88453602.17007      1758.877 7        45.672
> 2025 01 02 18 15 45.0000000  0 59
G23         1.000    22200456.810 7 116664263.83007      2337.466 7        46.214                                    22200453.243 5  90907240.05305      1821.397 5        34.105    22200453.598 7  90907238.05907      1821.334 7        44.050
E11         2.000    26612430.074 6 139849459.81606     -3131.537 6        37.414                                                                    26612426.441 6 104433162.85806     -2338.510 6        40.217    26612426.167 6 107157492.52706     -2399.554 6        40.751
G16         3.000    20762162.754 8 109106108.04708       882.034 8        48.840                                    20762158.282 6  85017831.15406       687.299 6        38.733
G05         4.000    24072751.550 6 126503261.59906     -3201.646 6        40.887                                    24072747.993 5  98573994.71405     -2494.791 5        33.168    24072748.414 6  98573993.71606     -2494.808 6        37.062
S21         5.000    38414890.072 7 201871305.77007      -459.211 7        42.464
G26         6.000    20644064.974 8 108485533.00308     -1510.973 8        50.153                                    20644063.574 8  84534314.14608     -1177.383 8        50.614    20644063.955 7  84534301.15007     -1177.398 7        45.430
G10         7.000    24857679.508 6 130628012.56206      3193.779 6        39.261                                    24857680.173 5 101788067.88605      2488.650 5        33.216    24857679.971 6 101788061.90206      2488.670 6        38.144
E15         8.000    28748639.607 5 151075124.89905      2480.668 5        35.957                                                                    28748647.420 6 112815877.19106      1852.365 6        36.692    28748646.884 6 115758891.53606      1900.655 6        38.565
E36         9.000    23515895.867 8 123577061.74608     -1236.569 8        48.316                                                                    23515896.435 8  92281716.07908      -923.339 8        51.031    23515896.131 8  94689052.41708      -947.460 8        51.710
G27        10.000    22610892.690 7 118821174.02807      2518.622 7        43.490                                    22610891.613 6  92587993.28506      1962.562 6        40.634    22610892.134 6  92587995.28206      1962.656 6        40.234
G15        11.000    25089030.154 6 131843745.18706      2191.347 6        36.730                                    25089027.585 4 102735373.52104      1707.544 4        26.707    25089028.752 5 102735376.55405      1707.258 5        34.224
E19        12.000    28410581.684 4 149298618.15204      -652.671 4        28.701                                                                    28410583.957 5 111489225.85705      -486.915 5        31.706    28410583.149 5 114397637.32205      -499.544 5        33.509
C23        13.000                                                                                                                                    23982505.774 7 124883250.32007       628.022 7        46.571                                                                    23982497.657 7 101477862.17107       510.224 7        46.616
S36        14.000    38185323.118 7 200665755.30107      -458.586 7        44.038
C13        15.000                                                                                                                                    37640891.835 7 196006060.71007      -587.334 7        45.226    37640893.299 7 151564353.57907      -454.217 7        45.564    37640891.674 7 159271002.59407      -477.328 7        43.266
G18        16.000    20628217.410 8 108402249.12108     -1369.121 8        49.227                                    20628213.719 7  84469383.04207     -1066.845 7        42.123    20628213.982 8  84469391.04308     -1066.841 8        49.236
R10        17.000    20546970.255 7 109526946.61707      1434.876 7        47.044
E27        18.000    28656979.118 6 150593444.50806      2474.726 6        36.166                                                                    28656979.648 6 112456143.97606      1848.060 6        39.099    28656978.854 6 115389780.18606      1896.379 6        39.925
E02        19.000    23594637.701 8 123990846.68608     -1814.621 8        48.745                                                                    23594636.479 8  92590677.59108     -1355.075 8        50.977    23594635.879 8  95006071.58808     -1390.450 8        51.170
S27        20.000    39184819.075 5 205917600.30105      -434.539 5        35.276
R11        21.000    24429926.908 6 130546132.46906      3821.868 6        41.461                                                                    24429927.502 6 101535880.76506      2972.563 6        39.297
I06        22.000    38691010.410 7 151832053.53307      -318.338 7        42.190
S28        23.000    40889029.498 5 214873300.55605      -453.960 5        34.281
S23        25.000    38140430.671 7 200429249.90107      -461.002 7        45.114
S45        26.000    63397491.853 6 333156560.88606      -514.529 6        37.493
R09        27.000    19714079.562 8 105272291.46308     -2258.468 8        51.993                                                                    19714078.085 8  81878561.27508     -1756.580 8        48.935
R18        28.000    21903457.610 7 116922441.78007     -3772.959 7        45.947                                                                    21903458.978 7  90939828.47307     -2934.557 7        43.968
C38        29.000                                                                                                                                    38947989.709 7 202812523.40607     -1254.942 7        43.196                                                                    38947987.183 7 164801833.40007     -1019.811 7        42.421
C44        30.000                                                                                                                                    23616907.540 7 122979656.78807     -2881.256 7        46.561                                                                    23616906.010 7  99931129.92307     -2341.323 7        45.287
C43        31.000                                                                                                                                    23471739.358 7 122223604.22007      1785.888 7        46.501                                                                    23471739.049 7  99316730.23107      1451.170 7        45.797
R02        32.000    23293201.357 7 124297004.04707     -1676.715 7        43.782                                                                    23293201.746 6  96675454.11406     -1304.237 6        39.462
I02        33.000    38966640.588 6 152913526.11506      -953.201 6        40.903
R03        34.000    22617152.906 7 121071425.82607      1599.683 7        46.891                                                                    22617152.125 7  94166665.43607      1244.244 7        42.510
E34        35.000    24411157.508 7 128281699.64107      1464.922 7        47.995                                                                    24411157.718 8  95794885.06308      1093.935 8        49.849    24411157.475 8  98293871.02608      1122.452 8        50.264
G29        36.000    23094917.458 7 121364905.72007     -3291.397 7        43.678                                    23094913.600 6  94570166.03706     -2564.725 6        39.351    23094914.193 6  94570176.02106     -2564.617 6        39.544
G31        37.000    24377401.818 7 128104323.28307     -3767.754 7        42.514                                    24377399.444 5  99821645.12905     -2935.911 5        34.838    24377400.170 6  99821651.12206     -2935.916 6        38.006
C22        38.000                                                                                                                                    24825574.618 7 129273305.95107       429.321 7        44.012                                                                    24825568.498 7 105045133.67407       348.795 7        43.281
E25        39.000    27128571.336 6 142561813.33706     -3464.537 6        39.186                                                                    27128572.765 7 106458625.36907     -2587.202 7        43.433    27128572.748 7 109235791.36507     -2654.725 7        44.439
C12        40.000                                                                                                                                    22345823.706 7 116360776.69607     -1980.871 7        47.460    22345819.748 8  89977631.41008     -1531.725 8        51.273    22345818.964 8  94552736.59708     -1609.620 8        48.802
R04        41.000    24031646.896 6 128688381.95306      3486.176 6        40.169                                                                    24031644.956 5 100090965.82105      2711.448 5        34.805
S44        42.000    40480861.127 6 212728554.13006      -412.997 6        37.142
G28        43.000    25804178.287 4                     -3838.475 4        25.474                                                                                                    25804182.833 4                     -2991.062 4        27.737
C05        44.000                                                                                                                                    39294105.520 6 204614752.03606      -388.599 6        37.077    39294101.743 7 158221128.18607      -300.419 7        43.088    39294103.603 6 166266348.82906      -315.830 6        39.895
C11        45.000                                                                                                                                    22066263.058 8 114904965.98108       798.094 8        48.436    22066260.302 8  88851868.54508       617.177 8        52.349    22066258.861 8  93369736.45808       648.540 8        48.876
R16        46.000    22895064.235 7 122301512.23707     -5013.072 7        44.775                                                                    22895065.878 7  95123509.12907     -3898.924 7        42.392
G07        47.000    26220403.791 6 137789151.63706      1867.349 6        36.620                                    26220400.739 4 107368153.54004      1455.068 4        26.599    26220401.289 5 107368161.54305      1455.203 5        33.257
C21        48.000                                                                                                                                    25760313.759 6 134140728.95906      2428.184 6        41.909                                                                    25760309.150 7 109000315.02607      1973.022 7        42.845
C24        49.000                                                                                                                                    25644101.236 6 133535618.09306     -3923.404 6        40.620                                                                    25644099.016 7 108508647.01807     -3188.206 7        42.008
R19        50.000    19606209.940 6 104880267.32706     -1765.223 6        41.230                                                                    19606208.500 7  81573655.24307     -1372.908 7        45.279
S48        51.000    77146443.631 6 405408891.72006      -497.908 6        37.758
C08        52.000                                                                                                                                    37769621.800 7 196676440.97007      -857.582 7        42.246    37769616.315 7 152082730.07007      -663.128 7        46.307    37769615.574 7 159815737.20007      -696.840 7        42.368
C34        53.000                                                                                                                                    21335945.966 8 111102152.23308      -445.908 8        50.865                                                                    21335945.412 8  90279716.40008      -362.354 8        48.932
C60        54.000                                                                                                                                    40480864.086 6 210794677.54706      -409.172 6        40.281                                                                    40480848.424 6 171287910.43106      -332.503 6        40.141
C25        55.000                                                                                                                                    22881024.441 8 119147746.08608     -2433.288 8        49.088                                                                    22881022.592 7  96817397.10607     -1977.361 7        47.632
I09        56.000    39809391.748 6 156220615.71206       468.868 6        40.815
C02        57.000                                                                                                                                    40637939.523 5 211612451.63105      -372.142 5        34.476    40637932.348 6 163632162.49706      -287.657 6        38.883    40637936.372 5 171952452.33205      -302.471 5        34.862
I03        58.000    83424615.385 6 251590854.28506      1110.307 6        40.620
E30        59.000    24653564.751 7 129555573.00907      1062.925 7        46.697                                                                    24653564.454 8  96746163.84008       793.718 8        49.298    24653564.070 8  99269960.17808       814.421 8        50.261
R20        60.000    21265180.775 6 113714672.27306      2259.620 6        39.523                                                                    21265182.686 7  88444811.76507      1757.393 7        45.655
> 2025 01 02 18 15 50.0000000  0 59
G23         1.000    22198233.495 7 116652582.60407      2335.459 7        46.094                                    22198230.430 5  90898137.79605      1819.834 5        33.952    22198230.736 7  90898135.80707      1819.807 7        44.054
E11         2.000    26615410.078 6 139865119.33706     -3132.014 6        37.331                                                                    26615406.471 6 104444856.65506     -2338.936 6        39.796    26615405.888 6 107169491.37206     -2399.773 6        40.653
G16         3.000    20761325.277 8 109101706.07408       879.115 8        48.704                                    20761320.590 6  85014401.04806       685.020 6        38.634
G05         4.000    24075799.178 6 126519276.39806     -3203.871 6        40.434                                    24075795.542 5  98586473.78105     -2496.522 5        33.150    24075796.147 6  98586472.79106     -2496.624 6        37.104
S21         5.000    38415327.522 7 201873602.68207      -459.199 7        42.557
G26         6.000    20645504.195 8 108493096.18008     -1513.927 8        49.910                                    20645502.801 8  84540207.53108     -1179.685 8        50.584    20645502.815 7  84540194.53707     -1179.702 7        45.317
G10         7.000    24854641.095 6 130612044.27606      3193.776 6        39.036                                    24854641.532 5 101775625.10405      2488.649 5        33.060    24854641.640 6 101775619.13206      2488.561 6        37.958
E15         8.000    28746280.050 5 151062723.53305      2480.533 5        35.024                                                                    28746287.357 5 112806616.53105      1852.039 5        35.643    28746286.968 6 115749389.28706      1900.550 6        38.577
E36         9.000    23517073.559 8 123583249.40408     -1238.160 8        48.366                                                                    23517073.906 8  92286336.73908      -924.574 8        50.877    23517073.637 8  94693793.61408      -948.753 8        51.632
G27        10.000    22608496.535 7 118808584.12307      2517.744 7        43.464                                    22608495.803 6  92578182.97006      1961.877 6        40.608    22608496.387 6  92578184.97906      1961.856 6        40.787
G15        11.000    25086946.675 6 131832793.03506      2189.981 6        36.726                                    25086943.554 4 102726839.38004      1706.469 4        26.862    25086943.733 5 102726842.39905      1706.581 5        34.405
E19        12.000    28411203.662 4 149301885.34104      -654.093 4        28.967                                                                    28411205.707 5 111491665.75705      -488.670 5        31.751    28411204.981 5 114400140.87405      -501.684 5        33.042
C23        13.000                                                                                                                                    23981904.155 7 124880117.23607       625.434 7        46.595                                                                    23981895.968 7 101475316.28207       508.218 7        46.870
S36        14.000    38185758.051 7 200668049.00607      -458.837 7        44.001
C13        15.000                                                                                                                                    37641456.283 7 196009000.55507      -588.168 7        45.311    37641457.786 7 151566626.85607      -454.857 7        45.726    37641456.189 7 159273391.44607      -477.958 7        43.543
G18        16.000    20629521.561 8 108409101.50808     -1371.483 8        48.919                                    20629517.702 7  84474722.56407     -1068.690 7        42.119    20629518.117 8  84474730.57308     -1068.769 8        49.231
R10        17.000    20545626.804 7 109519783.05407      1430.887 7        46.965
E27        18.000    28654624.492 6 150581071.31706      2474.670 6        36.370                                                                    28654625.149 6 112446904.26106      1848.031 6        39.441    28654624.419 6 115380299.44306      1896.115 6        40.317
E02        19.000    23596365.303 8 123999925.45608     -1816.426 8        48.773                                                                    23596364.120 8  92597457.20008     -1356.466 8        50.853    23596363.502 8  95013028.05308     -1391.904 8        51.135
S27        20.000    39185230.804 5 205919772.92905      -434.171 5        35.667
R11        21.000    24426351.053 6 130527025.42506      3821.190 6        41.719                                                                    24426351.638 6 101521019.76406      2972.018 6        38.544
I06        22.000    38691416.108 7 151833645.85807      -318.286 7        42.250
S28        23.000    40889463.867 5 214875569.67505      -453.490 5        34.052
S23        25.000    38140870.164 7 200431555.37607      -460.960 7        45.079
S45        26.000    63397933.877 6 333159134.41406      -514.444 6        37.331
R09        27.000    19716195.594 8 105283594.71208     -2262.552 8        51.836                                                                    19716194.730 8  81887352.69008     -1759.771 8        48.952
R18        28.000    21906992.614 7 116941308.62007     -3773.397 7        46.347                                                                    21906993.245 7  90954502.67607     -2934.933 7        43.488
C38        29.000                                                                                                                                    38949194.964 7 202818800.47707     -1255.567 7        43.134                                                                    38949192.623 7 164806934.02707     -1020.302 7        42.627
C44        30.000                                                                                                                                    23619674.480 7 122994064.90607     -2881.759 7        46.548                                                                    23619673.019 7  99942837.68807     -2341.623 7        45.353
C43        31.000                                                                                                                                    23470025.095 7 122214677.77807      1784.933 7        46.427                                                                    23470024.824 7  99309476.75807      1450.404 7        46.053
R02        32.000    23294774.554 7 124305398.85607     -1680.849 7        44.150                                                                    23294775.686 6  96681983.41906     -1307.209 6        40.200
I02        33.000    38967855.506 6 152918292.77006      -953.366 6        40.598
R03        34.000    22615661.050 7 121063436.39507      1596.373 7        46.744                                                                    22615659.572 7  94160451.42707      1241.645 7        42.506
E34        35.000    24409764.342 7 128274379.26507      1463.512 7        47.998                                                                    24409764.727 8  95789418.55308      1092.863 8        49.677    24409764.428 8  98288261.90308      1121.392 8        50.188
G29        36.000    23098049.239 7 121381365.51607     -3292.250 7        43.416                                    23098045.833 6  94582991.84906     -2565.394 6        39.246    23098046.524 6  94583001.84406     -2565.323 6        39.706
G31        37.000    24380987.223 7 128123163.86807     -3768.124 7        42.017                                    24380984.759 5  99836326.09105     -2936.200 5        34.648    24380985.156 6  99836332.09006     -2936.147 6        38.348
C22        38.000                                                                                                                                    24825163.707 7 129271166.72707       426.616 7        43.865                                                                    24825157.666 7 105043395.37007       346.730 7        43.608
E25        39.000    27131868.137 6 142579137.93406     -3465.122 6        39.417                                                                    27131869.504 7 106471562.54107     -2587.520 7        43.191    27131869.602 7 109249066.02707     -2654.970 7        44.513
C12        40.000                                                                                                                                    22347726.379 7 116370684.50307     -1981.960 7        47.433    22347722.549 8  89985292.75208     -1532.548 8        51.602    22347721.674 8  94560787.49108     -1610.475 8        48.942
R04        41.000    24028391.592 6 128670952.26206      3485.970 6        40.403                                                                    24028390.434 6 100077409.43406      2711.031 6        36.095
S44        42.000    40481253.320 6 212730619.86706      -413.043 6        36.994
G28        43.000    25807830.668 4                     -3837.878 4        25.083                                                                                                    25807836.399 4                     -2990.581 4        28.711
C05        44.000                                                                                                                                    39294478.542 6 204616695.48506      -388.383 6        37.180    39294474.726 7 158222630.99007      -300.489 7        43.071    39294476.863 6 166267928.03906      -315.683 6        39.991
C11        45.000                                                                                                                                    22065497.521 8 114900979.48308       796.768 8        48.504    22065494.571 8  88848785.93508       616.132 8        52.384    22065493.217 8  93366497.08908       647.430 8        49.111
R16        46.000    22899757.025 7 122326580.02907     -5013.814 7        45.020                                                                    22899758.676 7  95143006.28307     -3899.658 7        42.444
G07        47.000    26218627.839 5 137779819.73405      1865.713 5        34.867                                    26218625.075 4 107360881.91904      1453.817 4        24.977    26218624.790 5 107360889.90805      1453.598 5        33.144
C21        48.000                                                                                                                                    25757982.165 6 134128590.60406      2427.348 6        41.778                                                                    25757978.135 7 108990451.61107      1972.531 7        43.236
C24        49.000                                                                                                                                    25647868.561 6 133555235.98206     -3923.330 6        40.486                                                                    25647866.412 7 108524588.13607     -3188.115 7        42.136
R19        50.000    19607860.755 6 104889099.39506     -1767.424 6        40.901                                                                    19607859.546 7  81580524.63207     -1374.530 7        45.025
S48        51.000    77146888.544 6 405409781.52016      -497.739 6        37.792
C08        52.000                                                                                                                                    37770446.000 7 196680731.54707      -858.376 7        42.383    37770440.311 7 152086047.80907      -663.778 7        46.277    37770439.519 7 159819223.63007      -697.550 7        42.409
C34        53.000                                                                                                                                    21336374.971 8 111104386.31708      -447.397 8        50.865                                                                    21336374.453 8  90281531.77308      -363.565 8        49.130
C60        54.000                                                                                                                                    40481257.159 6 210796724.49806      -409.162 6        40.203                                                                    40481241.502 6 171289573.73506      -332.511 6        40.398
C25        55.000                                                                                                                                    22883361.993 8 119159918.78308     -2435.491 8        48.977                                                                    22883360.216 7  96827288.40107     -1979.033 7        47.834
I09        56.000    39808794.565 6 156218272.13106       468.794 6        40.868
C02        57.000                                                                                                                                    40638296.926 5 211614312.81805      -372.031 5        34.429    40638289.854 6 163633601.70506      -287.627 6        38.775    40638293.865 5 171953964.71905      -302.735 5        35.024
I03        58.000    83423200.991 6 251585303.37706      1110.371 6        40.434
E30        59.000    24652554.437 7 129550263.23007      1061.273 7        46.662                                                                    24652554.019 8  96742198.75108       792.574 8        49.221    24652553.672 8  99265891.64708       813.218 8        50.204
R20        60.000    21263068.511 6 113703380.19806      2257.692 6        39.045                                                                    21263070.778 7  88436029.04207      1755.940 7        45.857
> 2025 01 02 18 15 55.0000000  0 59
G23         1.000    22196012.956 7 116640911.49307      2333.234 7        46.195                                    22196009.452 5  90889043.42605      1818.105 5        33.778    22196009.555 7  90889041.43607      1818.116 7        43.687
E11         2.000    26618390.099 6 139880781.01506     -3132.651 6        37.180                                                                    26618386.591 6 104456552.04606     -2339.244 6        39.655    26618386.311 6 107181491.86806     -2400.299 6        40.646
G16         3.000    20760490.175 8 109097318.86608       875.946 8        48.489                                    20760485.725 6  85010982.45106       682.555 6        38.673
G05         4.000    24078848.741 6 126535302.73006     -3206.475 6        40.260                                    24078845.207 5  98598961.82605     -2498.550 5        32.868    24078845.503 6  98598960.82406     -2498.525 6        36.465
S21         5.000    38415763.027 7 201875899.48307      -459.363 7        42.502
G26         6.000    20646946.049 8 108500674.47308     -1517.159 8        49.764                                    20646944.909 8  84546112.69708     -1182.201 8        50.521    20646945.027 7  84546099.69807     -1182.243 7        45.281
G10         7.000    24851601.643 6 130596075.80306      3193.701 6        38.967                                    24851602.890 5 101763182.17805      2488.589 5        32.976    24851602.720 6 101763176.18406      2488.647 6        37.985
E15         8.000    28743920.277 5 151050323.58705      2479.784 5        35.257                                                                    28743928.074 6 112797356.92206      1851.904 6        36.401    28743927.074 6 115739888.09906      1900.395 6        38.580
E36         9.000    23518252.912 8 123589445.60508     -1240.100 8        48.197                                                                    23518252.987 8  92290963.77008      -926.025 8        50.923    23518252.745 8  94698541.34708      -950.175 8        51.742
G27        10.000    22606102.207 7 118795998.83307      2516.668 7        42.819                                    22606100.833 6  92568376.26206      1961.037 6        40.617    22606100.969 6  92568378.28206      1960.982 6        40.207
G15        11.000    25084863.713 6 131821847.45106      2188.458 6        37.520                                    25084860.721 4 102718310.35804      1705.291 4        27.162    25084860.933 5 102718313.37405      1705.254 5        34.538
E19        12.000    28411827.366 4 149305164.01904      -656.540 4        28.569                                                                    28411829.284 5 111494114.23305      -490.352 5        31.645    28411828.761 5 114402653.18805      -503.010 5        33.000
C23        13.000                                                                                                                                    23981305.009 7 124876997.37707       622.713 7        46.580                                                                    23981296.856 7 101472781.14507       505.991 7        46.962
S36        14.000    38186194.758 7 200670342.67307      -458.657 7        44.164
C13        15.000                                                                                                                                    37642021.872 7 196011944.69607      -589.210 7        45.431    37642023.276 7 151568903.44907      -455.646 7        45.544    37642021.522 7 159275783.79707      -478.793 7        43.699
G18        16.000    20630827.746 8 108415966.31808     -1374.174 8        48.815                                    20630824.047 7  84480071.76507     -1070.781 7        42.201    20630824.332 8  84480079.76108     -1070.788 8        49.154
R10        17.000    20544286.599 7 109512639.31007      1426.806 7        47.325
E27        18.000    28652270.007 6 150568698.83106      2474.770 6        36.696                                                                    28652270.758 6 112437665.08506      1847.895 6        39.045    28652270.174 6 115370819.24406      1895.861 6        40.315
E02        19.000    23598094.783 8 124009013.80008     -1818.630 8        48.852                                                                    23598093.551 8  92604243.94308     -1358.058 8        50.814    23598092.936 8  95019991.83808     -1393.486 8        51.204
S27        20.000    39185643.115 5 205921944.78005      -434.094 5        35.457
R11        21.000    24422777.902 6 130507922.43206      3820.226 6        41.878                                                                    24422777.158 6 101506161.89006      2971.374 6        38.517
I06        22.000    38691821.717 7 151835237.90507      -318.398 7        42.161
S28        23.000    40889893.000 5 214877838.50405      -453.584 5        34.443
S23        25.000    38141308.540 7 200433860.70607      -461.006 7        45.153
S45        26.000    63398369.816 6 333161707.68806      -514.684 6        37.474
R09        27.000    19718316.312 8 105294918.83508     -2266.871 8        51.863                                                                    19718315.511 8  81896160.33908     -1763.203 8        48.897
R18        28.000    21910528.031 7 116960178.28807     -3774.250 7        46.329                                                                    21910528.274 7  90969179.08707     -2935.568 7        43.907
C38        29.000                                                                                                                                    38950401.074 7 202825080.81007     -1256.362 7        43.149                                                                    38950398.630 7 164812037.30607     -1020.857 7        42.974
C44        30.000                                                                                                                                    23622442.055 7 123008476.16807     -2882.519 7        46.387                                                                    23622440.543 7  99954548.01407     -2342.291 7        45.634
C43        31.000                                                                                                                                    23468312.249 7 122205756.24407      1783.785 7        46.561                                                                    23468311.530 7  99302227.29107      1449.402 7        46.173
R02        32.000    23296351.235 7 124313813.92407     -1684.968 7        43.858                                                                    23296352.440 6  96688528.47806     -1310.632 6        40.734
I02        33.000    38969070.059 6 152923059.80806      -953.359 6        40.577
R03        34.000    22614171.831 7 121055464.21207      1592.746 7        45.397                                                                    22614170.712 7  94154250.86107      1238.828 7        42.231
E34        35.000    24408372.910 7 128267066.40507      1461.800 7        47.883                                                                    24408373.095 8  95783957.65408      1091.623 8        49.760    24408372.835 8  98282658.54608      1120.105 8        50.275
G29        36.000    23101182.527 7 121397829.64307     -3293.263 7        43.594                                    23101178.965 6  94595821.03506     -2566.179 6        39.327    23101179.385 6  94595831.01406     -2565.985 6        40.143
G31        37.000    24384572.565 7 128142006.90007     -3768.839 7        42.174                                    24384570.388 5  99851008.95905     -2936.755 5        34.609    24384570.262 6  99851014.95406     -2936.735 6        38.198
C22        38.000                                                                                                                                    24824754.869 7 129269040.82807       423.741 7        43.372                                                                    24824749.456 7 105041667.89807       344.397 7        43.738
E25        39.000    27135165.674 6 142596465.28706     -3465.709 6        39.414                                                                    27135166.854 7 106484501.80507     -2588.004 7        43.024    27135166.865 7 109262342.83707     -2655.606 7        44.680
C12        40.000                                                                                                                                    22349629.828 7 116380598.14507     -1983.368 7        47.492    22349626.441 8  89992958.60808     -1533.596 8        51.679    22349625.501 8  94568843.13608     -1611.661 8        49.137
R04        41.000    24025136.771 6 128653524.89706      3485.208 6        40.002                                                                    24025138.123 6 100063854.80606      2710.993 6        36.344
S44        42.000    40481648.688 6 212732685.60806      -413.171 6        37.369
G28        43.000    25811480.876 3                     -3837.805 3        22.419                                                                                                    25811488.056 4                     -2989.817 4        28.294
C05        44.000                                                                                                                                    39294852.012 6 204618638.83306      -388.620 6        37.202    39294847.981 7 158224133.69907      -300.478 7        43.071    39294850.180 6 166269507.15606      -315.732 6        40.219
C11        45.000                                                                                                                                    22064733.421 8 114897000.11508       795.102 8        48.604    22064730.335 8  88845708.83608       614.853 8        52.249    22064729.068 8  93363263.52908       646.161 8        49.195
R16        46.000    22904451.390 7 122351652.13607     -5014.840 7        45.577                                                                    22904451.933 7  95162506.79207     -3900.439 7        42.243
G07        47.000    26216852.864 5 137770496.85105      1863.714 5        35.038                                    26216851.008 3 107353617.34603      1452.263 3        23.905    26216851.408 5 107353625.34105      1452.410 5        32.497
C21        48.000                                                                                                                                    25755651.983 6 134116456.43506      2426.401 6        41.788                                                                    25755647.930 7 108980591.61807      1971.599 7        43.562
C24        49.000                                                                                                                                    25651635.769 6 133574854.10806     -3923.559 6        40.551                                                                    25651633.957 7 108540529.45507     -3188.300 7        42.330
R19        50.000    19609513.196 6 104897942.91706     -1769.901 6        40.601                                                                    19609512.575 7  81587402.93207     -1376.527 7        44.990
S48        51.000    77147333.649 6 405412271.25106      -498.037 6        38.120
C08        52.000                                                                                                                                    37771271.159 7 196685026.52607      -859.421 7        42.381    37771265.184 7 152089368.96907      -664.627 7        46.073    37771264.297 7 159822713.65707      -698.287 7        42.576
C34        53.000                                                                                                                                    21336805.414 8 111106628.27708      -449.153 8        50.787                                                                    21336804.942 8  90283353.54708      -364.961 8        49.311
C60        54.000                                                                                                                                    40481650.032 6 210798771.47606      -409.465 6        40.303                                                                    40481634.579 6 171291237.06806      -332.725 6        40.498
C25        55.000                                                                                                                                    22885701.823 8 119172102.55308     -2437.885 8        48.947                                                                    22885699.968 7  96837188.70907     -1980.948 7        47.959
I09        56.000    39808197.497 6 156215928.34806       468.820 6        40.863
C02        57.000                                                                                                                                    40638654.106 5 211616173.98505      -372.215 5        34.352    40638647.517 6 163635040.88806      -287.844 6        39.069    40638651.125 5 171955477.03105      -302.353 5        35.138
I03        58.000    83421786.137 6 251579752.44206      1110.286 6        40.539
E30        59.000    24651545.640 7 129544961.67307      1059.540 7        46.551                                                                    24651545.166 8  96738239.80208       791.165 8        49.161    24651544.827 8  99261829.41708       811.883 8        50.265
R20        60.000    21260958.371 6 113692097.62206      2255.667 6        39.120                                                                    21260961.125 7  88427253.72507      1754.334 7        46.121
> 2025 01 02 18 16  0.0000000  0 59
G23         1.000    22193793.741 7 116629250.63007      2331.467 7        46.061                                    22193790.476 5  90879957.04405      1816.729 5        33.940    22193790.702 7  90879955.04207      1816.646 7        43.602
E11         2.000    26621371.038 6 139896444.94906     -3132.786 6        37.168                                                                    26621367.501 6 104468249.14306     -2339.363 6        39.772    26621367.094 6 107193494.10606     -2400.472 6        40.641
G16         3.000    20759658.197 8 109092946.57108       873.272 8        48.277                                    20759653.690 6  85007575.46506       680.470 6        38.700
G05         4.000    24081900.507 6 126551340.65306     -3208.380 6        40.479                                    24081896.977 5  98611458.90905     -2500.036 5        32.778    24081897.879 6  98611457.91806     -2500.134 6        36.374
S21         5.000    38416200.217 7 201878196.08107      -459.026 7        42.536
G26         6.000    20648391.253 8 108508268.02908     -1519.925 8        49.679                                    20648389.913 8  84552029.75208     -1184.359 8        50.638    20648390.430 7  84552016.75807     -1184.374 7        45.543
G10         7.000    24848563.668 6 130580107.28206      3193.825 6        38.784                                    24848564.194 5 101750739.20705      2488.682 5        33.144    24848564.573 6 101750733.21906      2488.684 6        38.123
E15         8.000    28741560.253 5 151037925.24505      2479.773 5        35.671                                                                    28741568.720 6 112788098.51006      1851.746 6        36.491    28741567.818 6 115730388.15506      1900.080 6        38.637
E36         9.000    23519433.524 8 123595650.45408     -1241.533 8        48.247                                                                    23519433.742 8  92295597.26908      -927.104 8        50.915    23519433.490 8  94703295.71908      -951.270 8        51.777
G27        10.000    22603707.895 7 118783418.30807      2515.845 7        43.456                                    22603706.807 6  92558573.26906      1960.398 6        40.667    22603706.840 6  92558575.26806      1960.512 6        40.067
G15        11.000    25082782.559 6 131810908.61406      2187.485 6        37.856                                    25082779.217 4 102709786.58304      1704.537 4        27.269    25082779.476 5 102709789.56005      1704.730 5        34.443
E19        12.000    28412454.153 4 149308454.38304      -659.139 4        29.962                                                                    28412455.290 5 111496571.34305      -491.855 5        34.176    28412454.789 5 114405174.41805      -504.801 5        35.300
C23        13.000                                                                                                                                    23980708.481 7 124873890.86707       620.234 7        46.701                                                                    23980700.326 7 101470256.86507       503.874 7        47.038
S36        14.000    38186631.484 7 200672636.11907      -458.256 7        44.200
C13        15.000                                                                                                                                    37642588.233 7 196014893.24907      -589.771 7        45.380    37642589.394 7 151571183.46507      -456.133 7        45.546    37642587.833 7 159278179.75607      -479.436 7        43.674
G18        16.000    20632136.842 8 108422843.65608     -1376.416 8        48.824                                    20632132.774 7  84485430.73207     -1072.532 7        42.209    20632133.086 8  84485438.73108     -1072.500 8        49.178
R10        17.000    20542950.233 7 109505515.45307      1423.083 7        47.126
E27        18.000    28649915.906 6 150556327.20806      2474.632 6        37.146                                                                    28649916.493 6 112428426.50606      1847.932 6        39.312    28649915.686 6 115361339.65206      1896.261 6        40.291
E02        19.000    23599825.994 8 124018111.83208     -1820.264 8        48.802                                                                    23599824.795 8  92611037.92908     -1359.290 8        50.845    23599824.224 8  95026963.05908     -1394.726 8        51.226
S27        20.000    39186054.642 5 205924116.02205      -433.891 5        35.686
R11        21.000    24419203.038 6 130488823.67506      3819.433 6        41.445                                                                    24419202.027 6 101491307.33906      2970.945 6        39.156
I06        22.000    38692227.498 7 151836829.77407      -318.083 7        42.116
S28        23.000    40890324.516 5 214880107.26505      -453.229 5        34.500
S23        25.000    38141746.745 7 200436166.18307      -460.851 7        45.186
S45        26.000    63398806.085 6 333164280.97606      -514.324 6        37.573
R09        27.000    19720441.692 8 105306264.00508     -2270.767 8        52.294                                                                    19720440.027 8  81904984.35508     -1766.084 8        48.640
R18        28.000    21914063.049 7 116979050.89007     -3774.540 7        45.953                                                                    21914063.860 7  90983857.76507     -2935.757 7        44.003
C38        29.000                                                                                                                                    38951607.823 7 202831364.51407     -1256.796 7        43.027                                                                    38951605.505 7 164817143.34707     -1021.293 7        42.851
C44        30.000                                                                                                                                    23625209.734 7 123022890.68707     -2882.899 7        46.372                                                                    23625208.657 7  99966261.00907     -2342.781 7        45.702
C43        31.000                                                                                                                                    23466599.943 7 122196839.74607      1783.126 7        46.521                                                                    23466599.278 7  99294981.92807      1448.799 7        46.225
R02        32.000    23297931.914 7 124322249.33307     -1688.765 7        42.618                                                                    23297932.905 6  96695089.34806     -1313.475 6        39.958
I02        33.000    38970284.802 6 152927827.11306      -953.206 6        40.548
R03        34.000    22612684.964 7 121047509.79207      1589.381 7        46.915                                                                    22612684.050 6  94148064.11106      1236.180 6        41.757
E34        35.000    24406982.790 8 128259761.17708      1460.588 8        48.009                                                                    24406982.936 8  95778502.46008      1090.695 8        49.823    24406982.622 8  98277061.04208      1119.188 8        50.320
G29        36.000    23104316.619 7 121414298.20607     -3293.814 7        43.846                                    23104312.964 6  94608653.68206     -2566.607 6        39.556    23104313.320 6  94608663.67606     -2566.606 6        40.145
G31        37.000    24388158.968 7 128160852.47107     -3768.959 7        42.682                                    24388156.495 5  99865693.81205     -2936.854 5        34.486    24388155.944 6  99865699.84006     -2937.017 6        37.724
C22        38.000                                                                                                                                    24824349.329 7 129266928.35807       421.428 7        43.050                                                                    24824343.693 7 105039951.35907       342.314 7        43.636
E25        39.000    27138463.497 6 142613795.57806     -3466.145 6        39.510                                                                    27138464.583 7 106497443.25407     -2588.288 7        42.967    27138464.605 7 109275621.87007     -2655.733 7        44.761
C12        40.000                                                                                                                                    22351535.013 7 116390517.73207     -1984.213 7        47.384    22351531.431 8  90000629.06608     -1534.295 8        51.561    22351530.495 8  94576903.62608     -1612.464 8        49.133
R04        41.000    24021882.794 6 128636099.86706      3485.121 6        39.234                                                                    24021882.274 6 100050302.04606      2710.661 6        36.480
S44        42.000    40482041.144 6 212734751.51106      -412.778 6        37.161
G28        43.000    25815131.057 3                     -3835.352 3        22.800                                                                                                    25815137.991 4                     -2989.396 4        28.152
C05        44.000                                                                                                                                    39295224.717 6 204620582.17906      -388.360 6        37.195    39295221.299 7 158225636.42507      -300.232 7        42.817    39295223.342 6 166271086.32206      -315.737 6        40.117
C11        45.000                                                                                                                                    22063970.560 8 114893027.98908       793.995 8        48.632    22063967.497 8  88842637.34208       614.008 8        52.128    22063966.278 8  93360035.87608       645.033 8        49.225
R16        46.000    22909145.710 7 122376728.67007     -5015.363 7        45.655                                                                    22909146.452 7  95182010.75107     -3900.910 7        42.250
G07        47.000    26215080.319 5 137761182.82705      1862.422 5        34.329                                    26215078.622 3 107346359.66203      1451.248 3        23.124    26215078.170 5 107346367.70405      1450.816 5        32.856
C21        48.000                                                                                                                                    25753322.437 7 134104326.57207      2425.795 7        42.000                                                                    25753318.460 7 108970735.13007      1971.084 7        43.591
C24        49.000                                                                                                                                    25655403.407 6 133594472.56006     -3923.430 6        40.324                                                                    25655401.615 7 108556471.06607     -3188.197 7        42.296
R19        50.000    19611168.163 6 104906798.15406     -1771.929 6        41.168                                                                    19611168.039 7  81594290.33707     -1378.106 7        45.431
S48        51.000    77147780.758 6 405414761.21206      -497.796 6        38.105
C08        52.000                                                                                                                                    37772096.470 7 196689326.14907      -860.081 7        42.197    37772090.684 7 152092693.71207      -665.083 7        45.904    37772090.102 7 159826207.47207      -699.000 7        42.637
C34        53.000                                                                                                                                    21337237.323 8 111108878.23508      -450.495 8        50.702                                                                    21337236.990 8  90285181.83608      -366.176 8        49.277
C60        54.000                                                                                                                                    40482043.163 6 210800818.61106      -409.184 6        40.448                                                                    40482027.774 6 171292900.55406      -332.676 6        40.541
C25        55.000                                                                                                                                    22888043.837 8 119184297.50408     -2439.796 8        49.311                                                                    22888041.841 7  96847098.13407     -1982.679 7        47.988
I09        56.000    39807600.358 6 156213584.49706       469.043 6        41.037
C02        57.000                                                                                                                                    40639012.167 5 211618035.23205      -372.073 5        34.524    40639004.831 6 163636480.11606      -287.488 6        38.802    40639008.466 5 171956989.47205      -302.354 5        35.276
I03        58.000    83420371.675 6 251574201.56906      1110.494 6        40.389
E30        59.000    24650538.004 7 129539668.46807      1058.152 7        46.772                                                                    24650537.836 8  96734287.08608       790.190 8        49.189    24650537.563 8  99257773.59008       810.820 8        50.357
R20        60.000    21258850.416 6 113680824.53406      2254.129 6        39.769                                                                    21258852.873 7  88418485.77407      1753.096 7        45.607
> 2025 01 02 18 16  5.0000000  0 59
G23         1.000    22191576.737 7 116617600.31207      2329.014 7        45.570                                    22191573.508 5  90870878.88005      1814.815 5        34.014    22191573.859 7  90870876.88407      1814.841 7        44.149
E11         2.000    26624352.305 6 139912111.45606     -3133.602 6        37.796                                                                    26624348.881 6 104479948.15406     -2339.988 6        39.877    26624348.380 6 107205498.30206     -2400.965 6        40.574
G16         3.000    20758829.043 8 109088589.52408       869.892 8        48.383                                    20758824.544 6  85004180.36706       677.838 6        38.802
G05         4.000    24084955.143 6 126567390.52306     -3211.216 6        40.346                                    24084951.069 5  98623965.30105     -2502.244 5        32.707    24084951.644 6  98623964.30206     -2502.417 6        36.510
S21         5.000    38416637.967 7 201880492.86007      -459.441 7        42.383
G26         6.000    20649839.181 8 108515877.13008     -1523.357 8        49.702                                    20649837.874 8  84557958.92308     -1187.031 8        50.702    20649838.110 7  84557945.92507     -1187.056 7        45.347
G10         7.000    24845524.874 6 130564139.01306      3193.592 6        38.682                                    24845525.498 5 101738296.43705      2488.509 5        33.114    24845525.671 6 101738290.46306      2488.470 6        37.875
E15         8.000    28739201.383 5 151025528.69705      2479.019 5        35.829                                                                    28739209.681 6 112778841.43606      1851.255 6        36.465    28739208.778 6 115720889.62006      1899.463 6        38.462
E36         9.000    23520615.863 8 123601864.26108     -1243.721 8        48.255                                                                    23520616.186 8  92300237.45008      -928.740 8        50.929    23520615.911 8  94708056.94808      -952.926 8        51.699
G27        10.000    22601315.266 7 118770842.83507      2514.576 7        43.685                                    22601313.769 6  92548774.20906      1959.410 6        40.846    22601314.626 6  92548776.21606      1959.466 6        40.329
G15        11.000    25080701.778 6 131799976.79406      2185.582 6        38.225                                    25080698.996 4 102701268.28304      1703.056 4        27.509    25080699.070 5 102701271.23905      1703.305 5        33.407
E19        12.000    28413082.485 4 149311756.59704      -661.387 4        29.630                                                                    28413083.901 5 111499037.23105      -494.036 5        33.257    28413082.985 5 114407704.62705      -506.867 5        34.505
C23        13.000                                                                                                                                    23980114.727 7 124870797.99307       617.185 7        46.721                                                                    23980106.382 7 101467743.65207       501.397 7        46.882
S36        14.000    38187067.096 7 200674928.82907      -458.591 7        44.153
C13        15.000                                                                                                                                    37643155.661 7 196017846.58207      -591.150 7        45.398    37643156.524 7 151573467.16307      -457.110 7        45.473    37643154.958 7 159280579.57307      -480.484 7        43.623
G18        16.000    20633447.820 8 108429733.82008     -1379.302 8        49.030                                    20633443.921 7  84490799.69207     -1074.781 7        42.248    20633444.225 8  84490807.69208     -1074.787 8        49.040
R10        17.000    20541617.333 7 109498411.89007      1418.661 7        47.123
E27        18.000    28647561.202 6 150543956.78606      2473.923 6        37.516                                                                    28647562.402 6 112419188.82206      1847.425 6        39.225    28647561.650 6 115351860.99006      1895.757 6        40.150
E02        19.000    23601559.075 8 124027219.84808     -1822.589 8        48.842                                                                    23601558.039 8  92617839.36608     -1361.025 8        50.828    23601557.450 8  95033941.92508     -1396.524 8        51.107
S27        20.000    39186469.345 5 205926288.38305      -434.826 5        35.971
R11        21.000    24415628.808 6 130469729.39206      3818.481 6        40.307                                                                    24415628.589 6 101476456.25006      2969.612 6        39.321
I06        22.000    38692632.922 7 151838421.66907      -318.411 7        42.216
S28        23.000    40890764.259 5 214882376.48805      -453.683 5        34.419
S23        25.000    38142186.377 7 200438472.09607      -461.160 7        45.236
S45        26.000    63399245.963 6 333166854.65406      -514.859 6        37.565
R09        27.000    19722570.171 8 105317630.36908     -2275.407 8        52.377                                                                    19722568.276 8  81913824.85908     -1769.755 8        48.562
R18        28.000    21917599.151 7 116997926.73607     -3775.452 7        45.902                                                                    21917599.614 7  90998538.98407     -2936.452 7        43.972
C38        29.000                                                                                                                                    38952815.221 7 202837651.87907     -1257.898 7        43.007                                                                    38952812.790 7 164822252.33807     -1022.211 7        42.580
C44        30.000                                                                                                                                    23627978.798 7 123037308.76207     -2884.020 7        46.538                                                                    23627977.458 7  99977976.86807     -2343.590 7        45.603
C43        31.000                                                                                                                                    23464888.634 7 122187928.58707      1781.709 7        46.931                                                                    23464887.949 7  99287740.87707      1447.637 7        46.142
R02        32.000    23299516.148 7 124330705.65507     -1693.322 7        43.547                                                                    23299517.395 6  96701666.48706     -1317.048 6        40.188
I02        33.000    38971500.106 6 152932594.99106      -953.736 6        40.422
R03        34.000    22611203.517 7 121039573.18307      1585.577 7        47.745                                                                    22611201.668 7  94141891.17207      1233.166 7        42.148
E34        35.000    24405594.080 7 128252463.90807      1458.674 7        47.811                                                                    24405594.241 8  95773053.20408      1089.219 8        49.742    24405594.041 8  98271469.62908      1117.685 8        50.278
G29        36.000    23107451.042 7 121430771.56307     -3295.146 7        43.659                                    23107447.813 6  94621490.06106     -2567.646 6        39.631    23107447.795 6  94621500.05306     -2567.584 6        39.772
G31        37.000    24391745.633 7 128179700.89207     -3769.968 7        42.307                                    24391743.193 5  99880380.88805     -2937.637 5        34.419    24391742.464 6  99880386.89606     -2937.540 6        36.688
C22        38.000                                                                                                                                    24823946.749 7 129264829.63407       418.370 7        43.039                                                                    24823940.790 7 105038245.97807       339.755 7        43.736
E25        39.000    27141761.718 6 142631129.05606     -3466.976 6        39.192                                                                    27141763.091 7 106510387.08107     -2588.969 7        42.715    27141762.926 7 109288903.37007     -2656.579 7        44.603
C12        40.000                                                                                                                                    22353440.858 7 116400443.58507     -1985.774 7        47.268    22353437.280 8  90008304.36608     -1535.524 8        51.370    22353436.583 8  94584969.19008     -1613.727 8        49.052
R04        41.000    24018629.542 6 128618677.43606      3484.151 6        38.123                                                                    24018629.373 6 100036751.26506      2709.891 6        36.533
S44        42.000    40482434.110 6 212736817.88306      -413.323 6        37.335
G28        43.000    25818781.752 3                     -3835.044 3        22.971                                                                                                    25818788.440 4                     -2988.806 4        27.796
C05        44.000                                                                                                                                    39295598.474 6 204622525.85106      -388.946 6        37.210    39295594.639 7 158227139.39507      -300.665 7        42.821    39295596.436 6 166272665.68306      -315.970 6        40.079
C11        45.000                                                                                                                                    22063209.027 8 114889063.44608       792.177 8        48.435    22063206.115 8  88839571.70908       612.523 8        52.153    22063204.922 8  93356814.35508       643.603 8        49.155
R16        46.000    22913841.061 7 122401809.88407     -5016.745 7        45.947                                                                    22913841.614 7  95201518.35107     -3901.977 7        42.017
G07        47.000    26213311.175 5 137751878.21905      1860.238 5        33.868                                    26213308.057 3 107339109.31103      1449.535 3        22.781    26213308.648 5 107339117.33205      1449.433 5        32.054
C21        48.000                                                                                                                                    25750993.923 6 134092201.33706      2424.619 6        41.912                                                                    25750989.920 7 108960882.37607      1970.113 7        43.524
C24        49.000                                                                                                                                    25659170.919 6 133614091.64506     -3923.947 6        40.315                                                                    25659169.129 7 108572413.15007     -3188.583 7        42.372
R19        50.000    19612827.181 6 104915665.36206     -1774.712 6        41.302                                                                    19612825.809 7  81601187.04107     -1380.234 7        45.261
S48        51.000    77148224.334 6 405417251.72606      -498.224 6        38.105
C08        52.000                                                                                                                                    37772923.478 7 196693630.68007      -861.334 7        42.318    37772917.085 7 152096022.24407      -666.075 7        45.782    37772916.579 7 159829705.23907      -700.028 7        42.514
C34        53.000                                                                                                                                    21337670.969 8 111111136.47508      -452.474 8        50.770                                                                    21337670.706 8  90287016.83408      -367.743 8        49.201
C60        54.000                                                                                                                                    40482436.832 6 210802866.18006      -409.488 6        40.291                                                                    40482420.905 6 171294564.36506      -332.850 6        40.403
C25        55.000                                                                                                                                    22890388.256 8 119196503.96008     -2442.391 8        49.114                                                                    22890386.031 7  96857016.86607     -1984.743 7        47.903
I09        56.000    39807003.069 6 156211240.78706       468.805 6        40.834
C02        57.000                                                                                                                                    40639368.899 5 211619896.92005      -372.527 5        34.186    40639362.650 6 163637919.68906      -287.830 6        38.742    40639366.254 5 171958502.25705      -302.802 5        35.143
I03        58.000    83418957.251 6 251568650.98606      1110.166 6        40.405
E30        59.000    24649532.259 7 129534383.93307      1055.989 7        46.756                                                                    24649532.235 8  96730340.84608       788.537 8        49.220    24649531.920 8  99253724.40008       809.128 8        50.273
R20        60.000    21256744.297 6 113669561.36606      2251.532 6        39.529                                                                    21256746.737 7  88409725.53307      1751.232 7        45.160
> 2025 01 02 18 16 10.0000000  0 59
G23         1.000    22189361.878 7 116605960.34107      2326.912 7        45.549                                    22189358.535 5  90861808.77505      1813.174 5        33.886    22189358.627 7  90861806.78107      1813.265 7        44.221
E11         2.000    26627334.030 6 139927780.29106     -3134.104 6        37.739                                                                    26627330.526 6 104491648.90406     -2340.338 6        40.198    26627330.210 6 107217504.29006     -2401.452 6        40.431
G16         3.000    20758002.831 8 109084247.46908       866.868 8        48.315                                    20757998.278 6  85000796.95006       675.483 6        38.751
G05         4.000    24088011.198 6 126583452.06806     -3213.615 6        40.193                                    24088007.508 5  98636480.78005     -2504.116 5        32.868    24088007.910 6  98636479.77406     -2504.147 6        36.480
S21         5.000    38417076.195 7 201882789.71307      -459.415 7        42.571
G26         6.000    20651290.232 8 108523501.53008     -1526.417 8        49.606                                    20651288.750 8  84563900.01608     -1189.416 8        50.613    20651288.797 7  84563887.00707     -1189.383 7        44.957
G10         7.000    24842486.250 6 130548170.81806      3193.570 6        38.790                                    24842486.785 5 101725853.72205      2488.488 5        33.263    24842486.244 6 101725847.73606      2488.565 6        37.754
E15         8.000    28736842.588 5 151013133.81305      2478.875 5        35.614                                                                    28736850.957 6 112769585.62706      1851.086 6        37.474    28736850.078 6 115711392.32006      1899.287 6        38.544
E36         9.000    23521799.887 8 123608086.78608     -1245.391 8        48.205                                                                    23521800.283 8  92304884.13508      -929.999 8        51.000    23521799.995 8  94712824.85208      -954.274 8        51.661
G27        10.000    22598923.142 7 118758272.18207      2513.635 7        43.951                                    22598921.643 6  92538978.90506      1958.678 6        40.760    22598922.101 6  92538980.91906      1958.521 6        40.262
G15        11.000    25078622.743 6 131789051.72306      2184.273 6        38.171                                    25078620.013 4 102692755.23004      1702.033 4        27.329    25078619.709 5 102692758.20905      1702.116 5        33.365
E19        12.000    28413713.054 4 149315070.71104      -663.580 4        28.768                                                                    28413714.327 5 111501512.09605      -496.023 5        32.311    28413713.054 5 114410244.04505      -508.760 5        33.365
C23        13.000                                                                                                                                    23979523.022 7 124867718.54107       614.533 7        47.035                                                                    23979514.979 7 101465241.35107       499.341 7        47.089
S36        14.000    38187502.766 7 200677221.43907      -458.588 7        44.290
C13        15.000                                                                                                                                    37643723.513 7 196020804.44307      -591.982 7        45.394    37643724.502 7 151575754.36407      -457.786 7        45.395    37643722.975 7 159282983.08407      -481.188 7        43.803
G18        16.000    20634761.466 8 108436636.56908     -1381.873 8        48.934                                    20634757.465 7  84496178.45907     -1076.783 7        42.112    20634757.869 8  84496186.45508     -1076.722 8        49.195
R10        17.000    20540288.135 7 109491328.47607      1414.620 7        47.158
E27        18.000    28645207.278 6 150531587.23806      2473.804 6        37.580                                                                    28645208.449 6 112409951.79106      1847.295 6        39.057    28645207.696 6 115342382.99006      1895.507 6        40.026
E02        19.000    23603294.205 8 124036337.61308     -1824.616 8        48.699                                                                    23603293.112 8  92624648.08308     -1362.482 8        50.853    23603292.496 8  95040928.26508     -1398.084 8        51.119
S27        20.000    39186881.285 5 205928461.04105      -434.597 5        35.714
R11        21.000    24412056.452 6 130450639.30506      3817.464 6        39.673                                                                    24412056.839 6 101461608.31706      2969.230 6        39.571
I06        22.000    38693038.809 7 151840013.43907      -318.419 7        42.216
S28        23.000    40891193.043 5 214884645.68005      -453.824 5        34.433
S23        25.000    38142625.240 7 200440777.92907      -461.252 7        45.231
S45        26.000    63399685.085 6 333167828.32416      -514.789 6        37.474
R09        27.000    19724702.227 8 105329017.86808     -2279.603 8        52.038                                                                    19724701.279 8  81922681.81008     -1773.067 8        49.186
R18        28.000    21921135.965 7 117016805.53307     -3776.070 7        46.091                                                                    21921136.844 7  91013222.50707     -2936.939 7        44.313
C38        29.000                                                                                                                                    38954023.038 7 202843942.67007     -1258.464 7        43.118                                                                    38954020.843 7 164827364.12907     -1022.756 7        42.880
C44        30.000                                                                                                                                    23630748.633 7 123051730.16307     -2884.726 7        46.390                                                                    23630746.961 7  99989695.43607     -2344.013 7        45.719
C43        31.000                                                                                                                                    23463178.185 7 122179022.52707      1780.609 7        46.862                                                                    23463177.595 7  99280503.97807      1446.993 7        46.239
R02        32.000    23301105.662 7 124339182.32907     -1697.487 7        44.185                                                                    23301105.875 6  96708259.45006     -1320.213 6        39.369
I02        33.000    38972714.991 6 152937363.54606      -953.751 6        40.460
R03        34.000    22609725.091 7 121031654.35307      1581.937 7        46.409                                                                    22609723.026 7  94135732.08807      1230.419 7        42.118
E34        35.000    24404206.710 7 128245174.33807      1457.080 7        47.622                                                                    24404207.114 8  95767609.69408      1088.127 8        49.830    24404206.870 8  98265884.12108      1116.447 8        50.214
G29        36.000    23110586.974 7 121447249.48407     -3296.082 7        43.194                                    23110583.458 6  94634330.00106     -2568.374 6        39.568    23110583.558 6  94634340.00006     -2568.404 6        39.598
G31        37.000    24395332.776 6 128198551.90406     -3770.568 6        41.902                                    24395330.284 5  99895069.98205     -2938.101 5        34.167    24395330.368 6  99895075.97206     -2938.006 6        36.533
C22        38.000                                                                                                                                    24823546.509 7 129262744.43607       415.658 7        43.154                                                                    24823540.468 7 105036551.57507       337.742 7        43.926
E25        39.000    27145060.741 6 142648465.52606     -3467.623 6        38.628                                                                    27145062.112 7 106523333.13107     -2589.490 7        42.929    27145061.907 7 109302187.14807     -2657.071 7        44.465
C12        40.000                                                                                                                                    22355348.011 7 116410375.45007     -1986.995 7        47.397    22355344.412 8  90015984.31008     -1536.488 8        51.190    22355343.920 8  94593039.64608     -1614.646 8        49.144
R04        41.000    24015375.508 6 128601257.50406      3483.649 6        37.811                                                                    24015375.423 6 100023202.43306      2709.458 6        37.112
S44        42.000    40482825.708 6 212738884.46306      -413.307 6        37.406
G28        43.000    25822431.991 3                     -3834.333 3        21.952                                                                                                    25822438.089 4                     -2988.492 4        26.311
C05        44.000                                                                                                                                    39295971.765 6 204624469.56906      -388.918 6        37.391    39295967.800 7 158228642.40007      -300.648 7        42.838    39295969.785 6 166274245.13806      -316.015 6        40.210
C11        45.000                                                                                                                                    22062448.645 8 114885106.23308       790.673 8        48.534    22062446.315 8  88836511.73508       611.391 8        52.080    22062444.963 8  93353598.79408       642.493 8        49.283
R16        46.000    22918537.261 7 122426895.56907     -5017.596 7        46.160                                                                    22918537.787 6  95221029.43306     -3902.559 6        41.888
G07        47.000    26211542.563 5 137742582.69705      1857.738 5        35.043                                    26211538.998 3 107331866.01803      1447.596 3        23.200    26211539.911 5 107331874.00205      1447.661 5        32.575
C21        48.000                                                                                                                                    25748666.257 7 134080080.50507      2423.659 7        42.055                                                                    25748662.205 7 108951033.21707      1969.492 7        43.680
C24        49.000                                                                                                                                    25662938.433 6 133633711.11106     -3923.908 6        40.305                                                                    25662936.816 7 108588355.56807     -3188.530 7        42.470
R19        50.000    19614485.944 6 104924544.24006     -1777.031 6        40.832                                                                    19614485.101 7  81608092.84707     -1382.128 7        44.743
S48        51.000    77148672.453 6 405419742.18606      -498.421 6        38.036
C08        52.000                                                                                                                                    37773751.036 7 196697939.83307      -862.270 7        42.235    37773744.701 7 152099354.35707      -666.806 7        45.923    37773744.184 7 159833206.80107      -700.730 7        42.633
C34        53.000                                                                                                                                    21338106.314 8 111113402.77208      -454.091 8        50.908                                                                    21338105.951 8  90288858.39208      -369.007 8        49.360
C60        54.000                                                                                                                                    40482830.017 6 210804913.98306      -409.713 6        40.412                                                                    40482814.162 6 171296228.36906      -332.884 6        40.625
C25        55.000                                                                                                                                    22892734.175 8 119208721.67308     -2444.703 8        49.167                                                                    22892732.271 8  96866944.76008     -1986.527 8        48.097
I09        56.000    39806405.939 6 156208897.03706       468.650 6        41.106
C02        57.000                                                                                                                                    40639726.495 5 211621758.71805      -372.137 5        34.486    40639719.803 6 163639359.36806      -287.958 6        38.658    40639723.684 5 171960015.14505      -302.663 5        35.390
I03        58.000    83417542.944 6 251563100.51206      1110.099 6        40.479
E30        59.000    24648528.278 7 129529107.83607      1054.315 7        46.845                                                                    24648528.269 8  96726400.90208       787.365 8        49.241    24648527.909 8  99249681.68208       807.820 8        50.294
R20        60.000    21254640.124 6 113658307.81206      2249.733 6        40.033                                                                    21254641.723 7  88400972.76007      1749.751 7        44.926
> 2025 01 02 18 16 15.0000000  0 59
G23         1.000    22187149.073 7 116594330.24407      2324.839 7        45.750                                    22187145.448 5  90852746.37205      1811.562 5        33.880    22187145.392 7  90852744.38207      1811.543 7        44.146
E11         2.000    26630316.108 6 139943450.96106     -3134.543 6        38.270                                                                    26630312.503 6 104503351.04106     -2340.724 6        40.265    26630312.273 6 107229511.69706     -2401.805 6        40.265
G16         3.000    20757179.422 8 109079919.98208       863.760 8        48.168                                    20757174.775 6  84997424.88206       673.059 6        38.646
G05         4.000    24091069.935 6 126599524.75406     -3215.857 6        40.296                                    24091066.138 5  98649004.95805     -2505.862 5        33.036    24091066.174 6  98649003.96506     -2506.000 6        36.408
S21         5.000    38417512.755 7 201885086.28407      -459.622 7        42.464
G26         6.000    20652743.797 8 108531140.77208     -1529.609 8        49.853                                    20652742.457 8  84569852.67308     -1191.905 8        50.487    20652742.644 7  84569839.67207     -1191.848 7        45.106
G10         7.000    24839447.426 6 130532202.22006      3193.615 6        39.075                                    24839448.054 5 101713410.69205      2488.524 5        33.263    24839447.566 6 101713404.70506      2488.508 6        37.690
E15         8.000    28734484.111 5 151000740.06105      2478.271 5        35.114                                                                    28734492.604 6 112760330.67406      1850.554 6        37.550    28734491.242 6 115701895.91306      1899.049 6        38.619
E36         9.000    23522985.675 8 123614317.55708     -1247.262 8        48.235                                                                    23522985.979 8  92309536.98608      -931.443 8        51.087    23522985.713 8  94717599.08108      -955.727 8        51.550
G27        10.000    22596531.564 7 118745705.92107      2512.503 7        43.509                                    22596530.389 6  92529187.02106      1957.793 6        40.651    22596530.404 6  92529189.02406      1957.856 6        40.319
G15        11.000    25076544.550 6 131778132.99306      2182.801 6        37.735                                    25076542.247 4 102684247.12604      1700.882 4        27.269    25076542.432 5 102684250.11305      1700.961 5        33.527
E19        12.000    28414345.841 4 149318396.10304      -666.398 4        29.393                                                                    28414347.289 5 111503995.28105      -497.634 5        32.353    28414346.308 5 114412792.01805      -510.859 5        33.389
C23        13.000                                                                                                                                    23978934.298 7 124864652.05507       611.715 7        47.002                                                                    23978926.075 7 101462749.59107       497.174 7        46.906
S36        14.000    38187941.222 7 200679513.76207      -458.735 7        44.191
C13        15.000                                                                                                                                    37644291.986 7 196023766.31007      -593.113 7        45.273    37644293.234 7 151578044.66807      -458.579 7        45.439    37644291.802 7 159285389.84307      -481.823 7        43.549
G18        16.000    20636077.090 8 108443551.44308     -1384.482 8        48.989                                    20636073.329 7  84501566.67107     -1078.815 7        42.025    20636073.570 8  84501574.66708     -1078.779 8        48.955
R10        17.000    20538963.195 7 109484264.70807      1410.514 7        46.979
E27        18.000    28642854.035 6 150519218.26306      2473.354 6        37.637                                                                    28642854.897 6 112400715.20606      1847.040 6        39.411    28642854.132 6 115332905.46006      1895.148 6        40.205
E02        19.000    23605031.160 8 124045464.66408     -1826.648 8        48.762                                                                    23605029.952 8  92631463.74608     -1364.073 8        51.006    23605029.331 8  95047921.72008     -1399.584 8        51.010
S27        20.000    39187293.492 5 205930633.33205      -434.710 5        35.314
R11        21.000    24408484.758 6 130431553.31706      3816.540 6        39.997                                                                    24408485.629 6 101446763.73606      2968.537 6        39.348
I06        22.000    38693444.277 7 151841604.74507      -318.550 7        42.373
S28        23.000    40891620.996 5 214886914.69105      -454.387 5        34.424
S23        25.000    38143062.838 7 200443083.42907      -461.338 7        44.989
S45        26.000    63400119.195 6 333170401.64406      -514.990 6        37.456
R09        27.000    19726838.528 8 105340425.87508     -2283.925 8        52.090                                                                    19726837.380 8  81931554.70508     -1776.417 8        48.557
R18        28.000    21924672.895 7 117035686.86307     -3776.781 7        46.079                                                                    21924673.300 7  91027907.96407     -2937.487 7        44.466
C38        29.000                                                                                                                                    38955231.988 7 202850236.43507     -1259.305 7        43.071                                                                    38955229.482 7 164832478.32707     -1023.223 7        42.648
C44        30.000                                                                                                                                    23633518.510 7 123066154.40807     -2885.379 7        46.183                                                                    23633516.964 7 100001416.31707     -2344.524 7        45.317
C43        31.000                                                                                                                                    23461468.658 7 122170121.13107      1779.510 7        46.678                                                                    23461468.175 7  99273270.87407      1446.140 7        46.103
R02        32.000    23302698.599 7 124347679.04507     -1701.542 7        44.012                                                                    23302697.559 6  96714868.01506     -1323.401 6        39.781
I02        33.000    38973929.961 6 152942131.95106      -954.036 6        40.343
R03        34.000    22608247.013 7 121023752.64107      1578.439 7        46.126                                                                    22608246.605 6  94129586.32906      1227.651 6        41.957
E34        35.000    24402820.875 7 128237892.02607      1455.432 7        47.760                                                                    24402821.329 8  95762171.60808      1086.887 8        49.976    24402821.066 8  98260304.17208      1115.188 8        50.148
G29        36.000    23113723.387 7 121463731.49607     -3297.133 7        43.987                                    23113719.899 6  94647173.12306     -2569.193 6        39.631    23113720.449 6  94647183.11306     -2569.085 6        40.048
G31        37.000    24398920.558 7 128217405.06907     -3771.160 7        42.078                                    24398917.674 5  99909760.75205     -2938.562 5        33.976    24398918.526 6  99909766.73906     -2938.515 6        36.382
C22        38.000                                                                                                                                    24823148.525 7 129260672.30907       412.826 7        43.517                                                                    24823142.650 7 105034867.81207       335.501 7        44.026
E25        39.000    27148360.312 6 142665804.49206     -3468.381 6        38.691                                                                    27148361.721 7 106536281.05007     -2589.856 7        43.081    27148361.452 7 109315472.83407     -2657.479 7        44.305
C12        40.000                                                                                                                                    22357256.864 7 116420312.89207     -1988.274 7        47.559    22357252.856 8  90023668.57308     -1537.556 8        51.352    22357252.291 8  94601114.61808     -1615.565 8        49.018
R04        41.000    24012122.814 6 128583839.63706      3483.094 6        38.459                                                                    24012122.359 6 100009655.24406      2709.162 6        37.157
S44        42.000    40483219.984 6 212740950.78606      -413.534 6        37.070
G28        43.000    25826082.342 3                     -3834.813 3        21.119                                                                                                    25826084.661 3                     -2987.262 3        23.638
C05        44.000                                                                                                                                    39296345.315 6 204626412.92706      -389.010 6        37.346    39296340.778 7 158230145.12607      -300.661 7        42.982    39296342.982 6 166275824.26506      -315.844 6        40.038
C11        45.000                                                                                                                                    22061690.473 8 114881155.85908       789.077 8        48.537    22061687.660 8  88833457.06208       610.182 8        52.179    22061686.346 8  93350388.79908       641.283 8        49.098
R16        46.000    22923233.772 7 122451985.24207     -5018.554 7        46.286                                                                    22923234.521 6  95240543.62306     -3903.323 6        41.962
G07        47.000    26209774.932 5 137733295.83105      1856.235 5        35.952                                    26209771.848 3 107324629.49103      1446.406 3        23.733    26209772.450 5 107324637.49705      1446.396 5        32.748
C21        48.000                                                                                                                                    25746338.845 6 134067963.62706      2422.766 6        41.988                                                                    25746335.228 7 108941187.27507      1968.738 7        43.333
C24        49.000                                                                                                                                    25666705.907 6 133653330.50406     -3924.228 6        40.195                                                                    25666704.615 7 108604297.91907     -3188.521 7        42.317
R19        50.000    19616148.088 6 104933434.30906     -1779.400 6        41.299                                                                    19616147.248 7  81615007.35307     -1383.931 7        45.133
S48        51.000    77149116.780 6 405422232.49606      -498.188 6        38.048
C08        52.000                                                                                                                                    37774578.976 7 196702253.13307      -863.281 7        42.138    37774573.333 7 152102689.68007      -667.617 7        46.110    37774572.442 7 159836711.70907      -701.435 7        42.512
C34        53.000                                                                                                                                    21338542.997 8 111115676.67208      -455.825 8        50.900                                                                    21338542.629 8  90290706.12508      -370.265 8        49.122
C60        54.000                                                                                                                                    40483222.979 6 210806961.50506      -409.537 6        40.462                                                                    40483207.441 6 171297892.17006      -332.967 6        40.381
C25        55.000                                                                                                                                    22895082.587 8 119220950.18708     -2447.105 8        49.125                                                                    22895080.649 7  96876881.43007     -1988.400 7        47.833
I09        56.000    39805808.089 6 156206552.91606       468.647 6        41.192
C02        57.000                                                                                                                                    40640084.104 5 211623620.27005      -372.634 5        34.457    40640077.349 6 163640798.83106      -288.213 6        38.709    40640081.199 5 171961527.80205      -302.691 5        34.781
I03        58.000    83416128.564 6 251557549.80906      1109.904 6        40.501
E30        59.000    24647525.899 7 129523839.70907      1052.616 7        46.751                                                                    24647525.744 8  96722466.92308       785.961 8        49.322    24647525.431 8  99245645.07608       806.444 8        50.183
R20        60.000    21252537.874 6 113647063.30106      2247.778 6        39.550                                                                    21252539.002 7  88392227.04507      1748.126 7        44.831
> 2025 01 02 18 16 20.0000000  0 59
G23         1.000    22184937.662 7 116582710.24207      2322.861 7        46.595                                    22184934.302 5  90843691.82905      1810.016 5        33.970    22184934.247 7  90843689.82607      1810.158 7        44.167
E11         2.000    26633298.191 6 139959123.67306     -3134.611 6        38.045                                                                    26633294.828 6 104515054.69706     -2340.986 6        40.195    26633294.778 6 107241520.66806     -2401.958 6        40.355
G16         3.000    20756358.712 8 109075607.26408       860.916 8        48.128                                    20756354.089 6  84994064.32506       670.842 6        38.565
G05         4.000    24094130.707 6 126615608.80006     -3218.015 6        40.739                                    24094126.838 5  98661537.97205     -2507.545 5        32.970    24094127.222 6  98661536.99206     -2507.668 6        36.386
S21         5.000    38417949.203 7 201887382.61507      -459.310 7        42.508
G26         6.000    20654200.261 8 108538795.03408     -1532.405 8        50.086                                    20654199.012 8  84575817.03208     -1194.083 8        50.405    20654199.103 7  84575804.04007     -1194.165 7        45.059
G10         7.000    24836408.684 6 130516233.39606      3193.530 6        39.399                                    24836409.251 5 101700967.48405      2488.462 5        33.335    24836409.690 6 101700961.50506      2488.476 6        37.758
E15         8.000    28732125.952 5 150988347.66605      2478.324 5        35.029                                                                    28732134.065 6 112751076.69606      1850.690 6        37.565    28732133.107 6 115692400.51606      1898.860 6        38.544
E36         9.000    23524172.890 8 123620556.73608     -1248.836 8        48.341                                                                    23524173.246 8  92314196.11508      -932.604 8        51.037    23524172.986 8  94722379.75108      -956.896 8        51.574
G27        10.000    22594140.717 7 118733144.19007      2511.763 7        43.619                                    22594139.985 6  92519398.66806      1957.219 6        40.591    22594140.483 6  92519400.67306      1957.223 6        40.338
G15        11.000    25074468.206 6 131767220.79106      2181.673 6        37.750                                    25074465.764 4 102675744.09704      1699.997 4        27.090    25074465.665 5 102675747.11605      1699.884 5        33.742
E19        12.000    28414981.383 4 149321733.10804      -669.148 4        28.844                                                                    28414982.419 5 111506487.15805      -499.276 5        32.527    28414981.783 5 114415348.90805      -512.315 5        33.293
C23        13.000                                                                                                                                    23978347.582 7 124861598.69107       609.215 7        46.747                                                                    23978339.668 7 101460268.47707       495.039 7        46.973
S36        14.000    38188375.376 7 200681806.75407      -458.497 7        44.203
C13        15.000                                                                                                                                    37644861.589 7 196026732.39907      -593.687 7        45.052    37644862.828 7 151580338.24707      -459.110 7        45.511    37644861.429 7 159287800.02107      -482.400 7        43.630
G18        16.000    20637395.374 8 108450478.60108     -1386.802 8        49.277                                    20637391.528 6  84506964.45706     -1080.624 6        41.969    20637391.606 8  84506972.45308     -1080.588 8        48.768
R10        17.000    20537641.802 7 109477220.70107      1406.724 7        47.115
E27        18.000    28640500.653 6 150506849.94606      2473.539 6        37.308                                                                    28640501.200 6 112391479.09406      1847.193 6        39.526    28640500.753 6 115323428.42806      1895.199 6        40.420
E02        19.000    23606769.627 8 124054601.18108     -1828.323 8        48.804                                                                    23606768.594 8  92638286.46408     -1365.328 8        50.902    23606767.938 8  95054922.43008     -1400.962 8        50.963
S27        20.000    39187708.736 5 205932804.23505      -434.360 5        35.967
R11        21.000    24404913.749 6 130412471.21606      3815.853 6        40.026                                                                    24404913.995 6 101431922.09806      2967.784 6        38.697
I06        22.000    38693849.677 7 151843195.67207      -318.210 7        42.417
S28        23.000    40892052.878 5 214889183.72105      -453.985 5        34.557
S23        25.000    38143502.434 7 200445388.97707      -461.207 7        45.214
S45        26.000    63400559.475 6 333172974.72306      -514.795 6        37.505
R09        27.000    19728978.853 8 105351854.63108     -2287.954 8        51.946                                                                    19728977.634 8  81940443.73508     -1779.428 8        48.475
R18        28.000    21928210.335 7 117054570.84207     -3777.182 7        45.819                                                                    21928210.990 7  91042595.51607     -2937.822 7        44.382
C38        29.000                                                                                                                                    38956441.231 7 202856533.35407     -1259.855 7        43.124                                                                    38956438.709 7 164837595.06507     -1023.643 7        42.722
C44        30.000                                                                                                                                    23636289.262 7 123080581.68507     -2885.912 7        46.220                                                                    23636287.495 7 100013139.64207     -2344.928 7        45.466
C43        31.000                                                                                                                                    23459759.971 7 122161224.55107      1778.755 7        46.418                                                                    23459759.721 7  99266041.66507      1445.430 7        46.148
R02        32.000    23304294.434 7 124356195.98207     -1705.608 7        44.522                                                                    23304294.234 6  96721492.30706     -1326.495 6        39.577
I02        33.000    38975145.047 6 152946900.67806      -953.962 6        40.403
R03        34.000    22606773.688 7 121015868.29607      1574.974 7        45.758                                                                    22606773.171 6  94123454.07406      1224.956 6        41.340
E34        35.000    24401436.648 7 128230617.14507      1454.092 7        47.952                                                                    24401436.950 8  95756739.06808      1085.889 8        49.932    24401436.711 8  98254729.90908      1114.190 8        50.245
G29        36.000    23116860.745 7 121480217.74107     -3297.782 7        44.144                                    23116857.225 6  94660019.55006     -2569.699 6        39.667    23116857.677 6  94660029.54806     -2569.763 6        40.317
G31        37.000    24402508.979 7 128236260.50407     -3771.384 7        42.021                                    24402505.597 5  99924453.29305     -2938.741 5        33.940    24402506.370 6  99924459.29906     -2938.912 6        36.612
C22        38.000                                                                                                                                    24822753.282 7 129258613.40907       410.235 7        43.481                                                                    24822747.459 7 105033194.77507       333.465 7        44.397
E25        39.000    27151660.111 6 142683146.13206     -3468.686 6        38.754                                                                    27151661.800 7 106549230.96707     -2590.205 7        43.172    27151661.505 7 109328760.57507     -2657.790 7        44.178
C12        40.000                                                                                                                                    22359166.222 7 116430256.07007     -1989.316 7        47.589    22359162.530 8  90031357.26608     -1538.270 8        51.481    22359161.852 8  94609194.25708     -1616.413 8        49.160
R04        41.000    24008870.727 6 128566423.99906      3482.715 6        38.685                                                                    24008871.240 6  99996109.74606      2708.796 6        36.741
S44        42.000    40483616.005 6 212743017.04906      -413.383 6        37.270
G28        43.000                                                                                                                                                                    25829733.470 3                     -2987.962 3        23.505
C05        44.000                                                                                                                                    39296717.980 6 204628356.06806      -388.798 6        37.077    39296714.239 7 158231647.69407      -300.619 7        43.189    39296716.059 6 166277403.22106      -315.846 6        40.267
C11        45.000                                                                                                                                    22060933.112 8 114877212.53008       787.777 8        48.490    22060930.313 8  88830407.82708       609.188 8        52.138    22060929.091 8  93347184.50208       640.249 8        49.205
R16        46.000    22927931.114 7 122477078.97007     -5019.329 7        46.126                                                                    22927932.425 7  95260060.93807     -3903.859 7        42.315
G07        47.000    26208009.260 5 137724017.88205      1854.453 5        35.800                                    26208006.537 3 107317399.92203      1445.021 3        22.971    26208006.470 5 107317407.91105      1444.976 5        31.774
C21        48.000                                                                                                                                    25744013.318 7 134055850.89107      2422.118 7        42.028                                                                    25744009.121 7 108931344.67707      1968.120 7        43.456
C24        49.000                                                                                                                                    25670473.767 6 133672949.95206     -3924.044 6        40.300                                                                    25670472.415 7 108620240.30907     -3188.522 7        42.468
R19        50.000    19617813.084 6 104942335.73406     -1781.488 6        41.156                                                                    19617811.498 7  81621930.67507     -1385.606 7        44.825
S48        51.000    77149561.823 6 405424722.55206      -498.242 6        37.713
C08        52.000                                                                                                                                    37775407.953 7 196706570.79507      -864.061 7        42.099    37775402.559 7 152106028.36507      -668.198 7        46.245    37775401.610 7 159840220.14407      -702.210 7        42.580
C34        53.000                                                                                                                                    21338981.104 8 111117958.33808      -457.237 8        50.768                                                                    21338980.800 8  90292560.14808      -371.460 8        49.274
C60        54.000                                                                                                                                    40483616.200 6 210809009.00606      -409.624 6        40.367                                                                    40483600.622 6 171299555.89906      -332.758 6        40.539
C25        55.000                                                                                                                                    22897432.849 8 119233189.62708     -2449.053 8        48.820                                                                    22897431.090 7  96886826.95307     -1989.984 7        47.977
I09        56.000    39805210.855 6 156204208.53806       468.749 6        41.583
C02        57.000                                                                                                                                    40640441.597 5 211625481.67305      -372.481 5        34.233    40640434.780 6 163642238.17206      -287.902 6        39.066    40640438.517 5 171963040.32005      -302.526 5        34.890
I03        58.000    83414713.657 6 251551999.00506      1110.085 6        40.577
E30        59.000    24646525.084 7 129518579.76007      1051.070 7        46.862                                                                    24646524.778 8  96718539.04208       784.893 8        49.287    24646524.467 8  99241614.72708       805.354 8        50.215
R20        60.000    21250435.941 6 113635828.15006      2245.908 6        39.940                                                                    21250438.288 7  88383488.59807      1746.921 7        45.368
> 2025 01 02 18 16 25.0000000  0 59
G23         1.000    22182728.368 7 116571100.64007      2320.896 7        46.397                                    22182725.209 5  90834645.39405      1808.491 5        34.081    22182724.951 7  90834643.40107      1808.475 7        44.354
E11         2.000    26636280.865 6 139974798.75006     -3135.129 6        37.773                                                                    26636277.615 6 104526760.09306     -2341.043 6        40.117    26636277.800 6 107253531.43406     -2402.305 6        40.596
G16         3.000    20755540.745 7 109071309.61407       857.992 7        47.925                                    20755536.274 6  84990715.50806       668.565 6        38.559
G05         4.000    24097193.735 6 126631704.52106     -3220.277 6        40.939                                    24097189.748 5  98674080.08105     -2509.305 5        33.168    24097190.469 6  98674079.06506     -2509.128 6        36.439
S21         5.000    38418385.946 7 201889679.17207      -459.236 7        42.540
G26         6.000    20655659.721 8 108546464.62008     -1535.427 8        50.099                                    20655658.482 8  84581793.33208     -1196.438 8        50.454    20655658.664 7  84581780.33507     -1196.421 7        44.789
G10         7.000    24833369.919 6 130500264.65806      3193.805 6        39.429                                    24833370.452 5 101688524.34405      2488.677 5        33.539    24833370.146 6 101688518.35406      2488.671 6        37.996
E15         8.000    28729767.582 5 150975956.91505      2477.877 5        35.119                                                                    28729776.046 6 112741823.95006      1850.675 6        37.868    28729775.173 6 115682906.40606      1898.765 6        38.985
E36         9.000    23525361.915 8 123626804.64408     -1250.417 8        48.330                                                                    23525362.199 8  92318861.76008      -933.737 8        51.068    23525361.929 8  94727167.11208      -958.076 8        51.553
G27        10.000    22591751.598 7 118720587.35307      2510.768 7        43.975                                    22591750.507 6  92509614.13506      1956.440 6        40.653    22591750.766 6  92509616.13406      1956.541 6        40.017
G15        11.000    25072392.688 6 131756315.44006      2180.476 6        37.962                                    25072390.479 4 102667246.43404      1699.065 4        27.138    25072391.126 5 102667249.43005      1698.658 5        33.323
E19        12.000    28415618.327 4 149325081.85604      -670.962 4        29.194                                                                    28415620.043 5 111508987.96205      -500.876 5        33.778    28415618.560 5 114417914.93705      -514.103 5        34.567
C23        13.000                                                                                                                                    23977763.968 7 124858558.82407       606.661 7        46.531                                                                    23977755.916 7 101457798.36107       492.816 7        47.059
S36        14.000    38188814.172 7 200684099.11607      -458.437 7        44.352
C13        15.000                                                                                                                                    37645431.918 7 196029703.00607      -594.494 7        44.971    37645433.546 7 151582635.30907      -459.691 7        45.670    37645431.810 7 159290213.90507      -483.191 7        43.625
G18        16.000    20638716.076 8 108457418.35408     -1389.193 8        49.074                                    20638712.123 7  84512372.05907     -1082.487 7        42.049    20638712.213 8  84512380.06408     -1082.491 8        48.877
R10        17.000    20536324.129 7 109470196.81907      1402.736 7        46.837
E27        18.000    28638147.292 6 150494482.62206      2473.385 6        37.406                                                                    28638147.879 6 112382243.74906      1846.961 6        39.345    28638147.337 6 115313952.14706      1895.291 6        40.334
E02        19.000    23608510.099 8 124063747.47308     -1830.203 8        48.916                                                                    23608509.003 8  92645116.48808     -1366.690 8        50.938    23608508.475 8  95061930.62908     -1402.373 8        50.983
S27        20.000    39188124.494 5 205934975.52105      -434.417 5        35.862
R11        21.000    24401343.585 6 130393393.64306      3815.203 6        41.216                                                                    24401343.962 6 101417083.97906      2967.318 6        38.604
I06        22.000    38694255.117 7 151844786.49507      -318.000 7        42.438
S28        23.000    40892483.124 5 214891452.59505      -453.791 5        34.876
S23        25.000    38143941.655 7 200447694.45707      -461.079 7        45.251
S45        26.000    63400996.223 6 333175547.79606      -514.711 6        37.611
R09        27.000    19731123.081 8 105363304.40908     -2292.013 8        52.018                                                                    19731122.172 8  81949349.12008     -1782.697 8        48.984
R18        28.000    21931748.918 7 117073457.89307     -3777.649 7        46.386                                                                    21931749.379 7  91057285.42407     -2938.148 7        44.530
C38        29.000                                                                                                                                    38957651.196 7 202862833.71507     -1260.470 7        43.039                                                                    38957648.753 7 164842714.65007     -1024.267 7        42.622
C44        30.000                                                                                                                                    23639060.444 7 123095012.29207     -2886.408 7        46.039                                                                    23639058.797 7 100024865.72207     -2345.582 7        45.541
C43        31.000                                                                                                                                    23458052.781 7 122152333.10607      1777.775 7        46.270                                                                    23458052.156 7  99258816.66507      1444.501 7        46.305
R02        32.000    23305894.450 7 124364733.40507     -1709.422 7        43.852                                                                    23305894.494 6  96728132.54606     -1329.747 6        39.709
I02        33.000    38976360.365 6 152951670.25506      -953.884 6        40.360
R03        34.000    22605304.720 7 121008001.84807      1571.478 7        46.130                                                                    22605303.924 6  94117335.72406      1222.335 6        41.940
E34        35.000    24400053.905 7 128223350.01107      1452.660 7        47.915                                                                    24400054.059 8  95751312.31908      1084.766 8        49.839    24400053.872 8  98249161.59108      1113.120 8        50.192
G29        36.000    23119998.834 7 121496708.58307     -3298.594 7        43.689                                    23119995.450 6  94672869.54806     -2570.331 6        39.667    23119995.701 6  94672879.53806     -2570.241 6        39.919
G31        37.000    24406097.051 6 128255118.55906     -3771.812 6        41.704                                    24406094.177 5  99939147.87405     -2939.073 5        34.043    24406094.733 6  99939153.86706     -2939.115 6        37.183
C22        38.000                                                                                                                                    24822360.325 7 129256568.08707       407.691 7        43.272                                                                    24822354.778 7 105031532.80707       331.214 7        44.480
E25        39.000    27154960.962 6 142700490.74906     -3469.261 6        39.120                                                                    27154962.503 7 106562183.11807     -2590.694 7        43.412    27154961.995 7 109342050.59807     -2658.158 7        44.096
C12        40.000                                                                                                                                    22361077.060 7 116440205.31207     -1990.487 7        47.676    22361073.261 8  90039050.64908     -1539.105 8        51.601    22361072.484 8  94617278.85508     -1617.469 8        49.078
R04        41.000    24005618.542 6 128549010.90406      3482.441 6        38.868                                                                    24005619.338 6  99982566.22606      2708.628 6        36.495
S44        42.000    40484006.686 6 212745083.58306      -413.323 6        37.550
G28        43.000                                                                                                                                                                    25833379.640 3                     -2987.391 3        22.571
C05        44.000                                                                                                                                    39297091.356 6 204630299.29006      -388.532 6        37.327    39297087.302 7 158233150.33007      -300.490 7        43.166    39297089.359 6 166278982.27706      -315.861 6        40.122
C11        45.000                                                                                                                                    22060177.291 8 114873276.55008       786.471 8        48.537    22060174.304 8  88827364.28608       608.149 8        52.197    22060173.231 8  93343986.22008       639.005 8        49.213
R16        46.000    22932629.455 7 122502177.17307     -5020.073 7        45.792                                                                    22932630.550 7  95279581.76007     -3904.498 7        42.140
G07        47.000    26206245.690 6 137714749.01906      1852.864 6        36.749                                    26206242.661 4 107310177.42904      1443.812 4        24.000    26206243.076 5 107310185.40505      1443.978 5        32.054
C21        48.000                                                                                                                                    25741687.985 6 134043742.63006      2421.253 6        41.945                                                                    25741683.742 7 108921505.74407      1967.309 7        43.249
C24        49.000                                                                                                                                    25674241.318 6 133692569.80606     -3924.010 6        40.520                                                                    25674240.191 7 108636183.06007     -3188.651 7        42.535
R19        50.000    19619478.638 6 104951248.89806     -1783.745 6        41.206                                                                    19619477.602 7  81628863.13807     -1387.359 7        44.957
S48        51.000    77150011.337 6 405427212.72706      -498.097 6        38.000
C08        52.000                                                                                                                                    37776238.111 7 196710893.13607      -864.970 7        42.129    37776232.587 7 152109370.67207      -668.761 7        46.399    37776231.703 7 159843732.42807      -702.890 7        42.622
C34        53.000                                                                                                                                    21339420.877 8 111120248.08108      -458.724 8        50.711                                                                    21339420.543 8  90294420.77708      -372.874 8        49.266
C60        54.000                                                                                                                                    40484009.631 6 210811056.74006      -409.560 6        40.343                                                                    40483993.839 6 171301219.87906      -332.917 6        40.605
C25        55.000                                                                                                                                    22899785.385 8 119245440.31208     -2451.134 8        48.924                                                                    22899783.661 7  96896781.67507     -1991.953 7        47.982
I09        56.000    39804614.066 6 156201864.14606       468.966 6        41.456
C02        57.000                                                                                                                                    40640798.969 5 211627343.27405      -372.279 5        34.324    40640792.545 6 163643677.68506      -287.884 6        39.114    40640796.144 5 171964553.04705      -302.476 5        35.071
I03        58.000    83413299.409 6 251546448.34006      1110.143 6        40.598
E30        59.000    24645525.821 7 129513328.29307      1049.453 7        46.917                                                                    24645525.518 8  96714617.49008       783.694 8        49.350    24645525.187 8  99237590.87308       804.154 8        50.218
R20        60.000    21248336.407 6 113624602.68206      2244.109 6        39.985                                                                    21248339.451 7  88374757.68607      1745.433 7        45.418
> 2025 01 02 18 16 30.0000000  0 59
G23         1.000    22180520.658 7 116559501.74807      2318.836 7        46.383                                    22180518.097 5  90825607.30305      1806.885 5        34.148    22180517.514 7  90825605.30807      1806.805 7        43.949
E11         2.000    26639264.258 6 139990476.42006     -3135.441 6        37.259                                                                    26639261.014 6 104538467.45106     -2341.503 6        40.040    26639261.334 6 107265544.19406     -2402.526 6        40.679
G16         3.000    20754726.125 8 109067027.33008       854.988 8        48.388                                    20754721.361 6  84987378.66906       666.223 6        38.718
G05         4.000    24100258.700 6 126647812.16806     -3222.555 6        41.156                                    24100254.888 5  98686631.49405     -2511.081 5        33.150    24100255.605 6  98686630.50906     -2511.118 6        36.151
S21         5.000    38418823.790 7 201891976.09607      -459.219 7        42.607
G26         6.000    20657122.324 8 108554149.81308     -1538.536 8        49.869                                    20657120.931 8  84587781.79808     -1198.858 8        50.564    20657121.197 7  84587768.79907     -1198.867 7        45.052
G10         7.000    24830331.044 6 130484296.34106      3193.726 6        39.447                                    24830331.775 5 101676081.53005      2488.611 5        33.701    24830331.496 6 101676075.55106      2488.454 6        37.992
E15         8.000    28727410.817 5 150963568.11005      2477.685 5        35.324                                                                    28727418.481 6 112732572.68106      1850.311 6        38.015    28727417.386 6 115673413.75506      1898.564 6        38.129
E36         9.000    23526552.502 8 123633061.57208     -1252.157 8        48.340                                                                    23526552.842 8  92323534.13708      -935.037 8        51.067    23526552.568 8  94731961.37808      -959.400 8        51.569
G27        10.000    22589363.205 7 118708035.68507      2509.869 7        44.080                                    22589361.998 6  92499833.62106      1955.741 6        40.763    22589361.975 6  92499835.62606      1955.689 6        40.262
G15        11.000    25070319.472 6 131745417.26006      2179.197 6        37.569                                    25070316.608 4 102658754.34604      1698.082 4        27.042    25070316.097 5 102658757.33705      1698.320 5        33.365
E19        12.000    28416257.650 4 149328442.65104      -673.534 4        27.569                                                                    28416259.001 5 111511497.70705      -502.564 5        33.000    28416258.216 5 114420490.12705      -515.673 5        33.557
C23        13.000                                                                                                                                    23977183.015 7 124855532.70307       603.949 7        46.522                                                                    23977174.828 7 101455339.36007       490.804 7        46.955
S36        14.000    38189248.438 7 200686392.56107      -458.761 7        44.370
C13        15.000                                                                                                                                    37646003.329 7 196032678.42007      -595.516 7        45.013    37646004.883 7 151584936.07907      -460.527 7        45.613    37646003.218 7 159292631.65207      -483.874 7        43.553
G18        16.000    20640039.076 8 108464370.99308     -1391.688 8        49.007                                    20640035.169 7  84517789.70007     -1084.432 7        42.138    20640035.500 8  84517797.69608     -1084.436 8        48.990
R10        17.000    20535010.470 7 109463193.36407      1398.804 7        46.741
E27        18.000    28635793.914 6 150482116.60906      2473.452 6        36.219                                                                    28635794.400 6 112373009.44006      1846.844 6        39.156    28635794.188 6 115304476.94306      1894.936 6        40.334
E02        19.000    23610252.440 8 124072903.82308     -1832.101 8        48.822                                                                    23610251.434 8  92651954.02308     -1368.132 8        50.959    23610250.867 8  95068946.53108     -1403.828 8        51.079
S27        20.000    39188537.466 6 205937147.71906      -434.418 6        36.121
R11        21.000    24397775.639 6 130374320.88806      3814.298 6        41.814                                                                    24397774.314 6 101402249.59406      2966.608 6        38.087
I06        22.000    38694660.504 7 151846377.43907      -318.095 7        42.569
S28        23.000    40892920.731 5 214893721.58705      -453.716 5        34.867
S23        25.000    38144379.489 7 200450000.26807      -461.039 7        45.410
S45        26.000    63401434.532 6 333178121.33806      -514.500 6        37.811
R09        27.000    19733271.409 8 105374775.51708     -2296.188 8        52.047                                                                    19733270.309 8  81958271.08208     -1785.902 8        49.286
R18        28.000    21935288.253 7 117092348.17707     -3778.239 7        46.991                                                                    21935288.195 7  91071977.87007     -2938.659 7        44.059
C38        29.000                                                                                                                                    38958861.810 7 202869137.81907     -1261.086 7        43.154                                                                    38958859.310 7 164847837.23307     -1024.750 7        42.679
C44        30.000                                                                                                                                    23641832.326 7 123109446.52507     -2887.095 7        45.983                                                                    23641830.759 7 100036594.68307     -2345.986 7        45.395
C43        31.000                                                                                                                                    23456346.190 7 122143447.08407      1776.840 7        46.169                                                                    23456345.647 7  99251596.02607      1443.785 7        46.167
R02        32.000    23307497.032 7 124373291.57407     -1713.607 7        43.323                                                                    23307498.579 6  96734788.88806     -1332.772 6        39.973
I02        33.000    38977576.396 6 152956440.34106      -954.045 6        40.260
R03        34.000    22603838.947 7 121000153.19007      1568.126 7        46.463                                                                    22603837.889 7  94111231.22907      1219.639 7        42.233
E34        35.000    24398672.644 7 128216090.89607      1451.217 7        47.782                                                                    24398672.696 8  95745891.55708      1083.680 8        49.923    24398672.543 8  98243599.42008      1111.983 8        50.200
G29        36.000    23123137.749 7 121513204.24607     -3299.514 7        43.465                                    23123134.560 6  94685723.31106     -2571.050 6        39.661    23123134.133 6  94685733.29206     -2570.977 6        39.724
G31        37.000    24409686.615 7 128273979.48107     -3772.343 7        42.169                                    24409683.387 5  99953844.68605     -2939.486 5        34.243    24409684.340 6  99953850.68306     -2939.619 6        37.096
C22        38.000                                                                                                                                    24821970.193 7 129254536.61207       404.984 7        43.452                                                                    24821964.519 7 105029882.05307       329.085 7        44.483
E25        39.000    27158262.309 6 142717838.61206     -3469.661 6        39.607                                                                    27158263.652 7 106575137.68807     -2591.025 7        43.490    27158263.229 7 109355343.12007     -2658.659 7        44.102
C12        40.000                                                                                                                                    22362989.068 7 116450160.85107     -1991.652 7        47.585    22362985.072 8  90046748.89608     -1540.031 8        51.582    22362984.338 8  94625368.51808     -1618.340 8        49.127
R04        41.000    24002367.680 6 128531600.70306      3481.917 6        39.096                                                                    24002368.083 6  99969024.99606      2708.291 6        36.684
S44        42.000    40484401.772 6 212747150.62306      -413.414 6        37.399
G28        43.000                                                                                                                                                                    25837027.576 3                     -2987.336 3        21.214
C05        44.000                                                                                                                                    39297464.204 6 204632242.90606      -388.628 6        37.017    39297460.468 7 158234653.24507      -300.473 7        43.105    39297462.444 6 166280561.58706      -315.620 6        40.155
C11        45.000                                                                                                                                    22059423.018 8 114869348.18908       785.018 8        48.535    22059419.858 8  88824326.62308       607.079 8        52.248    22059418.854 8  93340794.08508       637.879 8        49.237
R16        46.000    22937328.777 7 122527280.03407     -5020.881 7        45.378                                                                    22937330.116 7  95299106.19907     -3905.185 7        42.144
G07        47.000    26204483.569 6 137705489.63406      1851.048 6        37.210                                    26204480.730 4 107302962.27104      1442.383 4        24.902    26204480.206 5 107302970.27105      1442.328 5        32.754
C21        48.000                                                                                                                                    25739363.719 7 134031639.14407      2420.389 7        42.038                                                                    25739359.379 7 108911670.64707      1966.699 7        43.092
C24        49.000                                                                                                                                    25678009.040 6 133712190.30806     -3924.076 6        40.896                                                                    25678008.210 7 108652126.29607     -3188.629 7        42.398
R19        50.000    19621146.944 6 104960174.03906     -1786.110 6        41.473                                                                    19621145.944 7  81635804.92607     -1389.197 7        44.915
S48        51.000    77150456.997 6 405429703.49606      -497.919 6        38.306
C08        52.000                                                                                                                                    37777069.455 7 196715220.44407      -865.926 7        42.296    37777063.670 7 152112716.82207      -669.484 7        46.371    37777062.650 7 159847248.68907      -703.486 7        42.588
C34        53.000                                                                                                                                    21339862.295 8 111122546.19608      -460.357 8        50.775                                                                    21339861.852 8  90296288.15908      -374.080 8        49.267
C60        54.000                                                                                                                                    40484402.870 6 210813104.99306      -409.604 6        40.157                                                                    40484387.230 6 171302884.23406      -332.769 6        40.622
C25        55.000                                                                                                                                    22902140.595 8 119257702.53608     -2453.506 8        48.907                                                                    22902138.498 7  96906745.70607     -1993.711 7        47.931
I09        56.000    39804016.215 6 156199519.97206       468.961 6        41.569
C02        57.000                                                                                                                                    40641156.681 5 211629205.34505      -372.544 5        34.233    40641149.899 6 163645117.54606      -287.818 6        39.093    40641153.601 5 171966066.09805      -302.741 5        35.062
I03        58.000    83411884.721 6 251540898.01606      1110.300 6        40.617
E30        59.000    24644527.868 7 129508085.59707      1047.780 7        46.811                                                                    24644527.838 8  96710702.49208       782.429 8        49.344    24644527.545 8  99233573.74108       802.888 8        50.249
R20        60.000    21246239.249 6 113613387.14906      2242.147 6        38.811                                                                    21246241.971 7  88366034.50007      1743.996 7        45.624
> 2025 01 02 18 16 35.0000000  0 59
G23         1.000    22178315.631 7 116547913.16107      2316.825 7        46.478                                    22178312.809 5  90816577.24005      1805.316 5        34.200    22178312.372 7  90816575.23707      1805.345 7        43.361
E11         2.000    26642248.256 6 140006156.32106     -3135.955 6        37.081                                                                    26642244.621 6 104550176.46206     -2341.898 6        40.055    26642244.885 6 107277558.64506     -2402.848 6        40.739
G16         3.000    20753914.020 8 109062760.02808       852.045 8        48.155                                    20753909.314 6  84984053.49806       663.931 6        38.748
G05         4.000    24103326.454 6 126663931.29906     -3224.800 6        40.734                                    24103322.225 5  98699191.86205     -2512.828 5        32.988    24103322.923 6  98699190.87506     -2513.033 6        36.291
S21         5.000    38419260.676 7 201894272.94607      -459.150 7        42.694
G26         6.000    20658587.343 8 108561850.21308     -1541.502 8        50.152                                    20658586.259 8  84593782.11108     -1201.172 8        50.606    20658586.678 7  84593769.11207     -1201.142 7        45.237
G10         7.000    24827292.494 6 130468328.01806      3193.841 6        39.550                                    24827293.137 5 101663638.71005      2488.703 5        33.778    24827292.875 6 101663632.73206      2488.618 6        38.030
E15         8.000    28725053.296 6 150951180.82706      2477.263 6        36.083                                                                    28725061.487 6 112723322.54106      1850.073 6        37.913    28725059.834 6 115663922.32106      1898.099 6        38.288
E36         9.000    23527744.843 8 123639327.09308     -1253.888 8        48.352                                                                    23527745.131 8  92328212.93208      -936.310 8        51.082    23527744.882 8  94736762.23108      -960.730 8        51.541
G27        10.000    22586975.200 7 118695488.76607      2509.006 7        43.829                                    22586974.398 6  92490056.81106      1955.065 6        40.839    22586974.878 6  92490058.81606      1955.089 6        40.701
G15        11.000    25068246.458 6 131734525.87406      2177.777 6        37.743                                    25068244.006 4 102650267.53704      1696.974 4        27.138    25068244.773 5 102650270.54505      1696.861 5        33.126
E19        12.000    28416899.126 4 149331815.26704      -675.507 4        28.227                                                                    28416900.918 5 111514016.30905      -504.630 5        33.078    28416900.051 5 114423074.42405      -517.345 5        33.898
C23        13.000                                                                                                                                    23976604.369 7 124852519.93607       601.371 7        46.499                                                                    23976596.167 7 101452891.25707       488.592 7        46.978
S36        14.000    38189684.721 7 200688686.21707      -458.682 7        44.185
C13        15.000                                                                                                                                    37646575.741 7 196035658.26207      -596.293 7        45.081    37646577.348 7 151587240.27907      -461.006 7        45.204    37646575.541 7 159295053.02107      -484.559 7        43.564
G18        16.000    20641364.313 8 108471336.08208     -1394.138 8        49.006                                    20641360.580 7  84523217.04307     -1086.345 7        42.136    20641360.817 8  84523225.04008     -1086.363 8        48.956
R10        17.000    20533700.135 7 109456209.94007      1394.761 7        47.298
E27        18.000    28633440.848 5 150469751.52305      2473.346 5        35.943                                                                    28633441.192 6 112363775.78006      1846.805 6        38.670    28633440.852 6 115295002.39206      1894.957 6        39.760
E02        19.000    23611996.599 8 124082069.82908     -1834.040 8        48.790                                                                    23611995.692 8  92658798.76108     -1369.515 8        50.945    23611995.089 8  95075969.83008     -1405.289 8        51.060
S27        20.000    39188949.338 5 205939320.26505      -434.152 5        35.795
R11        21.000    24394207.681 7 130355252.45307      3813.478 7        42.146                                                                    24394205.778 6 101387418.65006      2965.987 6        38.402
I06        22.000    38695066.071 7 151847968.18407      -318.071 7        42.428
S28        23.000    40893348.357 5 214895990.87705      -453.427 5        34.438
S23        25.000    38144817.766 7 200452306.23207      -461.112 7        45.272
S45        26.000    63401870.886 6 333180694.79906      -514.513 6        37.830
R09        27.000    19735423.264 8 105386267.54308     -2300.372 8        51.758                                                                    19735422.215 8  81967209.33008     -1789.157 8        48.922
R18        28.000    21938827.144 7 117111241.33807     -3778.857 7        46.824                                                                    21938827.064 7  91086672.54707     -2939.059 7        43.918
C38        29.000                                                                                                                                    38960072.966 7 202875445.26307     -1261.729 7        42.944                                                                    38960070.607 7 164852962.56507     -1025.319 7        42.584
C44        30.000                                                                                                                                    23644604.824 7 123123883.96307     -2887.691 7        46.068                                                                    23644603.359 7 100048326.30207     -2346.565 7        45.561
C43        31.000                                                                                                                                    23454641.054 7 122134566.10307      1775.815 7        46.439                                                                    23454640.116 7  99244379.51007      1442.961 7        46.190
R02        32.000    23309104.602 7 124381870.17907     -1717.579 7        43.319                                                                    23309105.631 6  96741461.11906     -1335.941 6        39.805
I02        33.000    38978791.678 6 152961210.95206      -953.949 6        40.269
R03        34.000    22602376.158 7 120992322.45207      1564.527 7        46.472                                                                    22602374.754 7  94105140.66507      1216.722 7        42.028
E34        35.000    24397292.589 7 128208839.43507      1449.598 7        47.805                                                                    24397292.790 8  95740476.50208      1082.592 8        49.914    24397292.593 8  98238043.09908      1110.865 8        50.196
G29        36.000    23126277.511 7 121529704.36407     -3300.337 7        43.833                                    23126274.381 6  94698580.53406     -2571.690 6        39.523    23126274.347 6  94698590.52706     -2571.531 6        39.742
G31        37.000    24413276.552 6 128292842.81406     -3772.750 6        41.874                                    24413273.049 5  99968543.37805     -2939.803 5        34.081    24413273.836 6  99968549.38306     -2939.892 6        37.444
C22        38.000                                                                                                                                    24821582.860 7 129252518.59307       402.416 7        43.536                                                                    24821576.651 7 105028242.25907       327.036 7        44.299
E25        39.000    27161563.992 6 142735189.34206     -3470.237 6        39.868                                                                    27161565.315 7 106588094.39107     -2591.368 7        43.452    27161564.921 7 109368637.83207     -2659.000 7        44.057
C12        40.000                                                                                                                                    22364902.313 7 116460122.27407     -1992.766 7        47.579    22364898.211 8  90054451.70208     -1540.917 8        51.611    22364897.329 8  94633462.99508     -1619.244 8        49.057
R04        41.000    23999117.445 6 128514192.99106      3481.394 6        39.622                                                                    23999116.630 6  99955485.65006      2707.874 6        37.089
S44        42.000    40484792.265 6 212749217.79206      -413.245 6        37.433
G28        43.000                                                                                                                                                                    25840673.741 3                     -2985.054 3        21.238
C05        44.000                                                                                                                                    39297837.487 6 204634186.53006      -388.582 6        36.858    39297833.746 7 158236156.18607      -300.470 7        42.950    39297835.816 6 166282140.95906      -315.712 6        40.029
C11        45.000                                                                                                                                    22058670.388 8 114865427.05808       783.615 8        48.549    22058666.899 8  88821294.56008       605.975 8        52.166    22058665.811 8  93337607.85608       636.739 8        49.208
R16        46.000    22942028.332 7 122552387.23207     -5021.755 7        44.927                                                                    22942030.890 7  95318634.01107     -3905.781 7        42.294
G07        47.000    26202722.883 6 137696239.30706      1849.388 6        37.164                                    26202720.270 4 107295754.21304      1441.082 4        25.398    26202720.364 5 107295762.23405      1441.005 5        32.575
C21        48.000                                                                                                                                    25737039.894 7 134019540.01207      2419.501 7        42.015                                                                    25737035.876 7 108901839.12307      1966.102 7        42.980
C24        49.000                                                                                                                                    25681777.201 6 133731811.04806     -3924.058 6        41.220                                                                    25681776.073 7 108668069.75607     -3188.577 7        42.379
R19        50.000    19622817.875 6 104969110.86906     -1788.536 6        41.180                                                                    19622816.777 7  81642755.78207     -1390.995 7        44.670
S48        51.000    77150903.166 6 405432194.17306      -497.839 6        38.036
C08        52.000                                                                                                                                    37777901.995 7 196719552.35607      -866.881 7        42.358    37777895.274 7 152116066.53107      -670.222 7        46.005    37777894.473 7 159850768.74007      -704.372 7        42.635
C34        53.000                                                                                                                                    21340305.224 8 111124852.26508      -461.904 8        50.838                                                                    21340304.683 8  90298162.03908      -375.315 8        49.206
C60        54.000                                                                                                                                    40484796.256 6 210815153.36806      -409.462 6        40.248                                                                    40484780.505 6 171304548.72006      -332.831 6        40.482
C25        55.000                                                                                                                                    22904497.505 8 119269975.88008     -2455.709 8        48.863                                                                    22904495.524 7  96916718.80907     -1995.452 7        47.957
I09        56.000    39803418.833 6 156197175.69706       469.061 6        41.414
C02        57.000                                                                                                                                    40641514.048 5 211631067.48305      -372.239 5        34.229    40641507.759 6 163646557.49006      -287.915 6        39.156    40641511.304 5 171967579.26705      -302.320 5        35.114
I03        58.000    83410470.652 6 251535347.72806      1110.219 6        40.451
E30        59.000    24643531.796 7 129502851.27507      1046.111 7        46.956                                                                    24643531.824 8  96706793.74408       781.267 8        49.332    24643531.457 8  99229563.03008       801.594 8        50.203
R20        60.000    21244143.441 6 113602181.14106      2240.516 6        39.465                                                                    21244146.357 7  88357318.74207      1742.494 7        45.627
> 2025 01 02 18 16 40.0000000  0 59
G23         1.000    22176112.411 7 116536334.81207      2314.682 7        46.191                                    22176109.318 5  90807555.15005      1803.651 5        34.033    22176109.464 7  90807553.14407      1803.636 7        43.611
E11         2.000    26645232.550 6 140021838.32906     -3136.760 6        37.172                                                                    26645228.956 6 104561887.05306     -2342.371 6        40.081    26645229.074 6 107289574.73006     -2403.376 6        40.839
G16         3.000    20753104.743 8 109058507.61208       848.993 8        48.692                                    20753100.076 6  84980739.93006       661.554 6        38.745
G05         4.000    24106395.434 6 126680061.89406     -3227.172 6        40.837                                    24106391.788 5  98711761.15805     -2514.680 5        32.868    24106392.681 6  98711760.16406     -2514.868 6        36.359
S21         5.000    38419699.602 7 201896569.43307      -459.310 7        42.718
G26         6.000    20660055.883 8 108569565.72208     -1544.632 8        49.953                                    20660054.481 8  84599794.19508     -1203.609 8        50.604    20660055.021 7  84599781.20207     -1203.679 7        45.701
G10         7.000    24824253.521 6 130452359.66006      3193.568 6        39.808                                    24824254.468 5 101651195.86805      2488.488 5        33.808    24824254.084 6 101651189.90206      2488.481 6        37.887
E15         8.000    28722695.826 5 150938795.00405      2477.257 5        35.119                                                                    28722704.360 6 112714073.51006      1849.646 6        37.951    28722702.861 6 115654431.97906      1897.995 6        37.629
E36         9.000    23528938.759 8 123645601.12308     -1255.737 8        48.405                                                                    23528939.059 8  92332898.08808      -937.673 8        51.126    23528938.781 8  94741569.60408      -962.147 8        51.597
G27        10.000    22584588.677 7 118682946.54507      2507.936 7        43.926                                    22584587.692 6  92480283.66606      1954.235 6        40.861    22584587.807 6  92480285.66506      1954.387 6        40.155
G15        11.000    25066175.020 6 131723641.04506      2176.424 6        38.477                                    25066172.679 4 102641785.84704      1695.911 4        27.054    25066172.621 5 102641788.86605      1695.517 5        33.269
E19        12.000    28417542.815 4 149335199.21404      -677.993 4        28.009                                                                    28417544.507 5 111516543.28605      -506.148 5        32.222    28417543.997 5 114425667.34705      -519.311 5        32.808
C23        13.000                                                                                                                                    23976028.294 7 124849520.43707       598.549 7        46.550                                                                    23976020.192 7 101450453.91507       486.334 7        47.089
S36        14.000    38190120.798 7 200690979.43307      -458.483 7        44.221
C13        15.000                                                                                                                                    37647148.963 7 196038642.41807      -597.245 7        44.838    37647150.349 7 151589547.83407      -461.933 7        45.323    37647148.607 7 159297477.88607      -485.388 7        43.575
G18        16.000    20642692.133 8 108478313.54608     -1396.683 8        49.086                                    20642688.344 7  84528654.02607     -1088.325 7        42.125    20642688.659 8  84528662.02708     -1088.373 8        49.013
R10        17.000    20532394.168 7 109449246.55607      1390.710 7        47.124
E27        18.000    28631088.096 6 150457387.29006      2472.905 6        36.957                                                                    28631088.236 6 112354542.74006      1846.689 6        38.547    28631087.766 6 115285528.50106      1894.756 6        39.619
E02        19.000    23613742.714 8 124091245.40808     -1836.040 8        48.749                                                                    23613741.741 8  92665650.65608     -1371.094 8        50.941    23613741.113 8  95083000.46708     -1406.890 8        51.039
S27        20.000    39189365.481 5 205941492.09605      -434.472 5        35.914
R11        21.000    24390639.315 7 130336188.33907      3812.466 7        42.216                                                                    24390638.383 6 101372591.04206      2965.390 6        38.489
I06        22.000    38695471.009 7 151849558.64007      -318.000 7        42.398
S28        23.000    40893781.411 5 214898259.96205      -454.016 5        34.619
S23        25.000    38145257.233 7 200454612.01507      -461.022 7        45.225
S45        26.000    63402307.191 6 333181668.20416      -514.767 6        37.580
R09        27.000    19737579.012 8 105397780.25108     -2304.625 8        51.746                                                                    19737577.696 8  81976163.66808     -1792.496 8        48.612
R18        28.000    21942366.618 7 117130137.28407     -3779.438 7        46.754                                                                    21942367.229 7  91101369.39607     -2939.604 7        43.507
C38        29.000                                                                                                                                    38961284.788 7 202881755.94007     -1262.342 7        42.859                                                                    38961282.471 7 164858090.50507     -1025.924 7        42.635
C44        30.000                                                                                                                                    23647378.103 7 123138324.52807     -2888.375 7        45.610                                                                    23647376.545 7 100060060.42707     -2347.103 7        45.648
C43        31.000                                                                                                                                    23452936.610 7 122125690.04907      1774.677 7        46.534                                                                    23452935.629 7  99237166.99307      1441.991 7        46.224
R02        32.000    23310716.763 7 124390468.93507     -1721.794 7        44.235                                                                    23310717.350 6  96748149.02806     -1339.065 6        39.378
I02        33.000    38980007.792 6 152965981.80606      -954.130 6        40.338
R03        34.000    22600916.174 7 120984509.09007      1560.896 7        46.361                                                                    22600915.616 6  94099063.59106      1214.065 6        41.828
E34        35.000    24395914.159 7 128201595.50107      1448.064 7        47.994                                                                    24395914.297 8  95735067.08208      1081.307 8        49.896    24395914.078 8  98232492.56508      1109.539 8        50.227
G29        36.000    23129418.501 7 121546208.82807     -3301.345 7        44.066                                    23129414.949 6  94711441.15706     -2572.477 6        39.444    23129415.255 6  94711451.15406     -2572.390 6        39.471
G31        37.000    24416865.800 6 128311708.48606     -3773.253 6        41.692                                    24416863.136 5  99983243.89005     -2940.198 5        34.038    24416864.038 6  99983249.88506     -2940.403 6        37.977
C22        38.000                                                                                                                                    24821197.807 7 129250513.95407       399.594 7        43.594                                                                    24821191.433 7 105026613.33507       324.580 7        44.111
E25        39.000    27164866.071 6 142752542.84406     -3470.907 6        40.114                                                                    27164867.603 7 106601053.16607     -2591.874 7        43.399    27164867.209 7 109381934.66207     -2659.506 7        44.126
C12        40.000                                                                                                                                    22366816.288 7 116470089.53907     -1993.997 7        47.096    22366812.207 8  90062159.02408     -1541.919 8        51.496    22366811.415 8  94641562.21408     -1620.386 8        49.159
R04        41.000    23995867.098 6 128496787.73706      3480.792 6        39.871                                                                    23995866.151 6  99941948.22406      2707.409 6        36.760
S44        42.000    40485187.378 6 212751285.02506      -413.557 6        37.297
G28        43.000                                                                                                                                                                    25844319.513 3                     -2986.405 3        21.381
C05        44.000                                                                                                                                    39298210.724 6 204636130.06306      -388.715 6        36.858    39298207.010 7 158237659.06007      -300.602 7        42.935    39298208.950 6 166283720.24106      -315.982 6        40.074
C11        45.000                                                                                                                                    22057918.619 8 114861513.06908       782.108 8        48.473    22057915.474 8  88818268.02008       604.752 8        52.209    22057914.155 8  93334427.41508       635.439 8        49.218
R16        46.000    22946728.734 7 122577498.54907     -5022.763 7        44.361                                                                    22946731.529 7  95338165.02107     -3906.638 7        42.502
G07        47.000    26200964.341 6 137686997.76606      1847.505 6        36.809                                    26200961.630 4 107288552.97604      1439.635 4        24.962    26200961.146 5 107288560.96105      1439.378 5        31.849
C21        48.000                                                                                                                                    25734717.251 6 134007445.18506      2418.522 6        41.375                                                                    25734713.179 7 108892011.09307      1965.211 7        43.052
C24        49.000                                                                                                                                    25685545.150 6 133751431.95006     -3924.141 6        41.387                                                                    25685544.066 7 108684013.33207     -3188.818 7        42.307
R19        50.000    19624490.646 6 104978059.20406     -1790.751 6        41.423                                                                    19624489.181 7  81649715.60507     -1392.894 7        44.307
S48        51.000    77151349.367 6 405433084.59816      -498.035 6        38.327
C08        52.000                                                                                                                                    37778734.751 7 196723888.64307      -867.680 7        42.207    37778727.987 7 152119419.62007      -671.028 7        46.032    37778727.300 7 159854292.31907      -705.175 7        42.700
C34        53.000                                                                                                                                    21340749.373 8 111127166.19408      -463.507 8        50.774                                                                    21340749.135 8  90300042.29608      -376.725 8        49.312
C60        54.000                                                                                                                                    40485189.697 6 210817201.79506      -409.534 6        40.026                                                                    40485173.985 6 171306213.22006      -332.883 6        40.529
C25        55.000                                                                                                                                    22906856.691 8 119282260.22408     -2458.009 8        48.763                                                                    22906854.591 8  96926700.84208     -1997.443 8        48.003
I09        56.000    39802821.523 6 156194831.28506       468.902 6        41.607
C02        57.000                                                                                                                                    40641871.626 5 211632929.64905      -372.651 5        34.262    40641865.498 6 163647997.43606      -288.141 6        38.955    40641868.837 5 171969092.41305      -302.828 5        35.357
I03        58.000    83409056.302 6 251529797.43506      1110.098 6        40.458
E30        59.000    24642537.413 7 129497625.25907      1044.371 7        46.923                                                                    24642537.288 8  96702891.20808       779.864 8        49.340    24642536.947 8  99225558.68408       800.262 8        50.249
R20        60.000    21242049.819 6 113590984.55906      2238.371 6        39.276                                                                    21242052.419 7  88348610.28907      1740.965 7        45.139
