     3.04           OBSERVATION DATA    M                   RINEX VERSION / TYPE
ssrcrin-15.6.1x                         20250102 104500 UTC PGM / RUN BY / DATE 
(00000000023479385599111004) Septentrio proprietary         COMMENT             
rref                                                        MARKER NAME         
01                                                          MARKER NUMBER       
geodetic                                                    MARKER TYPE         
NFB                 CLIMERS@TUW                             OBSERVER / AGENCY   
3297213             SEPT ASTERX SB3 PROB4.14.4              REC # / TYPE / VERS 
Unknown             Unknown                                 ANT # / TYPE        
  4127832.3890  1207193.2567  4695248.0956                  APPROX POSITION XYZ 
        0.0000        0.0000        0.0000                  ANTENNA: DELTA H/E/N
G   23 X1  C1C L1C D1C S1C C1W S1W C2W L2W D2W S2W C2L L2L  SYS / # / OBS TYPES 
       D2L S2L C5Q L5Q D5Q S5Q C1L L1L D1L S1L              SYS / # / OBS TYPES 
E   21 X1  C1C L1C D1C S1C C6C L6C D6C S6C C5Q L5Q D5Q S5Q  SYS / # / OBS TYPES 
       C7Q L7Q D7Q S7Q C8Q L8Q D8Q S8Q                      SYS / # / OBS TYPES 
S    9 X1  C1C L1C D1C S1C C5I L5I D5I S5I                  SYS / # / OBS TYPES 
R   17 X1  C1C L1C D1C S1C C2P L2P D2P S2P C2C L2C D2C S2C  SYS / # / OBS TYPES 
       C3Q L3Q D3Q S3Q                                      SYS / # / OBS TYPES 
C   25 X1  C1P L1P D1P S1P C5P L5P D5P S5P C2I L2I D2I S2I  SYS / # / OBS TYPES 
       C7I L7I D7I S7I C6I L6I D6I S6I C7D L7D D7D S7D      SYS / # / OBS TYPES 
J   17 X1  C1C L1C D1C S1C C2L L2L D2L S2L C5Q L5Q D5Q S5Q  SYS / # / OBS TYPES 
       C1L L1L D1L S1L                                      SYS / # / OBS TYPES 
I    5 X1  C5A L5A D5A S5A                                  SYS / # / OBS TYPES 
SEPTENTRIO RECEIVERS OUTPUT ALIGNED CARRIER PHASES.         COMMENT             
NO FURTHER PHASE SHIFT APPLIED IN THE RINEX ENCODER.        COMMENT             
G L1C                                                       SYS / PHASE SHIFT   
G L2W                                                       SYS / PHASE SHIFT   
G L2L  0.00000                                              SYS / PHASE SHIFT   
G L5Q  0.00000                                              SYS / PHASE SHIFT   
G L1L  0.00000                                              SYS / PHASE SHIFT   
E L1C  0.00000                                              SYS / PHASE SHIFT   
E L6C  0.00000                                              SYS / PHASE SHIFT   
E L5Q  0.00000                                              SYS / PHASE SHIFT   
E L7Q  0.00000                                              SYS / PHASE SHIFT   
E L8Q  0.00000                                              SYS / PHASE SHIFT   
S L1C                                                       SYS / PHASE SHIFT   
S L5I                                                       SYS / PHASE SHIFT   
R L1C                                                       SYS / PHASE SHIFT   
R L2P  0.00000                                              SYS / PHASE SHIFT   
R L2C                                                       SYS / PHASE SHIFT   
R L3Q  0.00000                                              SYS / PHASE SHIFT   
C L1P  0.00000                                              SYS / PHASE SHIFT   
C L5P  0.00000                                              SYS / PHASE SHIFT   
C L2I                                                       SYS / PHASE SHIFT   
C L7I                                                       SYS / PHASE SHIFT   
C L6I                                                       SYS / PHASE SHIFT   
C L7D                                                       SYS / PHASE SHIFT   
J L1C                                                       SYS / PHASE SHIFT   
J L2L  0.00000                                              SYS / PHASE SHIFT   
J L5Q  0.00000                                              SYS / PHASE SHIFT   
J L1L  0.00000                                              SYS / PHASE SHIFT   
I L5A                                                       SYS / PHASE SHIFT   
  2025     1     2    10    45    0.0000000     GPS         TIME OF FIRST OBS   
 C1C    0.000 C2C    0.000 C2P    0.000                     GLONASS COD/PHS/BIS 
DBHZ                                                        SIGNAL STRENGTH UNIT
    18                                                      LEAP SECONDS        
 24 R01  1 R02 -4 R03  5 R04  6 R05  1 R06 -4 R07  5 R08  6 GLONASS SLOT / FRQ #
    R09 -2 R10 -7 R11  0 R12 -1 R13 -2 R14 -7 R15  0 R16 -1 GLONASS SLOT / FRQ #
    R17  4 R18 -3 R19  3 R20  2 R21  4 R22 -3 R23  3 R24  2 GLONASS SLOT / FRQ #
                                                            END OF HEADER       
> 2025 01 02 10 45  0.0000000  0 55
E24         1.000    24039741.514 8 126329820.28608       624.431 8        48.701                                                                    24039743.525 8  94337274.07008       466.271 8        50.491    24039742.785 8  96798235.03808       478.393 8        51.359
G15         2.000    21154756.656 8 111168930.32008     -2889.271 8        48.795                                    21154756.186 7  86625112.14807     -2251.378 7        47.662    21154756.481 7  86625107.15407     -2251.465 7        44.122
E03         3.000    27139523.659 6 142619135.62006      2163.341 6        38.958                                                                    27139531.834 7 106501307.44807      1615.461 7        43.204    27139530.542 7 109279604.24507      1657.643 7        44.045
G19         4.000    21815690.989 7 114642400.32907      1284.402 7        47.325                                    21815688.997 6  89331775.06306      1000.830 6        37.304
S21         5.000    38564195.618 7 202655824.56207      -494.262 7        42.552
E05         6.000    22410462.727 7 117767735.22607         1.354 7        47.380                                                                    22410466.203 8  87943412.64408         0.968 8        50.533    22410465.802 8  90237588.17308         0.992 8        51.764
E13         7.000    28964421.939 5 152209048.16805     -1572.652 5        32.102                                                                    28964436.276 6 113662647.91606     -1174.414 6        37.285    28964434.335 6 116627752.64306     -1204.923 6        38.126
R02         8.000    24111563.863 6 128663640.28306     -5175.768 6        37.440                                                                    24111581.780 4 100071648.11204     -4025.454 4        28.019
R05         9.000    23572349.365 7 126007719.61107      3501.516 7        44.253                                                                    23572357.754 7  98006043.40707      2723.415 7        42.468
G24        10.000    20638895.690 8 108458135.83908      1063.321 8        48.488                                    20638897.151 8  84512848.95408       828.564 8        50.631    20638897.464 7  84512853.96107       828.555 7        45.743
C14        11.000                                                                                                                                    25997205.450 6 135374277.32506      1850.628 6        38.150    25997211.258 7 104680002.54907      1431.132 7        45.371    25997208.198 7 110002698.33707      1503.881 7        42.554
S27        12.000    39308147.401 6 206565588.57606      -525.278 6        36.756
G13        13.000    22284500.798 7 117105757.85907     -3834.493 7        46.082                                    22284501.856 5  91251196.47205     -2987.911 5        31.774
S36        14.000    38334567.076 7 201449941.06207      -495.001 7        44.500
G02        15.000    25873487.130 6 135966098.57706     -1103.960 6        36.722                                    25873493.461 3 105947636.88803      -860.226 3        18.955
E09        16.000    24954882.613 7 131138740.85907     -2795.066 7        46.740                                                                    24954886.811 8  97928258.44208     -2087.206 8        48.903    24954885.962 8 100482907.36608     -2141.675 8        49.690
G12        17.000    22886823.914 7 120271206.48907      2753.485 7        45.710                                    22886825.473 6  93717895.24006      2145.571 6        41.838    22886826.245 6  93717892.23806      2145.716 6        41.249
R21        18.000    24222555.288 6 129619790.54106     -3225.534 6        41.216                                                                    24222565.599 6 100815432.41106     -2508.793 6        40.160
R22        19.000    22508777.671 7 120153456.80507       200.066 7        45.297                                                                    22508784.133 7  93452683.21107       155.624 7        43.748
R03        21.000    20467636.237 8 109564792.65708     -3397.410 8        51.803                                                                    20467637.962 7  85217044.40307     -2642.376 7        46.130
I06        22.000    38380305.762 6 150612680.06706      -477.135 6        41.700
S28        23.000    41019071.030 5 215556501.03505      -505.024 5        35.048
S23        25.000    38268565.467 7 201102537.42307      -497.510 7        44.704
S45        26.000    63518917.351 6 333795244.75206      -549.234 6        36.034
C07        27.000                                                                                                                                    39212325.638 6 204188804.01506     -1074.380 6        39.844    39212326.116 7 157891713.16907      -830.964 7        43.515    39212323.508 6 165920098.66906      -873.189 6        40.949
R04        28.000    20289814.698 8 108651024.27808       651.596 8        50.896                                                                    20289816.139 7  84506329.73707       506.822 7        46.635
C40        29.000                                                                                                                                    39374705.438 7 205034366.07907     -1306.483 7        42.385                                                                    39374708.957 7 166607209.96707     -1061.581 7        42.214
G17        30.000    22208689.893 7 116707574.33107     -1272.534 7        46.240                                    22208689.994 7  90941026.30907      -991.583 7        44.030    22208690.234 7  90941023.30507      -991.631 7        42.419
G14        31.000    23493511.892 7 123459145.95707     -3659.514 7        42.127                                    23493515.186 4  96201907.92104     -2851.563 4        26.599    23493516.750 6  96201893.89806     -2851.601 6        40.448
G23        32.000    23618092.959 6 124113804.06306     -2135.207 6        41.838                                    23618096.126 4  96712014.92104     -1663.791 4        27.198    23618096.888 6  96712009.92106     -1663.960 6        40.739
I02        33.000    37057201.189 7 145420415.17107      -256.767 7        43.545
R13        35.000    19874834.247 7 106130525.62707     -2046.429 7        46.803
R12        36.000    22921033.690 7 122439925.32607     -3890.154 7        44.816                                                                    22921042.713 7  95231026.49107     -3025.687 7        42.241
C42        37.000                                                                                                                                    24378362.029 7 126944524.15907       620.646 7        45.320                                                                    24378373.840 7 103152868.38807       504.290 7        46.275
C10        38.000                                                                                                                                    38655348.052 6 201288516.28606      -711.473 6        41.962    38655350.124 7 155649044.45507      -550.313 7        44.904    38655346.861 6 163563392.11906      -578.228 6        41.521
E25        39.000    27318876.272 6 143561754.45306      2239.022 6        39.474                                                                    27318886.523 6 107205299.97906      1671.976 6        41.824    27318884.912 7 110001948.47007      1715.616 7        42.889
C30        40.000                                                                                                                                    24654978.694 7 128384982.54407      -185.499 7        44.470                                                                    24654984.250 7 104323356.00607      -150.793 7        43.443
R23        41.000    23011233.437 7 123094621.03007      2966.856 7        43.001
S44        42.000    40983652.537 6 215370546.07106      -453.166 6        37.750
C36        43.000                                                                                                                                    23703737.808 7 123431508.04307     -2801.260 7        46.274                                                                    23703746.699 7 100298214.90407     -2276.285 7        46.979
C05        44.000                                                                                                                                    39557516.437 6 205986258.86406      -528.047 6        38.177    39557520.177 7 159281628.38507      -408.347 7        42.578    39557519.618 6 167380781.59906      -429.207 6        39.018
R14        45.000    20739587.808 8 110553770.73508      1702.742 8        51.403                                                                    20739591.698 7  85986345.74107      1324.331 7        47.161
E26        46.000    28462934.611 5 149573752.55705       609.370 5        35.962                                                                    28462947.182 6 111694747.01406       455.287 6        38.486    28462945.520 6 114608512.93006       467.015 6        39.526
G10        47.000    24559943.662 6 129063318.35206       288.308 6        40.281                                    24559948.983 5 100568815.46105       224.658 5        35.390    24559948.742 6 100568816.47706       224.399 6        38.598
C45        50.000                                                                                                                                    21725891.068 8 113132440.31008      -551.482 8        50.799                                                                    21725885.378 8  91929362.90208      -448.134 8        49.974
S48        51.000    77272657.614 6 406069126.40406      -490.964 6        37.947
E06        52.000    26479461.805 6 139150405.35906     -3460.520 6        40.546                                                                    26479471.343 7 103910989.67207     -2584.099 7        45.500    26479469.906 7 106621713.53807     -2651.590 7        45.153
E33        53.000    28955632.338 4 152162897.73204      2064.944 4        28.076                                                                    28955647.672 5 113628188.13005      1541.895 5        33.934    28955645.802 5 116592393.18805      1582.270 5        35.729
C60        54.000                                                                                                                                    40983649.754 6 213412649.88606      -449.000 6        40.253                                                                    40983642.919 6 173415192.60206      -364.990 6        39.532
E31        55.000    24225420.010 7 127305426.81307     -2046.676 7        46.282                                                                    24225424.640 8  95065767.42108     -1528.364 8        49.320    24225423.922 8  97545740.72008     -1568.278 8        50.467
C26        56.000                                                                                                                                    24281767.593 7 126441593.24907      1930.324 7        45.341                                                                    24281771.849 7 102744187.02107      1568.558 7        45.747
C02        57.000                                                                                                                                    41103812.765 5 214038191.89705      -495.387 5        30.491    41103819.202 5 165507850.12805      -383.422 5        35.848    41103818.790 5                      -403.025 5        30.687
I03        58.000    93183568.528 5 289886825.46805       917.670 5        33.210
C21        59.000                                                                                                                                    23568498.965 8 122727283.03708     -2306.347 8        48.751                                                                    23568497.001 8  99725931.00408     -1874.140 8        48.598
C22        60.000                                                                                                                                    25629010.851 6 133456808.23906     -3990.655 6        41.225                                                                    25629012.865 7 108444527.57907     -3242.553 7        42.366
> 2025 01 02 10 45  5.0000000  0 55
E24         1.000    24039148.384 8 126326703.18408       622.552 8        48.820                                                                    24039150.369 8  94334946.36708       464.895 8        50.528    24039149.654 8  96795846.61108       477.007 8        51.299
G15         2.000    21157506.933 8 111183384.21808     -2892.259 8        48.341                                    21157506.686 7  86636374.91207     -2253.706 7        47.780    21157506.793 7  86636369.90507     -2253.725 7        43.894
E03         3.000    27137465.793 6 142608321.40906      2162.247 6        38.805                                                                    27137473.904 7 106493231.92107      1614.680 7        43.166    27137472.728 7 109271318.05707      1656.794 7        44.078
G19         4.000    21814470.430 7 114635985.87307      1281.407 7        47.486                                    21814468.356 6  89326776.80006       998.497 6        37.372
S21         5.000    38564666.314 7 202658296.49807      -494.361 7        42.470
E05         6.000    22410462.754 7 117767734.59807        -1.006 7        47.933                                                                    22410466.194 8  87943412.17008        -0.790 8        50.625    22410465.636 8  90237587.68408        -0.748 8        51.686
E13         7.000    28965919.966 5 152216917.43905     -1574.595 5        32.892                                                                    28965933.613 6 113668524.28606     -1176.057 6        37.335    28965931.890 6 116633782.32206     -1207.068 6        37.766
R02         8.000    24116415.186 6 128689519.34106     -5175.756 6        37.406                                                                    24116430.750 4 100091776.06904     -4024.987 4        27.042
R05         9.000    23569074.699 7 125990216.99007      3499.528 7        43.871                                                                    23569082.943 7  97992430.28007      2721.911 7        42.011
G24        10.000    20637885.088 8 108452825.07608      1060.972 8        48.558                                    20637886.533 8  84508710.69908       826.732 8        50.758    20637886.846 7  84508715.70207       826.792 7        45.765
C14        11.000                                                                                                                                    25995430.225 6 135365029.17306      1848.669 6        38.616    25995435.616 7 104672851.28207      1429.434 7        45.615    25995432.188 7 109995183.45807      1502.055 7        42.427
S27        12.000    39308649.693 6 206568215.96006      -525.595 6        36.556
G13        13.000    22288150.341 7 117124934.99407     -3836.338 7        46.221                                    22288151.058 5  91266139.67105     -2989.351 5        31.857
S36        14.000    38335037.943 7 201452416.75007      -495.349 7        44.495
G02        15.000    25874539.142 6 135971625.41006     -1106.907 6        36.586                                    25874545.329 3 105951943.49303      -862.522 3        18.776
E09        16.000    24957542.758 7 131152720.46107     -2796.825 7        47.335                                                                    24957547.065 8  97938697.75108     -2088.541 8        48.971    24957546.242 8 100493619.00508     -2143.013 8        49.625
G12        17.000    22884204.858 7 120257442.85507      2751.925 7        45.163                                    22884206.399 7  93707170.35207      2144.354 7        42.057    22884206.924 6  93707167.36406      2144.443 6        41.588
R21        18.000    24225571.118 6 129635926.59706     -3228.946 6        41.883                                                                    24225581.229 6 100827982.63906     -2511.428 6        40.069
R22        19.000    22508593.118 7 120152467.97007       195.575 7        45.910                                                                    22508598.922 7  93451914.14707       152.068 7        42.859
R03        21.000    20470810.987 8 109581789.24608     -3401.149 8        51.638                                                                    20470812.946 7  85230263.95707     -2645.242 7        45.625
I06        22.000    38380913.795 6 150615065.51806      -477.276 6        41.547
S28        23.000    41019549.686 5 215559026.68505      -505.359 5        34.776
S23        25.000    38269039.678 7 201105025.60007      -497.736 7        44.570
S45        26.000    63519394.768 6 333797991.44506      -549.412 6        36.098
C07        27.000                                                                                                                                    39213357.714 6 204194178.56606     -1075.318 6        39.976    39213358.316 7 157895869.09807      -831.380 7        43.592    39213355.484 6 165924465.93506      -873.756 6        40.820
R04        28.000    20289208.171 8 108647777.81608       646.904 8        50.564                                                                    20289209.693 7  84503804.71407       503.226 7        46.444
C40        29.000                                                                                                                                    39375960.287 7 205040900.46007     -1307.297 7        42.252                                                                    39375963.780 6 166612519.70406     -1062.527 6        41.962
G17        30.000    22209902.114 7 116713945.24807     -1275.862 7        45.699                                    22209902.363 7  90945990.65207      -994.175 7        44.084    22209902.035 7  90945987.64607      -994.204 7        42.523
G14        31.000    23496994.191 6 123477445.87306     -3660.336 6        41.914                                    23496997.735 4  96216167.54904     -2852.208 4        27.269    23496999.168 6  96216153.53106     -2852.290 6        41.211
G23        32.000    23620125.624 6 124124487.31606     -2137.976 6        41.838                                    23620129.046 4  96720339.50804     -1665.948 4        27.174    23620129.666 6  96720334.49806     -1666.033 6        40.467
I02        33.000    37057529.021 7 145421700.23307      -257.264 7        43.289
R13        35.000    19876751.046 7 106140763.22207     -2048.581 7        46.851
R12        36.000    22924675.275 7 122459377.05007     -3890.587 7        44.740                                                                    22924684.056 7  95246155.55007     -3025.987 7        42.237
C42        37.000                                                                                                                                    24377767.517 7 126941428.29907       617.727 7        45.500                                                                    24377779.313 7 103150352.76707       501.788 7        46.120
C10        38.000                                                                                                                                    38656031.110 6 201292076.23706      -712.226 6        41.971    38656033.788 7 155651797.21007      -550.844 7        44.849    38656030.349 6 163566284.88206      -578.916 6        41.333
E25        39.000    27316746.169 6 143550561.44406      2238.257 6        39.808                                                                    27316756.400 6 107196941.59006      1671.477 6        41.962    27316754.847 7 109993372.03807      1714.907 7        42.639
C30        40.000                                                                                                                                    24655157.740 7 128385917.52507      -188.464 7        45.058                                                                    24655163.884 7 104324115.76807      -153.329 7        43.221
R23        41.000    23008460.000 7 123079792.48207      2964.627 7        42.030
S44        42.000    40984080.386 6 215372812.14706      -453.281 6        37.588
C36        43.000                                                                                                                                    23706428.213 7 123445516.89807     -2802.187 7        46.452                                                                    23706437.010 7 100309598.24507     -2277.159 7        46.710
C05        44.000                                                                                                                                    39558023.242 6 205988899.92106      -528.274 6        38.402    39558027.532 7 159283670.63007      -408.489 7        42.411    39558026.865 6 167382927.69206      -429.425 6        38.871
R14        45.000    20737991.264 8 110545262.14708      1700.668 8        51.580                                                                    20737995.503 7  85979727.95307      1322.780 7        47.124
E26        46.000    28462355.931 6 149570711.24306       607.074 6        36.412                                                                    28462368.599 6 111692475.93706       453.407 6        38.727    28462366.931 6 114606182.59506       465.242 6        39.297
G10        47.000    24559670.645 6 129061886.13606       284.929 6        39.955                                    24559676.442 5 100567699.43905       222.022 5        35.405    24559676.263 6 100567700.43906       222.030 6        38.285
C45        50.000                                                                                                                                    21726421.566 8 113135202.23108      -553.261 8        50.924                                                                    21726415.886 8  91931607.20008      -449.676 8        49.897
S48        51.000    77273123.253 6 406071582.30506      -491.172 6        37.584
E06        52.000    26482755.175 6 139167710.37206     -3461.548 6        41.347                                                                    26482764.447 7 103923912.21407     -2584.866 7        45.672    26482762.972 7 106634973.19007     -2652.262 7        45.120
E33        53.000    28953668.498 4 152152574.99604      2064.306 4        28.464                                                                    28953683.421 5 113620479.71505      1541.187 5        33.784    28953681.337 5 116584483.67905      1581.443 5        35.043
C60        54.000                                                                                                                                    40984081.140 6 213414895.35706      -449.117 6        39.952                                                                    40984074.153 6 173417017.26206      -365.078 6        39.321
E31        55.000    24227368.075 7 127315663.88607     -2048.159 7        46.557                                                                    24227372.750 8  95073411.98608     -1529.473 8        49.373    24227371.880 8  97553584.70308     -1569.298 8        50.376
C26        56.000                                                                                                                                    24279915.015 7 126431944.26407      1929.338 7        45.374                                                                    24279918.875 7 102736346.45707      1567.707 7        45.598
C02        57.000                                                                                                                                    41104287.669 5 214040670.58105      -495.915 5        30.408    41104294.647 6 165509766.80606      -383.265 6        36.049    41104295.143 5                      -402.785 5        30.498
I03        58.000    93182398.892 5 289882238.09605       917.437 5        33.198
C21        59.000                                                                                                                                    23570714.766 8 122738821.61408     -2309.025 8        48.805                                                                    23570712.869 8  99735307.04608     -1876.363 8        48.426
C22        60.000                                                                                                                                    25632842.313 6 133476761.69806     -3990.933 6        41.311                                                                    25632844.953 7 108460741.37207     -3243.036 7        42.290
> 2025 01 02 10 45 10.0000000  0 55
E24         1.000    24038556.914 8 126323594.81608       620.803 8        48.940                                                                    24038558.880 8  94332625.18308       463.563 8        50.662    24038558.111 8  96793464.87208       475.674 8        51.245
G15         2.000    21160259.998 7 111197852.39807     -2895.101 7        47.741                                    21160259.909 7  86647648.80407     -2255.919 7        47.660    21160260.325 7  86647643.79707     -2255.876 7        44.402
E03         3.000    27135409.056 6 142597511.80106      2161.410 6        38.745                                                                    27135416.620 7 106485159.81407      1614.044 7        43.329    27135415.650 7 109263035.37507      1656.169 7        43.911
G19         4.000    21813252.713 7 114629586.02507      1278.499 7        46.948                                    21813250.483 6  89321789.90906       996.233 6        37.369
S21         5.000    38565134.726 7 202660768.76407      -494.460 7        42.459
E05         6.000    22410464.788 8 117767745.12408        -3.268 8        48.072                                                                    22410468.108 8  87943420.02108        -2.437 8        50.730    22410467.644 8  90237595.74308        -2.508 8        51.642
E13         7.000    28967419.439 5 152224798.36505     -1577.121 5        33.677                                                                    28967433.466 6 113674409.34506     -1177.883 6        38.868    28967431.493 6 116639820.90806     -1208.578 6        39.078
R02         8.000    24121264.782 6 128715399.13606     -5176.262 6        36.941                                                                    24121281.183 4 100111904.67604     -4025.858 4        27.533
R05         9.000    23565802.610 7 125972723.30807      3497.770 7        44.453                                                                    23565810.229 6  97978824.09906      2720.580 6        41.630
G24        10.000    20636876.843 8 108447525.68808      1058.751 8        48.611                                    20636878.084 8  84504581.31108       825.002 8        50.678    20636878.601 7  84504586.31307       825.030 7        45.932
C14        11.000                                                                                                                                    25993658.913 6 135355791.31706      1846.476 6        39.246    25993661.858 7 104665707.98707      1427.924 7        45.603    25993658.174 7 109987676.93807      1500.506 7        42.470
S27        12.000    39309149.947 6 206570843.87206      -525.507 6        36.454
G13        13.000    22291801.220 7 117144120.48107     -3837.918 7        46.239                                    22291801.883 5  91281089.38205     -2990.583 5        31.706
S36        14.000    38335509.404 7 201454893.56907      -495.492 7        44.402
G02        15.000    25875593.906 6 135977166.08206     -1109.647 6        36.265                                    25875599.537 3 105956260.86203      -864.631 3        18.866
E09        16.000    24960204.592 7 131166708.25607     -2798.407 7        47.194                                                                    24960208.928 8  97949143.17108     -2089.724 8        49.126    24960207.995 8 100504336.91408     -2144.250 8        49.708
G12        17.000    22881587.155 7 120243686.66907      2750.507 7        45.275                                    22881588.738 7  93696451.26307      2143.247 7        42.087    22881588.987 6  93696448.28306      2143.179 6        41.328
R21        18.000    24228589.638 6 129652078.86906     -3231.990 6        41.237                                                                    24228599.830 6 100840545.50406     -2513.858 6        40.145
R22        19.000    22508412.542 7 120151500.81107       191.217 7        46.056                                                                    22508418.330 7  93451161.88307       148.777 7        43.323
R03        21.000    20473989.568 8 109598803.86008     -3404.769 8        51.593                                                                    20473991.838 7  85243497.53607     -2648.193 7        46.122
I06        22.000    38381521.870 6 150617451.30006      -477.167 6        41.788
S28        23.000    41020033.547 5 215561552.96405      -505.456 5        34.824
S23        25.000    38269512.633 7 201107514.14007      -497.843 7        44.593
S45        26.000    63519870.964 6 333800738.52706      -549.389 6        36.136
C07        27.000                                                                                                                                    39214390.075 6 204199555.90906     -1075.796 6        39.631    39214390.890 7 157900027.20207      -831.839 7        43.378    39214388.262 6 165928835.45806      -874.040 6        40.970
R04        28.000    20288606.316 8 108644554.24308       642.419 8        51.029                                                                    20288607.903 7  84501297.47607       499.667 7        46.860
C40        29.000                                                                                                                                    39377215.585 7 205047438.19207     -1307.806 7        42.201                                                                    39377219.376 7 166617832.12707     -1062.682 7        42.171
G17        30.000    22211117.437 7 116720332.11907     -1278.991 7        45.785                                    22211117.772 7  90950967.42207      -996.614 7        44.033    22211117.730 7  90950964.42207      -996.653 7        42.428
G14        31.000    23500477.047 6 123495749.58206     -3661.125 6        41.471                                    23500481.169 4  96230430.12504     -2852.818 4        27.269    23500482.064 6  96230416.09506     -2852.765 6        41.802
G23        32.000    23622161.482 6 124135184.28806     -2140.802 6        41.635                                    23622164.618 4  96728674.78704     -1668.150 4        26.898    23622164.666 6  96728669.77406     -1668.056 6        40.715
I02        33.000    37057856.651 7 145422986.64507      -257.346 7        43.424
R13        35.000    19878670.297 7 106151011.14907     -2050.661 7        46.623
R12        36.000    22928316.718 7 122478830.61907     -3890.863 7        44.495                                                                    22928325.741 7  95261286.08307     -3026.275 7        42.758
C42        37.000                                                                                                                                    24377176.118 7 126938346.53007       614.939 7        45.524                                                                    24377187.494 7 103147848.56607       499.759 7        46.250
C10        38.000                                                                                                                                    38656715.467 7 201295639.29207      -712.951 7        42.066    38656717.819 7 155654552.37107      -551.271 7        44.849    38656714.747 6 163569180.12406      -579.155 6        41.516
E25        39.000    27314616.905 6 143539372.01206      2237.504 6        40.393                                                                    27314627.223 7 107188585.86907      1670.922 7        42.197    27314625.681 7 109984798.31507      1714.494 7        42.610
C30        40.000                                                                                                                                    24655340.362 7 128386866.78907      -191.311 7        45.627                                                                    24655346.210 7 104324887.12107      -155.411 7        43.289
R23        41.000    23005689.429 7 123064974.92207      2962.325 7        42.269
S44        42.000    40984513.892 6 215375078.50906      -453.306 6        37.527
C36        43.000                                                                                                                                    23709119.382 7 123459529.77107     -2803.021 7        46.610                                                                    23709128.100 7 100320984.82207     -2277.525 7        46.935
C05        44.000                                                                                                                                    39558530.592 6 205991541.33006      -528.124 6        38.486    39558534.583 7 159285713.13807      -408.645 7        42.396    39558533.996 6 167385074.03806      -429.181 6        39.093
R14        45.000    20736396.747 8 110536763.36608      1698.839 8        50.949                                                                    20736401.005 7  85973117.80807      1321.346 7        47.235
E26        46.000    28461779.404 6 149567681.18706       604.704 6        36.495                                                                    28461791.839 6 111690213.25306       451.605 6        38.712    28461790.291 6 114603860.87906       463.654 6        39.150
G10        47.000    24559401.337 6 129060469.79506       281.679 6        40.167                                    24559406.964 5 100566595.79605       219.490 5        35.286    24559406.950 6 100566596.80106       219.521 6        38.688
C45        50.000                                                                                                                                    21726953.636 8 113137972.29608      -554.812 8        50.901                                                                    21726947.774 8  91933858.08808      -450.742 8        49.965
S48        51.000    77273591.267 6 406074038.74006      -491.168 6        37.429
E06        52.000    26486049.221 6 139185019.78506     -3462.363 6        41.776                                                                    26486058.304 7 103936838.04307     -2585.587 7        45.615    26486056.933 7 106648236.22107     -2652.985 7        45.213
E33        53.000    28951704.221 4 152142256.11204      2063.535 4        28.654                                                                    28951719.641 5 113612774.15605      1540.760 5        33.090    28951717.757 5 116576577.08805      1580.994 5        34.462
C60        54.000                                                                                                                                    40984512.097 6 213417141.12906      -449.233 6        39.973                                                                    40984505.419 6 173418842.16006      -365.092 6        39.751
E31        55.000    24229317.409 7 127325907.61807     -2049.471 7        46.601                                                                    24229322.046 8  95081061.50908     -1530.415 8        49.508    24229321.241 8  97561433.78508     -1570.319 8        50.330
C26        56.000                                                                                                                                    24278063.082 7 126422299.61307      1928.454 7        45.311                                                                    24278066.588 7 102728509.38307      1567.194 7        45.764
C02        57.000                                                                                                                                    41104764.098 4 214043149.56504      -495.738 4        29.858    41104770.875 6 165511683.71506      -383.396 6        36.174    41104770.969 5                      -402.973 5        30.936
I03        58.000    93181229.889 5 289877650.79605       917.536 5        33.228
C21        59.000                                                                                                                                    23572933.128 8 122750372.82608     -2311.515 8        48.695                                                                    23572931.188 8  99744693.32108     -1878.212 8        48.563
C22        60.000                                                                                                                                    25636674.233 7 133496716.76407     -3991.186 7        42.076                                                                    25636677.312 7 108476956.45107     -3243.069 7        42.809
> 2025 01 02 10 45 15.0000000  0 55
E24         1.000    24037967.122 8 126320495.09308       618.934 8        49.248                                                                    24037969.028 8  94330310.44608       462.214 8        50.538    24037968.234 8  96791089.75308       474.296 8        51.483
G15         2.000    21163016.119 8 111212334.84308     -2898.020 8        48.456                                    21163015.841 7  86658933.81007     -2258.195 7        47.554    21163016.377 7  86658928.81407     -2258.166 7        44.161
E03         3.000    27133353.176 6 142586706.76906      2160.555 6        39.162                                                                    27133360.672 7 106477091.12007      1613.358 7        43.289    27133359.305 7 109254756.19807      1655.454 7        44.199
G19         4.000    21812037.107 7 114623200.80607      1275.449 7        46.897                                    21812035.368 6  89316814.42206       993.856 6        37.274
S21         5.000    38565606.522 7 202663241.38107      -494.722 7        42.455
E05         6.000    22410468.647 8 117767766.77708        -5.507 8        48.176                                                                    22410472.347 8  87943436.18708        -4.130 8        50.600    22410471.771 8  90237612.33308        -4.209 8        51.848
E13         7.000    28968921.263 5 152232690.85205     -1579.844 5        33.305                                                                    28968935.522 6 113680303.05206     -1179.661 6        38.177    28968933.388 6 116645868.37806     -1210.516 6        38.520
R02         8.000    24126114.166 6 128741279.49306     -5176.438 6        36.420                                                                    24126131.827 4 100132033.66704     -4026.051 4        26.886
R05         9.000    23562532.698 7 125955238.73707      3495.991 7        44.400                                                                    23562538.812 6  97965224.99106      2719.056 6        41.256
G24        10.000    20635870.235 8 108442237.68908      1056.387 8        48.639                                    20635871.808 8  84500460.79208       823.159 8        50.616    20635872.108 7  84500465.79307       823.170 7        45.655
C14        11.000                                                                                                                                    25991886.831 6 135346563.74406      1844.472 6        39.357    25991889.745 7 104658572.66107      1426.205 7        45.201    25991886.042 7 109980178.80807      1498.641 7        42.470
S27        12.000    39309649.168 6 206573471.84506      -525.539 6        36.510
G13        13.000    22295453.610 7 117163314.32707     -3839.752 7        46.010                                    22295454.371 5  91296045.60605     -2992.012 5        31.743
S36        14.000    38335979.528 7 201457370.21807      -495.383 7        44.489
G02        15.000    25876650.693 6 135982720.66606     -1112.439 6        36.306                                    25876656.736 3 105960589.06603      -866.836 3        18.507
E09        16.000    24962867.908 7 131180704.21907     -2800.170 7        47.414                                                                    24962872.240 8  97959594.68808     -2090.987 8        48.983    24962871.303 8 100515061.08108     -2145.557 8        49.852
G12        17.000    22878971.103 7 120229937.93007      2748.900 7        45.306                                    22878972.445 7  93685737.98507      2141.998 7        42.042    22878972.686 6  93685734.99506      2142.000 6        40.601
R21        18.000    24231611.246 6 129668247.38306     -3235.378 6        41.361                                                                    24231621.148 6 100853121.00506     -2516.522 6        40.060
R22        19.000    22508234.686 7 120150555.29307       186.832 7        45.378                                                                    22508240.780 7  93450426.46907       145.341 7        43.249
R03        21.000    20477171.444 8 109615836.74008     -3408.438 8        51.458                                                                    20477173.950 7  85256745.30707     -2651.036 7        46.155
I06        22.000    38382130.085 6 150619837.45306      -477.319 6        41.607
S28        23.000    41020512.699 5 215564079.70205      -505.735 5        34.952
S23        25.000    38269986.781 7 201110003.16107      -498.001 7        44.664
S45        26.000    63520346.065 6 333801785.96616      -549.489 6        36.117
C07        27.000                                                                                                                                    39215423.222 6 204204936.03606     -1076.477 6        39.775    39215424.371 7 157904187.43407      -832.361 7        43.524    39215421.398 6 165933207.24406      -874.599 6        40.913
R04        28.000    20288009.155 8 108641353.38408       637.792 8        51.488                                                                    20288010.368 7  84498807.92207       496.110 7        46.724
C40        29.000                                                                                                                                    39378472.004 7 205053979.27307     -1308.623 7        42.099                                                                    39378475.439 7 166623147.28607     -1063.358 7        42.047
G17        30.000    22212336.080 7 116726734.97107     -1282.275 7        45.896                                    22212336.227 7  90955956.64607      -999.175 7        43.960    22212336.159 7  90955953.64507      -999.054 7        42.009
G14        31.000    23503961.012 6 123514057.04406     -3662.013 6        40.586                                    23503965.404 4  96244695.62504     -2853.496 4        26.862    23503965.584 6  96244681.58606     -2853.389 6        41.600
G23        32.000    23624199.467 6 124145894.97206     -2143.525 6        41.418                                    23624202.882 4  96737020.74304     -1670.277 4        27.042    23624203.229 6  96737015.73206     -1670.402 6        41.004
I02        33.000    37058184.851 7 145424274.53407      -257.812 7        43.401
R13        35.000    19880591.543 7 106161269.25007     -2052.807 7        46.669
R12        36.000    22931958.380 7 122498285.91507     -3891.278 7        43.843                                                                    22931967.364 7  95276417.93507     -3026.671 7        42.404
C42        37.000                                                                                                                                    24376586.814 7 126935278.85507       611.957 7        45.469                                                                    24376598.365 7 103145355.82907       497.461 7        46.249
C10        38.000                                                                                                                                    38657400.609 7 201299205.48807      -713.719 7        42.082    38657402.711 7 155657309.96107      -551.860 7        44.799    38657399.628 6 163572077.94206      -579.839 6        41.476
E25        39.000    27312488.379 6 143528186.10506      2236.712 6        40.648                                                                    27312498.875 7 107180232.78407      1670.199 7        42.104    27312497.164 7 109976227.32807      1713.892 7        42.648
C30        40.000                                                                                                                                    24655525.239 7 128387830.36407      -194.208 7        45.732                                                                    24655531.259 7 104325670.10307      -157.779 7        43.283
R23        41.000    23002922.930 6 123050168.30006      2960.128 6        41.962
S44        42.000    40984942.936 6 215377345.14006      -453.445 6        37.505
C36        43.000                                                                                                                                    23711811.337 7 123473546.65007     -2803.941 7        46.464                                                                    23711819.915 7 100332374.66907     -2278.292 7        46.980
C05        44.000                                                                                                                                    39559038.251 6 205994183.00206      -528.369 6        38.553    39559041.897 7 159287755.85207      -408.666 7        42.430    39559041.244 6 167387220.62406      -429.284 6        39.105
R14        45.000    20734804.248 8 110528274.14108      1696.756 8        51.147                                                                    20734808.675 7  85966515.08607      1319.688 7        47.133
E26        46.000    28461205.025 6 149564662.39406       602.301 6        36.994                                                                    28461217.540 6 111687958.99406       449.850 6        38.829    28461215.813 6 114601547.81706       461.789 6        39.270
G10        47.000    24559134.905 6 129059069.31306       278.294 6        40.577                                    24559140.460 5 100565504.51605       216.848 5        35.238    24559140.160 6 100565505.50606       216.964 6        38.625
C45        50.000                                                                                                                                    21727486.981 8 113140750.49608      -556.610 8        50.859                                                                    21727481.307 8  91936115.60308      -452.146 8        49.978
S48        51.000    77274061.145 6 406076495.51506      -491.703 6        37.660
E06        52.000    26489343.881 6 139202333.62006     -3463.293 6        41.664                                                                    26489352.836 7 103949767.16307     -2586.299 7        45.381    26489351.940 7 106661502.63207     -2653.676 7        45.711
E33        53.000    28949742.000 4 152131941.03804      2062.614 4        28.464                                                                    28949756.808 5 113605071.42305      1539.984 5        34.281    28949754.881 5 116568673.39305      1580.451 5        34.133
C60        54.000                                                                                                                                    40984943.502 6 213419387.16206      -449.425 6        39.982                                                                    40984936.783 6 173420667.25706      -364.957 6        39.390
E31        55.000    24231268.046 7 127336157.99907     -2050.798 7        46.956                                                                    24231272.625 8  95088716.00508     -1531.467 8        49.469    24231271.831 8  97569287.96208     -1571.423 8        50.527
C26        56.000                                                                                                                                    24276211.674 7 126412659.29507      1927.510 7        45.083                                                                    24276215.318 7 102720675.85307      1566.360 7        45.666
C02        57.000                                                                                                                                    41105240.483 5 214045628.75805      -496.395 5        30.234    41105247.326 5 165513600.75405      -383.373 5        35.971    41105246.928 5                      -403.269 5        30.687
I03        58.000    93180060.922 5 289873063.58405       917.466 5        33.407
C21        59.000                                                                                                                                    23575153.738 8 122761936.64108     -2314.219 8        48.654                                                                    23575151.908 8  99754089.85708     -1880.312 8        48.474
C22        60.000                                                                                                                                    25640507.164 7 133516673.42107     -3991.616 7        42.521                                                                    25640509.926 7 108493172.82707     -3243.422 7        42.944
> 2025 01 02 10 45 20.0000000  0 55
E24         1.000    24037378.911 8 126317403.96708       617.451 8        49.160                                                                    24037380.763 8  94328002.14608       461.103 8        50.435    24037380.010 8  96788721.23408       473.130 8        51.577
G15         2.000    21165774.997 8 111226831.42008     -2900.635 8        48.109                                    21165774.461 7  86670229.82907     -2260.230 7        47.533    21165774.679 7  86670224.82607     -2260.278 7        44.242
E03         3.000    27131297.736 6 142575906.20106      2159.775 6        39.712                                                                    27131305.407 7 106469025.77807      1612.810 7        43.149    27131303.943 7 109246480.44607      1654.941 7        44.190
G19         4.000    21810825.132 7 114616830.10107      1272.819 7        46.901                                    21810823.009 6  89311850.24206       991.804 6        37.263
S21         5.000    38566076.311 7 202665714.28607      -494.511 7        42.353
E05         6.000    22410474.970 8 117767799.48508        -7.589 8        48.172                                                                    22410478.527 8  87943460.60408        -5.681 8        50.468    22410478.032 8  90237637.38808        -5.821 8        51.970
E13         7.000    28970425.453 5 152240594.80705     -1581.865 5        34.148                                                                    28970439.205 6 113686205.33806     -1181.405 6        38.468    28970437.706 6 116651924.62606     -1212.143 6        38.952
R02         8.000    24130964.345 6 128767160.61506     -5176.049 6        36.340                                                                    24130982.984 4 100152163.28704     -4025.890 4        25.970
R05         9.000    23559262.414 7 125937763.13907      3494.251 7        44.697                                                                    23559270.294 6  97951632.85306      2717.729 6        41.812
G24        10.000    20634866.191 8 108436960.93308      1054.335 8        48.730                                    20634867.678 8  84496349.03808       821.559 8        50.607    20634868.044 7  84496354.04107       821.653 7        45.902
C14        11.000                                                                                                                                    25990115.039 6 135337346.35106      1842.555 6        38.964    25990119.309 7 104651445.18707      1424.767 7        45.135    25990115.915 7 109972688.91007      1497.184 7        42.466
S27        12.000    39310149.968 6 206576100.15206      -525.608 6        36.749
G13        13.000    22299107.410 7 117182516.41407     -3841.115 7        45.508                                    22299108.599 5  91311008.25305     -2993.075 5        31.796
S36        14.000    38336453.046 7 201459846.88607      -495.355 7        44.542
G02        15.000    25877709.939 6 135988288.92906     -1114.692 6        36.919                                    25877716.380 3 105964927.96103      -868.581 3        18.507
E09        16.000    24965532.709 7 131194708.23907     -2801.540 7        47.233                                                                    24965537.178 8  97970052.23008     -2092.006 8        48.886    24965536.102 8 100525791.43208     -2146.649 8        49.954
G12        17.000    22876356.093 7 120216196.53707      2747.653 7        45.324                                    22876357.472 6  93675030.42706      2141.022 6        41.895    22876357.895 6  93675027.43206      2141.053 6        41.228
R21        18.000    24234634.953 6 129684432.04506     -3238.345 6        41.783                                                                    24234646.081 6 100865709.06206     -2518.891 6        39.228
R22        19.000    22508062.137 7 120149631.33307       182.710 7        46.265                                                                    22508067.896 7  93449707.84107       142.229 7        42.861
R03        21.000    20480356.456 8 109632887.44708     -3411.801 8        51.571                                                                    20480358.946 7  85270006.96507     -2653.626 7        46.614
I06        22.000    38382737.876 6 150622223.86006      -477.250 6        41.638
S28        23.000    41020993.273 5 215566606.64705      -505.490 5        34.748
S23        25.000    38270460.764 7 201112492.47407      -497.835 7        44.635
S45        26.000    63520822.221 6 333804533.72006      -549.552 6        36.355
C07        27.000                                                                                                                                    39216457.139 6 204210318.81306     -1076.511 6        39.820    39216458.081 7 157908349.74607      -832.696 7        43.539    39216455.043 6 165937581.19006      -874.902 6        40.799
R04        28.000    20287415.661 8 108638175.14308       633.441 8        50.902                                                                    20287416.655 7  84496335.93907       492.719 7        46.807
C40        29.000                                                                                                                                    39379729.065 6 205060523.57906     -1309.013 6        41.847                                                                    39379732.146 6 166628465.06406     -1063.787 6        41.955
G17        30.000    22213557.453 7 116733153.75607     -1285.233 7        46.112                                    22213557.709 7  90960958.28807     -1001.476 7        43.962    22213557.706 7  90960955.28207     -1001.452 7        42.430
G14        31.000    23507445.762 6 123532368.12806     -3662.493 6        40.439                                    23507450.202 4  96258963.94704     -2853.888 4        26.611    23507449.837 6  96258949.91606     -2853.878 6        41.185
G23        32.000    23626240.403 6 124156619.23806     -2146.103 6        41.416                                    23626243.708 4  96745377.28004     -1672.278 4        26.982    23626244.176 6  96745372.27306     -1672.259 6        41.082
I02        33.000    37058513.181 7 145425564.02607      -257.968 7        43.441
R13        35.000    19882514.218 7 106171537.39807     -2054.542 7        47.035
R12        36.000    22935600.988 7 122517742.72907     -3891.337 7        43.278                                                                    22935610.187 6  95291550.96106     -3026.624 6        41.518
C42        37.000                                                                                                                                    24376000.542 7 126932225.14607       609.409 7        45.303                                                                    24376011.868 7 103142874.45907       495.188 7        46.167
C10        38.000                                                                                                                                    38658086.105 7 201302774.63807      -714.056 7        42.172    38658088.124 7 155660069.85707      -552.057 7        44.685    38658084.969 6 163574978.18306      -580.178 6        41.480
E25        39.000    27310360.260 6 143517003.64406      2236.337 6        40.412                                                                    27310370.851 7 107171882.26707      1669.996 7        42.030    27310368.959 7 109967658.96807      1713.466 7        42.504
C30        40.000                                                                                                                                    24655712.196 7 128388808.11907      -196.818 7        45.320                                                                    24655718.935 7 104326464.61807      -160.006 7        43.312
R23        41.000    23000155.966 7 123035372.69807      2958.111 7        42.349
S44        42.000    40985374.639 6 215379611.94606      -453.307 6        37.641
C36        43.000                                                                                                                                    23714503.771 7 123487567.41807     -2804.464 7        46.251                                                                    23714512.508 7 100343767.67207     -2278.832 7        47.007
C05        44.000                                                                                                                                    39559545.610 6 205996824.87506      -528.282 6        38.306    39559549.319 7 159289798.72807      -408.497 7        42.468    39559548.760 6 167389367.37406      -429.187 6        39.246
R14        45.000    20733213.385 8 110519794.52308      1695.045 8        51.290                                                                    20733217.824 7  85959919.84407      1318.313 7        47.448
E26        46.000    28460632.598 6 149561654.75206       600.411 6        37.006                                                                    28460645.311 6 111685713.05106       448.407 6        38.895    28460643.217 6 114599243.28906       460.040 6        39.492
G10        47.000    24558871.145 6 129057684.57706       275.563 6        41.359                                    24558876.956 5 100564425.50205       214.725 5        35.314    24558876.810 6 100564426.50806       214.600 6        38.513
C45        50.000                                                                                                                                    21728021.904 8 113143536.71308      -557.975 8        50.752                                                                    21728016.392 8  91938379.62808      -453.366 8        50.003
S48        51.000    77274528.349 6 406078952.92206      -491.385 6        37.637
E06        52.000    26492639.295 6 139219651.74706     -3464.068 6        41.292                                                                    26492648.340 7 103962699.50007     -2586.699 7        45.085    26492647.478 7 106674772.33107     -2654.195 7        45.964
E33        53.000    28947779.772 4 152121629.65004      2062.523 4        28.720                                                                    28947794.355 5 113597371.45305      1539.991 5        34.786    28947792.509 5 116560772.56705      1580.039 5        34.486
C60        54.000                                                                                                                                    40985374.870 6 213421633.33506      -449.122 6        40.174                                                                    40985368.003 6 173422492.50206      -364.966 6        39.508
E31        55.000    24233219.983 7 127346414.91007     -2051.920 7        47.029                                                                    24233224.442 8  95096375.37808     -1532.289 8        49.288    24233223.664 8  97577147.14608     -1572.253 8        50.677
C26        56.000                                                                                                                                    24274361.103 7 126403023.18307      1926.831 7        45.168                                                                    24274364.842 7 102712845.73907      1565.715 7        45.636
C02        57.000                                                                                                                                    41105717.668 5 214048108.03005      -495.768 5        30.347    41105723.527 5 165515517.91205      -383.367 5        35.938    41105723.299 5                      -402.834 5        30.234
I03        58.000    93178891.530 5 289868476.37705       917.558 5        33.347
C21        59.000                                                                                                                                    23577376.967 8 122773512.94008     -2316.410 8        48.417                                                                    23577375.087 8  99763496.54208     -1882.269 8        48.503
C22        60.000                                                                                                                                    25644340.346 7 133536631.53007     -3991.708 7        43.016                                                                    25644342.853 7 108509390.38607     -3243.541 7        43.437
> 2025 01 02 10 45 25.0000000  0 55
E24         1.000    24036792.376 8 126314321.49108       615.649 8        49.169                                                                    24036794.188 8  94325700.28808       459.753 8        50.555    24036793.403 8  96786359.33308       471.718 8        51.581
G15         2.000    21168536.194 8 111241342.20408     -2903.537 8        48.344                                    21168535.769 7  86681536.92107     -2262.493 7        47.568    21168536.370 7  86681531.92107     -2262.484 7        44.612
E03         3.000    27129243.330 6 142565110.21306      2158.624 6        40.200                                                                    27129251.071 7 106460963.82707      1612.115 7        43.143    27129249.665 7 109238208.19207      1654.005 7        44.150
G19         4.000    21809615.734 7 114610474.01707      1269.839 7        47.009                                    21809613.417 6  89306897.45706       989.482 6        37.331
S21         5.000    38566544.373 7 202668187.53407      -494.605 7        42.099
E05         6.000    22410483.328 8 117767843.31408        -9.831 8        48.200                                                                    22410486.925 8  87943493.32308        -7.381 8        50.621    22410486.389 8  90237670.96108        -7.555 8        51.956
E13         7.000    28971931.852 5 152248510.36605     -1584.407 5        33.449                                                                    28971945.679 6 113692116.25906     -1183.021 6        38.477    28971943.805 6 116657989.75606     -1213.990 6        39.204
R02         8.000    24135815.697 6 128793042.47506     -5176.364 6        36.261                                                                    24135837.680 4 100172293.41604     -4026.001 4        26.635
R05         9.000    23555994.599 7 125920296.55507      3492.420 7        44.301                                                                    23556003.854 7  97938047.78907      2716.243 7        42.533
G24        10.000    20633864.306 8 108431695.57208      1051.944 8        48.963                                    20633865.699 8  84492246.16308       819.695 8        50.605    20633866.054 7  84492251.16407       819.733 7        45.806
C14        11.000                                                                                                                                    25988346.908 6 135328139.23706      1840.521 6        39.063    25988351.341 7 104644325.67407      1423.109 7        45.064    25988347.811 7 109965207.39007      1495.545 7        42.447
S27        12.000    39310652.032 6 206578728.88806      -525.530 6        36.669
G13        13.000    22302763.383 7 117201726.79707     -3842.893 7        45.812                                    22302764.405 5  91325977.35905     -2994.457 5        31.804
S36        14.000    38336924.668 7 201462324.20207      -495.408 7        44.414
G02        15.000    25878773.213 6 135993871.06906     -1117.720 6        36.488                                    25878778.927 3 105969277.62903      -870.940 3        18.418
E09        16.000    24968199.118 7 131208720.39407     -2803.190 7        47.052                                                                    24968203.671 8  97980515.84208     -2093.339 8        48.985    24968202.512 8 100536528.00608     -2147.887 8        50.023
G12        17.000    22873742.464 7 120202462.56407      2746.158 7        44.995                                    22873743.853 6  93664328.65106      2139.859 6        41.824    22873744.349 6  93664325.65806      2139.899 6        40.975
R21        18.000    24237662.757 7 129700632.82907     -3241.753 7        42.051                                                                    24237673.092 6 100878309.61006     -2521.210 6        39.201
R22        19.000    22507893.494 7 120148729.04807       178.322 7        46.285                                                                    22507898.846 7  93449006.07607       138.647 7        42.834
R03        21.000    20483545.013 8 109649956.15308     -3415.531 8        51.535                                                                    20483547.445 7  85283282.60207     -2656.518 7        46.950
I06        22.000    38383345.779 6 150624610.60606      -477.419 6        41.871
S28        23.000    41021473.646 5 215569133.77505      -505.479 5        34.600
S23        25.000    38270935.114 7 201114982.12907      -497.973 7        44.695
S45        26.000    63521297.551 6 333807281.92006      -549.574 6        36.174
C07        27.000                                                                                                                                    39217491.004 6 204215704.36706     -1077.356 6        40.045    39217492.110 7 157912514.17707      -833.057 7        43.416    39217489.399 6 165941957.38106      -875.483 6        40.958
R04        28.000    20286825.658 8 108635019.81308       628.813 8        51.190                                                                    20286827.395 7  84493881.79907       489.104 7        46.799
C40        29.000                                                                                                                                    39380986.500 6 205067071.21706     -1309.785 6        41.735                                                                    39380989.606 6 166633785.54006     -1064.436 6        41.924
G17        30.000    22214781.820 7 116739588.44807     -1288.586 7        46.191                                    22214782.231 7  90965972.32507     -1004.092 7        43.956    22214782.524 7  90965969.32407     -1004.053 7        42.449
G14        31.000    23510931.283 6 123550682.93406     -3663.289 6        40.927                                    23510935.461 4  96273235.17004     -2854.506 4        26.383    23510935.197 6  96273221.13906     -2854.520 6        40.806
G23        32.000    23628283.792 6 124167357.14406     -2148.903 6        41.983                                    23628287.123 4  96753744.46204     -1674.468 4        27.054    23628286.980 6  96753739.45806     -1674.421 6        41.554
I02        33.000    37058842.252 7 145426854.72007      -258.361 7        43.757
R13        35.000    19884438.905 7 106181815.81807     -2056.725 7        46.648
R12        36.000    22939244.300 7 122537201.24807     -3891.844 7        43.867                                                                    22939252.265 6  95306685.32906     -3027.077 6        40.744
C42        37.000                                                                                                                                    24375416.648 7 126929185.51907       606.534 7        45.508                                                                    24375428.176 7 103140404.51407       492.736 7        46.220
C10        38.000                                                                                                                                    38658772.261 7 201306346.85307      -714.665 7        42.336    38658774.117 7 155662832.10507      -552.665 7        44.587    38658771.031 6 163577880.88006      -580.790 6        41.418
E25        39.000    27308233.093 6 143505824.72306      2235.436 6        40.551                                                                    27308243.383 7 107163534.39707      1669.332 7        42.025    27308241.488 7 109959093.32307      1712.770 7        42.442
C30        40.000                                                                                                                                    24655902.476 7 128389800.15807      -199.890 7        44.667                                                                    24655909.490 7 104327270.70907      -162.422 7        43.409
R23        41.000    22997392.463 7 123020588.12607      2955.826 7        42.455
S44        42.000    40985804.640 6 215381878.98906      -453.533 6        37.543
C36        43.000                                                                                                                                    23717196.959 7 123501592.16107     -2805.330 7        46.026                                                                    23717205.946 7 100355163.90407     -2279.662 7        46.985
C05        44.000                                                                                                                                    39560052.795 6 205999467.04806      -528.516 6        38.174    39560056.705 7 159291841.82907      -408.660 7        42.286    39560056.011 6 167391514.35306      -429.359 6        39.147
R14        45.000    20731624.904 8 110511324.67308      1693.030 8        51.241                                                                    20731629.021 7  85953332.19007      1316.858 7        47.285
E26        46.000    28460062.353 6 149558658.34806       598.357 6        36.964                                                                    28460075.107 6 111683475.52306       446.562 6        38.790    28460073.142 6 114596947.38106       458.330 6        39.456
G10        47.000    24558610.508 6 129056315.71006       272.222 6        41.113                                    24558616.426 5 100563358.85505       212.123 5        35.300    24558615.923 6 100563359.85606       212.242 6        38.219
C45        50.000                                                                                                                                    21728558.647 8 113146331.02608      -559.614 8        50.794                                                                    21728552.980 8  91940650.23308      -454.815 8        49.901
S48        51.000    77274995.124 6 406081410.83706      -491.757 6        37.486
E06        52.000    26495935.463 6 139236974.24106     -3464.977 6        41.104                                                                    26495944.828 7 103975635.09307     -2587.454 7        45.299    26495943.831 7 106688045.37707     -2654.966 7        46.071
E33        53.000    28945817.715 4 152111322.12904      2060.960 4        29.393                                                                    28945832.857 5 113589674.34805      1538.948 5        34.876    28945830.812 5 116552874.64205      1579.300 5        34.471
C60        54.000                                                                                                                                    40985806.377 6 213423879.79106      -449.243 6        40.110                                                                    40985799.291 6 173424317.95206      -365.300 6        39.387
E31        55.000    24235172.969 7 127356678.43707     -2053.390 7        46.956                                                                    24235177.518 8  95104039.68208     -1533.377 8        49.378    24235176.810 8  97585011.39208     -1573.346 8        50.684
C26        56.000                                                                                                                                    24272511.841 7 126393391.38307      1925.880 7        45.454                                                                    24272515.148 7 102705019.12207      1564.876 7        45.655
C02        57.000                                                                                                                                    41106193.189 5 214050587.55605      -495.741 5        30.408    41106199.871 5 165517435.23105      -383.377 5        35.776    41106199.169 5                      -403.372 5        30.521
I03        58.000    93177723.280 5 289863889.26905       917.349 5        33.365
C21        59.000                                                                                                                                    23579602.526 8 122785101.80508     -2318.993 8        48.640                                                                    23579600.612 8  99772913.43508     -1884.468 8        48.500
C22        60.000                                                                                                                                    25648173.764 7 133556591.18707     -3992.041 7        43.101                                                                    25648175.901 7 108525609.18607     -3243.922 7        43.537
> 2025 01 02 10 45 30.0000000  0 55
E24         1.000    24036207.269 8 126311247.21308       614.127 8        49.116                                                                    24036209.160 8  94323404.56408       458.604 8        50.666    24036208.394 8  96784003.71608       470.533 8        51.510
G15         2.000    21171299.922 8 111255866.74508     -2906.167 8        48.488                                    21171299.701 7  86692854.72907     -2264.543 7        47.524    21171299.856 7  86692849.72407     -2264.592 7        44.402
E03         3.000    27127189.228 6 142554318.32806      2158.198 6        39.697                                                                    27127197.269 7 106452904.97307      1611.547 7        43.363    27127196.094 7 109229939.10407      1653.494 7        44.141
G19         4.000    21808408.788 7 114604132.15807      1267.035 7        46.992                                    21808406.544 6  89301955.75606       987.301 6        37.316
S21         5.000    38567018.272 7 202670660.74507      -494.578 7        42.307
E05         6.000    22410493.610 8 117767897.81208       -11.864 8        48.066                                                                    22410497.281 8  87943534.01208        -8.895 8        50.705    22410496.732 8  90237712.70908        -9.074 8        51.950
E13         7.000    28973439.696 5 152256437.04605     -1586.532 5        33.120                                                                    28973454.144 6 113698035.49906     -1184.730 6        38.045    28973452.259 6 116664063.40006     -1215.446 6        38.946
R02         8.000    24140666.833 6 128818924.50606     -5176.441 6        36.393                                                                    24140683.346 4 100192423.72904     -4026.482 4        26.575
R05         9.000    23552729.349 7 125902838.61807      3490.796 7        44.808                                                                    23552737.866 7  97924469.40807      2715.087 7        42.499
G24        10.000    20632864.489 8 108426441.10808      1049.851 8        49.020                                    20632865.813 8  84488151.77808       818.065 8        50.567    20632866.139 7  84488156.78607       818.056 7        45.886
C14        11.000                                                                                                                                    25986581.383 6 135318941.95306      1838.599 6        39.105    25986585.003 7 104637213.74907      1421.657 7        44.628    25986581.727 7 109957733.81807      1493.940 7        42.267
S27        12.000    39311152.979 6 206581357.30506      -525.769 6        36.718
G13        13.000    22306420.665 7 117220945.00907     -3844.378 7        45.834                                    22306421.544 5  91340952.56805     -2995.616 5        31.766
S36        14.000    38337395.114 7 201464801.30007      -495.351 7        44.513
G02        15.000    25879837.141 6 135999466.62806     -1120.347 6        36.261                                    25879843.777 2 105973637.77102      -872.998 2        17.736
E09        16.000    24970867.053 7 131222740.23607     -2804.689 7        47.126                                                                    24970871.572 8  97990985.18908     -2094.428 8        49.134    24970870.488 8 100547270.46708     -2149.062 8        49.963
G12        17.000    22871130.668 7 120188735.58807      2744.823 7        45.083                                    22871131.585 6  93653632.33406      2138.822 6        41.771    22871132.456 6  93653629.34706      2138.845 6        41.035
R21        18.000    24240693.849 7 129716849.25807     -3244.680 7        42.002                                                                    24240703.878 6 100890922.39806     -2523.652 6        39.417
R22        19.000    22507727.547 7 120147847.95307       174.041 7        45.892                                                                    22507734.219 7  93448320.77407       135.520 7        42.976
R03        21.000    20486737.132 8 109667042.52508     -3418.945 8        51.073                                                                    20486739.077 7  85296571.98607     -2659.170 7        46.161
I06        22.000    38383954.072 7 150626997.31807      -477.279 7        42.044
S28        23.000    41021957.055 5 215571660.85005      -505.516 5        34.886
S23        25.000    38271408.788 7 201117471.62307      -497.812 7        44.713
S45        26.000    63521773.586 6 333810030.11406      -549.556 6        36.174
C07        27.000                                                                                                                                    39218525.623 6 204221092.25406     -1077.506 6        39.949    39218527.090 7 157916680.43007      -833.404 7        43.331    39218524.181 6 165946335.45206      -875.741 6        40.834
R04        28.000    20286240.468 8 108631886.86708       624.393 8        50.708                                                                    20286242.625 7  84491445.05907       485.666 7        46.723
C40        29.000                                                                                                                                    39382244.450 6 205073621.68606     -1310.379 6        41.621                                                                    39382247.453 6 166639108.30106     -1064.648 6        41.685
G17        30.000    22216009.302 7 116746038.53707     -1291.452 7        46.004                                    22216009.674 7  90970998.35907     -1006.324 7        43.871    22216009.703 7  90970995.36107     -1006.391 7        42.353
G14        31.000    23514417.172 6 123569000.97806     -3663.844 6        41.392                                    23514421.318 4  96287508.92404     -2854.938 4        26.323    23514421.247 6  96287494.90106     -2854.885 6        40.639
G23        32.000    23630329.750 7 124178108.25707     -2151.478 7        42.131                                    23630333.092 4  96762121.92004     -1676.474 4        27.006    23630332.886 6  96762116.91206     -1676.457 6        41.063
I02        33.000    37059171.581 7 145428146.55107      -258.357 7        43.941
R13        35.000    19886365.879 7 106192103.88207     -2058.490 7        47.002
R12        36.000    22942887.949 7 122556660.94507     -3891.897 7        45.109                                                                    22942896.765 7  95321820.59607     -3027.101 7        42.028
C42        37.000                                                                                                                                    24374835.825 7 126926159.51007       603.925 7        45.615                                                                    24374846.987 7 103137945.61907       490.736 7        46.098
C10        38.000                                                                                                                                    38659459.161 7 201309921.68507      -715.204 7        42.345    38659460.366 7 155665596.37107      -552.979 7        44.643    38659457.503 6 163580785.68406      -581.116 6        41.418
E25        39.000    27306106.750 6 143494648.86906      2234.901 6        40.260                                                                    27306116.323 7 107155188.81507      1668.944 7        42.138    27306114.847 7 109950530.02607      1712.455 7        42.353
C30        40.000                                                                                                                                    24656095.976 7 128390806.00707      -202.446 7        44.623                                                                    24656102.775 7 104328088.03007      -164.487 7        43.263
R23        41.000    22994630.411 7 123005814.17407      2953.812 7        42.724
S44        42.000    40986237.028 6 215384145.81606      -453.213 6        37.561
C36        43.000                                                                                                                                    23719890.713 7 123515620.40607     -2805.913 7        45.856                                                                    23719899.907 7 100366562.95607     -2280.004 7        46.882
C05        44.000                                                                                                                                    39560560.056 6 206002108.97706      -528.275 6        38.135    39560564.341 7 159293884.75707      -408.616 7        42.377    39560563.523 6 167393661.14006      -429.264 6        38.988
R14        45.000    20730037.329 8 110502863.85608      1691.242 8        51.286                                                                    20730041.718 7  85946751.56107      1315.458 7        47.633
E26        46.000    28459493.631 6 149555672.74906       596.048 6        36.597                                                                    28459506.778 6 111681246.03506       445.093 6        38.808    28459504.901 6 114594659.73806       456.711 6        39.396
G10        47.000    24558352.812 6 129054962.20606       269.182 6        41.023                                    24558358.802 5 100562304.18005       209.754 5        35.238    24558358.728 6 100562305.18606       209.837 6        38.721
C45        50.000                                                                                                                                    21729096.846 8 113149133.00208      -561.073 8        50.687                                                                    21729091.088 8  91942927.04008      -455.880 8        49.760
S48        51.000    77275465.123 6 406083868.80806      -491.591 6        37.512
E06        52.000    26499232.671 6 139254300.64606     -3465.604 6        41.054                                                                    26499241.995 7 103988573.59107     -2587.963 7        45.544    26499241.053 7 106701321.40907     -2655.455 7        46.025
E33        53.000    28943856.005 4 152101017.90604      2060.071 4        27.545                                                                    28943872.039 5 113581979.75905      1538.463 5        35.462    28943869.804 5 116544979.29305      1578.889 5        34.605
C60        54.000                                                                                                                                    40986237.670 6 213426126.00106      -449.138 6        40.024                                                                    40986230.758 6 173426143.19906      -364.928 6        39.267
E31        55.000    24237126.992 7 127366948.11707     -2054.478 7        46.643                                                                    24237131.798 8  95111708.57908     -1534.214 8        49.472    24237131.089 8  97592880.35208     -1574.219 8        50.604
C26        56.000                                                                                                                                    24270662.850 7 126383763.43107      1925.323 7        45.538                                                                    24270666.227 7 102697195.61107      1564.484 7        45.461
C02        57.000                                                                                                                                    41106669.099 5 214053066.82305      -495.731 5        30.060    41106675.558 6 165519352.34806      -383.283 6        36.030    41106675.151 5                      -402.559 5        30.377
I03        58.000    93176553.861 5 289859301.85405       917.331 5        33.431
C21        59.000                                                                                                                                    23581830.465 8 122796702.77908     -2321.302 8        48.382                                                                    23581828.485 8  99782340.13808     -1886.185 8        48.385
C22        60.000                                                                                                                                    25652007.292 7 133576551.91207     -3992.231 7        42.559                                                                    25652009.214 7 108541828.84707     -3243.913 7        43.359
> 2025 01 02 10 45 35.0000000  0 55
E24         1.000    24035623.656 8 126308181.54608       612.259 8        49.215                                                                    24035625.767 8  94321115.26108       457.209 8        50.656    24035625.050 8  96781654.69608       469.094 8        51.433
G15         2.000    21174066.860 8 111270405.41708     -2909.165 8        48.581                                    21174066.329 7  86704183.55307     -2266.879 7        47.762    21174066.384 7  86704178.54207     -2266.854 7        44.170
E03         3.000    27125136.568 6 142543531.00006      2156.999 6        39.772                                                                    27125144.467 7 106444849.50107      1610.744 7        43.354    27125143.395 7 109221673.48407      1652.771 7        44.135
G19         4.000    21807204.997 7 114597804.87207      1263.941 7        46.778                                    21807202.497 6  89297025.40906       984.886 6        37.490
S21         5.000    38567489.187 7 202673134.35407      -494.839 7        42.298
E05         6.000    22410506.047 8 117767963.39708       -14.293 8        48.263                                                                    22410509.712 8  87943582.98108       -10.685 8        50.684    22410509.235 8  90237762.95808       -10.934 8        51.820
E13         7.000    28974950.238 5 152264375.18605     -1588.654 5        32.341                                                                    28974964.487 6 113703963.31506     -1186.447 6        38.033    28974962.972 6 116670145.86106     -1217.245 6        39.000
R02         8.000    24145516.296 5 128844807.28405     -5176.556 5        35.586                                                                    24145532.000 4 100212554.58804     -4025.704 4        26.275
R05         9.000    23549465.174 7 125885389.57307      3488.844 7        44.968                                                                    23549472.843 7  97910897.95307      2713.540 7        42.305
G24        10.000    20631866.739 8 108421197.97208      1047.453 8        48.959                                    20631868.069 8  84484066.22308       816.196 8        50.776    20631868.282 7  84484071.23207       816.193 7        45.941
C14        11.000                                                                                                                                    25984816.277 6 135309754.92306      1836.417 6        38.850    25984820.781 7 104630109.75007      1420.019 7        44.637    25984817.249 7 109950268.62007      1492.187 7        42.419
S27        12.000    39311651.673 6 206583986.27106      -525.697 6        36.552
G13        13.000    22310079.376 7 117240171.44507     -3846.126 7        45.880                                    22310080.186 5  91355934.19105     -2996.979 5        31.826
S36        14.000    38337867.787 7 201467278.80307      -495.512 7        44.492
G02        15.000    25880904.844 5 136005075.96505     -1123.189 5        35.743                                    25880911.207 2 105978008.62402      -875.188 2        17.887
E09        16.000    24973536.571 7 131236768.14807     -2806.459 7        47.541                                                                    24973541.012 8  98001460.56108     -2095.711 8        49.057    24973540.002 8 100558019.11508     -2150.358 8        49.811
G12        17.000    22868519.827 7 120175016.01807      2743.137 7        45.103                                    22868520.779 7  93642941.78407      2137.507 7        42.034    22868521.526 6  93642938.78006      2137.625 6        40.558
R21        18.000    24243727.040 6 129733081.84406     -3248.139 6        41.001                                                                    24243737.161 6 100903547.73106     -2526.343 6        39.517
R22        19.000    22507566.214 7 120146988.47107       169.731 7        45.843                                                                    22507573.007 7  93447652.28807       132.006 7        43.075
R03        21.000    20489932.526 8 109684146.78308     -3422.657 8        51.561                                                                    20489934.277 7  85309875.26907     -2662.030 7        46.386
I06        22.000    38384563.063 6 150629384.34706      -477.406 6        41.957
S28        23.000    41022437.218 5 215574188.22905      -505.494 5        34.852
S23        25.000    38271882.557 7 201119961.32707      -498.012 7        44.688
S45        26.000    63522246.666 6 333812778.64206      -549.975 6        36.159
C07        27.000                                                                                                                                    39219560.493 6 204226482.83006     -1078.371 6        39.865    39219562.269 7 157920848.73807      -833.852 7        43.621    39219559.319 6 165950715.74906      -876.343 6        40.806
R04        28.000    20285660.149 8 108628776.61008       619.725 8        51.060                                                                    20285661.888 7  84489025.96907       482.028 7        46.839
C40        29.000                                                                                                                                    39383503.161 6 205080175.42006     -1311.211 6        41.473                                                                    39383506.043 6 166644433.76206     -1065.407 6        41.833
G17        30.000    22217239.821 7 116752504.46407     -1294.801 7        45.813                                    22217240.090 7  90976036.73307     -1008.937 7        44.069    22217240.284 7  90976033.73907     -1008.963 7        42.451
G14        31.000    23517903.434 6 123587322.67606     -3664.622 6        41.797                                    23517907.722 4  96301785.53004     -2855.536 4        26.742    23517907.744 6  96301771.50606     -2855.700 6        40.939
G23        32.000    23632377.676 7 124188872.93707     -2154.286 7        42.353                                    23632381.659 4  96770509.95804     -1678.664 4        27.222    23632381.584 6  96770504.95106     -1678.651 6        40.720
I02        33.000    37059500.924 7 145429439.74807      -258.896 7        43.941
R13        35.000    19888294.295 7 106202402.06207     -2060.668 7        47.007
R12        36.000    22946530.918 7 122576122.22507     -3892.457 7        44.972                                                                    22946540.043 7  95336957.09307     -3027.427 7        43.027
C42        37.000                                                                                                                                    24374257.480 7 126923147.53607       601.010 7        45.509                                                                    24374268.626 7 103135498.16807       488.286 7        46.159
C10        38.000                                                                                                                                    38660146.198 7 201313499.51507      -715.822 7        42.229    38660147.664 7 155668362.96407      -553.513 7        44.808    38660144.593 6 163583692.98106      -581.715 6        41.430
E25        39.000    27303980.438 6 143483476.51406      2234.042 6        40.293                                                                    27303990.389 7 107146845.83907      1668.292 7        42.178    27303988.805 7 109941969.41707      1711.768 7        42.364
C30        40.000                                                                                                                                    24656292.473 7 128391826.08807      -205.529 7        44.662                                                                    24656298.754 7 104328916.94407      -166.913 7        43.445
R23        41.000    22991870.450 7 122991051.24607      2951.568 7        42.988
S44        42.000    40986669.769 6 215386412.83906      -453.308 6        37.645
C36        43.000                                                                                                                                    23722585.688 7 123529652.56207     -2806.859 7        46.241                                                                    23722594.593 7 100377965.23307     -2280.779 7        46.897
C05        44.000                                                                                                                                    39561067.115 6 206004751.19406      -528.490 6        38.147    39561071.567 7 159295927.87607      -408.645 7        42.474    39561070.842 6 167395808.17606      -429.426 6        39.090
R14        45.000    20728452.017 8 110494412.81208      1689.233 8        50.961                                                                    20728455.891 7  85940178.55607      1313.793 7        47.134
E26        46.000    28458927.906 6 149552698.40906       593.429 6        36.885                                                                    28458940.719 6 111679024.93206       443.336 6        38.733    28458939.025 6 114592380.69406       454.918 6        39.550
G10        47.000    24558098.396 6 129053624.47806       265.999 6        40.880                                    24558104.233 5 100561261.79605       207.275 5        35.376    24558104.266 6 100561262.79706       207.264 6        38.492
C45        50.000                                                                                                                                    21729636.435 8 113151943.01808      -562.856 8        50.545                                                                    21729630.729 8  91945210.42008      -457.350 8        49.879
S48        51.000    77275931.258 6 406086327.04906      -491.730 6        37.531
E06        52.000    26502530.638 6 139271631.35806     -3466.606 6        41.530                                                                    26502540.133 7 104001515.31407     -2588.585 7        45.729    26502539.049 7 106714600.75107     -2656.310 7        46.014
E33        53.000    28941896.741 4 152090717.53704      2059.327 4        27.701                                                                    28941911.717 5 113574287.95405      1538.077 5        35.281    28941909.760 5 116537086.83705      1578.299 5        33.994
C60        54.000                                                                                                                                    40986669.079 6 213428372.43906      -449.408 6        39.724                                                                    40986662.082 6 173427968.64406      -365.161 6        39.357
E31        55.000    24239082.599 7 127377224.34007     -2055.934 7        46.888                                                                    24239087.329 8  95119382.36808     -1535.243 8        49.462    24239086.555 8  97600754.32508     -1575.303 8        50.476
C26        56.000                                                                                                                                    24268814.405 7 126374139.74707      1924.237 7        45.406                                                                    24268818.098 7 102689375.60607      1563.680 7        45.693
C02        57.000                                                                                                                                    41107145.148 5 214055546.22405      -496.099 5        30.362    41107151.697 5 165521269.61005      -383.511 5        35.881    41107151.853 5                      -403.340 5        30.626
I03        58.000    93175385.382 5 289854714.46105       917.480 5        33.347
C21        59.000                                                                                                                                    23584060.705 8 122808316.25908     -2323.972 8        48.345                                                                    23584058.718 8  99791777.04008     -1888.333 8        48.456
C22        60.000                                                                                                                                    25655840.668 6 133596514.11906     -3992.621 6        41.692                                                                    25655842.740 7 108558049.73407     -3244.311 7        43.314
> 2025 01 02 10 45 40.0000000  0 55
E24         1.000    24035042.043 8 126305124.61908       610.409 8        49.240                                                                    24035044.051 8  94318832.48308       455.829 8        50.660    24035043.294 8  96779312.36708       467.736 8        51.445
G15         2.000    21176836.123 8 111284958.33108     -2912.138 8        48.534                                    21176835.663 7  86715523.47007     -2269.197 7        47.833    21176835.801 7  86715518.46307     -2269.155 7        43.767
E03         3.000    27123084.778 6 142532748.33406      2156.006 6        39.868                                                                    27123092.585 7 106436797.51307      1609.971 7        43.318    27123091.518 7 109213411.44407      1652.017 7        44.023
G19         4.000    21806003.713 7 114591492.30407      1260.906 7        46.960                                    21806001.254 6  89292106.53206       982.521 6        37.580
S21         5.000    38567960.250 7 202675608.40207      -495.127 7        42.334
E05         6.000    22410520.777 8 117768040.18708       -16.550 8        48.230                                                                    22410524.430 8  87943640.31908       -12.376 8        50.673    22410523.845 8  90237821.79308       -12.673 8        51.725
E13         7.000    28976463.338 5 152272324.94305     -1591.214 5        31.947                                                                    28976477.415 6 113709899.80906     -1188.149 6        36.677    28976475.534 6 116676237.24906     -1219.440 6        38.168
R02         8.000    24150366.339 5 128870690.62705     -5176.807 5        35.543                                                                    24150386.630 4 100232685.93604     -4027.213 4        25.429
R05         9.000    23546202.909 7 125867949.82607      3486.938 7        44.834                                                                    23546210.530 6  97897333.70106      2712.150 6        41.683
G24        10.000    20630871.001 8 108415966.30408      1045.062 8        49.012                                    20630872.498 8  84479989.59808       814.333 8        50.855    20630872.658 7  84479994.61407       814.333 7        45.765
C14        11.000                                                                                                                                    25983053.530 6 135300578.29206      1834.200 6        38.622    25983058.285 7 104623013.79707      1418.334 7        44.600    25983054.924 7 109942811.85707      1490.597 7        42.411
S27        12.000    39312152.539 6 206586615.35206      -525.893 6        36.507
G13        13.000    22313739.578 7 117259406.22307     -3847.945 7        45.931                                    22313740.437 5  91370922.31305     -2998.394 5        31.970
S36        14.000    38338339.145 7 201469756.79207      -495.714 7        44.370
G02        15.000    25881974.327 6 136010699.29606     -1126.261 6        36.526                                    25881981.217 3 105982390.39303      -877.595 3        18.179
E09        16.000    24976207.526 7 131250804.26107     -2808.103 7        47.426                                                                    24976211.972 8  98011942.06908     -2097.010 8        49.037    24976211.002 8 100568774.05108     -2151.671 8        49.686
G12        17.000    22865910.572 7 120161303.98107      2741.548 7        44.891                                    22865911.435 7  93632257.10507      2136.266 7        42.169    22865912.109 6  93632254.12506      2136.198 6        40.725
R21        18.000    24246763.586 6 129749330.67106     -3251.575 6        41.402                                                                    24246773.909 6 100916185.68406     -2528.962 6        39.862
R22        19.000    22507409.126 7 120146150.76407       165.205 7        45.639                                                                    22507415.885 7  93447000.75007       128.578 7        42.567
R03        21.000    20493131.531 8 109701269.04708     -3426.351 8        51.733                                                                    20493133.168 7  85323192.57507     -2664.879 7        46.589
I06        22.000    38385171.079 7 150631771.76207      -477.593 7        42.023
S28        23.000    41022915.847 5 215576716.32905      -505.529 5        34.614
S23        25.000    38272355.435 7 201122451.38407      -498.048 7        44.516
S45        26.000    63522723.301 6 333815527.84006      -550.164 6        36.405
C07        27.000                                                                                                                                    39220596.919 6 204231876.22406     -1079.042 6        40.083    39220598.033 7 157925019.24807      -834.439 7        43.663    39220594.941 6 165955098.31806      -876.804 6        40.841
R04        28.000    20285083.678 8 108625689.37008       615.056 8        51.249                                                                    20285085.258 7  84486624.77007       478.361 7        47.278
C40        29.000                                                                                                                                    39384762.468 6 205086732.53706     -1311.996 6        41.242                                                                    39384765.325 6 166649761.94906     -1065.876 6        41.950
G17        30.000    22218473.332 7 116758986.32607     -1298.070 7        46.255                                    22218473.556 7  90981087.52807     -1011.482 7        44.147    22218473.649 7  90981084.53307     -1011.531 7        42.392
G14        31.000    23521390.228 6 123605648.14806     -3665.572 6        41.909                                    23521394.952 4  96316065.06604     -2856.291 4        26.695    23521395.120 6  96316051.04006     -2856.331 6        40.903
G23        32.000    23634429.115 6 124199651.32906     -2157.145 6        41.864                                    23634432.792 4  96778908.67104     -1680.890 4        27.329    23634432.202 6  96778903.67706     -1680.885 6        39.964
I02        33.000    37059830.749 7 145430734.49807      -259.082 7        43.865
R13        35.000    19890224.898 7 106212710.41907     -2062.755 7        47.167
R12        36.000    22950173.799 7 122595585.27507     -3892.841 7        44.840                                                                    22950182.579 7  95352094.97607     -3027.805 7        42.855
C42        37.000                                                                                                                                    24373681.311 7 126920149.74007       598.045 7        45.157                                                                    24373692.982 7 103133062.21607       486.068 7        46.191
C10        38.000                                                                                                                                    38660833.679 7 201317080.48007      -716.594 7        42.262    38660835.305 7 155671131.98807      -554.136 7        44.796    38660832.315 6 163586602.79606      -582.096 6        41.471
E25        39.000    27301855.016 6 143472307.78206      2233.287 6        40.675                                                                    27301865.267 7 107138505.57907      1667.664 7        42.354    27301863.412 7 109933411.57107      1711.161 7        42.391
C30        40.000                                                                                                                                    24656490.704 7 128392860.53807      -208.519 7        44.468                                                                    24656497.411 7 104329757.51507      -169.250 7        43.441
R23        41.000    22989112.639 7 122976299.51407      2949.014 7        42.868
S44        42.000    40987097.319 6 215388680.20806      -453.650 6        37.527
C36        43.000                                                                                                                                    23725281.386 7 123543688.75907     -2807.751 7        46.178                                                                    23725290.068 7 100389370.78007     -2281.369 7        46.997
C05        44.000                                                                                                                                    39561575.199 6 206007393.73506      -528.674 6        38.045    39561578.577 7 159297971.27107      -408.696 7        42.624    39561578.219 6 167397955.47506      -429.522 6        39.183
R14        45.000    20726868.166 8 110485971.64508      1687.154 8        51.256                                                                    20726872.640 7  85933613.21007      1312.272 7        47.359
E26        46.000    28458364.743 6 149549735.35706       591.317 6        36.998                                                                    28458376.815 6 111676812.29706       441.514 6        38.862    28458375.173 6 114590110.35106       453.065 6        39.865
G10        47.000    24557847.062 6 129052302.68406       262.753 6        40.868                                    24557852.767 5 100560231.82805       204.739 5        35.400    24557852.710 6 100560232.84406       204.694 6        38.261
C45        50.000                                                                                                                                    21730177.550 8 113154761.21708      -564.574 8        50.430                                                                    21730171.942 8  91947500.43308      -458.599 8        50.001
S48        51.000    77276401.981 6 406088785.72206      -491.708 6        37.425
E06        52.000    26505829.622 7 139288966.49707     -3467.497 7        42.252                                                                    26505839.003 7 104014460.35607     -2589.413 7        45.756    26505837.823 7 106727883.48507     -2656.953 7        46.092
E33        53.000    28939936.742 4 152080420.94204      2058.958 4        27.808                                                                    28939952.684 5 113566599.05705      1537.470 5        34.895    28939950.128 5 116529197.38105      1577.370 5        34.048
C60        54.000                                                                                                                                    40987100.680 6 213430619.17906      -449.521 6        39.814                                                                    40987093.379 6 173429794.33706      -365.121 6        39.513
E31        55.000    24241039.524 7 127387507.23307     -2057.369 7        46.962                                                                    24241044.114 8  95127061.14208     -1536.316 8        49.440    24241043.388 8  97608633.41508     -1576.406 8        50.517
C26        56.000                                                                                                                                    24266967.062 7 126364520.45307      1923.267 7        45.081                                                                    24266970.793 7 102681559.15507      1562.961 7        45.765
C02        57.000                                                                                                                                    41107621.564 4 214058025.92804      -495.733 4        29.934    41107627.701 6 165523187.08106      -383.538 6        36.038    41107627.575 5                      -403.187 5        30.566
I03        58.000    93174215.444 5 289850127.21805       917.351 5        33.671
C21        59.000                                                                                                                                    23586293.183 8 122819942.34008     -2326.589 8        48.504                                                                    23586291.403 8  99801224.18308     -1890.402 8        48.554
C22        60.000                                                                                                                                    25659674.148 6 133616477.90306     -3993.088 6        40.913                                                                    25659676.402 7 108574271.89407     -3244.504 7        43.263
> 2025 01 02 10 45 45.0000000  0 55
E24         1.000    24034462.277 8 126302076.32408       608.882 8        49.168                                                                    24034464.058 8  94316556.16508       454.656 8        50.753    24034463.276 8  96776976.66508       466.530 8        51.383
G15         2.000    21179607.919 8 111299525.41008     -2914.771 8        48.767                                    21179607.685 7  86726874.42307     -2271.246 7        47.805    21179607.897 7  86726869.41407     -2271.145 7        43.581
E03         3.000    27121033.986 6 142521970.25006      2155.307 6        40.184                                                                    27121041.782 7 106428748.95607      1609.316 7        43.382    27121040.480 7 109205152.92207      1651.387 7        44.036
G19         4.000    21804805.317 7 114585194.42507      1258.163 7        47.609                                    21804802.832 6  89287199.09906       980.386 6        37.599
S21         5.000    38568434.524 7 202678082.89807      -494.900 7        42.754
E05         6.000    22410537.393 8 117768128.11408       -18.681 8        48.020                                                                    22410541.116 8  87943705.97408       -13.962 8        50.754    22410540.617 8  90237889.16508       -14.328 8        51.807
E13         7.000    28977978.493 5 152280286.25005     -1593.781 5        32.078                                                                    28977992.458 6 113715844.90706     -1189.848 6        37.032    28977990.815 6 116682337.41606     -1220.901 6        38.081
R02         8.000    24155216.668 5 128896574.78505     -5176.895 5        35.081                                                                    24155233.469 4                     -4026.335 4        24.692
R05         9.000    23542941.737 7 125850519.08607      3485.340 7        44.327                                                                    23542949.292 6  97883776.49506      2710.755 6        41.211
G24        10.000    20629877.476 8 108410746.01908      1042.979 8        48.886                                    20629879.105 8  84475921.84808       812.708 8        50.858    20629879.626 7  84475926.84707       812.712 7        45.755
C14        11.000                                                                                                                                    25981293.456 6 135291411.96906      1832.222 6        38.471    25981297.998 7 104615925.81807      1416.895 7        44.855    25981294.620 7 109935363.46007      1489.036 7        42.368
S27        12.000    39312653.222 6 206589244.75606      -525.831 6        36.605
G13        13.000    22317401.283 7 117278649.23507     -3849.365 7        46.032                                    22317402.275 5  91385916.83705     -2999.497 5        31.902
S36        14.000    38338809.515 7 201472233.83207      -495.388 7        44.468
G02        15.000    25883047.536 6 136016336.43906     -1128.672 6        36.560                                    25883054.040 2 105986782.91702      -879.487 2        17.849
E09        16.000    24978879.895 7 131264848.49307     -2809.618 7        47.323                                                                    24978884.435 8  98022429.63508     -2098.073 8        49.144    24978883.477 8 100579535.20508     -2152.799 8        49.745
G12        17.000    22863302.320 7 120147599.38907      2740.265 7        45.369                                    22863303.545 7  93621578.22607      2135.264 7        42.180    22863304.618 6  93621575.24506      2135.284 6        41.645
R21        18.000    24249802.820 6 129765595.57206     -3254.513 6        41.118                                                                    24249812.824 6 100928836.16506     -2531.428 6        39.883
R22        19.000    22507256.443 7 120145334.70607       161.110 7        45.178                                                                    22507262.545 7  93446366.04107       125.253 7        42.299
R03        21.000    20496332.876 8 109718409.27008     -3429.840 8        51.946                                                                    20496335.278 7  85336523.84107     -2667.611 7        46.827
I06        22.000    38385779.611 6 150634159.50906      -477.639 6        41.943
S28        23.000    41023399.637 5 215579244.70405      -505.878 5        35.143
S23        25.000    38272829.123 7 201124941.84407      -498.063 7        44.680
S45        26.000    63523198.531 6 333818277.39106      -550.009 6        36.242
C07        27.000                                                                                                                                    39221633.945 6 204237272.38706     -1079.373 6        40.267    39221634.164 7 157929191.89507      -834.698 7        43.443    39221631.344 6 165959483.11906      -877.120 6        40.770
R04        28.000    20284511.218 8 108622624.93708       610.666 8        50.853                                                                    20284512.886 7  84484241.32307       474.937 7        46.881
C40        29.000                                                                                                                                    39386021.995 6 205093292.94906     -1312.343 6        41.311                                                                    39386025.127 7 166655092.81107     -1066.373 7        42.019
G17        30.000    22219709.732 7 116765484.07407     -1301.115 7        46.110                                    22219710.040 7  90986150.69907     -1013.854 7        44.111    22219710.259 7  90986147.70307     -1013.779 7        42.455
G14        31.000    23524878.382 6 123623977.30106     -3666.173 6        41.843                                    23524882.907 4  96330347.47004     -2856.760 4        27.066    23524883.141 6  96330333.44406     -2856.758 6        41.173
G23        32.000    23636482.413 7 124210443.32107     -2159.682 7        42.629                                    23636486.452 4  96787317.99304     -1682.852 4        27.281    23636486.836 6  96787312.97606     -1682.852 6        40.777
I02        33.000    37060161.362 7 145432030.60007      -259.299 7        43.801
R13        35.000    19892157.376 7 106223028.98907     -2064.655 7        47.429
R12        36.000    22953817.974 7 122615049.87307     -3893.027 7        44.885                                                                    22953825.790 7  95367234.07007     -3027.809 7        42.895
C42        37.000                                                                                                                                    24373108.463 7 126917166.02307       595.437 7        45.240                                                                    24373119.933 7 103130637.68607       483.885 7        46.166
C10        38.000                                                                                                                                    38661521.987 7 201320664.46707      -717.088 7        42.305    38661523.640 7 155673903.34707      -554.439 7        44.745    38661520.730 6 163589515.06006      -582.613 6        41.545
E25        39.000    27299730.230 6 143461142.59706      2232.742 6        40.405                                                                    27299740.376 7 107130167.94507      1667.292 7        42.385    27299738.712 7 109924856.44407      1710.821 7        42.203
C30        40.000                                                                                                                                    24656691.847 7 128393909.23507      -211.210 7        44.718                                                                    24656698.875 7 104330609.67507      -171.520 7        43.545
R23        41.000    22986357.736 7 122961558.94207      2946.972 7        43.534
S44        42.000    40987531.084 6 215390947.79906      -453.490 6        37.743
C36        43.000                                                                                                                                    23727977.592 7 123557728.90707     -2808.319 7        45.788                                                                    23727986.206 7 100400779.52307     -2281.968 7        46.897
C05        44.000                                                                                                                                    39562082.451 6 206010036.55906      -528.686 6        38.159    39562086.415 7 159300014.88107      -408.652 7        42.372    39562085.896 6 167400102.96706      -429.430 6        39.234
R14        45.000    20725286.809 8 110477540.03308      1685.381 8        50.977                                                                    20725290.906 7  85927055.29707      1310.928 7        47.241
E26        46.000    28457802.374 6 149546783.56806       589.247 6        36.896                                                                    28457815.119 6 111674608.06606       440.020 6        38.973    28457813.411 6 114587848.60606       451.553 6        39.829
G10        47.000    24557598.375 6 129050996.78506       259.561 6        41.871                                    24557604.283 5 100559214.24805       202.257 5        35.514    24557604.188 6 100559215.24006       202.317 6        38.517
C45        50.000                                                                                                                                    21730720.423 8 113157587.50708      -566.022 8        50.446                                                                    21730714.694 8  91949797.01508      -459.907 8        49.938
S48        51.000    77276871.265 6 406091244.42906      -491.716 6        37.565
E06        52.000    26509129.420 6 139306305.97406     -3468.266 6        41.959                                                                    26509138.612 7 104027408.63607     -2589.951 7        45.693    26509137.362 7 106741169.54807     -2657.478 7        45.877
E33        53.000    28937979.041 4 152070128.29304      2058.095 4        27.605                                                                    28937993.754 5 113558913.07705      1536.942 5        35.810    28937991.376 5 116521310.86305      1577.004 5        34.890
C60        54.000                                                                                                                                    40987531.753 6 213432866.17406      -449.418 6        39.862                                                                    40987524.967 6 173431620.21906      -365.155 6        39.309
E31        55.000    24242997.553 7 127397796.70607     -2058.427 7        46.671                                                                    24243002.205 8  95134744.82508     -1537.149 8        49.611    24243001.403 8  97616517.54808     -1577.311 8        50.401
C26        56.000                                                                                                                                    24265120.653 7 126354905.46307      1922.595 7        44.938                                                                    24265124.263 7 102673746.18407      1562.342 7        45.710
C02        57.000                                                                                                                                    41108096.843 4 214060505.91104      -496.178 4        29.972    41108103.920 5 165525104.72905      -383.406 5        35.681    41108104.134 5                      -402.678 5        30.989
I03        58.000    93173046.908 5 289845540.00705       917.552 5        33.659
C21        59.000                                                                                                                                    23588528.517 8 122831580.95308     -2328.958 8        48.742                                                                    23588526.507 8  99810681.48808     -1892.349 8        48.488
C22        60.000                                                                                                                                    25663508.017 6 133636443.18906     -3993.271 6        40.977                                                                    25663510.424 7 108590495.26207     -3244.663 7        42.974
> 2025 01 02 10 45 50.0000000  0 55
E24         1.000    24033883.566 8 126299035.79808       607.126 8        49.105                                                                    24033885.426 8  94314285.63908       453.394 8        50.738    24033884.661 8  96774646.91008       465.202 8        51.369
G15         2.000    21182382.674 8 111314105.73808     -2917.606 8        48.788                                    21182382.246 7  86738235.70607     -2273.458 7        47.864    21182382.565 7  86738230.69507     -2273.369 7        44.090
E03         3.000    27118983.835 6 142511195.88006      2154.337 6        40.350                                                                    27118991.620 7 106420703.17407      1608.753 7        43.511    27118990.143 7 109196897.24507      1650.713 7        44.092
G19         4.000    21803609.427 7 114578910.30407      1255.232 7        47.786                                    21803607.008 6  89282302.38906       978.099 6        37.701
S21         5.000    38568904.429 7 202680556.92907      -495.001 7        42.624
E05         6.000    22410555.935 8 117768226.30208       -20.797 8        48.195                                                                    22410559.810 8  87943779.28608       -15.554 8        50.794    22410559.297 8  90237964.38408       -15.909 8        51.710
E13         7.000    28979495.672 5 152288258.22105     -1596.007 5        33.545                                                                    28979509.495 6 113721797.98306     -1191.693 6        37.206    28979507.522 6 116688445.78206     -1222.689 6        38.246
R02         8.000    24160068.222 5                     -5177.039 5        34.343                                                                    24160083.539 4                     -4026.440 4        24.256
R05         9.000    23539681.841 7 125833096.82407      3483.444 7        45.085                                                                    23539689.995 6  97870225.87306      2709.313 6        41.020
G24        10.000    20628886.224 8 108405536.22608      1040.760 8        48.671                                    20628887.706 8  84471862.27208       810.982 8        50.880    20628888.042 7  84471867.27307       811.039 7        45.931
C14        11.000                                                                                                                                    25979536.531 6 135282255.08306      1830.334 6        39.270    25979539.925 7 104608845.14607      1415.234 7        44.829    25979536.184 7 109927922.74707      1487.249 7        42.529
S27        12.000    39313152.640 6 206591873.81406      -526.068 6        36.866
G13        13.000    22321064.196 7 117297899.60007     -3851.003 7        46.316                                    22321065.487 5  91400917.10505     -3000.778 5        31.977
S36        14.000    38339279.393 7 201474709.86007      -495.238 7        44.286
G02        15.000    25884123.557 6 136021986.49906     -1131.637 6        36.654                                    25884129.430 3 105991185.50403      -881.798 3        18.149
E09        16.000    24981553.798 7 131278899.94007     -2811.164 7        47.227                                                                    24981558.352 8  98032922.58908     -2099.275 8        49.074    24981557.412 8 100590301.89108     -2154.040 8        49.708
G12        17.000    22860696.016 7 120133901.38007      2738.736 7        45.773                                    22860696.911 7  93610904.48107      2134.076 7        42.250    22860697.613 7  93610901.49907      2134.179 7        42.148
R21        18.000    24252845.135 6 129781875.59306     -3257.728 6        41.809                                                                    24252855.224 6 100941498.37506     -2533.764 6        39.264
R22        19.000    22507107.543 7 120144539.44707       156.778 7        45.357                                                                    22507114.050 7  93445747.51507       122.073 7        42.457
R03        21.000    20499538.044 8 109735566.61208     -3433.307 8        51.574                                                                    20499540.215 7  85349868.42807     -2670.346 7        47.230
I06        22.000    38386387.776 6 150636546.92106      -477.522 6        41.959
S28        23.000    41023881.360 5 215581772.48705      -505.549 5        34.700
S23        25.000    38273302.838 7 201127431.70307      -498.025 7        44.537
S45        26.000    63523673.587 6 333819426.39616      -549.962 6        36.299
C07        27.000                                                                                                                                    39222670.669 6 204242670.39106     -1079.990 6        40.451    39222671.033 7 157933365.97407      -835.130 7        43.481    39222667.916 6 165963869.44406      -877.612 6        40.906
R04        28.000    20283942.673 8 108619582.36808       606.095 8        51.100                                                                    20283944.873 7  84481874.87707       471.425 7        46.886
C40        29.000                                                                                                                                    39387282.201 6 205099855.78706     -1313.083 6        41.173                                                                    39387285.467 6 166660425.62706     -1066.897 6        41.976
G17        30.000    22220948.742 7 116771996.81807     -1304.236 7        46.469                                    22220949.355 7  90991225.55507     -1016.283 7        44.138    22220949.448 7  90991222.55807     -1016.326 7        42.684
G14        31.000    23528366.662 6 123642309.22306     -3666.876 6        41.151                                    23528371.386 4  96344632.04604     -2857.294 4        27.018    23528371.556 6  96344618.01906     -2857.213 6        41.347
G23        32.000    23638538.670 6 124221248.00506     -2162.302 6        41.771                                    23638542.571 4  96795737.20204     -1684.904 4        27.293    23638542.705 6  96795732.19606     -1685.077 6        41.144
I02        33.000    37060492.045 7 145433327.41807      -259.519 7        43.791
R13        35.000    19894091.131 7 106233356.78607     -2066.699 7        47.164
R12        36.000    22957461.887 7 122634515.26007     -3893.237 7        44.585                                                                    22957470.359 7  95382373.77607     -3028.115 7        42.631
C42        37.000                                                                                                                                    24372538.195 7 126914195.51507       592.577 7        45.415                                                                    24372549.434 7 103128223.89807       481.667 7        46.173
C10        38.000                                                                                                                                    38662210.984 7 201324250.68107      -717.538 7        42.245    38662212.265 7 155676676.42307      -554.900 7        44.742    38662209.329 6 163592429.13606      -583.027 6        41.473
E25        39.000    27297605.984 6 143449980.04806      2232.229 6        40.117                                                                    27297616.074 7 107121832.31407      1666.740 7        42.203    27297614.595 7 109916303.34107      1710.311 7        42.470
C30        40.000                                                                                                                                    24656896.268 7 128394971.34807      -213.943 7        44.859                                                                    24656902.833 7 104331472.72107      -173.869 7        43.600
R23        41.000    22983603.873 7 122946828.63607      2944.837 7        43.372
S44        42.000    40987964.536 6 215393214.75906      -453.580 6        37.629
C36        43.000                                                                                                                                    23730674.152 7 123571772.12507     -2809.108 7        45.797                                                                    23730683.068 7 100412190.75107     -2282.630 7        46.843
C05        44.000                                                                                                                                    39562589.618 6 206012678.73406      -528.602 6        38.159    39562593.948 7 159302058.00107      -408.683 7        42.487    39562593.246 6 167402249.96706      -429.404 6        39.003
R14        45.000    20723706.417 8 110469117.18708      1683.536 8        50.791                                                                    20723711.131 7  85920504.21007      1309.396 7        47.186
E26        46.000    28457242.787 6 149543842.18006       587.198 6        36.820                                                                    28457255.399 6 111672411.59906       438.361 6        39.318    28457253.835 6 114585594.84306       449.747 6        39.949
G10        47.000    24557352.492 6 129049705.81506       256.472 6        41.642                                    24557358.630 5 100558208.30505       199.850 5        35.600    24557358.278 6 100558209.29006       200.075 6        38.622
C45        50.000                                                                                                                                    21731264.548 8 113160421.00408      -567.621 8        50.424                                                                    21731258.812 8  91952099.44608      -461.201 8        49.862
S48        51.000    77277338.929 6 406093702.89206      -491.986 6        37.331
E06        52.000    26512429.399 6 139323648.90606     -3469.063 6        41.435                                                                    26512438.923 7 104040359.48307     -2590.568 7        45.696    26512437.361 7 106754458.25507     -2658.216 7        45.574
E33        53.000    28936021.207 4 152059838.59004      2057.196 4        29.346                                                                    28936035.784 6 113551229.25406      1536.418 6        36.476    28936033.358 5 116513426.58605      1576.595 5        35.600
C60        54.000                                                                                                                                    40987963.157 6 213435112.50706      -449.242 6        39.643                                                                    40987956.299 6 173433445.57506      -365.281 6        39.414
E31        55.000    24244956.665 7 127408091.86807     -2059.756 7        46.729                                                                    24244961.327 8  95142432.76408     -1538.170 8        49.538    24244960.509 8  97624406.04208     -1578.320 8        50.424
C26        56.000                                                                                                                                    24263275.161 7 126345293.89207      1921.743 7        44.907                                                                    24263278.360 7 102665936.01007      1561.552 7        45.645
C02        57.000                                                                                                                                    41108573.961 4                      -496.005 4        29.896    41108580.214 5 165527021.89805      -383.830 5        35.914    41108580.084 5                      -403.291 5        31.140
I03        58.000    93171878.081 5 289840952.21705       917.421 5        33.467
C21        59.000                                                                                                                                    23590765.438 8 122843231.20508     -2331.403 8        48.673                                                                    23590763.810 8  99820148.25708     -1894.468 8        48.490
C22        60.000                                                                                                                                    25667342.385 6 133656409.04706     -3993.460 6        41.347                                                                    25667344.652 7 108606719.11507     -3244.996 7        42.677
> 2025 01 02 10 45 55.0000000  0 55
E24         1.000    24033306.716 8 126296004.20708       605.411 8        48.699                                                                    24033308.529 8  94312021.78408       452.138 8        50.600    24033307.800 8  96772323.99808       463.915 8        51.271
G15         2.000    21185160.036 8 111328700.47708     -2920.417 8        48.682                                    21185159.553 7  86749608.21407     -2275.647 7        47.760    21185159.869 7  86749603.21207     -2275.569 7        44.156
E03         3.000    27116934.055 6 142500426.41006      2153.318 6        40.005                                                                    27116942.277 7 106412661.03507      1608.003 7        43.517    27116940.785 7 109188645.31007      1650.055 7        44.024
G19         4.000    21802416.272 7 114572641.16407      1252.326 7        47.761                                    21802414.056 6  89277417.35406       975.839 6        37.546
S21         5.000    38569374.580 7 202683031.72807      -495.053 7        42.578
E05         6.000    22410576.904 7 117768335.91607       -23.099 7        47.784                                                                    22410580.657 8  87943861.13208       -17.247 8        50.603    22410580.190 8  90238048.36708       -17.649 8        51.611
E13         7.000    28981015.210 5 152296241.94605     -1598.015 5        33.383                                                                    28981029.155 6 113727759.80806     -1193.255 6        38.003    28981026.879 6 116694563.14506     -1224.384 6        38.829
R02         8.000    24164917.583 5 128948343.23615     -5176.972 5        33.820                                                                    24164930.518 4                     -4027.309 4        24.586
R05         9.000    23536425.522 7 125815683.96007      3481.551 7        45.664                                                                    23536433.154 6  97856682.53706      2707.773 6        41.340
G24        10.000    20627897.021 8 108400338.11808      1038.468 8        48.851                                    20627898.533 8  84467811.79908       809.196 8        50.780    20627898.836 7  84467816.80707       809.165 7        45.555
C14        11.000                                                                                                                                    25977780.966 6 135273108.80006      1828.101 6        39.210    25977783.135 7 104601772.66207      1413.772 7        45.299    25977779.879 7 109920490.67307      1485.434 7        42.633
S27        12.000    39313652.545 6 206594503.61506      -526.170 6        36.624
G13        13.000    22324729.414 7 117317158.51507     -3852.642 7        46.921                                    22324730.361 5  91415924.03505     -3002.056 5        32.024
S36        14.000    38339751.690 7 201477186.24007      -495.414 7        44.506
G02        15.000    25885200.899 6 136027650.66306     -1134.324 6        36.628                                    25885207.310 2 105995599.07702      -883.876 2        17.887
E09        16.000    24984229.399 7 131292959.76907     -2812.765 7        47.174                                                                    24984233.847 8  98043421.80008     -2100.431 8        48.907    24984232.947 8 100601074.99808     -2155.242 8        49.566
G12        17.000    22858090.879 7 120120211.14607      2737.263 7        46.071                                    22858091.770 7  93600236.79207      2132.927 7        42.203    22858092.260 7  93600233.80507      2132.898 7        42.275
R21        18.000    24255891.469 7 129798172.01007     -3260.956 7        42.844                                                                    24255900.754 6 100954173.28706     -2536.230 6        39.171
R22        19.000    22506962.522 7 120143766.15207       152.331 7        45.482                                                                    22506969.203 7  93445146.08407       118.507 7        42.563
R03        21.000    20502746.090 8 109752742.00808     -3436.964 8        51.596                                                                    20502748.345 7  85363227.05307     -2673.240 7        46.377
I06        22.000    38386996.424 6 150638934.87606      -477.604 6        41.714
S28        23.000    41024360.423 5 215584300.93905      -505.734 5        35.033
S23        25.000    38273776.401 7 201129922.15207      -498.141 7        44.670
S45        26.000    63524145.661 6 333822176.04506      -550.002 6        36.287
C07        27.000                                                                                                                                    39223708.039 6 204248071.44406     -1080.600 6        40.524    39223708.058 7 157937542.39207      -835.469 7        43.623    39223705.067 6 165968258.23806      -878.032 6        40.744
R04        28.000    20283379.447 8 108616562.95608       601.536 8        51.596                                                                    20283380.566 7  84479526.43007       467.785 7        46.568
C40        29.000                                                                                                                                    39388543.498 6 205106422.17106     -1313.593 6        41.414                                                                    39388546.388 6 166665761.38406     -1067.654 6        41.886
G17        30.000    22222191.367 7 116778525.73007     -1307.472 7        46.753                                    22222191.746 7  90996313.00907     -1018.808 7        44.026    22222191.708 7  90996309.99507     -1018.742 7        42.563
G14        31.000    23531856.201 6 123660645.10506     -3667.600 6        40.722                                    23531860.593 4  96358919.68904     -2857.860 4        26.754    23531860.960 6  96358905.65606     -2857.855 6        41.220
G23        32.000    23640597.091 7 124232066.56907     -2165.114 7        42.391                                    23640601.230 4  96804167.21504     -1687.088 4        27.138    23640601.416 6  96804162.20006     -1687.081 6        40.942
I02        33.000    37060822.651 7 145434625.98107      -259.904 7        43.488
R13        35.000    19896026.901 7 106243695.02107     -2068.644 7        47.162
R12        36.000    22961105.983 7 122653982.60707     -3893.676 7        44.226                                                                    22961114.710 7  95397515.00607     -3028.426 7        42.273
C42        37.000                                                                                                                                    24371970.257 7 126911239.37307       589.828 7        45.350                                                                    24371981.808 7 103125821.82807       479.103 7        46.186
C10        38.000                                                                                                                                    38662899.706 7 201327840.21607      -718.299 7        42.282    38662901.650 7 155679452.06207      -555.374 7        45.025    38662898.635 6 163595345.93706      -583.711 6        41.518
E25        39.000    27295482.624 6 143438821.35306      2231.359 6        39.979                                                                    27295492.657 7 107113499.51807      1666.343 7        42.157    27295491.251 7 109907753.17707      1709.727 7        42.576
C30        40.000                                                                                                                                    24657102.513 7 128396048.02407      -216.873 7        44.596                                                                    24657109.461 7 104332347.61607      -176.159 7        43.670
R23        41.000    22980852.723 7 122932109.72907      2942.585 7        44.036
S44        42.000    40988394.603 6 215395482.23806      -453.572 6        37.841
C36        43.000                                                                                                                                    23733371.633 7 123585819.56507     -2809.918 7        46.296                                                                    23733380.802 7 100423605.44807     -2283.412 7        46.858
C05        44.000                                                                                                                                    39563097.505 6 206015321.48806      -528.722 6        38.306    39563101.303 7 159304101.55707      -408.779 7        42.633    39563100.820 6 167404397.44606      -429.577 6        39.255
R14        45.000    20722127.966 8 110460704.39808      1681.588 8        50.702                                                                    20722132.721 7  85913960.94107      1307.861 7        47.137
E26        46.000    28456685.381 6 149540912.34206       584.792 6        36.696                                                                    28456697.998 6 111670223.75806       436.711 6        39.489    28456696.194 6 114583349.92006       448.108 6        39.814
G10        47.000    24557110.061 6 129048430.99106       253.169 6        40.963                                    24557116.058 5 100557214.93205       197.269 5        35.433    24557115.206 6 100557215.95706       197.228 6        38.291
C45        50.000                                                                                                                                    21731810.406 8 113163262.86908      -569.177 8        50.536                                                                    21731804.615 8  91954408.71708      -462.614 8        49.913
S48        51.000    77277802.176 6 406096162.29706      -491.943 6        37.520
E06        52.000    26515730.021 6 139340996.45006     -3469.942 6        40.613                                                                    26515740.085 7 104053313.77207     -2591.254 7        45.451    26515738.313 7 106767750.47507     -2658.686 7        45.275
E33        53.000    28934062.814 4 152049552.96604      2056.490 4        29.877                                                                    28934078.239 6 113543548.53506      1535.750 6        36.215    28934075.863 5 116505545.47005      1575.942 5        35.729
C60        54.000                                                                                                                                    40988394.606 6 213437359.38806      -449.473 6        39.700                                                                    40988387.838 6 173435271.37906      -365.175 6        39.312
E31        55.000    24246917.297 7 127418393.88007     -2061.050 7        46.640                                                                    24246921.737 8  95150125.81408     -1539.137 8        49.406    24246920.954 8  97632299.77508     -1579.231 8        50.294
C26        56.000                                                                                                                                    24261430.139 7 126335686.91707      1920.873 7        44.939                                                                    24261433.427 7 102658129.58707      1560.708 7        45.786
C02        57.000                                                                                                                                    41109049.760 5                      -496.143 5        30.483    41109056.523 6 165528939.37806      -383.425 6        36.219    41109056.572 5 173945687.55015      -403.183 5        30.483
I03        58.000    93170709.221 5 289836364.69805       917.544 5        33.036
C21        59.000                                                                                                                                    23593005.469 8 122854894.25008     -2333.927 8        48.683                                                                    23593003.665 8  99829625.44108     -1896.572 8        48.424
C22        60.000                                                                                                                                    25671177.209 7 133676376.67507     -3993.762 7        42.080                                                                    25671179.250 7 108622944.42107     -3245.383 7        42.542
> 2025 01 02 10 46  0.0000000  0 55
E24         1.000    24032731.482 8 126292981.32108       603.753 8        48.991                                                                    24032733.363 8  94309764.43408       450.858 8        50.741    24032732.574 8  96770007.76008       462.606 8        51.246
G15         2.000    21187939.860 8 111343309.39608     -2923.151 8        48.414                                    21187939.543 7  86760991.77307     -2277.776 7        47.714    21187940.151 7  86760986.76307     -2277.784 7        44.456
E03         3.000    27114885.356 6 142489661.60006      2152.531 6        40.110                                                                    27114893.701 7 106404622.38907      1607.349 7        43.651    27114892.260 7 109180396.95307      1649.407 7        43.947
G19         4.000    21801226.022 7 114566386.78507      1249.431 7        47.247                                    21801223.906 6  89272543.82006       973.583 6        37.508
S21         5.000    38569843.393 7 202685507.03507      -495.075 7        42.421
E05         6.000    22410599.949 7 117768456.72507       -25.221 7        47.975                                                                    22410603.695 8  87943951.34008       -18.804 8        50.760    22410603.186 8  90238140.92808       -19.318 8        51.635
E13         7.000    28982536.454 5 152304237.34405     -1600.350 5        33.281                                                                    28982550.482 6 113733730.37106     -1194.929 6        38.420    28982548.608 6 116700689.46906     -1226.068 6        39.745
R02         8.000    24169770.202 5                     -5176.924 5        33.719                                                                    24169785.913 4                     -4026.741 4        24.301
R05         9.000    23533169.426 7 125798280.29607      3479.787 7        45.293                                                                    23533177.706 6  97843146.37106      2706.440 6        41.266
G24        10.000    20626910.143 8 108395151.46308      1036.163 8        48.876                                    20626911.552 8  84463770.25408       807.401 8        50.773    20626911.783 7  84463775.25607       807.350 7        45.737
C14        11.000                                                                                                                                    25976025.735 6 135263972.87706      1826.258 6        39.201    25976028.580 7 104594708.20007      1412.052 7        45.556    25976025.315 7 109913066.98307      1483.872 7        42.654
S27        12.000    39314154.310 6 206597133.88506      -526.097 6        36.646
G13        13.000    22328396.101 7 117336425.72707     -3854.247 7        46.255                                    22328396.788 5  91430937.42905     -3003.306 5        31.887
S36        14.000    38340223.545 7 201479663.48807      -495.560 7        44.441
G02        15.000    25886281.206 6 136033328.74006     -1136.821 6        36.658                                    25886287.931 2 106000023.49602      -885.825 2        17.698
E09        16.000    24986906.508 7 131307027.77807     -2814.392 7        47.418                                                                    24986910.961 8  98053927.11708     -2101.625 8        48.982    24986909.947 8 100611854.36708     -2156.489 8        49.625
G12        17.000    22855486.808 7 120106528.43207      2735.778 7        45.609                                    22855488.038 7  93589574.96007      2131.772 7        42.231    22855487.925 6  93589571.97406      2131.819 6        41.778
R21        18.000    24258939.589 7 129814484.53207     -3264.069 7        42.305                                                                    24258950.119 6 100966860.81506     -2538.598 6        39.333
R22        19.000    22506822.435 7 120143014.60107       148.093 7        46.100                                                                    22506828.645 7  93444561.54307       115.112 7        43.909
R03        21.000    20505958.472 8 109769935.54608     -3440.460 8        51.230                                                                    20505960.357 7  85376599.79007     -2675.914 7        46.483
I06        22.000    38387604.677 6 150641323.19906      -477.608 6        41.614
S28        23.000    41024844.261 5 215586829.99105      -505.709 5        34.871
S23        25.000    38274251.761 7 201132412.93807      -498.130 7        44.685
S45        26.000    63524623.941 6 333824926.11506      -550.121 6        36.405
C07        27.000                                                                                                                                    39224745.869 6 204253475.30906     -1081.099 6        40.479    39224745.762 7 157941721.00307      -835.920 7        43.767    39224742.808 6 165972649.30506      -878.411 6        40.994
R04        28.000    20282820.352 8 108613566.48008       597.024 8        51.626                                                                    20282821.015 7  84477195.83207       464.331 7        46.941
C40        29.000                                                                                                                                    39389805.001 6 205112991.93106     -1314.315 6        41.511                                                                    39389808.250 7 166671099.82907     -1068.176 7        42.093
G17        30.000    22223436.917 7 116785070.59607     -1310.440 7        46.326                                    22223437.178 7  91001412.89707     -1021.118 7        44.047    22223437.278 7  91001409.90007     -1021.269 7        42.838
G14        31.000    23535346.326 6 123678984.69206     -3668.293 6        40.513                                    23535350.618 4  96373210.23104     -2858.409 4        26.683    23535350.786 6  96373196.20606     -2858.480 6        41.585
G23        32.000    23642658.915 6 124242898.74906     -2167.755 6        41.201                                    23642662.433 4  96812607.85604     -1689.153 4        27.162    23642661.935 6  96812602.85306     -1689.248 6        40.038
I02        33.000    37061154.008 7 145435926.00507      -260.333 7        43.376
R13        35.000    19897964.820 7 106254043.26907     -2070.681 7        46.899
R12        36.000    22964751.196 7 122673451.61007     -3893.953 7        44.874                                                                    22964759.445 6  95412657.50606     -3028.700 6        41.893
C42        37.000                                                                                                                                    24371405.250 7 126908297.39407       586.951 7        45.118                                                                    24371416.803 7 103123431.22307       476.878 7        46.261
C10        38.000                                                                                                                                    38663589.218 7 201331432.85207      -718.702 7        42.123    38663591.773 7 155682230.11207      -555.848 7        45.061    38663588.531 6 163598265.23706      -584.143 6        41.683
E25        39.000    27293359.810 6 143427666.25406      2230.779 6        40.372                                                                    27293370.159 7 107105169.44007      1665.726 7        42.364    27293368.581 7 109899205.78907      1709.140 7        42.828
C30        40.000                                                                                                                                    24657312.002 7 128397139.04207      -219.708 7        44.459                                                                    24657319.037 7 104333234.16107      -178.551 7        43.718
R23        41.000    22978103.539 7 122917402.09807      2940.401 7        43.274
S44        42.000    40988826.307 6 215397750.01206      -453.493 6        37.376
C36        43.000                                                                                                                                    23736070.509 7 123599870.99107     -2810.627 7        46.813                                                                    23736079.407 7 100435023.37607     -2284.062 7        46.973
C05        44.000                                                                                                                                    39563604.757 6 206017964.54706      -528.669 6        38.372    39563608.850 7 159306145.35907      -408.814 7        42.885    39563608.282 6 167406545.16306      -429.631 6        39.285
R14        45.000    20720551.711 8 110452301.13308      1679.627 8        50.998                                                                    20720556.161 7  85907425.07007      1306.347 7        47.113
E26        46.000    28456129.991 6 149537993.85406       582.358 6        36.567                                                                    28456142.675 6 111668044.37906       435.037 6        39.670    28456140.724 6 114581113.68206       446.518 6        39.874
G10        47.000    24556870.429 6 129047172.08106       250.338 6        41.201                                    24556876.495 5 100556233.95905       195.072 5        35.481    24556876.194 6 100556234.96406       194.773 6        38.721
C45        50.000                                                                                                                                    21732357.728 8 113166112.89208      -570.794 8        50.640                                                                    21732351.954 8  91956724.58208      -463.936 8        50.029
S48        51.000    77278270.883 6 406098622.42906      -491.948 6        37.338
E06        52.000    26519032.350 6 139358348.37906     -3470.755 6        40.794                                                                    26519042.097 7 104066271.34107     -2591.773 7        45.384    26519040.383 7 106781046.09407     -2659.482 7        45.142
E33        53.000    28932107.221 4 152039271.22504      2056.206 4        29.640                                                                    28932121.679 5 113535870.69705      1535.289 5        35.629    28932119.491 5 116497667.34805      1575.165 5        35.419
C60        54.000                                                                                                                                    40988826.373 6 213439606.53506      -449.508 6        39.961                                                                    40988819.193 6 173437097.40406      -365.175 6        39.450
E31        55.000    24248878.875 7 127428702.52607     -2062.382 7        46.938                                                                    24248883.389 8  95157823.81008     -1540.056 8        49.571    24248882.658 8  97640198.59408     -1580.249 8        50.392
C26        56.000                                                                                                                                    24259586.106 7 126326084.31207      1920.110 7        45.139                                                                    24259589.306 7 102650326.68707      1560.157 7        45.819
C02        57.000                                                                                                                                    41109525.482 5                      -496.200 5        30.400    41109532.254 6 165530857.10506      -383.400 6        36.310    41109532.719 5 173947702.73705      -403.010 5        30.521
I03        58.000    93169539.479 5 289831777.28505       917.527 5        33.317
C21        59.000                                                                                                                                    23595247.684 8 122866569.86708     -2336.377 8        48.758                                                                    23595245.724 8  99839112.81808     -1898.592 8        48.501
C22        60.000                                                                                                                                    25675012.359 7 133696345.79207     -3993.875 7        42.830                                                                    25675014.081 7 108639170.93307     -3245.482 7        42.718
> 2025 01 02 10 46  5.0000000  0 55
E24         1.000    24032157.673 8 126289966.73408       602.242 8        48.953                                                                    24032159.714 8  94307513.27808       449.741 8        50.760    24032158.915 8  96767697.88108       461.465 8        51.356
G15         2.000    21190722.374 8 111357932.06908     -2925.707 8        48.777                                    21190722.176 7  86772386.04907     -2279.768 7        47.710    21190722.252 7  86772381.04207     -2279.686 7        44.316
E03         3.000    27112837.216 6 142478901.05206      2151.976 6        39.679                                                                    27112846.063 7 106396586.92407      1606.941 7        43.638    27112844.689 7 109172151.87507      1648.873 7        44.086
G19         4.000    21800038.580 7 114560146.72507      1246.736 7        46.885                                    21800036.507 6  89267681.44106       971.481 6        37.520
S21         5.000    38570314.510 7 202687982.61607      -494.929 7        42.576
E05         6.000    22410625.015 8 117768588.33708       -27.246 8        48.237                                                                    22410628.783 8  87944049.61108       -20.314 8        50.767    22410628.218 8  90238241.76808       -20.876 8        51.716
E13         7.000    28984060.355 5 152312243.90405     -1602.149 5        34.667                                                                    28984073.797 6 113739709.28306     -1196.430 6        38.456    28984072.149 6 116706824.34906     -1227.756 6        39.694
R02         8.000    24174620.981 5 129000114.17215     -5177.137 5        32.389                                                                    24174636.144 3                     -4027.135 3        22.781
R05         9.000    23529914.511 7 125780885.48007      3478.250 7        44.573                                                                    23529923.793 6  97829617.07406      2705.230 6        41.220
G24        10.000    20625925.373 8 108389975.87308      1034.172 8        48.834                                    20625926.660 8  84459737.33008       805.847 8        50.822    20625927.085 7  84459742.33507       805.828 7        45.616
C14        11.000                                                                                                                                    25974272.524 6 135254847.00906      1824.449 6        39.294    25974276.202 7 104587651.50907      1410.650 7        45.526    25974272.822 7 109905651.46707      1482.465 7        42.506
S27        12.000    39314655.498 6 206599763.98306      -525.879 6        36.779
G13        13.000    22332063.216 7 117355700.79107     -3855.609 7        45.753                                    22332064.690 5  91445956.93505     -3004.368 5        31.826
S36        14.000    38340695.936 7 201482140.73607      -495.229 7        44.500
G02        15.000    25887364.407 6 136039020.31006     -1139.350 6        36.681                                    25887371.132 2 106004458.47502      -887.791 2        17.660
E09        16.000    24989585.006 7 131321103.51007     -2815.745 7        47.799                                                                    24989589.455 8  98064438.20708     -2102.687 8        49.062    24989588.517 8 100622639.66008     -2157.497 8        49.665
G12        17.000    22852883.920 7 120092852.85007      2734.542 7        45.856                                    22852885.648 7  93578918.69007      2130.807 7        42.263    22852885.563 6  93578915.69806      2130.939 6        41.383
R21        18.000    24261989.559 6 129830812.75106     -3267.098 6        41.895                                                                    24262001.181 6 100979560.50506     -2541.104 6        39.285
R22        19.000    22506685.107 7 120142284.40607       144.039 7        45.816                                                                    22506692.849 7  93443993.62307       112.106 7        43.896
R03        21.000    20509173.294 8 109787146.59208     -3443.834 8        50.727                                                                    20509176.093 7  85389986.14207     -2678.475 7        46.165
I06        22.000    38388213.789 6 150643711.59606      -477.580 6        41.709
S28        23.000    41025319.801 5 215589358.80605      -505.540 5        35.205
S23        25.000    38274726.755 7 201134903.75907      -498.036 7        44.694
S45        26.000    63525096.243 6 333827676.22906      -549.898 6        36.151
C07        27.000                                                                                                                                    39225783.707 6 204258881.53806     -1081.508 6        40.348    39225784.088 7 157945901.43407      -836.151 7        43.816    39225781.126 6 165977042.31106      -878.798 6        40.708
R04        28.000    20282264.593 8 108610592.51708       592.684 8        51.347                                                                    20282265.895 7  84474882.75207       461.023 7        47.040
C40        29.000                                                                                                                                    39391067.237 6 205119564.62206     -1314.685 6        41.747                                                                    39391070.381 6 166676440.65306     -1068.264 6        41.814
G17        30.000    22224684.902 7 116791630.97507     -1313.458 7        45.979                                    22224685.565 7  91006524.86907     -1023.467 7        44.072    22224685.830 7  91006521.86407     -1023.464 7        42.491
G14        31.000    23538837.233 6 123697327.59606     -3668.867 6        40.505                                    23538841.372 4  96387503.35204     -2858.855 4        26.838    23538841.600 6  96387489.31106     -2858.702 6        41.781
G23        32.000    23644722.693 6 124253744.15706     -2170.239 6        41.688                                    23644726.235 4  96821058.78404     -1691.094 4        27.054    23644726.586 6  96821053.78406     -1691.011 6        40.274
I02        33.000    37061485.697 7 145437227.09107      -260.124 7        43.613
R13        35.000    19899904.046 7 106264401.46907     -2072.449 7        46.732
R12        36.000    22968396.763 7 122692921.86307     -3894.028 7        45.424                                                                    22968404.453 6  95427800.98506     -3028.609 6        41.733
C42        37.000                                                                                                                                    24370842.730 7 126905369.18507       584.476 7        44.993                                                                    24370854.458 7 103121051.80607       474.867 7        46.004
C10        38.000                                                                                                                                    38664279.986 7 201335028.17507      -719.102 7        42.226    38664282.125 7 155685010.23207      -556.108 7        45.065    38664279.047 6 163601186.72706      -584.462 6        41.266
E25        39.000    27291238.107 6 143416514.35206      2230.237 6        40.529                                                                    27291248.078 7 107096841.72807      1665.520 7        42.491    27291246.444 7 109890660.83107      1708.908 7        42.919
C30        40.000                                                                                                                                    24657524.388 7 128398243.99407      -222.301 7        44.465                                                                    24657531.159 7 104334132.01707      -180.571 7        43.443
R23        41.000    22975355.106 7 122902705.27407      2938.396 7        42.434
S44        42.000    40989258.136 6 215400017.68306      -453.234 6        37.618
C36        43.000                                                                                                                                    23738769.754 7 123613926.03207     -2811.175 7        46.579                                                                    23738778.591 7 100446444.20707     -2284.352 7        46.772
C05        44.000                                                                                                                                    39564111.879 6 206020607.53006      -528.422 6        38.508    39564116.487 7 159308189.11107      -408.605 7        42.720    39564115.833 6 167408692.83306      -429.596 6        38.889
R14        45.000    20718977.473 8 110443907.42708      1677.998 8        51.612                                                                    20718981.450 7  85900896.65207      1305.114 7        47.622
E26        46.000    28455576.404 6 149535086.29806       580.620 6        36.446                                                                    28455589.486 6 111665873.17406       433.512 6        39.979    28455587.470 6 114578885.84906       444.687 6        39.754
G10        47.000    24556633.794 6 129045928.62806       247.479 6        40.269                                    24556639.826 5 100555265.04005       192.838 5        35.386    24556639.435 6 100555266.04906       192.804 6        38.291
C45        50.000                                                                                                                                    21732906.353 8 113168970.64208      -572.141 8        50.703                                                                    21732900.733 8  91959046.73208      -464.923 8        49.717
S48        51.000    77278748.206 6 406101082.21606      -491.678 6        37.690
E06        52.000    26522335.383 6 139375704.28106     -3471.435 6        41.611                                                                    26522344.615 7 104079231.87807     -2592.255 7        45.001    26522343.231 7 106794344.73007     -2659.938 7        45.354
E33        53.000    28930150.944 4 152028993.03604      2055.826 4        29.052                                                                    28930165.664 5 113528195.46505      1534.894 5        35.038    28930163.540 5 116489791.90805      1574.998 5        35.052
C60        54.000                                                                                                                                    40989257.433 6 213441853.59906      -449.250 6        39.835                                                                    40989250.780 6 173438923.35406      -365.074 6        39.255
E31        55.000    24250841.627 7 127439017.37807     -2063.426 7        46.909                                                                    24250846.294 8  95165526.45008     -1540.901 8        49.583    24250845.497 8  97648102.17208     -1581.026 8        50.382
C26        56.000                                                                                                                                    24257743.034 7 126316485.66907      1919.479 7        45.267                                                                    24257745.962 7 102642527.00607      1559.711 7        45.437
C02        57.000                                                                                                                                    41110001.598 5                      -495.555 5        30.445    41110008.567 6 165532774.69706      -383.442 6        36.250    41110008.906 5 173949717.83105      -402.879 5        30.551
I03        58.000    93168371.202 5 289827189.65905       917.812 5        33.186
C21        59.000                                                                                                                                    23597492.352 8 122878257.62208     -2338.584 8        48.657                                                                    23597490.297 8  99848610.06408     -1900.318 8        48.416
C22        60.000                                                                                                                                    25678847.487 7 133716316.01907     -3993.842 7        42.665                                                                    25678849.328 7 108655398.33007     -3245.505 7        42.593
> 2025 01 02 10 46 10.0000000  0 55
E24         1.000    24031585.420 8 126286960.14508       600.712 8        49.116                                                                    24031587.549 8  94305268.09408       448.616 8        50.760    24031586.778 8  96765394.12708       460.324 8        51.353
G15         2.000    21193507.793 8 111372568.18508     -2928.362 8        48.686                                    21193507.353 7  86783790.80107     -2281.839 7        47.719    21193507.664 7  86783785.79007     -2281.783 7        44.664
E03         3.000    27110790.375 6 142468144.52306      2151.021 6        40.145                                                                    27110799.062 7 106388554.44307      1606.274 7        43.545    27110797.693 7 109163909.85207      1648.200 7        44.166
G19         4.000    21798854.020 7 114553920.71307      1243.996 7        47.044                                    21798851.773 6  89262830.01006       969.343 6        37.520
S21         5.000    38570786.217 7 202690458.13307      -494.767 7        42.593
E05         6.000    22410651.904 8 117768730.43808       -29.298 8        48.267                                                                    22410655.850 8  87944155.71908       -21.860 8        50.748    22410655.281 8  90238350.64408       -22.418 8        51.629
E13         7.000    28985585.770 5 152320261.31905     -1604.479 5        34.824                                                                    28985599.331 6 113745696.27106     -1198.032 6        38.306    28985597.768 6 116712967.52306     -1229.253 6        39.757
R02         8.000    24179471.467 5 129025999.42005     -5176.916 5        32.120                                                                    24179493.131 3                     -4028.001 3        22.667
R05         9.000    23526662.204 7 125763499.32507      3476.543 7        44.199                                                                    23526671.138 6  97816094.55106      2703.936 6        41.225
G24        10.000    20624942.440 8 108384811.02808      1032.039 8        48.564                                    20624943.806 8  84455712.77708       804.184 8        50.791    20624944.326 7  84455717.78507       804.173 7        45.792
C14        11.000                                                                                                                                    25972522.011 6 135245730.79106      1822.428 6        38.883    25972525.190 7 104580602.26007      1409.303 7        45.326    25972521.978 7 109898243.78907      1480.954 7        42.427
S27        12.000    39315152.354 6 206602393.54006      -525.867 6        37.062
G13        13.000    22335733.078 7 117374983.38907     -3857.062 7        45.843                                    22335733.942 5  91460982.31705     -3005.503 5        31.638
S36        14.000    38341166.986 7 201484617.40807      -495.138 7        44.442
G02        15.000    25888449.814 6 136044724.93406     -1141.780 6        36.847                                    25888456.811 3 106008903.58703      -889.669 3        18.030
E09        16.000    24992264.973 7 131335186.69007     -2817.163 7        47.696                                                                    24992269.391 8  98074954.84808     -2103.676 8        49.057    24992268.470 8 100633430.65608     -2158.605 8        49.621
G12        17.000    22850283.184 7 120079184.09207      2733.240 7        45.178                                    22850284.501 7  93568267.73507      2129.789 7        42.212    22850284.631 6  93568264.75106      2129.859 6        41.094
R21        18.000    24265044.783 7 129847156.22707     -3270.108 7        42.836                                                                    24265054.379 6 100992272.07606     -2543.374 6        39.865
R22        19.000    22506551.673 7 120141575.23107       139.951 7        44.844                                                                    22506558.457 7  93443442.05207       108.819 7        43.627
R03        21.000    20512392.072 8 109804374.87908     -3447.162 8        50.913                                                                    20512394.190 7  85403385.90707     -2681.155 7        47.023
I06        22.000    38388822.471 6 150646099.81006      -477.504 6        41.619
S28        23.000    41025807.002 5 215591887.16705      -505.390 5        34.962
S23        25.000    38275200.277 7 201137394.28607      -497.838 7        44.828
S45        26.000    63525570.910 6 333830426.17906      -549.803 6        36.397
C07        27.000                                                                                                                                    39226821.701 6 204264289.87906     -1081.748 6        40.215    39226822.676 7 157950083.49707      -836.374 7        43.850    39226819.685 6 165981437.02706      -878.872 6        40.548
R04        28.000    20281712.910 8 108607640.64708       588.375 8        50.994                                                                    20281714.685 7  84472586.85207       457.616 7        46.987
C40        29.000                                                                                                                                    39392329.865 6 205126139.93706     -1315.118 6        41.628                                                                    39392333.097 6 166681783.64106     -1068.711 6        41.981
G17        30.000    22225936.477 7 116798206.55907     -1316.475 7        46.286                                    22225936.837 7  91011648.69107     -1025.823 7        44.021    22225936.872 7  91011645.68407     -1025.816 7        42.404
G14        31.000    23542328.355 6 123715673.45306     -3669.259 6        40.584                                    23542332.614 4  96401798.77504     -2859.158 4        27.078    23542332.503 6  96401784.75006     -2859.138 6        41.866
G23        32.000    23646788.552 6 124264602.45606     -2172.839 6        41.247                                    23646792.504 4  96829519.76704     -1693.114 4        26.994    23646792.873 6  96829514.76606     -1693.159 6        40.892
I02        33.000    37061817.561 7 145438529.11407      -260.324 7        43.551
R13        35.000    19901845.854 7 106274769.06207     -2074.183 7        46.402
R12        36.000    22972041.117 7 122712393.08307     -3894.184 7        45.159                                                                    22972049.471 7  95442945.21507     -3028.705 7        42.080
C42        37.000                                                                                                                                    24370283.280 7 126902454.42507       581.783 7        44.904                                                                    24370294.708 7 103118683.32207       472.804 7        46.110
C10        38.000                                                                                                                                    38664971.105 7 201338625.93007      -719.668 7        42.002    38664972.997 7 155687792.22607      -556.421 7        45.064    38664970.083 6 163604110.17206      -584.830 6        41.337
E25        39.000    27289116.063 6 143405365.34706      2229.723 6        40.532                                                                    27289126.592 7 107088516.20307      1664.945 7        42.483    27289124.656 7 109882118.10607      1708.555 7        42.885
C30        40.000                                                                                                                                    24657739.828 7 128399362.58907      -224.870 7        44.438                                                                    24657745.957 7 104335040.94907      -182.691 7        43.549
R23        41.000    22972608.763 7 122888019.06007      2936.397 7        43.010
S44        42.000    40989687.443 6 215402284.94106      -453.363 6        37.690
C36        43.000                                                                                                                                    23741469.331 7 123627984.34907     -2811.777 7        45.988                                                                    23741478.313 7 100457867.71107     -2284.729 7        46.881
C05        44.000                                                                                                                                    39564620.271 6 206023250.17406      -528.352 6        38.303    39564623.823 7 159310232.57407      -408.513 7        42.593    39564623.367 6 167410840.20406      -429.381 6        39.246
R14        45.000    20717404.824 8 110435522.78508      1676.276 8        51.803                                                                    20717408.636 7  85894375.26907      1303.798 7        47.335
E26        46.000    28455025.431 6 149532189.39306       578.373 6        36.783                                                                    28455038.234 6 111663709.89806       431.938 6        39.874    28455036.038 6 114576666.12406       443.303 6        39.862
G10        47.000    24556400.198 6 129044700.42706       244.319 6        40.527                                    24556406.054 5 100554308.00305       190.376 5        35.362    24556406.077 6 100554308.99206       190.470 6        38.601
C45        50.000                                                                                                                                    21733456.595 8 113171835.82608      -573.627 8        50.718                                                                    21733450.954 8  91961374.92508      -466.094 8        49.909
S48        51.000    77279215.705 6 406103541.26106      -491.625 6        37.796
E06        52.000    26525638.570 6 139393063.83806     -3472.109 6        41.752                                                                    26525647.858 7 104092195.14807     -2592.811 7        44.611    26525646.843 7 106807646.17107     -2660.348 7        45.436
E33        53.000    28928195.189 4 152018718.11704      2054.909 4        28.379                                                                    28928210.295 5 113520522.69205      1534.470 5        35.076    28928208.254 5 116481918.95205      1574.316 5        35.233
C60        54.000                                                                                                                                    40989689.190 6 213444100.23106      -449.091 6        39.532                                                                    40989682.243 6 173440748.95906      -364.949 6        39.321
E31        55.000    24252805.411 7 127449338.13307     -2064.618 7        46.854                                                                    24252810.276 8  95173233.48408     -1541.690 8        49.564    24252809.478 8  97656010.26108     -1581.886 8        50.411
C26        56.000                                                                                                                                    24255900.462 7 126306890.68307      1918.826 7        45.594                                                                    24255903.464 7 102634730.31107      1559.177 7        45.687
C02        57.000                                                                                                                                    41110479.096 5                      -495.859 5        30.325    41110485.260 5 165534691.93005      -383.258 5        35.719    41110485.179 5 173951732.56405      -402.551 5        30.521
I03        58.000    93167201.440 5 289822601.63605       917.755 5        33.269
C21        59.000                                                                                                                                    23599738.932 8 122889957.20408     -2340.928 8        48.493                                                                    23599737.105 8  99858116.92008     -1902.227 8        48.436
C22        60.000                                                                                                                                    25682682.327 7 133736287.04407     -3993.987 7        42.248                                                                    25682684.648 7 108671626.36907     -3245.504 7        42.482
> 2025 01 02 10 46 15.0000000  0 55
E24         1.000    24031015.164 8 126283962.26108       598.546 8        48.855                                                                    24031017.100 8  94303029.42108       446.944 8        50.730    24031016.339 8  96763097.04908       458.666 8        51.239
G15         2.000    21196295.402 8 111387218.47108     -2931.653 8        48.782                                    21196295.235 7  86795206.58907     -2284.401 7        47.719    21196295.474 7  86795201.58007     -2284.330 7        44.301
E03         3.000    27108744.875 6 142457392.67706      2149.778 6        39.763                                                                    27108752.966 7 106380525.46407      1605.436 7        43.714    27108751.666 7 109155671.43107      1647.128 7        43.882
G19         4.000    21797672.159 7 114547709.47207      1240.649 7        47.099                                    21797669.767 6  89257990.08606       966.734 6        37.490
S21         5.000    38571256.337 7 202692934.12107      -495.147 7        42.633
E05         6.000    22410681.153 8 117768883.76908       -31.885 8        48.028                                                                    22410685.042 8  87944270.21308       -23.845 8        50.760    22410684.475 8  90238468.13208       -24.474 8        51.544
E13         7.000    28987113.777 5 152328290.24805     -1607.419 5        34.948                                                                    28987127.259 6 113751691.86706     -1200.059 6        38.565    28987125.661 6 116719119.53806     -1231.579 6        39.568
R02         8.000    24184322.114 5 129051885.31105     -5177.680 5        32.287                                                                    24184346.536 3                     -4027.747 3        21.786
R05         9.000    23523411.895 7 125746122.40007      3474.273 7        44.519                                                                    23523419.724 6  97802579.18206      2702.288 6        41.292
G24        10.000    20623961.926 8 108379657.66808      1029.380 8        48.696                                    20623963.148 8  84451697.17508       802.114 8        50.822    20623963.752 7  84451702.17107       802.147 7        45.597
C14        11.000                                                                                                                                    25970772.430 6 135236625.04306      1820.032 6        38.727    25970776.483 7 104573561.12607      1407.328 7        45.136    25970773.303 7 109890844.62807      1478.969 7        42.444
S27        12.000    39315655.836 5 206605023.77305      -526.018 5        35.748
G13        13.000    22339404.362 7 117394274.26007     -3859.155 7        45.046                                    22339404.720 5  91476014.15005     -3007.129 5        31.457
S36        14.000    38341637.924 7 201487094.88307      -495.767 7        44.649
G02        15.000    25889537.749 6 136050443.53706     -1145.198 6        36.643                                    25889545.217 3 106013359.57803      -892.359 3        18.298
E09        16.000    24994946.281 7 131349278.01207     -2819.181 7        47.268                                                                    24994950.872 8  98085477.58108     -2105.215 8        49.069    24994949.929 8 100644227.89608     -2160.178 8        49.510
G12        17.000    22847683.609 7 120065522.88107      2731.333 7        44.921                                    22847684.811 7  93557622.66107      2128.306 7        42.201    22847685.005 6  93557619.68306      2128.245 6        40.880
R21        18.000    24268102.684 7 129863515.86107     -3273.759 7        42.620                                                                    24268111.539 6 101004996.22306     -2546.343 6        39.405
R22        19.000    22506423.318 7 120140887.85407       135.119 7        45.416                                                                    22506429.864 7  93442907.44007       105.134 7        43.217
R03        21.000    20515614.339 8 109821620.93708     -3451.179 8        51.319                                                                    20515615.825 7  85416799.48007     -2684.304 7        46.735
I06        22.000    38389431.258 6 150648488.40706      -477.727 6        41.690
S28        23.000    41026283.882 5 215594416.15405      -505.887 5        34.981
S23        25.000    38275674.837 7 201139885.22807      -498.359 7        45.008
S45        26.000    63526051.055 6 333833176.64306      -550.462 6        36.439
C07        27.000                                                                                                                                    39227861.445 6 204269701.04206     -1082.705 6        40.188    39227861.769 7 157954267.74007      -837.134 7        43.987    39227858.944 6 165985834.03706      -879.619 6        40.746
R04        28.000    20281166.359 8 108604711.84008       583.359 8        51.394                                                                    20281167.714 7  84470308.89307       453.696 7        46.912
C40        29.000                                                                                                                                    39393592.873 6 205132718.62406     -1316.304 6        41.635                                                                    39393596.579 6 166687129.35406     -1069.457 6        41.888
G17        30.000    22227190.939 7 116804798.06707     -1320.068 7        46.365                                    22227191.136 7  91016784.92107     -1028.623 7        44.024    22227191.479 7  91016781.92007     -1028.650 7        42.411
G14        31.000    23545819.744 6 123734023.02906     -3670.384 6        40.458                                    23545824.477 4  96416097.09604     -2860.037 4        26.838    23545824.405 6  96416083.06306     -2859.987 6        41.421
G23        32.000    23648857.974 6 124275474.36606     -2175.857 6        41.642                                    23648861.354 4  96837991.35304     -1695.470 4        27.138    23648862.104 6  96837986.32606     -1695.461 6        41.280
I02        33.000    37062149.418 7 145439832.59807      -260.981 7        43.733
R13        35.000    19903789.744 7 106285146.73007     -2076.726 7        46.687
R12        36.000    22975686.184 7 122731865.93407     -3894.930 7        44.891                                                                    22975694.872 7  95458090.72107     -3029.433 7        42.072
C42        37.000                                                                                                                                    24369726.479 7 126899553.84607       578.605 7        45.381                                                                    24369737.718 7 103116326.37107       470.223 7        46.087
C10        38.000                                                                                                                                    38665662.566 7 201342226.79207      -720.466 7        42.127    38665664.536 7 155690576.64007      -557.206 7        45.126    38665661.488 6 163607036.17706      -585.398 6        41.361
E25        39.000    27286995.517 6 143394219.97706      2228.568 6        40.358                                                                    27287005.588 7 107080193.37307      1664.232 7        42.362    27287003.703 7 109873578.16607      1707.631 7        42.669
C30        40.000                                                                                                                                    24657957.736 7 128400495.53407      -228.056 7        44.686                                                                    24657963.462 7 104335961.57507      -185.308 7        43.630
R23        41.000    22969866.656 7 122873344.21007      2933.624 7        42.899
S44        42.000    40990119.836 6 215404552.51506      -453.677 6        37.792
C36        43.000                                                                                                                                    23744169.885 7 123642046.66107     -2812.912 7        46.196                                                                    23744178.791 7 100469294.48207     -2285.665 7        46.778
C05        44.000                                                                                                                                    39565127.670 6 206025893.15506      -528.966 6        38.760    39565131.295 7 159312276.31007      -408.885 7        42.548    39565130.780 6 167412987.84706      -429.661 6        39.189
R14        45.000    20715833.433 8 110427147.87008      1673.873 8        51.344                                                                    20715837.129 7  85887861.45607      1301.936 7        47.124
E26        46.000    28454476.200 6 149529303.80406       575.888 6        36.473                                                                    28454489.023 6 111661555.10506       430.085 6        39.799    28454486.744 6 114574455.11906       441.250 6        39.619
G10        47.000    24556169.768 6 129043488.15006       240.878 6        40.601                                    24556175.327 5 100553363.36505       187.697 5        35.481    24556175.215 6 100553364.35906       187.589 6        38.727
C45        50.000                                                                                                                                    21734008.566 8 113174709.17108      -575.607 8        50.829                                                                    21734002.784 8  91963709.75608      -467.636 8        49.896
S48        51.000    77279680.647 6 406106000.86206      -492.219 6        37.822
E06        52.000    26528942.944 6 139410427.76206     -3473.275 6        41.435                                                                    26528952.029 7 104105161.67507     -2593.772 7        44.281    26528951.307 7 106820950.97007     -2661.438 7        45.530
E33        53.000    28926241.193 4 152008447.14704      2053.228 4        29.526                                                                    28926255.885 5 113512852.81205      1533.637 5        35.495    28926253.774 5 116474048.99605      1573.586 5        35.871
C60        54.000                                                                                                                                    40990120.728 6 213446347.19106      -449.618 6        39.916                                                                    40990113.750 6 173442574.81406      -365.104 6        39.246
E31        55.000    24254770.669 7 127459665.51107     -2066.347 7        46.751                                                                    24254775.587 8  95180945.48008     -1543.023 8        49.503    24254774.742 8  97663923.44508     -1583.315 8        50.273
C26        56.000                                                                                                                                    24254058.264 7 126297300.09007      1917.567 7        45.526                                                                    24254061.703 7 102626937.18407      1558.313 7        45.598
C02        57.000                                                                                                                                    41110955.055 5                      -496.352 5        30.423    41110960.942 5 165536609.40305      -383.420 5        35.948    41110961.161 5 173953747.49705      -402.973 5        30.460
I03        58.000    93166031.990 5 289818013.73105       917.439 5        33.503
C21        59.000                                                                                                                                    23601988.158 8 122901669.34708     -2343.760 8        48.554                                                                    23601986.383 8  99867633.98808     -1904.430 8        48.375
C22        60.000                                                                                                                                    25686517.892 7 133756259.57407     -3994.748 7        42.178                                                                    25686520.175 7 108687855.64307     -3245.982 7        42.485
> 2025 01 02 10 46 20.0000000  0 55
E24         1.000    24030446.272 8 126280972.74408       597.235 8        49.012                                                                    24030448.173 8  94300796.98008       446.015 8        50.545    24030447.452 8  96760806.37508       457.597 8        51.230
G15         2.000    21199086.084 8 111401882.53608     -2933.999 8        48.469                                    21199085.742 7  86806633.12007     -2286.230 7        47.627    21199086.324 7  86806628.11207     -2286.289 7        44.361
E03         3.000    27106699.444 6 142446645.18706      2149.278 6        39.495                                                                    27106707.749 7 106372499.74607      1605.019 7        43.433    27106706.364 7 109147436.33507      1646.876 7        43.882
G19         4.000    21796492.965 7 114541512.66907      1238.149 7        47.686                                    21796490.479 6  89253161.41406       964.792 6        37.516
S21         5.000    38571726.577 7 202695410.16907      -494.995 7        42.343
E05         6.000    22410712.426 8 117769047.97908       -33.748 8        48.059                                                                    22410716.264 8  87944392.83008       -25.227 8        50.616    22410715.719 8  90238593.94508       -25.847 8        51.666
E13         7.000    28988643.780 5 152336330.44105     -1608.838 5        34.819                                                                    28988657.513 6 113757695.86506     -1201.522 6        39.174    28988655.941 6 116725280.17806     -1232.760 6        40.002
R02         8.000    24189174.031 5 129077771.64605     -5177.041 5        32.198                                                                    24189190.600 3                     -4024.723 3        20.548
R05         9.000    23520163.761 7 125728754.45107      3472.906 7        44.691                                                                    23520170.865 6  97789070.78706      2701.019 6        41.588
G24        10.000    20622983.398 8 108374515.46308      1027.520 8        48.897                                    20622984.609 8  84447690.26408       800.666 8        50.761    20622985.157 7  84447695.26807       800.629 7        45.768
C14        11.000                                                                                                                                    25969025.356 6 135227529.36506      1818.237 6        39.165    25969030.009 7 104566527.76607      1406.067 7        44.742    25969026.600 7 109883453.65007      1477.509 7        42.629
S27        12.000    39316155.200 6 206607654.46606      -525.818 6        36.824
G13        13.000    22343076.891 7 117413573.03807     -3860.311 7        45.251                                    22343077.075 5  91491052.14005     -3008.028 5        31.230
S36        14.000    38342108.531 7 201489572.59607      -495.442 7        44.591
G02        15.000    25890629.400 6 136056175.66506     -1147.641 6        37.270                                    25890636.034 3 106017826.15103      -894.269 3        18.269
E09        16.000    24997629.369 7 131363377.14607     -2820.404 7        47.081                                                                    24997633.788 8  98096006.14408     -2106.153 8        48.826    24997632.816 8 100655031.11508     -2161.054 8        49.614
G12        17.000    22845085.326 7 120051868.89107      2730.303 7        45.491                                    22845086.472 7  93546983.21607      2127.501 7        42.180    22845087.378 6  93546980.22606      2127.473 6        40.884
R21        18.000    24271162.381 7 129879891.18007     -3276.465 7        42.121                                                                    24271172.191 6 101017732.60306     -2548.631 6        39.363
R22        19.000    22506298.949 7 120140221.91907       131.210 7        45.597                                                                    22506305.041 7  93442389.49107       102.047 7        43.327
R03        21.000    20518839.221 8 109838884.71208     -3454.296 8        51.409                                                                    20518840.541 7  85430226.84607     -2686.672 7        46.246
I06        22.000    38390039.812 6 150650877.13506      -477.655 6        41.843
S28        23.000    41026767.225 5 215596945.55005      -505.559 5        35.338
S23        25.000    38276147.626 7 201142376.35907      -498.053 7        44.886
S45        26.000    63526521.622 6 333834327.29116      -549.884 6        36.348
C07        27.000                                                                                                                                    39228900.638 6 204275114.64306     -1082.787 6        40.129    39228901.400 7 157958453.87007      -837.227 7        43.996    39228898.529 6 165990233.02506      -879.924 6        40.741
R04        28.000    20280623.935 8 108601805.52108       579.186 8        51.771                                                                    20280624.844 7  84468048.40907       450.433 7        46.819
C40        29.000                                                                                                                                    39394857.316 6 205139300.31006     -1316.464 6        41.824                                                                    39394860.467 6 166692477.51006     -1069.843 6        41.943
G17        30.000    22228448.100 7 116811405.16907     -1322.744 7        46.827                                    22228448.409 7  91021933.29807     -1030.705 7        43.958    22228448.678 7  91021930.29407     -1030.781 7        42.736
G14        31.000    23549312.190 6 123752375.95206     -3670.755 6        40.758                                    23549316.984 4  96430398.02204     -2860.310 4        26.575    23549316.472 6  96430384.00906     -2860.477 6        40.901
G23        32.000    23650929.377 6 124286359.51506     -2178.209 6        41.695                                    23650932.650 4  96846473.26004     -1697.299 4        27.018    23650932.959 6  96846468.24306     -1697.262 6        40.687
I02        33.000    37062481.967 7 145441137.31407      -260.958 7        43.740
R13        35.000    19905734.831 7 106295534.27207     -2078.311 7        46.783
R12        36.000    22979331.178 7 122751340.07607     -3894.732 7        44.694                                                                    22979340.353 7  95473237.24607     -3029.443 7        42.193
C42        37.000                                                                                                                                    24369171.953 7 126896667.10707       576.175 7        45.360                                                                    24369183.326 7 103113980.67407       468.093 7        46.148
C10        38.000                                                                                                                                    38666354.646 7 201345830.42207      -720.800 7        42.040    38666356.636 7 155693363.17107      -557.313 7        45.067    38666353.472 6 163609964.40106      -585.703 6        41.435
E25        39.000    27284874.987 6 143383077.88106      2228.303 6        40.415                                                                    27284885.388 7 107071873.00207      1663.916 7        42.372    27284883.407 7 109865040.73507      1707.381 7        42.749
C30        40.000                                                                                                                                    24658177.463 7 128401642.51007      -230.599 7        44.581                                                                    24658183.927 7 104336893.58907      -187.499 7        43.566
R23        41.000    22967125.043 7 122858680.35507      2931.907 7        42.711
S44        42.000    40990552.626 6 215406820.02806      -453.153 6        37.769
C36        43.000                                                                                                                                    23746871.572 7 123656112.63707     -2813.334 7        46.122                                                                    23746879.963 7 100480724.22507     -2286.130 7        46.752
C05        44.000                                                                                                                                    39565635.088 6 206028536.11806      -528.244 6        38.559    39565639.056 7 159314320.04507      -408.618 7        42.648    39565638.381 6 167415135.50106      -429.444 6        39.186
R14        45.000    20714263.329 8 110418782.26308      1672.359 8        51.028                                                                    20714267.679 7  85881354.88407      1300.719 7        46.952
E26        46.000    28453929.142 6 149526429.23506       574.051 6        36.076                                                                    28453941.868 6 111659408.53606       428.779 6        39.664    28453939.623 6 114572252.55306       439.800 6        39.919
G10        47.000    24555942.109 6 129042291.45906       237.914 6        40.236                                    24555947.561 5 100552430.87805       185.385 5        35.290    24555947.186 6 100552431.86606       185.540 6        38.090
C45        50.000                                                                                                                                    21734561.713 8 113177590.32508      -576.839 8        50.876                                                                    21734556.075 8  91966050.92608      -468.804 8        49.865
S48        51.000    77280148.973 6 406108460.87406      -491.853 6        37.720
E06        52.000    26532247.899 6 139427795.71806     -3473.738 6        41.228                                                                    26532257.191 7 104118131.22007     -2594.098 7        44.310    26532256.456 7 106834258.84207     -2661.772 7        45.833
E33        53.000    28924287.701 4 151998179.72204      2053.412 4        29.725                                                                    28924301.747 5 113505185.67705      1533.208 5        35.119    28924300.106 6 116466181.82006      1573.254 6        36.079
C60        54.000                                                                                                                                    40990552.030 6 213448594.11206      -449.177 6        39.859                                                                    40990545.244 6 173444400.66906      -365.067 6        39.330
E31        55.000    24256737.172 7 127469999.15007     -2067.156 7        46.816                                                                    24256741.967 8  95188662.14308     -1543.628 8        49.339    24256741.151 8  97671841.41008     -1583.911 8        50.409
C26        56.000                                                                                                                                    24252216.935 7 126287713.55907      1917.086 7        45.202                                                                    24252220.651 7 102619147.35407      1557.748 7        45.684
C02        57.000                                                                                                                                    41111431.028 5                      -495.603 5        30.543    41111437.286 5 165538526.79405      -383.315 5        35.933    41111437.295 5 173955762.42805      -402.940 5        30.257
I03        58.000    93164863.201 5 289813425.67605       917.605 5        33.509
C21        59.000                                                                                                                                    23604239.725 8 122913393.68208     -2345.820 8        48.461                                                                    23604237.838 8  99877160.95808     -1906.267 8        48.428
C22        60.000                                                                                                                                    25690353.340 7 133776233.24007     -3994.681 7        42.057                                                                    25690356.095 7 108704085.83807     -3245.978 7        42.478
> 2025 01 02 10 46 25.0000000  0 55
E24         1.000    24029879.170 8 126277992.11708       595.199 8        49.059                                                                    24029880.984 8  94298571.18708       444.450 8        50.636    24029880.226 8  96758522.51608       456.035 8        51.324
G15         2.000    21201879.278 8 111416560.90908     -2937.078 8        48.250                                    21201878.950 7  86818070.79907     -2288.629 7        47.814    21201879.098 7  86818065.79407     -2288.648 7        44.086
E03         3.000    27104655.603 6 142435902.58006      2147.961 6        40.021                                                                    27104663.581 7 106364477.66507      1604.164 7        43.482    27104662.175 7 109139204.99407      1645.954 7        44.072
G19         4.000    21795316.264 7 114535330.82207      1234.913 7        47.271                                    21795314.045 6  89248344.39506       962.268 6        37.800
S21         5.000    38572198.052 7 202697886.66507      -495.250 7        42.438
E05         6.000    22410745.812 8 117769223.58508       -36.174 8        48.205                                                                    22410749.683 8  87944523.95608       -27.022 8        50.664    22410749.116 8  90238728.48908       -27.731 8        51.679
E13         7.000    28990176.013 5 152344382.42005     -1611.514 5        34.629                                                                    28990189.859 6 113763708.72006     -1203.506 6        39.787    28990188.363 6 116731449.88206     -1234.694 6        40.844
R02         8.000    24194027.253 5 129103658.70205     -5177.564 5        32.263                                                                    24194038.107 3                     -4024.219 3        20.357
R05         9.000    23516916.371 7 125711396.05207      3470.794 7        44.352                                                                    23516923.440 7  97775569.84207      2699.415 7        42.127
G24        10.000    20622007.085 8 108369384.92108      1025.035 8        48.712                                    20622008.298 8  84443692.44108       798.727 8        50.942    20622008.455 7  84443697.44107       798.781 7        45.413
C14        11.000                                                                                                                                    25967281.265 6 135218444.32406      1815.895 6        39.399    25967285.357 7 104559502.63807      1404.193 7        44.456    25967282.082 7 109876071.29607      1475.619 7        42.629
S27        12.000    39316656.160 6 206610285.19206      -526.116 6        36.941
G13        13.000    22346750.786 7 117432880.25207     -3862.214 7        45.837                                    22346751.229 5  91506096.69905     -3009.514 5        31.608
S36        14.000    38342581.373 7 201492051.30407      -495.843 7        44.584
G02        15.000    25891722.953 6 136061921.89206     -1150.714 6        37.259                                    25891729.466 3 106022303.73903      -896.650 3        18.746
E09        16.000    25000313.891 7 131377484.58307     -2822.336 7        47.079                                                                    25000318.354 8  98106540.90308     -2107.513 8        48.998    25000317.301 8 100665840.69908     -2162.570 8        49.568
G12        17.000    22842488.611 7 120038222.65707      2728.467 7        44.957                                    22842489.640 7  93536349.81207      2126.075 7        42.354    22842490.506 6  93536346.82706      2126.076 6        40.930
R21        18.000    24274225.171 6 129896282.72606     -3279.825 6        40.644                                                                    24274235.195 6 101030481.50406     -2551.085 6        39.207
R22        19.000    22506178.286 7 120139577.92107       126.704 7        45.300                                                                    22506184.108 7  93441888.61607        98.500 7        43.649
R03        21.000    20522067.437 8 109856166.43208     -3458.139 8        51.580                                                                    20522069.015 7  85443668.15607     -2689.706 7        46.281
I06        22.000    38390648.815 6 150653266.34906      -477.806 6        41.721
S28        23.000    41027249.149 5 215599475.23905      -505.867 5        35.095
S23        25.000    38276620.625 7 201144868.06207      -498.393 7        44.829
S45        26.000    63526999.621 6 333837078.69406      -550.299 6        36.329
C07        27.000                                                                                                                                    39229941.258 6 204280531.19106     -1083.642 6        40.148    39229941.708 7 157962642.29007      -837.854 7        44.035    39229938.696 6 165994634.38706      -880.501 6        40.756
R04        28.000    20280085.659 8 108598922.38308       574.333 8        51.921                                                                    20280086.711 7  84465805.95807       446.741 7        46.983
C40        29.000                                                                                                                                    39396121.934 6 205145885.48206     -1317.347 6        41.983                                                                    39396125.020 7 166697828.48907     -1070.439 7        42.038
G17        30.000    22229708.416 7 116818028.37507     -1326.291 7        46.497                                    22229708.763 7  91027094.22707     -1033.469 7        44.153    22229709.082 7  91027091.20907     -1033.358 7        42.646
G14        31.000    23552805.782 6 123770732.71606     -3671.741 6        41.292                                    23552810.118 4  96444701.94304     -2861.083 4        26.910    23552809.685 6  96444687.92706     -2861.129 6        40.393
G23        32.000    23653003.395 7 124297258.39207     -2181.172 7        42.226                                    23653006.624 4  96854965.86304     -1699.609 4        27.257    23653006.802 6  96854960.85506     -1699.509 6        41.185
I02        33.000    37062814.886 7 145442443.56807      -261.424 7        43.924
R13        35.000    19907682.539 7 106305932.12707     -2080.597 7        47.034
R12        36.000    22982977.399 7 122770816.09107     -3895.412 7        44.695                                                                    22982986.735 7  95488385.21507     -3029.752 7        42.157
C42        37.000                                                                                                                                    24368619.945 7 126893794.73307       573.125 7        45.621                                                                    24368631.759 7 103111646.61207       465.740 7        46.072
C10        38.000                                                                                                                                    38667046.986 7 201349437.30607      -721.645 7        42.104    38667049.364 7 155696152.23007      -558.014 7        45.087    38667046.284 6 163612895.26206      -586.411 6        41.309
E25        39.000    27282755.144 6 143371939.57706      2227.280 6        39.889                                                                    27282765.857 7 107063555.45407      1663.207 7        42.495    27282764.010 7 109856506.20907      1706.604 7        42.743
C30        40.000                                                                                                                                    24658400.460 7 128402804.00207      -233.713 7        44.375                                                                    24658406.929 7 104337837.36007      -189.863 7        43.526
R23        41.000    22964385.542 7 122844028.14707      2929.324 7        43.062
S44        42.000    40990982.761 6 215409088.03106      -453.584 6        37.682
C36        43.000                                                                                                                                    23749573.422 7 123670182.76307     -2814.405 7        46.008                                                                    23749582.028 7 100492157.30307     -2286.916 7        46.632
C05        44.000                                                                                                                                    39566142.711 6 206031179.55506      -528.650 6        38.444    39566146.603 7 159316364.13607      -408.721 7        42.525    39566146.039 6 167417283.51506      -429.572 6        39.213
R14        45.000    20712695.963 8 110410426.63708      1670.141 8        50.960                                                                    20712700.582 7  85874856.07307      1298.997 7        47.549
E26        46.000    28453384.090 6 149523566.21806       571.411 6        36.484                                                                    28453396.982 6 111657270.59006       426.705 6        39.688    28453394.968 6 114570058.82306       437.891 6        40.100
G10        47.000    24555717.629 6 129041110.86706       234.459 6        40.694                                    24555722.799 5 100551510.93605       182.694 5        35.500    24555722.862 6 100551511.92906       182.734 6        38.222
C45        50.000                                                                                                                                    21735116.603 8 113180479.77908      -578.725 8        50.920                                                                    21735111.008 8  91968398.81708      -470.197 8        49.814
S48        51.000    77280618.475 6 406110922.16906      -492.207 6        37.531
E06        52.000    26535553.741 6 139445168.18606     -3474.789 6        41.852                                                                    26535563.261 7 104131104.13307     -2594.914 7        44.507    26535562.307 7 106847570.18407     -2662.577 7        46.072
E33        53.000    28922334.395 5 151987916.51905      2051.896 5        30.438                                                                    28922348.835 5 113497521.59805      1532.789 5        35.129    28922347.033 5 116458317.82805      1572.352 5        35.943
C60        54.000                                                                                                                                    40990983.577 6 213450841.50406      -449.545 6        39.907                                                                    40990976.643 6 173446226.87106      -365.312 6        39.363
E31        55.000    24258704.787 7 127480339.55307     -2068.794 7        46.840                                                                    24258709.638 8  95196383.86308     -1544.877 8        49.483    24258708.881 8  97679764.56408     -1585.113 8        50.368
C26        56.000                                                                                                                                    24250377.301 7 126278131.56407      1915.958 7        45.518                                                                    24250380.485 7 102611361.19107      1556.889 7        45.538
C02        57.000                                                                                                                                    41111906.988 5                      -495.590 5        30.596    41111913.237 5 165540444.54505      -383.596 5        35.976    41111913.813 5 173957777.65905      -403.087 5        30.581
I03        58.000    93163694.638 5 289808837.84005       917.584 5        33.473
C21        59.000                                                                                                                                    23606493.382 8 122925130.70108     -2348.653 8        48.530                                                                    23606491.831 8  99886698.21508     -1908.397 8        48.375
C22        60.000                                                                                                                                    25694189.534 7 133796208.52007     -3995.233 7        42.294                                                                    25694192.338 7 108720317.32207     -3246.455 7        42.673
> 2025 01 02 10 46 30.0000000  0 55
E24         1.000    24029313.610 8 126275019.85008       593.557 8        49.239                                                                    24029315.419 8  94296351.64108       443.247 8        50.564    24029314.617 8  96756245.06908       454.783 8        51.271
G15         2.000    21204675.223 8 111431253.03308     -2939.851 8        48.392                                    21204674.783 7  86829519.19207     -2290.788 7        47.662    21204675.061 7  86829514.18907     -2290.797 7        43.818
E03         3.000    27102611.963 6 142425164.35106      2147.076 6        39.916                                                                    27102620.278 7 106356458.86807      1603.389 7        43.465    27102618.800 7 109130977.00807      1645.158 7        43.934
G19         4.000    21794142.749 7 114529163.43807      1231.936 7        47.870                                    21794140.423 6  89243538.64506       959.950 6        37.686
S21         5.000    38572668.408 7 202700362.98907      -495.423 7        42.447
E05         6.000    22410781.339 8 117769410.08608       -38.510 8        48.366                                                                    22410785.175 8  87944663.21508       -28.717 8        50.635    22410784.654 8  90238871.38808       -29.506 8        51.594
E13         7.000    28991710.499 5 152352445.57705     -1613.974 5        35.348                                                                    28991724.379 6 113769729.85906     -1205.143 6        40.160    28991722.679 6 116737628.11606     -1236.450 6        40.932
R02         8.000    24198875.060 5 129129545.89805     -5177.381 5        32.216                                                                    24198897.272 3                     -4038.646 3        19.493
R05         9.000    23513670.101 7 125694046.63107      3468.788 7        44.224                                                                    23513678.103 7  97762075.86407      2697.895 7        42.076
G24        10.000    20621032.752 8 108364265.52808      1022.701 8        48.905                                    20621034.106 8  84439703.30508       796.910 8        50.840    20621034.754 7  84439708.32007       796.829 7        45.329
C14        11.000                                                                                                                                    25965538.636 6 135209369.38306      1813.997 6        39.333    25965542.549 7 104552485.33307      1402.572 7        45.034    25965539.319 7 109868697.17007      1474.065 7        42.578
S27        12.000    39317157.376 6 206612916.16806      -526.280 6        37.036
G13        13.000    22350426.510 7 117452195.39507     -3863.925 7        46.516                                    22350426.947 5  91521147.43805     -3010.850 5        31.713
S36        14.000    38343054.149 7 201494530.67007      -496.055 7        44.632
G02        15.000    25892819.003 6 136067681.64106     -1153.138 6        37.595                                    25892825.452 3 106026791.87303      -898.538 3        19.075
E09        16.000    25003000.146 7 131391599.80307     -2823.946 7        47.443                                                                    25003004.458 8  98117081.48708     -2108.776 8        48.888    25003003.319 8 100676656.24908     -2163.742 8        49.484
G12        17.000    22839893.169 7 120024583.63707      2726.991 7        45.535                                    22839894.194 7  93525722.03007      2124.923 7        42.254    22839894.802 6  93525719.03906      2125.006 6        41.097
R21        18.000    24277290.112 6 129912689.90406     -3283.097 6        41.583                                                                    24277302.090 6 101043242.60106     -2553.412 6        39.685
R22        19.000    22506061.049 7 120138955.37507       122.366 7        45.976                                                                    22506067.840 7  93441404.43707        95.093 7        43.181
R03        21.000    20525299.216 8 109873465.79908     -3461.710 8        51.998                                                                    20525301.300 7  85457123.20207     -2692.402 7        46.279
I06        22.000    38391257.545 6 150655655.69206      -477.958 6        41.993
S28        23.000    41027729.916 5 215602005.00605      -505.952 5        35.076
S23        25.000    38277093.956 7 201147359.76307      -498.474 7        44.852
S45        26.000    63527476.000 6 333839830.06506      -550.335 6        36.374
C07        27.000                                                                                                                                    39230981.779 6 204285950.24506     -1084.272 6        39.793    39230982.606 7 157966832.64007      -838.310 7        44.322    39230979.397 6 165999037.80906      -880.854 6        40.629
R04        28.000    20279551.104 8 108596061.90408       569.769 8        51.590                                                                    20279552.390 7  84463581.14107       443.107 7        46.928
C40        29.000                                                                                                                                    39397386.917 6 205152473.68506     -1318.051 6        41.890                                                                    39397390.317 6 166703181.92206     -1070.840 6        41.869
G17        30.000    22230971.679 7 116824667.13707     -1329.388 7        46.405                                    22230972.072 7  91032267.27607     -1035.882 7        44.027    22230972.057 7  91032264.27907     -1035.940 7        42.250
G14        31.000    23556299.579 6 123789092.80306     -3672.429 6        41.974                                    23556303.814 4  96459008.46304     -2861.618 4        26.719    23556304.028 6  96458994.44406     -2861.728 6        40.408
G23        32.000    23655079.581 7 124308170.50907     -2183.797 7        42.591                                    23655083.259 4  96863468.78304     -1701.660 4        27.018    23655083.662 6  96863463.79406     -1701.607 6        40.436
I02        33.000    37063148.142 7 145443751.20207      -261.644 7        43.810
R13        35.000    19909631.274 7 106316339.76307     -2082.633 7        47.203
R12        36.000    22986624.344 7 122790293.40407     -3895.621 7        44.825                                                                    22986633.605 7  95503534.18907     -3030.100 7        42.042
C42        37.000                                                                                                                                    24368071.483 7 126890936.20807       570.235 7        45.843                                                                    24368082.887 7 103109323.83207       463.439 7        46.011
C10        38.000                                                                                                                                    38667740.253 7 201353046.95707      -722.365 7        42.076    38667742.459 7 155698943.42807      -558.595 7        45.294    38667739.459 6 163615828.38106      -586.739 6        41.385
E25        39.000    27280636.472 6 143360804.55406      2226.585 6        40.129                                                                    27280646.650 7 107055240.35907      1662.709 7        42.392    27280645.085 7 109847974.19107      1705.955 7        42.457
C30        40.000                                                                                                                                    24658626.351 7 128403979.50907      -236.557 7        44.691                                                                    24658632.707 7 104338792.56307      -192.174 7        43.427
R23        41.000    22961648.772 7 122829386.90607      2927.176 7        42.984
S44        42.000    40991414.308 6 215411356.00206      -453.672 6        37.698
C36        43.000                                                                                                                                    23752275.986 7 123684256.54707     -2815.228 7        45.860                                                                    23752284.852 7 100503593.37607     -2287.469 7        46.559
C05        44.000                                                                                                                                    39566650.634 6 206033823.00806      -528.810 6        38.384    39566654.414 7 159318408.24907      -409.019 7        42.912    39566653.631 6 167419431.55006      -429.502 6        38.946
R14        45.000    20711130.685 8 110402080.57308      1668.178 8        51.447                                                                    20711134.821 7  85868364.70607      1297.471 7        47.494
E26        46.000    28452841.337 6 149520714.24306       569.207 6        36.892                                                                    28452854.330 6 111655140.87206       425.130 6        39.589    28452852.376 6 114567873.55706       436.145 6        40.310
G10        47.000    24555495.629 6 129039945.85706       231.319 6        40.427                                    24555501.020 5 100550603.13805       180.250 5        35.352    24555500.742 6 100550604.16006       180.129 6        38.117
C45        50.000                                                                                                                                    21735673.178 8 113183377.03408      -580.299 8        50.917                                                                    21735667.351 8  91970753.07508      -471.452 8        49.740
S48        51.000    77281084.696 6 406113382.86506      -492.326 6        37.595
E06        52.000    26538860.700 7 139462544.68007     -3475.713 7        42.214                                                                    26538869.978 7 104144080.04007     -2595.517 7        44.621    26538868.841 7 106860884.59207     -2663.272 7        45.926
E33        53.000    28920381.824 5 151977656.88805      2051.752 5        30.347                                                                    28920396.160 5 113489860.25805      1531.673 5        34.895    28920394.725 5 116450456.59505      1572.175 5        35.686
C60        54.000                                                                                                                                    40991415.111 6 213453088.84006      -449.612 6        39.796                                                                    40991408.356 6 173448053.02906      -365.136 6        39.369
E31        55.000    24260673.873 7 127490686.20707     -2070.070 7        46.947                                                                    24260678.537 8  95204110.24908     -1545.829 8        49.334    24260677.777 8  97687692.51208     -1586.108 8        50.319
C26        56.000                                                                                                                                    24248537.738 7 126268553.62207      1915.114 7        45.497                                                                    24248541.131 7 102603578.33407      1556.268 7        45.561
C02        57.000                                                                                                                                    41112384.235 5                      -495.683 5        30.302    41112390.149 6 165542362.21006      -383.348 6        36.181    41112390.081 5 173959792.88605      -403.130 5        30.445
I03        58.000    93162525.049 5 289804249.86605       917.766 5        33.431
C21        59.000                                                                                                                                    23608749.955 8 122936879.88808     -2351.099 8        48.829                                                                    23608748.128 8  99896245.38208     -1910.355 8        48.267
C22        60.000                                                                                                                                    25698026.348 7 133816184.92307     -3995.425 7        42.825                                                                    25698028.791 7 108736549.74007     -3246.531 7        42.895
> 2025 01 02 10 46 35.0000000  0 55
E24         1.000    24028749.604 8 126272056.34908       591.749 8        49.168                                                                    24028751.469 8  94294138.63508       441.900 8        50.708    24028750.700 8  96753974.33708       453.434 8        51.243
G15         2.000    21207473.675 8 111445959.29308     -2942.747 8        48.535                                    21207473.312 7  86840978.60107     -2293.048 7        47.637    21207473.571 7  86840973.59407     -2293.178 7        44.322
E03         3.000    27100569.188 6 142414430.88706      2146.204 6        39.616                                                                    27100577.769 7 106348443.63007      1602.634 7        43.409    27100576.355 7 109122752.67507      1644.400 7        44.014
G19         4.000    21792971.978 7 114523010.89807      1228.924 7        47.731                                    21792969.644 6  89238744.46606       957.603 6        37.648
S21         5.000    38573141.993 7 202702839.70807      -495.399 7        42.491
E05         6.000    22410819.097 8 117769607.84408       -40.752 8        48.223                                                                    22410822.813 8  87944810.89208       -30.463 8        50.769    22410822.268 8  90239022.91108       -31.212 8        51.557
E13         7.000    28993246.555 5 152360520.21205     -1616.190 5        35.857                                                                    28993260.859 6 113775759.56606     -1206.944 6        40.162    28993258.938 6 116743815.10506     -1238.428 6        40.350
R02         8.000    24203729.056 5 129155433.57105     -5177.593 5        31.653                                                                    24203749.166 3                     -4029.906 3        22.190
R05         9.000    23510426.448 7 125676706.67507      3466.871 7        45.090                                                                    23510433.347 6  97748589.23306      2696.527 6        41.821
G24        10.000    20620060.858 8 108359157.67208      1020.347 8        48.785                                    20620062.109 8  84435723.16308       795.072 8        50.833    20620062.507 7  84435728.16307       795.114 7        45.231
C14        11.000                                                                                                                                    25963797.442 6 135200304.91906      1811.813 6        39.135    25963801.958 7 104545476.11907      1400.976 7        45.526    25963798.444 7 109861331.56807      1472.215 7        42.497
S27        12.000    39317655.345 6 206615547.22406      -526.521 6        36.752
G13        13.000    22354103.450 7 117471518.72307     -3865.573 7        46.356                                    22354104.195 5  91536204.56205     -3012.134 5        31.879
S36        14.000    38343528.606 7 201497010.86307      -496.376 7        44.668
G02        15.000    25893916.824 6 136073455.33906     -1156.188 6        37.573                                    25893924.179 3 106031290.83303      -900.928 3        19.075
E09        16.000    25005687.655 7 131405723.19307     -2825.626 7        47.340                                                                    25005692.117 8  98127628.16208     -2110.005 8        49.001    25005691.030 8 100687478.05708     -2165.059 8        49.438
G12        17.000    22837299.434 7 120010952.32807      2725.393 7        45.886                                    22837300.237 7  93515100.26007      2123.677 7        42.288    22837300.977 6  93515097.27906      2123.617 6        41.180
R21        18.000    24280360.196 6 129929113.05206     -3286.425 6        41.781                                                                    24280370.197 6 101056016.10006     -2556.074 6        39.868
R22        19.000    22505949.350 7 120138354.68907       117.792 7        46.305                                                                    22505954.393 7  93440937.23207        91.591 7        42.125
R03        21.000    20528533.922 8 109890782.99608     -3465.354 8        51.159                                                                    20528536.253 7  85470592.11707     -2695.237 7        46.237
I06        22.000    38391866.438 6 150658045.42706      -478.119 6        41.831
S28        23.000    41028207.364 5 215604535.24805      -505.921 5        34.962
S23        25.000    38277569.437 7 201149852.03207      -498.671 7        44.810
S45        26.000    63527955.175 6 333842581.95706      -550.544 6        36.170
C07        27.000                                                                                                                                    39232022.347 6 204291372.08906     -1084.849 6        39.727    39232023.397 7 157971025.16907      -838.778 7        44.360    39232020.662 6 166003443.54306      -881.547 6        40.763
R04        28.000    20279020.867 8 108593224.41508       565.101 8        51.700                                                                    20279022.675 7  84461374.20307       439.522 7        46.925
C40        29.000                                                                                                                                    39398652.910 6 205159065.24606     -1318.840 6        41.902                                                                    39398656.051 7 166708538.11607     -1071.580 7        42.188
G17        30.000    22232237.943 7 116831321.86107     -1332.576 7        46.265                                    22232238.431 7  91037452.76407     -1038.370 7        43.979    22232238.395 7  91037449.76607     -1038.346 7        42.165
G14        31.000    23559793.638 6 123807456.59806     -3673.229 6        41.666                                    23559798.119 4  96473317.87204     -2862.251 4        26.898    23559798.675 6  96473303.84906     -2862.266 6        40.632
G23        32.000    23657158.669 6 124319096.20506     -2186.647 6        41.871                                    23657162.340 4  96871982.29704     -1703.873 4        27.365    23657163.067 6  96871977.26706     -1703.811 6        41.373
I02        33.000    37063481.983 7 145445060.10907      -261.839 7        43.710
R13        35.000    19911582.212 7 106326757.53307     -2084.668 7        47.143
R12        36.000    22990270.476 7 122809772.42407     -3895.996 7        44.257                                                                    22990279.430 7  95518684.46607     -3030.249 7        42.133
C42        37.000                                                                                                                                    24367524.712 7 126888091.90807       567.284 7        45.701                                                                    24367536.567 7 103107012.62907       460.954 7        46.210
C10        38.000                                                                                                                                    38668433.952 7 201356659.70207      -722.902 7        42.017    38668436.257 7 155701737.01607      -558.983 7        45.320    38668433.300 6 163618764.06206      -587.535 6        41.504
E25        39.000    27278518.573 6 143349673.20706      2225.876 6        40.644                                                                    27278528.263 7 107046928.00307      1662.147 7        42.309    27278526.725 7 109839444.99907      1705.425 7        42.476
C30        40.000                                                                                                                                    24658855.324 7 128405169.41207      -239.427 7        44.682                                                                    24658861.124 7 104339759.48207      -194.652 7        43.585
R23        41.000    22958914.428 7 122814757.10807      2924.760 7        42.690
S44        42.000    40991846.562 6 215413624.29806      -453.820 6        37.815
C36        43.000                                                                                                                                    23754979.365 7 123698334.32607     -2816.079 7        46.126                                                                    23754988.502 7 100515032.72607     -2288.282 7        46.873
C05        44.000                                                                                                                                    39567158.100 6 206036466.81706      -528.934 6        38.453    39567162.113 7 159320452.63407      -409.089 7        42.931    39567161.384 6 167421579.90906      -429.818 6        39.072
R14        45.000    20709566.989 8 110393744.17108      1666.205 8        51.319                                                                    20709570.807 7  85861880.84807      1295.913 7        47.540
E26        46.000    28452300.973 6 149517873.67506       566.806 6        36.616                                                                    28452313.785 6 111653019.67706       423.309 6        39.327    28452311.917 6 114565697.01606       434.484 6        40.250
G10        47.000    24555276.761 6 129038796.81806       228.048 6        39.859                                    24555282.335 5 100549707.78005       177.703 5        35.324    24555282.704 6 100549708.77906       177.880 6        38.700
C45        50.000                                                                                                                                    21736231.083 8 113186282.47908      -582.002 8        50.773                                                                    21736225.325 8  91973113.99508      -472.911 8        49.976
S48        51.000    77281557.020 6 406115843.90606      -492.362 6        38.042
E06        52.000    26542167.976 7 139479925.54207     -3476.691 7        42.011                                                                    26542177.519 7 104157059.21407     -2596.229 7        44.951    26542176.109 7 106874202.36307     -2663.904 7        45.660
E33        53.000    28918429.478 4 151967401.35804      2050.179 4        29.640                                                                    28918444.607 5 113482201.91805      1531.254 5        35.019    28918442.871 5 116442598.49205      1571.169 5        35.510
C60        54.000                                                                                                                                    40991846.806 6 213455336.52406      -449.750 6        40.064                                                                    40991839.962 6 173449879.51306      -365.333 6        39.517
E31        55.000    24262644.334 7 127501039.49007     -2071.441 7        46.924                                                                    24262648.711 8  95211841.58808     -1546.817 8        49.499    24262647.949 8  97695625.54408     -1587.161 8        50.266
C26        56.000                                                                                                                                    24246699.304 7 126258980.09507      1914.189 7        45.407                                                                    24246702.614 7 102595799.09407      1555.383 7        45.717
C02        57.000                                                                                                                                    41112860.248 5                      -495.924 5        30.234    41112866.922 5 165544280.12305      -383.506 5        35.919    41112866.399 5 173961808.28805      -403.095 5        30.325
I03        58.000    93161356.108 5 289799662.01405       917.496 5        33.695
C21        59.000                                                                                                                                    23611009.062 8 122948641.62508     -2353.767 8        48.962                                                                    23611006.908 8  99905802.76808     -1912.594 8        48.473
C22        60.000                                                                                                                                    25701863.206 7 133836162.79207     -3995.746 7        42.768                                                                    25701865.493 7 108752783.37107     -3246.945 7        43.477
> 2025 01 02 10 46 40.0000000  0 55
E24         1.000    24028187.073 8 126269101.11808       590.434 8        49.180                                                                    24028189.105 8  94291931.80708       440.911 8        50.619    24028188.312 8  96751709.93608       452.388 8        51.278
G15         2.000    21210274.884 8 111460679.24408     -2945.154 8        48.818                                    21210274.444 7  86852448.67607     -2294.926 7        47.578    21210274.406 7  86852443.67207     -2294.909 7        43.757
E03         3.000    27098527.777 6 142403701.75006      2145.507 6        39.504                                                                    27098535.998 7 106340431.60607      1602.224 7        43.617    27098534.726 7 109114531.64207      1644.006 7        44.083
G19         4.000    21791803.732 7 114516872.77207      1226.363 7        47.620                                    21791801.585 6  89233961.51106       955.607 6        37.584
S21         5.000    38573610.150 7 202705316.39907      -495.174 7        42.457
E05         6.000    22410858.896 8 117769816.41708       -42.667 8        48.223                                                                    22410862.483 8  87944966.63308       -31.812 8        50.645    22410861.964 8  90239182.72108       -32.660 8        51.645
E13         7.000    28994785.526 5 152368606.05605     -1618.004 5        34.624                                                                    28994799.660 6 113781797.68206     -1208.362 6        39.081    28994797.567 6 116750010.75406     -1239.928 6        39.294
R02         8.000    24208582.371 5 129181321.52905     -5177.497 5        31.351
R05         9.000    23507184.947 7 125659375.80807      3465.409 7        45.159                                                                    23507191.730 6  97735109.68206      2695.353 6        41.268
G24        10.000    20619090.898 8 108354060.92508      1018.431 8        49.019                                    20619092.232 8  84431751.67508       793.583 8        50.797    20619093.020 7  84431756.67807       793.681 7        45.461
C14        11.000                                                                                                                                    25962058.438 6 135191250.52706      1810.091 6        38.814    25962063.272 7 104538474.67507      1399.663 7        45.589    25962059.562 7 109853974.12307      1470.882 7        42.345
S27        12.000    39318154.941 6 206618178.85406      -526.062 6        36.983
G13        13.000    22357781.628 7 117490849.84807     -3866.806 7        46.188                                    22357782.905 5  91551267.75805     -3013.090 5        31.751
S36        14.000    38343996.843 7 201499491.37107      -495.824 7        44.569
G02        15.000    25895019.003 6 136079242.48706     -1158.567 6        38.060                                    25895025.356 3 106035800.30903      -902.786 3        18.896
E09        16.000    25008376.712 7 131419854.27707     -2826.793 7        47.432                                                                    25008381.230 8  98138180.58708     -2110.899 8        48.973    25008380.236 8 100698305.76708     -2165.982 8        49.437
G12        17.000    22834706.522 7 119997328.18307      2724.336 7        45.881                                    22834707.608 7  93504484.07007      2122.856 7        42.250    22834708.326 6  93504481.07406      2122.867 6        41.004
R21        18.000    24283432.861 6 129945551.75706     -3289.078 6        41.831                                                                    24283442.864 6 101068801.72106     -2558.119 6        40.286
R22        19.000    22505841.304 7 120137775.37007       113.919 7        46.539                                                                    22505846.208 6  93440486.64906        88.587 6        41.619
R03        21.000    20531771.837 8 109908117.67408     -3468.478 8        51.204                                                                    20531774.503 7  85484074.63507     -2697.676 7        46.298
I06        22.000    38392475.620 6 150660435.22506      -477.811 6        41.828
S28        23.000    41028690.192 5 215607065.60905      -506.083 5        35.095
S23        25.000    38278046.881 7 201152344.30307      -498.295 7        44.895
S45        26.000    63528423.658 6 333845333.82106      -550.037 6        36.325
C07        27.000                                                                                                                                    39233063.524 6 204296796.30406     -1084.854 6        39.598    39233065.209 7 157975219.50907      -838.993 7        44.412    39233062.198 6 166007851.14106      -881.652 6        40.729
R04        28.000    20278495.496 8 108590409.45508       560.928 8        51.710                                                                    20278497.148 7  84459184.78707       436.357 7        47.209
C40        29.000                                                                                                                                    39399918.803 7 205165659.72407     -1318.972 7        42.097                                                                    39399922.471 6 166713896.66306     -1071.704 6        41.971
G17        30.000    22233507.484 7 116837992.09407     -1335.463 7        45.770                                    22233507.741 7  91042650.33807     -1040.620 7        43.875    22233507.861 7  91042647.33607     -1040.683 7        42.044
G14        31.000    23563288.582 6 123825823.61906     -3673.497 6        41.774                                    23563293.300 4  96487629.78904     -2862.460 4        26.635    23563293.919 6  96487615.77806     -2862.541 6        41.089
G23        32.000    23659240.043 7 124330035.02707     -2188.924 7        42.074                                    23659244.086 4  96880506.01504     -1705.648 4        27.018    23659244.540 6  96880500.99806     -1705.678 6        41.132
I02        33.000    37063815.470 7 145446370.48907      -262.060 7        43.638
R13        35.000    19913535.003 7 106337184.93507     -2086.319 7        47.139
R12        36.000    22993917.048 7 122829252.62507     -3896.009 7        43.901                                                                    22993925.879 6  95533835.69206     -3030.110 6        41.878
C42        37.000                                                                                                                                    24366981.211 7 126885261.38307       564.910 7        45.776                                                                    24366992.997 7 103104712.59907       459.154 7        46.093
C10        38.000                                                                                                                                    38669128.312 7 201360275.17107      -723.178 7        42.118    38669130.719 7 155704532.71607      -559.212 7        45.386    38669127.472 6 163621701.90906      -587.589 6        41.468
E25        39.000    27276400.879 6 143338545.08506      2225.463 6        40.689                                                                    27276410.583 7 107038618.05407      1661.886 7        42.131    27276409.113 7 109830918.25807      1705.234 7        42.449
C30        40.000                                                                                                                                    24659086.181 7 128406373.25907      -241.928 7        44.381                                                                    24659092.162 7 104340737.69407      -196.506 7        43.465
R23        41.000    22956180.737 6 122800138.36806      2922.789 6        41.883
S44        42.000    40992274.800 6 215415892.48406      -453.531 6        37.845
C36        43.000                                                                                                                                    23757683.831 7 123712415.66707     -2816.460 7        46.536                                                                    23757692.710 7 100526474.95807     -2288.636 7        46.846
C05        44.000                                                                                                                                    39567665.737 6 206039110.54306      -528.538 6        38.471    39567669.602 7 159322496.94707      -408.684 7        42.927    39567668.994 6 167423728.15106      -429.414 6        39.132
R14        45.000    20708004.632 8 110385417.17708      1664.629 8        51.349                                                                    20708008.900 7  85855404.30907      1294.737 7        47.601
E26        46.000    28451762.846 6 149515044.06006       564.905 6        36.560                                                                    28451775.292 6 111650906.66406       421.985 6        39.462    28451773.565 6 114563528.87906       432.975 6        40.436
G10        47.000    24555061.104 6 129037663.31306       225.293 6        39.994                                    24555066.655 5 100548824.52805       175.549 5        35.233    24555066.650 6 100548825.53606       175.403 6        38.450
C45        50.000                                                                                                                                    21736790.190 8 113189195.63708      -583.172 8        50.781                                                                    21736784.809 8  91975481.17408      -473.919 8        49.852
S48        51.000    77282027.247 6 406118305.13006      -491.998 6        38.021
E06        52.000    26545476.383 6 139497310.33206     -3477.219 6        41.897                                                                    26545485.694 7 104170041.31907     -2596.615 7        44.834    26545484.093 7 106887523.13907     -2664.369 7        45.387
E33        53.000    28916478.942 5 151957149.34305      2050.033 5        30.136                                                                    28916493.794 5 113474546.22805      1530.967 5        35.219    28916492.263 5 116434743.06705      1571.039 5        35.676
C60        54.000                                                                                                                                    40992278.295 6 213457584.09206      -449.400 6        39.754                                                                    40992271.545 6 173451705.87406      -365.193 6        39.387
E31        55.000    24264615.207 7 127511398.93107     -2072.352 7        46.929                                                                    24264620.050 8  95219577.52608     -1547.536 8        49.458    24264619.338 8  97703563.28708     -1587.883 8        50.312
C26        56.000                                                                                                                                    24244861.675 7 126249410.54307      1913.655 7        45.664                                                                    24244864.845 7 102588023.06107      1555.058 7        45.606
C02        57.000                                                                                                                                    41113336.378 5                      -495.588 5        30.189    41113342.399 6 165546197.91906      -383.386 6        36.083    41113342.412 5 173963823.60805      -403.108 5        30.483
I03        58.000    93160186.209 5 289795073.96305       918.080 5        33.527
C21        59.000                                                                                                                                    23613269.801 8 122960415.44108     -2355.784 8        48.884                                                                    23613268.003 8  99915369.94208     -1914.192 8        48.345
C22        60.000                                                                                                                                    25705700.058 7 133856141.68707     -3995.666 7        42.436                                                                    25705702.285 7 108769017.81407     -3246.767 7        43.517
> 2025 01 02 10 46 45.0000000  0 55
E24         1.000    24027626.251 8 126266153.94008       588.637 8        48.941                                                                    24027628.288 8  94289730.99108       439.571 8        50.665    24027627.494 8  96749451.71008       451.026 8        51.147
G15         2.000    21213078.695 8 111475412.64308     -2948.038 8        48.575                                    21213078.138 7  86863929.23407     -2297.169 7        47.657    21213078.487 7  86863924.23207     -2297.249 7        44.141
E03         3.000    27096487.148 6 142392976.68006      2144.574 6        39.513                                                                    27096495.060 7 106332422.63707      1601.557 7        43.532    27096493.789 7 109106313.73207      1643.278 7        44.098
G19         4.000    21790638.499 7 114510748.80707      1223.322 7        47.668                                    21790636.200 6  89229189.59706       953.238 6        37.664
S21         5.000    38574083.305 7 202707792.76007      -495.281 7        42.629
E05         6.000    22410900.510 8 117770035.56708       -44.883 8        48.222                                                                    22410904.245 8  87945130.28408       -33.546 8        50.680    22410903.666 8  90239350.63908       -34.386 8        51.557
E13         7.000    28996325.930 5 152376702.77405     -1620.378 5        34.443                                                                    28996340.478 6 113787843.87406     -1210.057 6        39.345    28996338.545 6 116756214.65906     -1241.609 6        39.477
R02         8.000    24213431.029 5 129207209.11405     -5177.603 5        31.834
R05         9.000    23503943.926 7 125642053.49207      3463.568 7        44.391                                                                    23503952.146 6  97721636.77506      2694.062 6        40.875
G24        10.000    20618123.076 8 108348975.01608      1016.079 8        49.107                                    20618124.421 8  84427788.63008       791.746 8        50.890    20618124.955 7  84427793.63707       791.746 7        45.890
C14        11.000                                                                                                                                    25960322.653 6 135182205.97806      1807.846 6        39.336    25960325.968 7 104531480.86807      1398.077 7        45.187    25960322.640 7 109846624.69107      1468.983 7        42.474
S27        12.000    39318655.700 6 206620810.47306      -526.243 6        37.153
G13        13.000    22361461.929 7 117510188.53207     -3868.519 7        45.934                                    22361462.992 5  91566336.84005     -3014.427 5        31.691
S36        14.000    38344467.946 7 201501972.26007      -496.111 7        44.661
G02        15.000    25896122.307 6 136085042.84106     -1161.519 6        37.686                                    25896128.998 3 106040320.07603      -905.088 3        18.925
E09        16.000    25011067.086 7 131433992.83107     -2828.454 7        47.356                                                                    25011071.696 8  98148738.58908     -2112.179 8        48.948    25011070.790 8 100709139.18908     -2167.271 8        49.383
G12        17.000    22832114.963 7 119983710.95407      2722.674 7        45.416                                    22832116.253 7  93493873.26907      2121.557 7        42.281    22832116.700 6  93493870.27606      2121.521 6        40.660
R21        18.000    24286508.264 7 129962005.89407     -3292.395 7        42.449                                                                    24286517.410 6 101081599.31806     -2560.732 6        40.250
R22        19.000    22505736.119 7 120137217.16307       109.457 7        46.296                                                                    22505742.311 7  93440052.52007        85.053 7        43.338
R03        21.000    20535013.625 8 109925469.44708     -3472.094 8        51.298                                                                    20535016.045 7  85497570.43807     -2700.557 7        47.057
I06        22.000    38393084.628 7 150662824.90207      -477.961 7        42.021
S28        23.000    41029174.357 5 215609596.00905      -506.243 5        35.171
S23        25.000    38278521.360 7 201154836.34307      -498.380 7        45.046
S45        26.000    63528903.888 6 333848085.53306      -550.181 6        36.499
C07        27.000                                                                                                                                    39234105.704 6 204302222.67406     -1085.418 6        39.634    39234107.326 7 157979415.50907      -839.335 7        44.361    39234104.275 6 166012260.49206      -882.173 6        40.872
R04        28.000    20277973.975 8 108587616.86808       556.330 8        51.562                                                                    20277975.218 7  84457012.77307       432.619 7        47.197
C40        29.000                                                                                                                                    39401185.647 7 205172256.88007     -1319.698 7        42.028                                                                    39401189.445 7 166719257.36607     -1072.373 7        42.068
G17        30.000    22234779.459 7 116844677.59507     -1338.603 7        46.165                                    22234779.958 7  91047859.80707     -1043.068 7        43.949    22234780.363 7  91047856.80807     -1043.126 7        42.377
G14        31.000    23566784.366 6 123844193.62906     -3674.264 6        41.979                                    23566789.040 4  96501944.04004     -2863.055 4        26.910    23566789.839 6  96501930.02106     -2863.076 6        41.309
G23        32.000    23661324.662 6 124340986.72206     -2191.688 6        41.812                                    23661328.193 4  96889039.76704     -1707.811 4        27.042    23661328.248 6  96889034.76706     -1707.727 6        40.751
I02        33.000    37064149.593 7 145447681.56207      -262.353 7        43.568
R13        35.000    19915489.150 7 106347621.87307     -2088.323 7        47.121
R12        36.000    22997563.858 7 122848733.78507     -3896.413 7        44.205                                                                    22997573.020 6  95548987.66306     -3030.569 6        41.421
C42        37.000                                                                                                                                    24366440.119 7 126882444.41807       562.011 7        45.777                                                                    24366452.017 7 103102423.57507       456.639 7        46.135
C10        38.000                                                                                                                                    38669823.436 7 201363893.06807      -723.746 7        42.191    38669825.500 7 155707330.30207      -559.679 7        45.327    38669822.319 6 163624641.73806      -588.336 6        41.471
E25        39.000    27274283.286 6 143327419.92406      2224.813 6        40.291                                                                    27274293.623 7 107030310.31607      1661.402 7        42.171    27274292.067 7 109822393.80007      1704.640 7        42.398
C30        40.000                                                                                                                                    24659320.184 7 128407590.84007      -244.944 7        44.376                                                                    24659325.932 7 104341727.05807      -199.041 7        43.464
R23        41.000    22953449.578 7 122785530.27907      2920.622 7        42.400
S44        42.000    40992706.705 6 215418160.31006      -453.540 6        38.072
C36        43.000                                                                                                                                    23760388.555 7 123726500.34507     -2817.311 7        46.531                                                                    23760397.499 7 100537919.87107     -2289.279 7        46.901
C05        44.000                                                                                                                                    39568173.185 6 206041753.93306      -528.655 6        38.580    39568177.283 7 159324541.01107      -408.778 7        42.718    39568176.657 6 167425876.14106      -429.663 6        39.087
R14        45.000    20706444.003 8 110377099.25908      1662.696 8        51.687                                                                    20706448.432 7  85848934.81807      1293.186 7        47.650
E26        46.000    28451226.582 6 149512225.15206       562.933 6        36.352                                                                    28451238.686 6 111648801.67206       420.114 6        39.486    28451237.243 6 114561368.96906       431.206 6        40.532
G10        47.000    24554848.208 6 129036545.05806       222.236 6        40.200                                    24554853.936 5 100547953.16405       173.169 5        35.405    24554853.928 6 100547954.15706       173.115 6        38.892
C45        50.000                                                                                                                                    21737351.220 8 113192116.28008      -584.900 8        50.883                                                                    21737345.664 8  91977854.41708      -475.348 8        49.990
S48        51.000    77282490.614 6 406120766.06206      -492.212 6        37.735
E06        52.000    26548785.316 6 139514698.77406     -3478.037 6        41.580                                                                    26548794.531 7 104183026.16907     -2597.306 7        44.832    26548793.095 7 106900846.72107     -2665.047 7        45.150
E33        53.000    28914528.907 4 151946900.71804      2049.000 4        29.886                                                                    28914543.579 5 113466893.04805      1530.198 5        35.214    28914541.536 6 116426890.24906      1570.162 6        36.284
C60        54.000                                                                                                                                    40992709.856 6 213459831.29906      -449.539 6        40.136                                                                    40992702.954 6 173453531.92806      -365.166 6        39.580
E31        55.000    24266587.813 7 127521764.29607     -2073.690 7        46.779                                                                    24266592.493 8  95227317.88308     -1548.443 8        49.418    24266591.743 8  97711505.57008     -1588.880 8        50.210
C26        56.000                                                                                                                                    24243024.645 7 126239844.72907      1912.736 7        45.868                                                                    24243027.836 7 102580250.04807      1554.121 7        45.831
C02        57.000                                                                                                                                    41113812.834 5                      -496.230 5        30.279    41113818.667 5 165548115.47005      -383.472 5        35.943    41113818.510 5 173965838.61305      -402.641 5        30.574
I03        58.000    93159016.832 5 289790485.56905       917.937 5        33.844
C21        59.000                                                                                                                                    23615532.995 8 122972201.10708     -2358.344 8        48.540                                                                    23615531.281 8  99924946.73208     -1916.368 8        48.391
C22        60.000                                                                                                                                    25709536.815 7 133876121.36507     -3996.003 7        42.091                                                                    25709539.173 7 108785252.86607     -3247.112 7        43.556
> 2025 01 02 10 46 50.0000000  0 55
E24         1.000    24027067.031 8 126263215.01408       586.957 8        49.196                                                                    24027069.011 8  94287536.33708       438.325 8        50.546    24027068.218 8  96747199.80308       449.723 8        51.168
G15         2.000    21215884.736 8 111490159.65808     -2950.813 8        48.199                                    21215884.421 7  86875420.39707     -2299.331 7        47.631    21215885.189 7  86875415.38707     -2299.312 7        44.209
E03         3.000    27094447.136 6 142382255.91306      2143.672 6        39.411                                                                    27094454.941 7 106324416.87407      1600.773 7        43.484    27094453.714 7 109098099.12107      1642.622 7        44.006
G19         4.000    21789475.763 7 114504639.22807      1220.491 7        47.737                                    21789473.582 6  89224428.88806       951.031 6        37.614
S21         5.000    38574555.433 7 202710268.90807      -495.144 7        42.466
E05         6.000    22410944.171 8 117770265.51408       -47.061 8        48.147                                                                    22410947.988 8  87945301.98208       -35.129 8        50.572    22410947.421 8  90239526.82308       -36.093 8        51.492
E13         7.000    28997869.189 5 152384810.54105     -1622.693 5        33.754                                                                    28997883.332 6 113793898.32306     -1211.630 6        38.471    28997881.346 6 116762427.07606     -1243.294 6        38.526
R02         8.000    24218284.722 5 129233096.92105     -5177.255 5        30.838                                                                    24218308.679 3                     -4023.090 3        20.143
R05         9.000    23500704.098 7 125624740.21307      3461.721 7        42.288                                                                    23500712.398 6  97708170.96406      2692.446 6        41.278
G24        10.000    20617157.268 8 108343900.17408      1013.884 8        49.109                                    20617158.702 8  84423834.21008       790.038 8        50.892    20617159.185 7  84423839.21207       790.075 7        46.001
C14        11.000                                                                                                                                    25958587.849 6 135173171.45406      1805.896 6        38.715    25958591.042 7 104524494.79907      1396.495 7        45.117    25958587.816 7 109839283.42507      1467.435 7        42.658
S27        12.000    39319161.056 6 206623441.32306      -526.052 6        36.987
G13        13.000    22365143.545 7 117529534.91607     -3870.016 7        46.194                                    22365144.470 5  91581411.91405     -3015.597 5        31.585
S36        14.000    38344940.239 7 201504453.20407      -496.189 7        44.650
G02        15.000    25897228.613 6 136090856.59606     -1164.173 6        37.444                                    25897235.210 3 106044850.27303      -907.138 3        19.045
E09        16.000    25013759.150 7 131448139.03207     -2829.977 7        47.583                                                                    25013763.642 8  98159302.29608     -2113.312 8        48.827    25013762.793 8 100719978.48008     -2168.444 8        49.364
G12        17.000    22829525.238 7 119970100.88707      2721.266 7        45.324                                    22829526.272 7  93483268.04907      2120.461 7        42.286    22829526.917 6  93483265.07006      2120.515 6        41.170
R21        18.000    24289585.301 7 129978475.38207     -3295.459 7        42.047                                                                    24289595.315 6 101094408.88606     -2563.089 6        40.167
R22        19.000    22505635.551 7 120136680.33107       105.227 7        46.509                                                                    22505641.620 7  93439634.99807        81.887 7        43.719
R03        21.000    20538258.666 8 109942838.60608     -3475.558 8        51.521                                                                    20538260.613 7  85511079.77407     -2703.255 7        46.342
I06        22.000    38393693.169 6 150665214.59706      -477.787 6        41.859
S28        23.000    41029654.936 5 215612126.10305      -506.045 5        35.010
S23        25.000    38278993.912 7 201157328.25007      -498.346 7        44.831
S45        26.000    63529377.992 6 333849237.25916      -550.262 6        36.473
C07        27.000                                                                                                                                    39235148.488 6 204307651.34306     -1086.076 6        39.577    39235149.715 7 157983613.29307      -839.709 7        44.318    39235146.776 6 166016671.73206      -882.332 6        40.861
R04        28.000    20277456.035 8 108584846.79508       551.725 8        51.006                                                                    20277457.830 7  84454858.27007       429.111 7        47.204
C40        29.000                                                                                                                                    39402453.544 7 205178856.91207     -1320.328 7        42.118                                                                    39402456.883 7 166724620.44807     -1072.870 7        42.028
G17        30.000    22236054.934 7 116851378.53907     -1341.683 7        46.353                                    22236055.108 7  91053081.31107     -1045.468 7        43.962    22236055.636 7  91053078.31307     -1045.528 7        42.461
G14        31.000    23570281.117 7 123862566.82407     -3675.025 7        42.021                                    23570285.397 4  96516260.76604     -2863.649 4        27.030    23570285.766 6  96516246.73206     -2863.520 6        41.249
G23        32.000    23663411.103 6 124351951.48206     -2194.309 6        41.714                                    23663414.836 4  96897583.71504     -1709.848 4        27.054    23663415.161 6  96897578.71406     -1709.794 6        41.318
I02        33.000    37064484.382 7 145448993.74407      -262.536 7        43.496
R13        35.000    19917445.202 7 106358068.35007     -2090.267 7        46.668
R12        36.000    23001211.514 7 122868216.10607     -3896.566 7        44.727                                                                    23001220.739 6  95564140.51406     -3030.662 6        41.986
C42        37.000                                                                                                                                    24365902.028 7 126879641.20307       559.217 7        45.917                                                                    24365913.690 7 103100145.75607       454.416 7        46.120
C10        38.000                                                                                                                                    38670519.176 7 201367513.63307      -724.436 7        42.214    38670520.657 7 155710129.92207      -560.101 7        45.375    38670517.574 6 163627583.73206      -588.607 6        41.511
E25        39.000    27272166.910 6 143316297.97706      2224.010 6        40.782                                                                    27272177.260 7 107022004.96407      1660.768 7        42.110    27272175.711 7 109813871.78907      1704.135 7        42.464
C30        40.000                                                                                                                                    24659557.332 7 128408822.32907      -247.662 7        44.662                                                                    24659562.373 7 104342727.75007      -201.173 7        43.374
R23        41.000    22950722.258 7 122770933.21907      2918.366 7        42.991
S44        42.000    40993141.995 6 215420427.97106      -453.444 6        38.078
C36        43.000                                                                                                                                    23763093.990 7 123740588.53807     -2818.011 7        46.478                                                                    23763102.995 7 100549367.67907     -2289.861 7        46.871
C05        44.000                                                                                                                                    39568680.629 6 206044397.22406      -528.491 6        38.339    39568684.781 7 159326585.00007      -408.866 7        42.696    39568684.231 6 167428024.07806      -429.700 6        39.108
R14        45.000    20704885.687 8 110368790.70608      1660.728 8        51.744                                                                    20704889.259 7  85842472.62707      1291.643 7        47.264
E26        46.000    28450692.041 6 149509417.20806       560.544 6        36.654                                                                    28450704.428 6 111646704.80906       418.615 6        39.363    28450702.819 6 114559217.41406       429.549 6        40.515
G10        47.000    24554639.280 6 129035442.31506       218.966 6        40.787                                    24554644.186 5 100547093.88005       170.621 5        35.333    24554644.417 6 100547094.88706       170.687 6        39.294
C45        50.000                                                                                                                                    21737913.717 8 113195044.60308      -586.435 8        50.928                                                                    21737907.988 8  91980233.93408      -476.501 8        49.957
S48        51.000    77282961.074 6 406123226.93906      -492.146 6        37.879
E06        52.000    26552094.792 6 139532091.10606     -3478.822 6        41.378                                                                    26552104.191 7 104196013.89607     -2597.845 7        44.664    26552103.003 7 106914173.26607     -2665.611 7        45.055
E33        53.000    28912579.363 5 151936655.63905      2048.836 5        30.838                                                                    28912594.015 5 113459242.51105      1530.017 5        35.795    28912592.057 6 116419040.11506      1569.963 6        36.397
C60        54.000                                                                                                                                    40993141.283 6 213462078.34706      -449.313 6        40.129                                                                    40993134.394 6 173455357.89706      -365.263 6        39.562
E31        55.000    24268561.759 7 127532135.77607     -2074.938 7        46.995                                                                    24268566.175 8  95235062.80408     -1549.455 8        49.390    24268565.386 8  97719452.53408     -1589.902 8        50.225
C26        56.000                                                                                                                                    24241188.050 7 126230282.85607      1911.915 7        45.521                                                                    24241191.549 7 102572480.26607      1553.686 7        45.828
C02        57.000                                                                                                                                    41114287.438 5                      -496.083 5        30.181    41114294.908 5 165550032.85005      -383.563 5        35.933    41114295.145 5 173967853.50205      -403.034 5        30.053
I03        58.000    93157847.835 5 289785896.90005       917.634 5        33.365
C21        59.000                                                                                                                                    23617798.702 8 122983998.79308     -2360.738 8        48.553                                                                    23617796.906 8  99934533.32308     -1918.292 8        48.539
C22        60.000                                                                                                                                    25713373.672 6 133896101.99406     -3996.228 6        41.962                                                                    25713376.277 7 108801488.73907     -3247.272 7        43.395
