     3.04           OBSERVATION DATA    M                   RINEX VERSION / TYPE
ssrcrin-15.6.1x                         20250102 050000 UTC PGM / RUN BY / DATE 
(00000000023479385599111004) Septentrio proprietary         COMMENT             
rref                                                        MARKER NAME         
01                                                          MARKER NUMBER       
geodetic                                                    MARKER TYPE         
NFB                 CLIMERS@TUW                             OBSERVER / AGENCY   
3297213             SEPT ASTERX SB3 PROB4.14.4              REC # / TYPE / VERS 
Unknown             Unknown                                 ANT # / TYPE        
  4127831.6557  1207193.1369  4695247.4209                  APPROX POSITION XYZ 
        0.0000        0.0000        0.0000                  ANTENNA: DELTA H/E/N
G   23 X1  C1C L1C D1C S1C C1W S1W C2W L2W D2W S2W C2L L2L  SYS / # / OBS TYPES 
       D2L S2L C5Q L5Q D5Q S5Q C1L L1L D1L S1L              SYS / # / OBS TYPES 
E   21 X1  C1C L1C D1C S1C C6C L6C D6C S6C C5Q L5Q D5Q S5Q  SYS / # / OBS TYPES 
       C7Q L7Q D7Q S7Q C8Q L8Q D8Q S8Q                      SYS / # / OBS TYPES 
S    9 X1  C1C L1C D1C S1C C5I L5I D5I S5I                  SYS / # / OBS TYPES 
R   17 X1  C1C L1C D1C S1C C2P L2P D2P S2P C2C L2C D2C S2C  SYS / # / OBS TYPES 
       C3Q L3Q D3Q S3Q                                      SYS / # / OBS TYPES 
C   25 X1  C1P L1P D1P S1P C5P L5P D5P S5P C2I L2I D2I S2I  SYS / # / OBS TYPES 
       C7I L7I D7I S7I C6I L6I D6I S6I C7D L7D D7D S7D      SYS / # / OBS TYPES 
J   17 X1  C1C L1C D1C S1C C2L L2L D2L S2L C5Q L5Q D5Q S5Q  SYS / # / OBS TYPES 
       C1L L1L D1L S1L                                      SYS / # / OBS TYPES 
I    5 X1  C5A L5A D5A S5A                                  SYS / # / OBS TYPES 
SEPTENTRIO RECEIVERS OUTPUT ALIGNED CARRIER PHASES.         COMMENT             
NO FURTHER PHASE SHIFT APPLIED IN THE RINEX ENCODER.        COMMENT             
G L1C                                                       SYS / PHASE SHIFT   
G L2W                                                       SYS / PHASE SHIFT   
G L2L  0.00000                                              SYS / PHASE SHIFT   
G L5Q  0.00000                                              SYS / PHASE SHIFT   
G L1L  0.00000                                              SYS / PHASE SHIFT   
E L1C  0.00000                                              SYS / PHASE SHIFT   
E L6C  0.00000                                              SYS / PHASE SHIFT   
E L5Q  0.00000                                              SYS / PHASE SHIFT   
E L7Q  0.00000                                              SYS / PHASE SHIFT   
E L8Q  0.00000                                              SYS / PHASE SHIFT   
S L1C                                                       SYS / PHASE SHIFT   
S L5I                                                       SYS / PHASE SHIFT   
R L1C                                                       SYS / PHASE SHIFT   
R L2P  0.00000                                              SYS / PHASE SHIFT   
R L2C                                                       SYS / PHASE SHIFT   
R L3Q  0.00000                                              SYS / PHASE SHIFT   
C L1P  0.00000                                              SYS / PHASE SHIFT   
C L5P  0.00000                                              SYS / PHASE SHIFT   
C L2I                                                       SYS / PHASE SHIFT   
C L7I                                                       SYS / PHASE SHIFT   
C L6I                                                       SYS / PHASE SHIFT   
C L7D                                                       SYS / PHASE SHIFT   
J L1C                                                       SYS / PHASE SHIFT   
J L2L  0.00000                                              SYS / PHASE SHIFT   
J L5Q  0.00000                                              SYS / PHASE SHIFT   
J L1L  0.00000                                              SYS / PHASE SHIFT   
I L5A                                                       SYS / PHASE SHIFT   
  2025     1     2     5     0    0.0000000     GPS         TIME OF FIRST OBS   
 C1C    0.000 C2C    0.000 C2P    0.000                     GLONASS COD/PHS/BIS 
DBHZ                                                        SIGNAL STRENGTH UNIT
    18                                                      LEAP SECONDS        
 24 R01  1 R02 -4 R03  5 R04  6 R05  1 R06 -4 R07  5 R08  6 GLONASS SLOT / FRQ #
    R09 -2 R10 -7 R11  0 R12 -1 R13 -2 R14 -7 R15  0 R16 -1 GLONASS SLOT / FRQ #
    R17  4 R18 -3 R19  3 R20  2 R21  4 R22 -3 R23  3 R24  2 GLONASS SLOT / FRQ #
                                                            END OF HEADER       
> 2025 01 02 05 00  0.0000000  0 56
G09         1.000    20551402.907 8 107998386.40008     -2032.446 8        48.437                                    20551400.060 8  84154593.02008     -1583.725 8        51.351    20551400.342 7  84154593.01807     -1583.765 7        46.238
G06         2.000    22374232.491 7 117577403.59107     -3162.075 7        45.290                                    22374230.701 7  91618760.64407     -2463.958 7        44.122    22374231.158 7  91618768.65307     -2464.028 7        42.857
E11         3.000    24644562.246 7 129508069.93007     -1131.723 7        43.219                                                                    24644557.609 7  96710563.40707      -845.095 7        45.041    24644557.367 7  99233443.71507      -867.133 7        45.144
G16         4.000    23547547.594 6 123743214.09406     -1137.632 6        40.684                                    23547542.627 3  96423267.43803      -886.466 3        22.838
S21         5.000    38424038.976 7 201919386.62807      -488.067 7        42.432
E10         6.000    25057330.241 7 131677168.95507     -2607.156 7        46.577                                                                    25057329.052 8  98330350.15708     -1946.920 8        49.128    25057328.926 8 100895489.20008     -1997.739 8        49.368
G20         7.000    22051881.563 7 115883430.75507      2198.242 7        45.824                                    22051876.161 5  90298758.77605      1712.913 5        32.742
R10         9.000    20203072.185 7 107693747.55307       262.843 7        45.091
R17        10.000    22659167.605 7 121253788.33507      1422.812 7        45.959                                                                    22659165.895 7  94308496.00307      1106.404 7        42.241
G30        11.000    22410923.055 7 117770205.96907      2493.779 7        46.016                                    22410920.684 7  91768983.99307      1943.204 7        44.309    22410921.429 6  91768991.98906      1943.209 6        41.757
S27        12.000    39060296.478 6 205263225.04706      -501.546 6        36.673
G26        13.000    25335380.699 5 133138329.07905     -3108.444 5        32.772                                    25335379.883 3 103744159.36803     -2422.160 3        21.810    25335379.751 5 103744159.39505     -2422.655 5        33.162
S36        14.000    38191870.880 7 200700157.64107      -488.633 7        45.019
I09        15.000    38106777.162 7 149539173.86607      -804.510 7        42.914
E09        16.000    27650193.053 6 145302764.78506      1920.257 6        39.279                                                                    27650191.636 6 108505310.47606      1434.070 6        40.803    27650191.535 6 111335880.03406      1471.343 6        41.409
S45        17.000    63377514.213 6 333051813.56606      -529.173 6        37.293
E36        18.000    26838975.576 6 141039764.33806      1451.447 6        40.856                                                                    26838975.233 7 105321922.40307      1083.802 7        44.108    26838974.943 7 108069449.03207      1112.099 7        44.382
E12        19.000    26304096.339 6 138228963.33106     -3452.458 6        40.281                                                                    26304092.320 7 103222914.96007     -2578.335 7        42.675    26304092.604 7 105915686.20107     -2645.458 7        43.399
E21        20.000    26393701.153 7 138699834.24007      1217.138 7        42.713                                                                    26393700.804 7 103574567.28507       909.021 7        45.481    26393700.096 7 106276508.76907       932.738 7        45.720
G11        21.000    22108611.335 7 116181555.11107      -826.115 7        45.973                                    22108606.757 5  90531064.77705      -643.726 5        35.105    22108607.084 7  90531077.77707      -643.717 7        45.398
I06        22.000    37947545.221 7 148914558.82107      -348.859 7        43.496
S28        23.000    40853041.120 5 214684179.12405      -487.774 5        35.171
R08        24.000    19705822.902 8 105523828.64008     -1385.570 8        50.352                                                                    19705820.104 7  82074093.79507     -1077.683 7        47.314
S23        25.000    38130583.393 7 200377559.43307      -484.395 7        44.879
R01        26.000    20786500.703 7 111115765.99907      2021.615 7        47.580                                                                    20786500.674 6  86423366.85306      1572.339 6        40.100
C44        27.000                                                                                                                                    25660336.579 6 133620108.63406      -464.812 6        41.044                                                                    25660334.617 6 108577278.58206      -377.643 6        40.694
R24        29.000    21632493.890 8 115678676.48208     -2341.894 8        48.625                                                                    21632492.115 7  89972292.64707     -1821.448 7        43.549
E19        30.000    23872577.016 7 125451272.97407     -2000.387 7        43.035                                                                    23872574.535 7  93681148.15707     -1493.848 7        44.877    23872574.282 7  96125000.90107     -1532.757 7        45.300
C23        31.000                                                                                                                                    26151164.689 6 136175986.88006     -3204.448 6        41.232                                                                    26151156.251 6 110654111.10906     -2603.936 6        40.405
R23        32.000    23672521.810 7 126632023.02207     -4856.430 7        42.082
E29        33.000    27899004.668 6 146610326.03806     -2971.909 6        37.149                                                                    27899003.760 6 109481747.00606     -2219.297 6        40.698    27899003.510 6 112337787.64906     -2277.216 6        41.383
E04        34.000    23808688.791 8 125115542.45608       589.337 8        48.076                                                                    23808686.491 8  93430449.42108       440.085 8        50.882    23808686.385 8  95867760.91508       451.554 8        51.535
C16        35.000                                                                                                                                    40246719.240 6 209575260.25006     -1523.228 6        39.568    40246718.369 6 162056897.27106     -1178.018 6        39.399    40246716.591 6 170297066.05806     -1237.765 6        36.015
C32        36.000                                                                                                                                    26300385.595 6 136953044.51406     -3325.831 6        41.538                                                                    26300386.434 7 111285583.69307     -2702.671 7        42.078
I01        37.000   384537267.697 7 205866018.85707     -2924.694 7        43.374
E27        38.000    27405367.546 6 144016182.34806     -1263.732 6        39.498                                                                    27405367.200 7 107544563.47907      -943.675 7        42.099    27405366.690 7 110350070.09207      -968.363 7        42.698
C19        39.000                                                                                                                                    22459874.760 8 116954468.65708       984.772 8        50.372                                                                    22459869.741 8  95035064.27408       800.134 8        49.873
C39        40.000                                                                                                                                    41172168.340 6 214394297.30006     -1660.013 6        38.673                                                                    41172163.894 6 174212921.49806     -1348.852 6        38.195
G05        41.000    24991987.192 6 131333783.96706      3196.438 6        39.949                                    24991982.039 5 102337994.13505      2490.726 5        30.204    24991983.514 5 102338003.15105      2490.719 5        34.890
S44        42.000    40782992.571 6 214316263.82806      -552.494 6        36.760
G29        43.000    25681961.006 6 134959609.55906      -744.727 6        37.410                                    25681956.863 4 105163318.02704      -580.312 4        28.626    25681957.331 5 105163317.06405      -580.581 5        35.362
C05        44.000                                                                                                                                    39188325.622 6 204063936.73206      -537.990 6        38.814    39188320.651 7 157795205.82207      -415.988 7        43.852    39188322.355 6 165818768.55006      -437.173 6        39.928
C29        45.000                                                                                                                                    26969888.186 5 140439294.65805     -3432.178 5        35.638                                                                    26969885.498 5 114118426.53005     -2789.260 5        33.748
G04        46.000    22444988.306 7 117949240.93107     -3195.010 7        44.009                                    22444984.617 5  91908485.33105     -2489.616 5        31.072    22444984.109 7  91908487.32407     -2489.556 7        42.914
R11        47.000    21917621.425 7 117121105.26207      3646.064 7        46.816                                                                    21917619.797 7  91094196.57107      2835.856 7        44.498
C20        49.000                                                                                                                                    22253238.908 8 115878481.50508     -1631.042 8        52.319                                                                    22253232.694 8  94160742.63708     -1325.382 8        49.762
C06        50.000                                                                                                                                    39672761.409 6 206586509.97906     -1537.033 6        38.315    39672754.911 6 159745777.29206     -1188.587 6        41.700    39672755.416 6 167868442.37506     -1249.029 6        38.261
S48        51.000    77158480.644 6 405469078.85006      -472.827 6        38.099
E06        52.000    25377949.760 7 133362053.35907      1505.423 7        44.433                                                                    25377948.981 7  99588558.56007      1124.160 7        46.667    25377949.001 7 102186518.73807      1153.449 7        47.680
C09        53.000                                                                                                                                    39094823.386 6 203577025.20906     -1218.612 6        40.176    39094818.749 7 157418660.54607      -942.314 7        44.760    39094817.449 6 165422988.71106      -990.294 6        41.044
C60        54.000                                                                                                                                    40782994.716 6 212367953.56906      -547.545 6        40.412                                                                    40782978.280 6 172566327.24406      -444.844 6        39.378
R09        55.000    21782449.484 7 116317090.00307     -3119.940 7        46.782                                                                    21782447.359 7  90468842.70807     -2426.674 7        45.087
G07        56.000    20910026.477 8 109882951.10008       437.433 8        49.344                                    20910021.347 8  85623062.65508       340.859 8        49.323    20910021.757 7  85623071.65507       340.862 7        45.300
C02        57.000                                                                                                                                    40741566.573 5 212152075.95205      -566.852 5        34.829    40741561.066 6 164049435.68806      -438.212 6        39.306    40741564.276 5 172390942.45805      -460.702 5        35.595
I03        58.000    99522589.990 6 314762775.85106       840.333 6        40.868
R07        59.000    22662109.763 7 121312102.53007     -3585.334 7        45.096                                                                    22662109.644 6  94353908.76006     -2788.618 6        41.442
> 2025 01 02 05 00  5.0000000  0 56
G09         1.000    20553337.544 8 108008553.41808     -2034.150 8        48.426                                    20553334.780 8  84162515.37008     -1585.051 8        51.388    20553334.984 7  84162515.36807     -1584.982 7        46.380
G06         2.000    22377242.049 7 117593219.73407     -3164.165 7        44.662                                    22377240.371 7  91631084.91107     -2465.584 7        44.166    22377241.248 7  91631092.90507     -2465.485 7        43.771
E11         3.000    24645640.151 7 129513734.63507     -1134.010 7        43.026                                                                    24645635.490 7  96714793.54207      -846.903 7        44.972    24645635.360 7  99237784.20107      -868.997 7        45.375
G16         4.000    23548631.983 6 123748910.86306     -1141.045 6        40.732                                    23548626.982 3  96427706.48003      -889.130 3        22.629
S21         5.000    38424501.794 7 201921826.66407      -487.913 7        42.870
E10         6.000    25059811.728 7 131690209.52907     -2608.955 7        46.553                                                                    25059810.598 8  98340088.25008     -1948.230 8        49.050    25059810.421 8 100905481.33308     -1999.042 8        49.546
G20         7.000    22049790.635 7 115872443.74107      2196.604 7        45.329                                    22049785.423 5  90290197.46605      1711.641 5        32.719
R10         9.000    20202828.049 7 107692445.12807       258.245 7        44.649
R17        10.000    22657840.701 7 121246684.31107      1418.985 7        46.701                                                                    22657838.177 7  94302970.63407      1103.791 7        42.366
G30        11.000    22408550.899 7 117757741.10307      2492.324 7        45.862                                    22408548.680 7  91759271.10807      1942.069 7        44.385    22408549.589 7  91759279.11707      1942.123 7        42.483
S27        12.000    39060772.590 6 205265732.71106      -501.469 6        36.688
G26        13.000    25338339.044 5 133153878.11805     -3110.816 5        33.168                                    25338338.711 3 103756275.49703     -2424.014 3        21.762    25338338.442 5 103756275.50005     -2423.848 5        32.521
S36        14.000    38192335.074 7 200702600.33107      -488.081 7        45.266
I09        15.000    38107802.283 7 149543196.65007      -804.530 7        42.796
E09        16.000    27648365.897 6 145293164.14806      1920.111 6        39.339                                                                    27648364.792 6 108498141.18706      1433.821 6        40.653    27648364.559 6 111328523.70106      1471.331 6        41.583
S45        17.000    63377974.329 6 333054460.23606      -529.374 6        37.486
E36        18.000    26837594.823 6 141032512.08406      1449.744 6        40.994                                                                    26837595.261 7 105316506.75707      1082.537 7        44.072    26837595.008 7 108063892.10707      1110.794 7        44.491
E12        19.000    26307381.902 6 138246228.65106     -3453.531 6        40.555                                                                    26307377.712 7 103235807.87107     -2578.876 7        42.440    26307378.070 7 105928915.46007     -2646.146 7        43.805
E21        20.000    26392543.798 7 138693752.88207      1215.474 7        42.514                                                                    26392543.461 7 103570026.01107       907.656 7        45.517    26392542.967 7 106271849.03207       931.348 7        45.940
G11        21.000    22109398.840 7 116185694.20707      -829.402 7        46.152                                    22109394.385 5  90534290.04505      -646.291 5        35.076    22109394.331 7  90534303.04407      -646.235 7        45.213
I06        22.000    37947989.587 7 148916302.96807      -348.735 7        43.435
S28        23.000    40853503.163 5 214686618.47905      -487.635 5        35.305
R08        24.000    19707116.812 8 105530761.82708     -1387.520 8        49.993                                                                    19707114.671 7  82079486.27907     -1079.177 7        47.308
S23        25.000    38131045.325 7 200379981.63407      -484.309 7        45.061
R01        26.000    20784610.579 7 111105661.06407      2020.434 7        47.071                                                                    20784609.260 6  86415507.47506      1571.380 6        40.572
C44        27.000                                                                                                                                    25660783.851 6 133622439.44906      -467.405 6        40.739                                                                    25660782.256 6 108579172.55106      -379.715 6        40.756
R24        29.000    21634685.727 8 115690395.79608     -2345.724 8        49.048                                                                    21634684.285 7  89981407.65907     -1824.386 7        43.818
E19        30.000    23874480.644 7 125461277.10807     -2001.131 7        42.923                                                                    23874478.189 7  93688618.77707     -1494.339 7        44.907    23874477.981 7  96132666.41107     -1533.274 7        45.384
C23        31.000                                                                                                                                    26154242.566 6 136192012.90606     -3205.875 6        41.290                                                                    26154233.929 6 110667133.56506     -2605.061 6        40.749
R23        32.000    23677060.999 7 126656305.41407     -4856.404 7        42.548
E29        33.000    27901832.400 6 146625186.07106     -2971.789 6        37.074                                                                    27901831.578 6 109492843.77306     -2219.307 6        40.434    27901831.355 6 112349173.88506     -2277.101 6        41.344
E04        34.000    23808128.590 8 125112598.39708       588.484 8        48.259                                                                    23808126.243 8  93428250.94008       439.430 8        50.864    23808126.109 8  95865505.08208       450.915 8        51.752
C16        35.000                                                                                                                                    40248182.254 6 209582877.37406     -1523.179 6        39.763    40248181.496 6 162062787.31706     -1177.953 6        39.330    40248179.609 6 170303255.60806     -1237.902 6        36.291
C32        36.000                                                                                                                                    26303579.380 6 136969674.42406     -3326.083 6        41.421                                                                    26303580.050 6 111299096.82506     -2702.704 6        41.950
I01        37.000   384540994.057 7 205880642.70607     -2924.820 7        43.266
E27        38.000    27406571.323 6 144022506.51506     -1265.936 6        39.595                                                                    27406570.596 7 107549286.06407      -945.268 7        42.047    27406569.854 7 110354915.88007      -970.017 7        42.711
C19        39.000                                                                                                                                    22458930.007 8 116949548.25608       983.571 8        50.468                                                                    22458924.881 8  95031066.04108       799.297 8        49.910
C39        40.000                                                                                                                                    41173761.744 6 214402596.89806     -1659.558 6        38.982                                                                    41173757.599 6 174219665.62006     -1348.690 6        38.135
G05        41.000    24988946.439 6 131317803.84606      3196.130 6        38.766                                    24988941.112 5 102325542.09505      2490.489 5        30.060    24988941.853 5 102325551.07805      2490.580 5        35.157
S44        42.000    40783515.130 6 214319026.19006      -552.320 6        37.009
G29        43.000    25682671.068 6 134963341.03506      -747.516 6        36.862                                    25682666.894 4 105166225.67404      -582.477 4        28.493    25682667.757 5 105166224.66805      -582.536 5        35.367
C05        44.000                                                                                                                                    39188841.960 6 204066626.61006      -537.897 6        38.949    39188837.392 7 157797285.79907      -415.895 7        43.746    39188838.894 6 165820954.28406      -436.909 6        40.083
C29        45.000                                                                                                                                    26973183.400 5 140456453.59605     -3431.347 5        34.129                                                                    26973180.842 5 114132369.56705     -2788.004 5        32.234
G04        46.000    22448028.519 7 117965217.89107     -3195.654 7        44.158                                    22448024.828 5  91920934.91005     -2490.115 5        31.170    22448024.553 7  91920936.90607     -2490.196 7        42.851
R11        47.000    21914210.961 7 117102879.35907      3644.481 7        46.832                                                                    21914208.861 7  91080020.87907      2834.541 7        44.864
C20        49.000                                                                                                                                    22254805.812 8 115886640.73408     -1632.496 8        52.400                                                                    22254799.559 8  94167372.67308     -1326.460 8        49.881
C06        50.000                                                                                                                                    39674237.383 6 206594195.00706     -1537.062 6        38.228    39674231.111 6 159751719.83906     -1188.448 6        41.549    39674231.224 6 167874687.07806     -1248.748 6        38.492
S48        51.000    77158936.280 6 405471442.66506      -472.733 6        38.336
E06        52.000    25376517.357 7 133354528.12407      1504.814 7        44.086                                                                    25376516.945 7  99582939.05307      1123.759 7        46.684    25376516.992 7 102180752.64307      1153.064 7        47.903
C09        53.000                                                                                                                                    39095993.328 6 203583118.98406     -1218.792 6        40.229    39095989.181 7 157423372.63607      -942.397 7        44.590    39095987.688 6 165427940.38706      -990.168 6        41.111
C60        54.000                                                                                                                                    40783520.377 6 212370690.81606      -547.292 6        40.586                                                                    40783503.959 6 172568551.46706      -444.699 6        39.471
R09        55.000    21785371.828 7 116332698.73107     -3123.373 7        46.098                                                                    21785370.632 7  90480982.82807     -2429.257 7        45.541
G07        56.000    20909611.386 8 109880770.25408       435.048 8        49.048                                    20909606.349 8  85621363.29408       338.998 8        49.376    20909606.564 7  85621372.28907       339.006 7        45.595
C02        57.000                                                                                                                                    40742110.631 5 212154909.69905      -566.742 5        34.976    40742105.164 6 164051626.92306      -438.119 6        39.111    40742108.356 5 172393245.10005      -460.188 5        35.729
I03        58.000    99521519.127 6 314758574.01706       840.507 6        40.760
R07        59.000    22665459.335 7 121330031.64207     -3586.100 7        44.984                                                                    22665458.306 6  94367853.59906     -2789.065 6        41.182
> 2025 01 02 05 00 10.0000000  0 56
G09         1.000    20555273.915 8 108018729.15808     -2036.089 8        48.538                                    20555271.171 8  84170444.51508     -1586.562 8        51.452    20555271.208 7  84170444.51307     -1586.539 7        46.114
G06         2.000    22380253.986 7 117609046.98107     -3166.500 7        44.829                                    22380252.170 7  91643417.82807     -2467.402 7        44.224    22380252.999 7  91643425.82907     -2467.472 7        43.553
E11         3.000    24646720.605 7 129519412.20607     -1136.847 7        42.993                                                                    24646715.986 7  96719033.28307      -848.934 7        44.922    24646715.755 7  99242134.54307      -871.072 7        45.171
G16         4.000    23549719.500 6 123754625.49806     -1144.724 6        40.377                                    23549714.615 3  96432159.43703      -891.980 3        22.705
S21         5.000    38424967.285 7 201924266.91207      -488.093 7        42.842
E10         6.000    25062295.178 7 131703259.93107     -2611.100 7        46.389                                                                    25062294.018 8  98349833.67408     -1949.856 8        48.948    25062293.800 8 100915480.98508     -2000.710 8        49.381
G20         7.000    22047701.580 7 115861465.68007      2194.625 7        45.034                                    22047696.339 5  90281643.13205      1710.102 5        32.784
R10         9.000    20202587.744 7 107691166.09307       253.450 7        44.969
R17        10.000    22656516.870 7 121239600.46707      1414.701 7        46.638                                                                    22656514.808 7  94297460.99107      1100.342 7        42.226
G30        11.000    22406180.537 7 117745284.40907      2490.463 7        45.780                                    22406178.255 7  91749564.59207      1940.619 7        44.489    22406178.877 7  91749572.60107      1940.660 7        42.023
S27        12.000    39061254.461 6 205268240.99606      -501.649 6        36.851
G26        13.000    25341300.099 5 133169438.05005     -3113.024 5        32.850                                    25341299.511 3 103768400.11703     -2425.750 3        21.595    25341299.556 5 103768400.14005     -2425.651 5        32.048
S36        14.000    38192798.858 7 200705042.36107      -488.486 7        45.308
I09        15.000    38108827.087 7 149547220.19407      -804.794 7        42.516
E09        16.000    27646539.303 6 145283565.46006      1919.558 6        39.192                                                                    27646538.498 6 108490973.33706      1433.398 6        40.710    27646537.971 6 111321168.87706      1470.816 6        41.406
S45        17.000    63378435.117 6 333057107.31006      -529.554 6        37.611
E36        18.000    26836216.971 6 141025269.64406      1447.456 6        40.939                                                                    26836216.994 7 105311098.43607      1080.962 7        44.006    26836216.781 7 108058342.70907      1109.101 7        44.424
E12        19.000    26310668.458 6 138263499.29606     -3454.756 6        41.163                                                                    26310664.123 7 103248704.77707     -2579.736 7        42.419    26310664.582 7 105942148.80807     -2647.052 7        43.634
E21        20.000    26391388.240 7 138687681.26707      1213.266 7        42.248                                                                    26391388.028 7 103565492.02207       906.084 7        45.418    26391387.531 7 106267196.76307       929.724 7        45.833
G11        21.000    22110189.602 7 116189850.49607      -833.013 7        45.968                                    22110185.312 5  90537528.71405      -649.102 5        35.133    22110185.099 7  90537541.71207      -649.067 7        45.311
I06        22.000    37948434.210 7 148918047.48607      -348.979 7        43.215
S28        23.000    40853972.675 5 214689058.59405      -487.937 5        35.200
R08        24.000    19708413.900 8 105537705.59208     -1389.802 8        50.306                                                                    19708410.903 7  82084886.97507     -1080.897 7        46.671
S23        25.000    38131506.828 7 200382404.28207      -484.543 7        45.118
R01        26.000    20782721.380 7 111095562.45007      2019.017 7        47.309                                                                    20782720.144 6  86407652.98306      1570.376 6        40.496
C44        27.000                                                                                                                                    25661233.781 6 133624783.89206      -470.302 6        40.894                                                                    25661232.691 6 108581077.60506      -382.080 6        40.713
R24        29.000    21636880.717 8 115702134.87908     -2349.819 8        48.813                                                                    21636878.905 7  89990538.06307     -1827.612 7        44.107
E19        30.000    23876385.285 7 125471285.51207     -2002.189 7        42.889                                                                    23876382.702 7  93696092.57307     -1495.048 7        44.859    23876382.517 7  96140335.17907     -1534.038 7        45.258
C23        31.000                                                                                                                                    26157321.772 6 136208046.50206     -3207.414 6        41.316                                                                    26157313.116 6 110680162.16206     -2606.426 6        40.868
R23        32.000    23681599.152 6 126680589.75506     -4857.144 6        41.571
E29        33.000    27904660.210 6 146640046.46406     -2972.066 6        37.195                                                                    27904659.322 6 109503940.79206     -2219.381 6        40.377    27904659.309 6 112360560.39406     -2277.336 6        41.218
E04        34.000    23807569.339 8 125109659.80508       587.101 8        48.335                                                                    23807567.056 8  93426056.53408       438.452 8        50.800    23807566.944 8  95863253.43208       449.873 8        51.567
C16        35.000                                                                                                                                    40249645.651 6 209590494.84706     -1523.675 6        39.856    40249644.458 6 162068677.61506     -1178.159 6        39.601    40249642.364 6 170309445.37306     -1237.957 6        36.314
C32        36.000                                                                                                                                    26306773.206 6 136986306.86106     -3326.747 6        41.731                                                                    26306773.926 6 111312612.02706     -2703.309 6        41.733
I01        37.000   384544720.712 7 205895267.44007     -2925.054 7        43.118
E27        38.000    27407777.101 6 144028842.69306     -1268.464 6        39.712                                                                    27407776.237 7 107554017.64607      -947.265 7        42.047    27407775.641 7 110359770.88607      -971.933 7        42.525
C19        39.000                                                                                                                                    22457986.255 8 116944634.49708       982.057 8        50.461                                                                    22457981.218 8  95027073.19808       798.041 8        49.903
C39        40.000                                                                                                                                    41175355.332 6 214410896.28706     -1660.030 6        38.946                                                                    41175351.414 6 174226409.50506     -1348.903 6        38.057
G05        41.000    24985905.275 6 131301825.03106      3195.788 6        38.598                                    24985900.458 5 102313091.07305      2490.214 5        30.008    24985900.922 5 102313100.09305      2490.057 5        35.157
S44        42.000    40784040.272 6 214321788.73006      -552.530 6        36.828
G29        43.000    25683383.730 5 134967087.64605      -750.866 5        35.738                                    25683379.819 4 105169145.10704      -585.094 4        28.076    25683379.547 5 105169144.12205      -585.135 5        34.400
C05        44.000                                                                                                                                    39189358.835 6 204069316.79406      -538.121 6        38.898    39189354.128 7 157799366.01507      -416.060 7        43.824    39189355.559 6 165823140.27306      -437.285 6        40.036
C29        45.000                                                                                                                                    26976478.287 5 140473609.79105     -3430.705 5        32.072                                                                    26976475.485 5 114146310.36405     -2787.853 5        32.120
G04        46.000    22451069.472 7 117981199.35607     -3196.726 7        44.530                                    22451065.974 5  91933387.98905     -2490.956 5        31.426    22451066.006 7  91933389.98207     -2490.890 7        42.897
R11        47.000    21910801.367 7 117084662.44707      3642.395 7        47.042                                                                    21910800.229 7  91065852.17507      2832.980 7        45.375
C20        49.000                                                                                                                                    22256374.124 8 115894807.99808     -1634.302 8        52.292                                                                    22256368.045 8  94174009.23308     -1327.963 8        49.868
C06        50.000                                                                                                                                    39675713.126 6 206601880.60706     -1537.400 6        38.303    39675707.129 6 159757662.82906     -1188.616 6        41.585    39675706.917 6 167880932.25006     -1249.192 6        38.508
S48        51.000    77159389.282 6 405473806.60806      -473.023 6        38.048
E06        52.000    25375086.190 7 133347006.66407      1504.021 7        43.949                                                                    25375085.661 7  99577322.39007      1123.091 7        46.635    25375085.703 7 102174989.45807      1152.286 7        47.672
C09        53.000                                                                                                                                    39097163.968 6 203589214.01506     -1219.106 6        40.010    39097159.795 7 157428085.69407      -942.693 7        44.569    39097158.212 6 165432893.08006      -990.563 6        41.027
C60        54.000                                                                                                                                    40784046.263 6 212373428.24406      -547.572 6        40.360                                                                    40784029.661 6 172570775.83706      -444.854 6        39.673
R09        55.000    21788298.347 7 116348324.79507     -3126.978 7        47.156                                                                    21788297.178 7  90493136.43607     -2432.089 7        45.923
G07        56.000    20909198.763 8 109878602.25108       432.268 8        49.321                                    20909193.784 8  85619673.94008       336.831 8        49.481    20909193.919 7  85619682.94807       336.850 7        45.273
C02        57.000                                                                                                                                    40742655.078 5 212157743.64705      -566.797 5        34.943    40742649.065 6 164053818.30106      -438.422 6        39.063    40742652.642 5 172395547.90205      -460.541 5        35.714
I03        58.000    99520448.218 6 314754372.42306       840.224 6        40.634
R07        59.000    22668808.776 7 121347965.40007     -3587.226 7        44.295                                                                    22668808.454 7  94381802.08607     -2790.020 7        42.017
> 2025 01 02 05 00 15.0000000  0 56
G09         1.000    20557212.053 8 108028913.71708     -2038.088 8        48.779                                    20557209.235 8  84178380.53908     -1588.119 8        51.604    20557209.347 7  84178380.53807     -1588.159 7        46.067
G06         2.000    22383267.954 7 117624885.43307     -3169.131 7        44.793                                    22383266.102 7  91655759.47707     -2469.453 7        44.340    22383267.023 7  91655767.47507     -2469.429 7        43.518
E11         3.000    24647803.571 7 129525102.78307     -1139.731 7        42.851                                                                    24647798.843 7  96723282.74207      -851.107 7        45.111    24647798.685 7  99246494.85707      -873.317 7        45.106
G16         4.000    23550810.247 6 123760358.07706     -1148.592 6        40.269                                    23550805.391 3  96436626.38703      -895.001 3        23.067
S21         5.000    38425430.210 7 201926707.47707      -488.568 7        42.762
E10         6.000    25064780.686 7 131716320.24107     -2613.326 7        46.421                                                                    25064779.305 8  98359586.50508     -1951.478 8        49.166    25064779.088 8 100925488.23308     -2002.400 8        49.325
G20         7.000    22045614.287 7 115850496.69907      2192.664 7        45.081                                    22045608.945 5  90273095.87505      1708.571 5        32.868
R10         9.000    20202352.416 7 107689910.70607       248.421 7        45.214
R17        10.000    22655196.653 7 121232537.05307      1410.433 7        46.470                                                                    22655194.153 6  94291967.21606      1097.050 6        41.661
G30        11.000    22403811.756 7 117732835.98007      2488.612 7        46.222                                    22403809.387 7  91739864.52007      1939.179 7        44.590    22403809.789 6  91739872.52206      1939.127 6        41.571
S27        12.000    39061725.953 6 205270749.17706      -501.842 6        36.991
G26        13.000    25344263.334 5 133185008.97005     -3115.458 5        33.234                                    25344262.471 3 103780533.31203     -2427.603 3        21.524    25344262.664 5 103780533.31905     -2427.956 5        32.365
S36        14.000    38193264.421 7 200707485.08607      -488.486 7        45.320
I09        15.000    38109852.676 7 149551244.57207      -805.134 7        42.618
E09        16.000    27644713.258 6 145273968.82206      1918.807 6        39.640                                                                    27644712.318 6 108483807.01606      1432.910 6        41.013    27644711.880 6 111313815.61106      1470.206 6        41.440
S45        17.000    63378898.086 6 333059754.57406      -529.898 6        37.338
E36        18.000    26834840.969 6 141018037.13106      1445.347 6        40.534                                                                    26834840.572 7 105305697.54707      1079.232 7        44.102    26834840.388 7 108052800.91307      1107.397 7        44.441
E12        19.000    26313955.890 6 138280775.32706     -3455.874 6        41.254                                                                    26313951.661 7 103261605.72207     -2580.850 7        42.406    26313951.925 7 105955386.28807     -2648.050 7        43.443
E21        20.000    26390234.730 6 138681619.51706      1211.099 6        41.883                                                                    26390234.316 7 103560965.39007       904.411 7        45.437    26390234.059 7 106262552.04807       927.996 7        45.831
G11        21.000    22110983.431 7 116194024.07107      -836.686 7        45.871                                    22110979.517 5  90540780.84805      -651.964 5        35.186    22110979.852 7  90540793.85507      -651.958 7        45.023
I06        22.000    37948878.863 7 148919792.47207      -349.291 7        43.344
S28        23.000    40854433.762 5 214691498.81205      -488.429 5        35.333
R08        24.000    19709713.052 8 105544659.99708     -1392.191 8        50.255                                                                    19709710.225 7  82090295.95807     -1082.845 7        46.757
S23        25.000    38131967.012 7 200384827.26607      -484.791 7        45.112
R01        26.000    20780833.433 7 111085470.23607      2017.556 7        47.341                                                                    20780832.340 6  86399803.49506      1569.158 6        40.122
C44        27.000                                                                                                                                    25661686.839 6 133627142.06206      -473.268 6        41.309                                                                    25661685.491 6 108582993.82806      -384.541 6        40.636
R24        29.000    21639078.894 8 115713893.97408     -2354.163 8        48.551                                                                    21639077.681 7  89999684.03107     -1830.937 7        44.023
E19        30.000    23878290.641 7 125481298.07407     -2003.128 7        42.609                                                                    23878288.026 7  93703569.49407     -1495.847 7        44.960    23878287.793 7  96148007.15407     -1534.965 7        45.217
C23        31.000                                                                                                                                    26160402.321 6 136224087.75706     -3209.219 6        41.323                                                                    26160393.780 6 110693196.98006     -2607.655 6        40.753
R23        32.000    23686138.194 6 126704875.85906     -4857.485 6        40.775
E29        33.000    27907488.383 6 146654907.30106     -2972.339 6        36.813                                                                    27907487.343 6 109515038.15906     -2219.607 6        40.360    27907487.301 6 112371947.25206     -2277.674 6        41.228
E04        34.000    23807011.395 8 125106726.79608       585.746 8        48.210                                                                    23807008.944 8  93423866.30208       437.386 8        50.889    23807008.786 8  95861006.06408       448.798 8        51.513
C16        35.000                                                                                                                                    40251108.802 6 209598112.72806     -1523.820 6        39.985    40251107.726 6 162074568.23306     -1178.387 6        39.598    40251105.576 6 170315635.54106     -1238.249 6        36.284
C32        36.000                                                                                                                                    26309968.103 7 137002941.93207     -3327.546 7        42.146                                                                    26309968.578 6 111326129.36506     -2703.779 6        41.206
I01        37.000   384548447.749 7 205909893.14607     -2925.327 7        43.079
E27        38.000    27408984.764 6 144035191.03006     -1271.130 6        39.655                                                                    27408984.237 7 107558758.27807      -949.323 7        42.129    27408983.556 7 110364635.18607      -973.920 7        42.521
C19        39.000                                                                                                                                    22457044.130 8 116939727.47408       980.483 8        50.494                                                                    22457038.895 8  95023085.84108       796.732 8        49.795
C39        40.000                                                                                                                                    41176949.380 6 214419195.49006     -1659.945 6        38.517                                                                    41176945.325 6 174233153.27906     -1348.845 6        37.792
G05        41.000    24982865.204 6 131285847.74806      3195.210 6        39.024                                    24982860.139 5 102300641.24705      2489.779 5        30.121    24982861.132 5 102300650.25405      2489.477 5        35.400
S44        42.000    40784565.196 6 214324551.56506      -552.837 6        36.881
G29        43.000    25684099.249 6 134970849.50106      -754.059 6        36.079                                    25684095.524 4 105172076.42704      -587.580 4        27.521    25684095.731 5 105172075.43505      -587.572 5        34.833
C05        44.000                                                                                                                                    39189875.956 6 204072007.40506      -538.524 6        38.961    39189870.704 7 157801446.56107      -416.347 7        43.854    39189872.219 6 165825326.60906      -437.548 6        39.775
C29        45.000                                                                                                                                    26979772.210 5 140490763.28505     -3430.501 5        30.023                                                                    26979769.879 5 114160249.00405     -2787.373 5        30.083
G04        46.000    22454111.464 7 117997185.40307     -3197.855 7        44.421                                    22454108.064 5  91945844.65005     -2491.838 5        31.479    22454108.266 7  91945846.65207     -2491.846 7        42.954
R11        47.000    21907394.119 7 117066454.60707      3640.392 7        47.427                                                                    21907392.376 7  91051690.52607      2831.396 7        45.055
C20        49.000                                                                                                                                    22257944.272 8 115902983.41108     -1636.161 8        52.277                                                                    22257938.055 8  94180652.42908     -1329.440 8        49.726
C06        50.000                                                                                                                                    39677189.458 6 206609566.89506     -1537.770 6        38.354    39677183.430 6 159763606.35306     -1189.038 6        41.602    39677183.111 6 167887177.97706     -1249.358 6        38.456
S48        51.000    77159847.659 6 405476170.88306      -473.262 6        38.270
E06        52.000    25373655.765 7 133339489.12307      1502.809 7        44.212                                                                    25373655.137 7  99571708.63007      1122.303 7        46.758    25373655.147 7 102169229.25107      1151.491 7        47.699
C09        53.000                                                                                                                                    39098334.524 6 203595310.37006     -1219.609 6        40.019    39098330.655 7 157432799.78707      -943.130 7        44.649    39098328.870 6 165437846.88706      -991.165 6        40.984
C60        54.000                                                                                                                                    40784571.607 6 212376165.93806      -547.695 6        40.634                                                                    40784555.452 6 172573000.44206      -445.287 6        39.495
R09        55.000    21791228.570 7 116363968.41807     -3130.696 7        46.355                                                                    21791226.222 7  90505303.70307     -2435.037 7        45.148
G07        56.000    20908788.888 8 109876447.24408       429.413 8        49.664                                    20908783.696 8  85617994.71508       334.606 8        49.604    20908783.896 7  85618003.71807       334.568 7        45.035
C02        57.000                                                                                                                                    40743199.927 5 212160577.98505      -567.060 5        34.871    40743193.297 6 164056009.99506      -438.597 6        39.174    40743196.888 5 172397851.02805      -460.919 5        35.586
I03        58.000    99519377.545 6 314750171.11206       839.945 6        40.455
R07        59.000    22672160.680 7 121365903.83807     -3588.448 7        44.867                                                                    22672159.863 7  94395754.19307     -2791.107 7        42.042
> 2025 01 02 05 00 20.0000000  0 56
G09         1.000    20559151.675 8 108039106.67708     -2039.503 8        48.913                                    20559148.891 8  84186323.10208     -1589.224 8        51.596    20559149.154 7  84186323.10407     -1589.200 7        46.197
G06         2.000    22386283.911 7 117640734.60507     -3170.917 7        44.754                                    22386282.095 7  91668109.47707     -2470.848 7        44.397    22386282.948 7  91668117.48107     -2470.899 7        43.323
E11         3.000    24648888.690 7 129530805.87007     -1141.936 7        43.124                                                                    24648884.117 7  96727541.55207      -852.816 7        44.877    24648883.897 7  99250864.75907      -875.008 7        45.153
G16         4.000    23551904.221 6 123766108.19606     -1151.792 6        40.398                                    23551899.544 3  96441106.99303      -897.501 3        22.933
S21         5.000    38425895.531 7 201929147.83907      -488.169 7        42.508
E10         6.000    25067267.690 7 131729390.01307     -2614.852 7        46.424                                                                    25067266.334 8  98369346.40008     -1952.707 8        49.069    25067266.176 8 100935502.73408     -2003.623 8        49.313
G20         7.000    22043528.988 7 115839536.36907      2191.163 7        45.499                                    22043523.228 5  90264555.36105      1707.399 5        32.958
R10         9.000    20202121.277 7 107688678.51107       244.053 7        45.117
R17        10.000    22653879.748 7 121225493.52407      1406.687 7        46.055                                                                    22653878.640 7  94286488.94607      1094.140 7        42.112
G30        11.000    22401444.385 7 117720395.40307      2487.321 7        45.818                                    22401442.020 7  91730170.56807      1938.171 7        44.638    22401442.515 6  91730178.57106      1938.217 6        41.716
S27        12.000    39062206.711 6 205273257.12506      -501.700 6        36.726
G26        13.000    25347228.942 5 133200590.50705     -3117.469 5        32.605                                    25347227.353 3 103792674.76003     -2429.195 3        21.190    25347227.599 5 103792674.77905     -2429.150 5        32.090
S36        14.000    38193729.867 7 200709927.77607      -488.702 7        45.145
I09        15.000    38110878.270 7 149555269.48107      -805.036 7        42.595
E09        16.000    27642887.167 6 145264373.78106      1918.718 6        39.057                                                                    27642886.408 6 108476641.88906      1432.873 6        40.865    27642885.891 6 111306463.55806      1470.185 6        41.702
S45        17.000    63379360.318 6 333062401.75306      -529.690 6        37.297
E36        18.000    26833466.115 6 141010814.09406      1443.571 6        40.079                                                                    26833466.048 7 105300303.73107      1078.028 7        44.119    26833465.911 7 108047266.39307      1106.197 7        44.450
E12        19.000    26317244.251 6 138298056.37206     -3456.908 6        40.779                                                                    26317240.143 7 103274510.38007     -2581.274 7        42.432    26317240.475 7 105968627.60107     -2648.650 7        43.354
E21        20.000    26389083.293 6 138675567.17906      1209.511 6        41.836                                                                    26389082.454 7 103556445.79407       903.233 7        45.242    26389082.276 7 106257914.55307       926.718 7        45.738
G11        21.000    22111781.432 7 116198214.50107      -839.812 7        46.029                                    22111776.950 5  90544046.11905      -654.398 5        35.162    22111777.107 7  90544059.11607      -654.346 7        45.369
I06        22.000    37949323.618 7 148921537.57107      -349.114 7        43.346
S28        23.000    40854894.594 5 214693938.92705      -488.059 5        34.681
R08        24.000    19711013.202 8 105551624.56308     -1393.945 8        50.303                                                                    19711010.849 7  82095712.84807     -1084.146 7        47.181
S23        25.000    38132428.143 7 200387250.03507      -484.487 7        44.932
R01        26.000    20778945.933 7 111075383.91507      2016.647 7        46.738                                                                    20778944.863 6  86391958.56606      1568.591 6        39.850
C44        27.000                                                                                                                                    25662142.463 6 133629513.55306      -475.587 6        40.913                                                                    25662140.865 6 108584920.84906      -386.432 6        40.853
R24        29.000    21641281.812 8 115725672.53208     -2357.731 8        48.178                                                                    21641280.737 7  90008845.12607     -1833.799 7        43.712
E19        30.000    23880196.715 7 125491314.52407     -2003.678 7        42.777                                                                    23880194.039 7  93711049.30607     -1496.282 7        44.891    23880193.868 7  96155682.09207     -1535.318 7        45.238
C23        31.000                                                                                                                                    26163484.394 6 136240136.21106     -3210.426 6        41.461                                                                    26163475.774 6 110706237.66006     -2608.753 6        40.727
R23        32.000    23690678.182 6 126729163.46506     -4857.761 6        40.086
E29        33.000    27910316.547 6 146669768.13306     -2972.161 6        36.673                                                                    27910314.976 6 109526135.52106     -2219.522 6        40.164    27910315.297 6 112383334.10706     -2277.334 6        41.175
E04        34.000    23806454.480 8 125103798.90008       585.110 8        48.084                                                                    23806451.770 8  93421679.88608       436.938 8        50.902    23806451.649 8  95858762.61308       448.282 8        51.514
C16        35.000                                                                                                                                    40252571.432 6 209605730.58906     -1523.577 6        39.973    40252570.252 6 162080458.86006     -1178.215 6        39.444    40252568.413 6 170321825.66706     -1237.995 6        36.208
C32        36.000                                                                                                                                    26313163.144 6 137019579.19206     -3327.781 6        41.821                                                                    26313163.719 6 111339648.48906     -2703.990 6        41.015
I01        37.000   384552175.170 7 205924519.45707     -2925.323 7        42.938
E27        38.000    27410194.854 6 144041551.08106     -1273.378 6        39.520                                                                    27410194.431 7 107563507.64607      -950.702 7        42.239    27410193.867 7 110369508.45907      -975.598 7        42.580
C19        39.000                                                                                                                                    22456103.016 8 116934826.76208       979.507 8        50.484                                                                    22456097.715 8  95019103.61108       795.966 8        49.802
C39        40.000                                                                                                                                    41178542.964 6 214427494.07806     -1659.582 6        38.607                                                                    41178538.816 6 174239896.55206     -1348.540 6        37.905
G05        41.000    24979825.108 6 131269871.59206      3195.014 6        40.312                                    24979819.932 5 102288192.29805      2489.621 5        30.272    24979821.278 6 102288201.30806      2489.626 6        36.106
S44        42.000    40785095.611 6 214327314.21606      -552.538 6        37.059
G29        43.000    25684819.104 6 134974626.18006      -756.859 6        36.904                                    25684814.360 4 105175019.31604      -589.768 4        27.234    25684815.966 5 105175018.30805      -589.885 5        35.357
C05        44.000                                                                                                                                    39190392.214 6 204074697.96906      -538.164 6        38.943    39190387.127 7 157803527.06907      -416.083 7        43.884    39190388.915 6 165827512.91306      -437.245 6        39.784
C29        45.000                                                                                                                                    26983065.031 4 140507913.63704     -3429.600 4        27.090                                                                    26983063.899 4 114174185.10204     -2786.959 4        28.209
G04        46.000    22457154.058 7 118013175.59407     -3198.477 7        43.875                                    22457150.918 5  91958304.54205     -2492.318 5        31.396    22457151.142 7  91958306.53207     -2492.258 7        42.874
R11        47.000    21903988.852 7 117048255.43007      3638.931 7        47.185                                                                    21903986.751 7  91037535.60207      2830.273 7        44.170
C20        49.000                                                                                                                                    22259515.866 8 115911166.53408     -1637.396 8        52.243                                                                    22259509.554 8  94187301.88608     -1330.516 8        49.725
C06        50.000                                                                                                                                    39678666.007 6 206617253.44106     -1537.385 6        38.210    39678659.365 6 159769550.07006     -1188.739 6        41.528    39678659.081 6 167893423.92806     -1249.277 6        38.252
S48        51.000    77160304.556 6 405480135.26916      -472.959 6        38.129
E06        52.000    25372226.301 7 133331975.00307      1502.491 7        44.590                                                                    25372225.208 7  99566097.45907      1121.896 7        46.637    25372225.258 7 102163471.68907      1151.219 7        47.604
C09        53.000                                                                                                                                    39099505.332 6 203601407.65306     -1219.507 6        40.176    39099501.637 7 157437514.59107      -943.000 7        44.582    39099499.651 6 165442801.41706      -990.986 6        40.844
C60        54.000                                                                                                                                    40785097.572 6 212378903.49006      -547.489 6        40.353                                                                    40785081.199 6 172575224.90206      -444.913 6        39.324
R09        55.000    21794160.501 7 116379629.11907     -3133.825 7        46.491                                                                    21794159.486 7  90517484.25107     -2437.481 7        44.963
G07        56.000    20908381.138 8 109874304.77108       427.253 8        49.498                                    20908376.000 8  85616325.25708       332.924 8        49.644    20908376.262 7  85616334.25707       332.938 7        45.190
C02        57.000                                                                                                                                    40743744.083 5 212163412.22005      -566.758 5        35.057    40743737.811 6 164058201.60106      -438.411 6        39.258    40743741.241 5 172400154.07905      -460.349 5        35.571
I03        58.000    99518306.981 6 314745969.77806       840.255 6        40.679
R07        59.000    22675512.427 7 121383846.56307     -3589.037 7        44.716                                                                    22675511.053 6  94409709.62106     -2791.416 6        41.609
> 2025 01 02 05 00 25.0000000  0 55
G09         1.000    20561092.739 8 108049308.22108     -2040.919 8        48.564                                    20561090.178 8  84194272.35708     -1590.327 8        51.624    20561090.440 7  84194272.35407     -1590.350 7        46.218
G06         2.000    22389302.275 7 117656594.72007     -3172.873 7        44.679                                    22389300.172 7  91680468.01307     -2472.365 7        44.382    22389300.365 7  91680476.00207     -2472.375 7        42.783
E11         3.000    24649976.610 7 129536521.70507     -1144.259 7        43.198                                                                    24649971.761 7  96731809.86207      -854.412 7        44.910    24649971.543 7  99255244.42207      -876.746 7        45.172
G16         4.000    23553002.002 6 123771876.06006     -1155.193 6        40.694                                    23552997.242 3  96445601.43203      -900.152 3        22.933
S21         5.000    38426359.476 7 201931588.30007      -487.877 7        42.536
E10         6.000    25069756.594 7 131742469.45807     -2616.664 7        46.269                                                                    25069755.287 8  98379113.51808     -1954.059 8        48.989    25069755.099 8 100945524.64808     -2005.015 8        49.393
G20         7.000    22041445.005 7 115828584.93607      2189.563 7        46.018                                    22041439.291 5  90256021.78005      1706.154 5        32.946
R10         9.000    20201894.884 7 107687469.67907       239.662 7        45.750
R17        10.000    22652566.692 7 121218470.23007      1402.793 7        45.663                                                                    22652565.687 6  94281026.38906      1091.036 6        41.814
G30        11.000    22399078.216 7 117707962.91307      2485.747 7        46.428                                    22399076.192 7  91720482.91507      1936.944 7        44.718    22399077.085 6  91720490.91206      1936.935 6        41.521
S27        12.000    39062683.556 6 205275765.68306      -501.449 6        36.798
G26        13.000    25350195.343 5 133216182.75805     -3119.486 5        32.503                                    25350194.463 3 103804824.56803     -2430.790 3        20.833    25350195.224 5 103804824.55205     -2430.609 5        32.605
S36        14.000    38194195.198 7 200712371.13507      -488.296 7        45.174
I09        15.000    38111903.977 7 149559295.06507      -805.041 7        42.493
E09        16.000    27641061.620 6 145254780.53706      1918.763 6        39.366                                                                    27641060.831 6 108469478.12406      1432.641 6        40.846    27641060.428 6 111299112.91106      1470.076 6        41.914
S45        17.000    63379820.148 6 333063349.07116      -529.293 6        37.225
E36        18.000    26832093.594 6 141003600.80506      1441.835 6        40.367                                                                    26832093.400 7 105294917.18307      1076.669 7        43.894    26832093.238 7 108041739.32007      1104.852 7        44.506
E12        19.000    26320533.491 6 138315342.52506     -3457.427 6        40.610                                                                    26320529.651 7 103287418.87907     -2581.931 7        42.349    26320529.845 7 105981872.84107     -2649.285 7        43.477
E21        20.000    26387933.657 6 138669524.50506      1207.690 6        41.747                                                                    26387932.504 7 103551933.40907       901.881 7        45.129    26387932.390 7 106253284.44007       925.490 7        45.696
G11        21.000    22112581.985 7 116202421.98207      -842.975 7        45.911                                    22112577.617 5  90547324.67505      -656.859 5        35.314    22112577.659 7  90547337.67307      -656.927 7        45.538
I06        22.000    37949768.153 7 148923282.94407      -348.960 7        43.335
S28        23.000    40855362.898 5 214696378.94905      -487.980 5        35.076
R08        24.000    19712315.745 8 105558599.57508     -1395.823 8        50.206                                                                    19712313.262 7  82101137.85807     -1085.614 7        47.238
S23        25.000    38132889.378 7 200389673.01007      -484.457 7        44.998
R01        26.000    20777060.148 7 111065303.79207      2015.644 7        47.407                                                                    20777059.740 6  86384118.47906      1567.748 6        39.901
C44        27.000                                                                                                                                    25662600.155 6 133631898.56306      -478.007 6        40.779                                                                    25662598.880 6 108586858.87606      -388.482 6        40.543
R24        29.000    21643488.482 8 115737470.84608     -2361.423 8        48.858                                                                    21643486.352 7  90018021.57607     -1836.676 7        43.670
E19        30.000    23882103.438 7 125501335.04507     -2004.195 7        42.732                                                                    23882100.979 7  93718532.17107     -1496.652 7        44.740    23882100.697 7  96163360.16407     -1535.756 7        45.251
C23        31.000                                                                                                                                    26166567.944 6 136256192.05806     -3211.708 6        41.461                                                                    26166558.880 6 110719284.36506     -2609.892 6        40.603
R23        32.000    23695219.978 6 126753452.74006     -4857.856 6        40.255
E29        33.000    27913144.631 6 146684629.20306     -2971.983 6        36.491                                                                    27913143.177 6 109537233.04906     -2219.426 6        40.184    27913143.179 6 112394721.13606     -2277.225 6        41.251
E04        34.000    23805898.190 8 125100876.36808       584.125 8        48.266                                                                    23805895.598 8  93419497.47808       436.172 8        50.769    23805895.504 8  95856523.26608       447.629 8        51.627
C16        35.000                                                                                                                                    40254034.163 6 209613348.66206     -1523.424 6        40.005    40254033.276 6 162086349.62706     -1178.099 6        39.357    40254031.417 5 170328015.96705     -1237.697 5        35.929
C32        36.000                                                                                                                                    26316358.593 6 137036218.86506     -3327.837 6        41.292                                                                    26316359.274 6 111353169.59706     -2704.235 6        41.008
I01        37.000   384555902.713 7 205939146.56807     -2925.391 7        42.768
E27        38.000    27411408.161 6 144047923.00206     -1275.238 6        39.456                                                                    27411406.997 7 107568265.91107      -952.422 7        42.095    27411406.574 7 110374390.84307      -977.149 7        42.605
C19        39.000                                                                                                                                    22455163.100 8 116929932.58608       978.410 8        50.419                                                                    22455157.860 8  95015126.69708       795.027 8        49.548
C39        40.000                                                                                                                                    41180136.561 6 214435792.29106     -1659.425 6        38.207                                                                    41180132.387 6 174246639.51306     -1348.398 6        37.463
G05        41.000    24976785.331 6 131253896.79206      3194.955 6        40.543                                    24976779.989 5 102275744.40505      2489.581 5        30.264    24976780.904 5 102275753.40805      2489.442 5        35.386
S44        42.000    40785616.175 6 214330076.92206      -552.367 6        36.847
G29        43.000    25685539.586 6 134978417.84706      -759.669 6        36.775                                    25685535.919 4 105177973.86004      -591.957 4        26.982    25685536.064 5 105177972.87705      -592.116 5        33.719
C05        44.000                                                                                                                                    39190908.556 6 204077388.71606      -538.088 6        38.805    39190904.002 7 157805607.73307      -416.014 7        43.666    39190905.629 6 165829699.36106      -437.124 6        39.664
G04        46.000    22460198.113 7 118029170.15607     -3199.201 7        43.221                                    22460194.622 5  91970767.83305     -2492.879 5        31.336    22460194.883 7  91970769.82707     -2492.796 7        42.940
R11        47.000    21900585.055 7 117030065.19007      3637.343 7        46.849                                                                    21900582.657 7  91023387.62707      2828.967 7        44.415
C20        49.000                                                                                                                                    22261088.743 8 115919357.58208     -1638.827 8        51.905                                                                    22261082.596 8  94193957.78108     -1331.650 8        49.449
C06        50.000                                                                                                                                    39680142.239 6 206624940.42506     -1537.154 6        38.255    39680135.452 6 159775494.13706     -1188.738 6        41.368    39680135.402 6 167899670.25006     -1249.288 6        38.087
S48        51.000    77160762.137 6 405482499.64306      -472.670 6        38.237
E06        52.000    25370796.701 7 133324464.57407      1501.889 7        44.468                                                                    25370796.013 7  99560489.01307      1121.578 7        46.569    25370796.189 7 102157716.94007      1150.838 7        47.713
C09        53.000                                                                                                                                    39100676.659 6 203607506.06106     -1219.510 6        40.322    39100672.891 7 157442230.28307      -943.039 7        44.560    39100670.778 6 165447756.89406      -991.041 6        40.605
C60        54.000                                                                                                                                    40785623.346 6 212381641.08206      -547.232 6        40.465                                                                    40785606.861 6 172577449.42906      -444.715 6        39.204
R09        55.000    21797096.551 7 116395307.11407     -3137.130 7        46.508                                                                    21797095.311 7  90529678.24807     -2440.002 7        44.941
G07        56.000    20907975.595 8 109872175.04608       424.936 8        49.516                                    20907970.719 8  85614665.73108       331.120 8        49.695    20907971.253 7  85614674.73507       331.123 7        45.493
C02        57.000                                                                                                                                    40744288.490 5 212166246.59505      -566.725 5        34.824    40744282.290 6 164060393.29106      -438.097 6        39.249    40744285.424 5 172402457.23505      -460.556 5        35.286
I03        58.000    99517236.151 6 314741768.55506       840.456 6        40.467
R07        59.000    22678864.369 7 121401793.79007     -3589.678 7        44.894                                                                    22678863.142 6  94423668.56906     -2791.935 6        41.538
> 2025 01 02 05 00 30.0000000  0 55
G09         1.000    20563035.695 8 108059518.44708     -2043.050 8        48.512                                    20563033.107 8  84202228.37708     -1591.984 8        51.476    20563033.162 7  84202228.37007     -1591.966 7        46.056
G06         2.000    22392322.126 7 117672465.84707     -3175.420 7        44.968                                    22392320.319 7  91692835.11807     -2474.353 7        44.263    22392320.883 7  91692843.13407     -2474.392 7        42.110
E11         3.000    24651066.807 7 129542250.39707     -1147.135 7        43.048                                                                    24651061.969 7  96736087.78307      -856.684 7        44.975    24651061.753 7  99259633.94107      -878.910 7        45.127
G16         4.000    23554103.499 6 123777661.76806     -1159.184 6        40.663                                    23554098.071 3  96450109.78003      -903.273 3        22.438
S21         5.000    38426825.262 7 201934028.91107      -488.235 7        42.707
E10         6.000    25072247.466 7 131755558.65807     -2618.930 7        46.210                                                                    25072246.001 8  98388887.91808     -1955.710 8        49.057    25072245.855 8 100955554.03508     -2006.768 8        49.279
G20         7.000    22039362.872 7 115817642.45507      2187.441 7        46.255                                    22039357.058 5  90247495.17105      1704.503 5        32.928
R10         9.000    20201672.579 7 107686284.38907       234.590 7        45.938
R17        10.000    22651257.859 7 121211467.07607      1398.459 7        45.237                                                                    22651257.101 7  94275579.49207      1087.713 7        42.140
G30        11.000    22396714.285 7 117695538.57007      2483.896 7        46.454                                    22396711.965 7  91710801.61007      1935.507 7        44.674    22396712.621 6  91710809.61106      1935.469 6        41.752
S27        12.000    39063162.144 6 205278274.52206      -501.980 6        36.839
G26        13.000    25353164.075 5 133231785.87005     -3121.948 5        32.557                                    25353163.620 3 103816982.83303     -2432.679 3        20.405    25353164.118 5 103816982.81505     -2432.101 5        32.198
S36        14.000    38194659.500 7 200714814.40907      -488.765 7        45.220
I09        15.000    38112930.022 7 149563321.40907      -805.456 7        42.626
E09        16.000    27639236.702 6 145245189.22406      1917.911 6        39.673                                                                    27639235.570 6 108462315.76306      1432.284 6        40.882    27639235.289 6 111291763.71406      1469.648 6        41.955
S45        17.000    63380281.391 6 333065996.58406      -529.539 6        37.516
E36        18.000    26830722.703 6 140996397.31906      1439.666 6        40.634                                                                    26830722.647 7 105289537.93807      1075.133 7        44.062    26830722.478 7 108036219.76507      1103.091 7        44.492
E12        19.000    26323823.919 6 138332633.99806     -3458.792 6        40.231                                                                    26323820.169 7 103300331.33807     -2582.904 7        42.406    26323820.214 7 105995122.14407     -2650.270 7        43.342
E21        20.000    26386785.429 6 138663491.56806      1205.433 6        41.919                                                                    26386784.642 7 103547428.28907       900.242 7        45.231    26386784.321 7 106248661.79707       923.734 7        45.568
G11        21.000    22113385.965 7 116206646.62307      -846.771 7        46.540                                    22113381.574 5  90550616.60105      -659.822 5        35.195    22113381.835 7  90550629.59707      -659.818 7        45.738
I06        22.000    37950213.580 7 148925028.68507      -349.225 7        43.431
S28        23.000    40855823.694 5 214698819.57305      -488.230 5        35.200
R08        24.000    19713620.735 8 105565584.95708     -1398.231 8        50.207                                                                    19713617.670 7  82106570.93007     -1087.541 7        47.625
S23        25.000    38133350.143 7 200392096.28307      -484.823 7        45.079
R01        26.000    20775176.405 7 111055229.90707      2014.036 7        47.106                                                                    20775175.363 6  86376283.23606      1566.328 6        39.646
C44        27.000                                                                                                                                    25663061.198 6 133634297.17706      -481.299 6        41.094                                                                    25663059.560 6 108588807.94206      -390.921 6        40.827
R24        29.000    21645699.242 8 115749288.88208     -2365.703 8        49.057                                                                    21645697.063 7  90027213.37907     -1839.899 7        43.869
E19        30.000    23884011.044 7 125511359.62107     -2005.435 7        43.039                                                                    23884008.585 7  93726018.05207     -1497.578 7        44.828    23884008.297 7  96171041.32407     -1536.623 7        45.169
C23        31.000                                                                                                                                    26169652.645 6 136272255.41506     -3213.585 6        41.144                                                                    26169643.659 6 110732337.13106     -2611.105 6        40.441
R23        32.000    23699761.321 6 126777743.64506     -4858.481 6        40.496
E29        33.000    27915972.353 6 146699490.59006     -2972.327 6        36.526                                                                    27915971.176 6 109548330.80606     -2219.589 6        40.508    27915971.259 6 112406108.41106     -2277.586 6        41.159
E04        34.000    23805342.904 8 125097959.24408       582.771 8        48.409                                                                    23805340.474 8  93417319.10108       435.160 8        50.849    23805340.387 8  95854288.06408       446.561 8        51.534
C16        35.000                                                                                                                                    40255497.426 6 209620967.01206     -1523.804 6        39.898    40255496.406 6 162092240.59806     -1178.210 6        39.264    40255494.549 6 170334206.49006     -1238.198 6        36.072
C32        36.000                                                                                                                                    26319554.718 6 137052861.04906     -3328.889 6        41.111                                                                    26319555.205 6 111366692.67706     -2704.844 6        41.004
I01        37.000   384559629.858 7 205953774.55407     -2925.792 7        42.567
E27        38.000    27412623.050 6 144054306.91706     -1278.145 6        40.181                                                                    27412621.798 7 107573033.11607      -954.442 7        42.140    27412621.625 7 110379282.41407      -979.315 7        42.722
C19        39.000                                                                                                                                    22454224.591 8 116925045.03608       976.728 8        50.419                                                                    22454219.269 8  95011155.15208       793.815 8        49.775
C39        40.000                                                                                                                                    41181730.091 6 214444090.19506     -1659.728 6        38.405                                                                    41181725.819 6 174253382.22506     -1348.365 6        37.418
G05        41.000    24973744.885 6 131237923.41306      3194.597 6        39.207                                    24973740.480 5 102263297.60605      2489.295 5        30.377    24973741.417 5 102263306.62305      2489.025 5        35.438
S44        42.000    40786147.551 6 214332839.77006      -552.551 6        36.934
G29        43.000    25686263.628 5 134982224.61005      -762.848 5        35.929                                    25686260.210 4 105180940.17204      -594.415 4        26.359    25686259.201 5 105180939.19005      -594.587 5        33.533
C05        44.000                                                                                                                                    39191425.637 6 204080079.75006      -538.392 6        38.874    39191420.962 7 157807688.60707      -416.255 7        43.706    39191422.419 6 165831886.04906      -437.449 6        39.874
G04        46.000    22463242.860 7 118045169.14107     -3200.276 7        43.391                                    22463239.126 5  91983234.56705     -2493.717 5        31.253    22463239.327 7  91983236.56007     -2493.725 7        43.141
R11        47.000    21897182.239 7 117011883.99507      3635.311 7        46.126                                                                    21897180.946 7  91009246.72007      2827.429 7        45.568
C20        49.000                                                                                                                                    22262663.087 8 115927556.61108     -1640.728 8        51.980                                                                    22262657.113 8  94200620.15208     -1333.098 8        49.634
C06        50.000                                                                                                                                    39681618.351 6 206632627.98306     -1537.675 6        37.860    39681611.758 6 159781438.63706     -1188.952 6        41.395    39681611.676 6 167905917.00206     -1249.434 6        38.036
S48        51.000    77161217.138 6 405484864.42906      -473.261 6        38.207
E06        52.000    25369368.372 7 133316957.89107      1500.877 7        44.448                                                                    25369367.536 7  99554883.37707      1120.795 7        46.736    25369367.663 7 102151965.07307      1149.969 7        47.663
C09        53.000                                                                                                                                    39101848.441 6 203613605.64506     -1220.140 6        40.429    39101844.054 7 157446946.86107      -943.520 7        44.683    39101842.135 6 165452713.29006      -991.421 6        40.861
C60        54.000                                                                                                                                    40786148.931 6 212384378.83006      -547.695 6        40.417                                                                    40786132.786 6 172579674.04906      -444.898 6        39.291
R09        55.000    21800035.461 7 116411002.38907     -3140.935 7        45.309                                                                    21800034.464 7  90541885.67207     -2442.869 7        44.901
G07        56.000    20907573.024 8 109870058.14608       422.010 8        49.362                                    20907567.884 8  85613016.19708       328.838 8        49.587    20907567.848 7  85613025.20307       328.854 7        45.591
C02        57.000                                                                                                                                    40744832.735 5 212169081.18405      -566.873 5        34.638    40744826.549 6 164062585.16006      -438.431 6        39.228    40744829.790 5 172404760.53805      -460.604 5        35.462
I03        58.000    99516166.017 6 314737567.57606       840.090 6        40.441
R07        59.000    22682217.787 7 121419745.52607     -3590.943 7        44.643                                                                    22682216.684 6  94437631.02006     -2792.898 6        41.771
> 2025 01 02 05 00 35.0000000  0 56
G09         1.000    20564980.420 8 108069737.15908     -2044.577 8        48.393                                    20564977.655 8  84210191.01008     -1593.175 8        51.447    20564977.837 7  84210191.01407     -1593.176 7        45.765
G06         2.000    22395344.514 7 117688347.77807     -3177.448 7        45.112                                    22395342.528 7  91705210.64707     -2475.931 7        44.181    22395343.780 7  91705218.64707     -2475.914 7        42.692
E11         3.000    24652159.097 7 129547991.72207     -1149.522 7        42.605                                                                    24652154.495 7  96740375.13207      -858.408 7        44.971    24652154.292 7  99264033.13507      -880.771 7        45.219
G16         4.000    23555207.225 6 123783465.07206     -1162.432 6        40.510                                    23555202.557 3  96454631.83403      -905.802 3        22.381
S21         5.000    38427288.326 7 201936469.47907      -488.052 7        42.817
E10         6.000    25074740.373 7 131768657.39107     -2620.666 7        46.145                                                                    25074738.643 8  98398669.44008     -1957.036 8        49.098    25074738.470 8 100965590.73108     -2008.158 8        49.366
G20         7.000    22037282.002 7 115806708.69907      2185.846 7        46.253                                    22037276.448 5  90238975.35705      1703.256 5        32.910
R10         9.000    20201453.924 7 107685122.28307       230.069 7        44.754
R17        10.000    22649953.506 7 121204484.03207      1394.583 7        45.363                                                                    22649952.036 6  94270148.22806      1084.657 6        41.440
G30        11.000    22394351.323 7 117683122.18907      2482.456 7        46.300                                    22394349.258 7  91701126.50707      1934.381 7        44.647    22394349.819 7  91701134.51307      1934.325 7        42.049
S27        12.000    39063639.647 6 205280783.45606      -501.804 6        36.824
G26        13.000    25356135.821 5 133247399.58605     -3124.023 5        31.977                                    25356134.798 3 103829149.36003     -2434.310 3        19.910    25356134.357 5 103829149.35405     -2434.435 5        32.012
S36        14.000    38195123.033 7 200717257.87507      -488.656 7        45.225
I09        15.000    38113956.301 7 149567348.29407      -805.385 7        42.673
E09        16.000    27637411.559 6 145235599.60006      1917.827 6        39.294                                                                    27637410.645 6 108455154.68806      1432.020 6        41.056    27637410.435 6 111284415.82806      1469.424 6        41.890
S45        17.000    63380744.280 6 333068644.03206      -529.545 6        37.618
E36        18.000    26829353.977 6 140989203.44406      1437.675 6        40.420                                                                    26829353.717 7 105284165.89807      1073.606 7        44.051    26829353.450 7 108030707.57807      1101.631 7        44.534
E12        19.000    26327115.371 6 138349930.50806     -3459.865 6        39.916                                                                    26327111.590 7 103313247.54407     -2583.663 7        42.629    26327111.789 7 106008375.30007     -2650.999 7        43.490
E21        20.000    26385639.204 6 138657468.15906      1203.713 6        41.809                                                                    26385638.446 7 103542930.30207       898.781 7        45.232    26385638.017 7 106244046.46207       922.308 7        45.618
G11        21.000    22114193.406 7 116210888.20807      -850.078 7        46.159                                    22114188.680 5  90553921.72905      -662.398 5        35.176    22114188.369 7  90553934.73107      -662.407 7        45.008
I06        22.000    37950657.958 7 148926774.60407      -349.140 7        43.319
S28        23.000    40856293.885 5 214701260.13105      -488.223 5        35.319
R08        24.000    19714927.376 8 105572580.79908     -1400.169 8        50.266                                                                    19714924.230 7  82112012.14107     -1089.056 7        47.320
S23        25.000    38133811.963 7 200394519.63107      -484.646 7        45.195
R01        26.000    20773292.971 7 111045162.18407      2012.973 7        46.745                                                                    20773292.159 6  86368452.77006      1565.670 6        39.748
C44        27.000                                                                                                                                    25663524.494 6 133636709.19006      -483.761 6        41.147                                                                    25663522.702 6 108590767.89006      -393.033 6        40.682
R24        29.000    21647912.096 8 115761126.43608     -2369.489 8        48.536                                                                    21647909.652 7  90036420.37307     -1842.939 7        42.421
E19        30.000    23885919.559 7 125521388.15407     -2006.123 7        42.645                                                                    23885917.011 7  93733506.88907     -1498.057 7        44.912    23885916.604 7  96178725.52707     -1537.151 7        45.196
C23        31.000                                                                                                                                    26172738.675 6 136288326.05006     -3214.920 6        40.849                                                                    26172729.949 6 110745395.83106     -2612.360 6        40.296
R23        32.000    23704302.220 6 126802035.93506     -4858.750 6        40.717
E29        33.000    27918800.328 6 146714352.09106     -2972.449 6        36.367                                                                    27918799.439 6 109559428.64206     -2219.377 6        40.887    27918799.180 6 112417495.76006     -2277.496 6        41.118
E04        34.000    23804788.790 8 125095047.34708       581.914 8        48.094                                                                    23804786.404 8  93415144.63308       434.548 8        50.947    23804786.307 8  95852056.87308       445.887 8        51.565
C16        35.000                                                                                                                                    40256960.891 6 209628585.42506     -1523.485 6        39.724    40256959.451 6 162098131.64006     -1178.264 6        39.384    40256957.566 6 170340397.07806     -1237.884 6        36.098
C32        36.000                                                                                                                                    26322751.406 6 137069505.50106     -3329.259 6        41.051                                                                    26322751.668 6 111380217.63406     -2705.046 6        40.696
I01        37.000   384563357.586 7 205968403.23907     -2925.838 7        42.508
E27        38.000    27413839.741 6 144060702.60906     -1280.294 6        40.081                                                                    27413838.757 7 107577809.13107      -956.119 7        42.131    27413838.731 7 110384183.01807      -981.049 7        42.772
C19        39.000                                                                                                                                    22453287.189 8 116920163.91008       975.564 8        50.443                                                                    22453281.861 8  95007188.83008       792.807 8        49.561
C39        40.000                                                                                                                                    41183323.338 6 214452387.59706     -1659.352 6        38.604                                                                    41183319.590 6 174260124.54706     -1348.489 6        37.433
G05        41.000    24970705.632 6 131221951.21206      3194.505 6        39.583                                    24970701.212 5 102250851.74605      2489.220 5        30.626    24970702.086 5 102250860.75805      2489.166 5        35.514
S44        42.000    40786669.913 6 214335602.58006      -552.498 6        37.077
G29        43.000    25686991.042 6 134986046.27306      -765.901 6        36.801                                    25686987.305 4 105183918.09504      -596.805 4        26.802    25686987.609 5 105183917.06705      -596.753 5        33.784
C05        44.000                                                                                                                                    39191942.735 6 204082770.86806      -538.250 6        38.910    39191937.537 7 157809769.54807      -416.257 7        44.004    39191939.258 6 165834072.78806      -437.364 6        39.655
G04        46.000    22466288.272 7 118061172.36207     -3201.056 7        43.776                                    22466284.386 5  91995704.60605     -2494.326 5        31.162    22466284.290 7  91995706.60207     -2494.295 7        42.808
R11        47.000    21893780.422 7 116993711.60507      3633.540 7        45.989                                                                    21893780.035 7  90995112.64807      2826.164 7        44.725
C20        49.000                                                                                                                                    22264239.233 8 115935763.47108     -1642.184 8        52.059                                                                    22264233.152 8  94207288.89108     -1334.253 8        49.497
C06        50.000                                                                                                                                    39683094.707 6 206640315.88406     -1537.663 6        37.939    39683088.096 6 159787383.40406     -1189.018 6        41.571    39683088.041 6 167912164.03506     -1249.365 6        37.974
S48        51.000    77161672.354 6 405487229.04206      -473.010 6        38.360
E06        52.000    25367940.573 7 133309454.76807      1500.229 7        44.060                                                                    25367939.771 7  99549280.40107      1120.263 7        46.740    25367939.858 7 102146215.93007      1149.529 7        47.669
C09        53.000                                                                                                                                    39103020.151 6 203619706.23406     -1220.214 6        40.717    39103015.656 7 157451664.22607      -943.623 7        44.770    39103013.754 6 165457670.50506      -991.470 6        40.479
C60        54.000                                                                                                                                    40786674.741 6 212387116.50906      -547.510 6        40.348                                                                    40786658.385 6 172581898.62706      -444.884 6        39.222
R09        55.000    21802977.779 7 116426714.77507     -3144.256 7        45.248                                                                    21802976.817 7  90554106.42007     -2445.534 7        44.894
G07        56.000    20907172.547 8 109867953.88208       419.555 8        49.873                                    20907167.454 8  85611376.51408       326.927 8        49.536    20907167.743 7  85611385.51507       326.834 7        45.415
C02        57.000                                                                                                                                    40745377.290 5 212171915.81205      -567.020 5        34.505    40745370.826 6 164064777.05606      -438.264 6        39.562    40745374.246 5 172407063.88805      -460.554 5        35.176
I03        58.000    99515095.249 6 314733366.62106       840.188 6        40.255
R07        59.000    22685572.389 7 121437701.83707     -3591.676 7        44.462                                                                    22685570.541 6  94451597.04006     -2793.667 6        40.822
C35        60.000                                                                                                                                    25446648.933 7 132507377.11217     -2509.314 7        42.148                                                                    25446647.455 6 107673092.72016     -2039.014 6        41.359
> 2025 01 02 05 00 40.0000000  0 56
G09         1.000    20566926.478 8 108079964.84308     -2046.456 8        48.518                                    20566923.911 8  84218160.63108     -1594.641 8        51.455    20566924.259 7  84218160.62607     -1594.579 7        45.652
G06         2.000    22398369.024 7 117704240.99707     -3179.721 7        44.868                                    22398366.892 7  91717594.97707     -2477.706 7        44.184    22398368.496 7  91717602.96807     -2477.680 7        42.906
E11         3.000    24653254.207 7 129553746.15907     -1152.107 7        42.525                                                                    24653249.414 7  96744672.27607      -860.318 7        45.061    24653249.379 7  99268442.37807      -882.742 7        45.285
G16         4.000    23556315.006 6 123789286.51806     -1166.104 6        40.021                                    23556310.191 3  96459168.02803      -908.647 3        22.248
S21         5.000    38427748.192 7 201938910.50907      -488.309 7        42.728
E10         6.000    25077234.818 7 131781766.17407     -2622.642 7        46.326                                                                    25077233.231 8  98408458.46908     -1958.510 8        49.132    25077232.995 8 100975635.12208     -2009.612 8        49.477
G20         7.000    22035202.635 7 115795784.26107      2184.046 7        46.027                                    22035197.630 5  90230462.81205      1701.850 5        32.856
R10         9.000    20201239.935 7 107683983.85107       225.406 7        45.536
R17        10.000    22648653.060 7 121197521.53307      1390.527 7        45.768                                                                    22648650.925 6  94264732.96006      1081.594 6        41.766
G30        11.000    22391990.034 7 117670714.29407      2480.798 7        46.077                                    22391988.138 7  91691458.01807      1933.088 7        44.656    22391988.854 7  91691466.03507      1933.021 7        42.017
S27        12.000    39064112.709 6 205283292.45906      -501.901 6        36.979
G26        13.000    25359109.085 5 133263024.38505     -3125.854 5        32.192                                    25359108.119 3 103841324.53503     -2435.741 3        19.522    25359108.185 5 103841324.57505     -2436.171 5        31.411
S36        14.000    38195589.946 7 200719700.78707      -488.523 7        45.228
I09        15.000    38114983.228 7 149571376.18807      -805.765 7        42.984
E09        16.000    27635587.302 6 145226012.20406      1917.311 6        39.426                                                                    27635586.282 6 108447995.26206      1431.743 6        40.918    27635585.964 7 111277069.62607      1469.184 7        42.127
S45        17.000    63381203.038 6 333071292.04406      -529.635 6        37.388
E36        18.000    26827986.965 6 140982019.68706      1435.805 6        40.176                                                                    26827986.640 7 105278801.41707      1072.172 7        44.123    26827986.549 7 108025203.15507      1100.057 7        44.659
E12        19.000    26330407.944 6 138367232.50706     -3460.852 6        40.136                                                                    26330404.248 7 103326167.87607     -2584.437 7        42.555    26330404.328 7 106021632.68007     -2651.885 7        43.481
E21        20.000    26384494.868 6 138651454.81206      1201.631 6        41.638                                                                    26384494.165 7 103538439.80707       897.424 7        45.324    26384493.654 7 106239438.83607       920.806 7        45.562
G11        21.000    22115003.475 7 116215147.22107      -853.538 7        46.066                                    22114999.121 5  90557240.44205      -665.092 5        35.124    22114999.059 7  90557253.45007      -665.033 7        44.950
I06        22.000    37951103.149 7 148928521.11407      -349.284 7        43.486
S28        23.000    40856753.564 5 214703701.34705      -488.394 5        35.371
R08        24.000    19716235.704 8 105579587.39608     -1402.334 8        50.569                                                                    19716232.462 7  82117461.72307     -1090.757 7        47.130
S23        25.000    38134271.543 7 200396943.45807      -484.676 7        45.096
R01        26.000    20771409.692 7 111035100.97307      2011.599 7        46.730                                                                    20771409.395 6  86360627.40906      1564.620 6        39.754
C44        27.000                                                                                                                                    25663990.700 6 133639135.09606      -486.500 6        40.956                                                                    25663988.544 6 108592739.16106      -395.401 6        40.744
R24        29.000    21650129.148 8 115772984.10008     -2373.518 8        48.573                                                                    21650128.206 7  90045643.01507     -1846.051 7        42.963
E19        30.000    23887828.987 7 125531421.10807     -2007.030 7        42.525                                                                    23887826.117 7  93740999.03007     -1498.698 7        44.862    23887825.871 7  96186413.11507     -1537.802 7        45.318
C23        31.000                                                                                                                                    26175826.055 6 136304404.43606     -3216.284 6        40.951                                                                    26175817.613 6 110758460.84706     -2613.565 6        40.374
R23        32.000    23708843.736 6 126826330.25706     -4858.920 6        40.958
E29        33.000    27921628.603 6 146729214.16706     -2972.315 6        36.888                                                                    27921627.823 6 109570526.95206     -2219.663 6        41.311    27921627.461 6 112428883.57606     -2277.505 6        41.235
E04        34.000    23804235.807 8 125092141.19108       580.755 8        48.031                                                                    23804233.391 8  93412974.45608       433.686 8        50.947    23804233.306 8  95849830.08308       445.002 8        51.737
C16        35.000                                                                                                                                    40258423.526 6 209636204.45106     -1523.908 6        39.685    40258422.674 6 162104023.12906     -1178.150 6        39.508    40258420.477 6 170346588.15106     -1238.327 6        36.178
C32        36.000                                                                                                                                    26325948.385 6 137086152.73506     -3329.712 6        41.139                                                                    26325948.606 6 111393744.88006     -2705.728 6        40.989
I01        37.000   384567085.711 7 205983033.02807     -2926.082 7        42.622
E27        38.000    27415058.705 6 144067110.59606     -1282.829 6        39.958                                                                    27415058.154 6 107582594.31006      -957.942 6        41.990    27415058.132 7 110389093.02707      -982.752 7        43.027
C19        39.000                                                                                                                                    22452350.959 8 116915289.71308       974.159 8        50.484                                                                    22452345.857 8  95003228.15908       791.576 8        49.726
C39        40.000                                                                                                                                    41184916.585 6 214460684.99306     -1659.505 6        38.667                                                                    41184913.070 6 174266866.85206     -1348.408 6        37.210
G05        41.000    24967666.560 6 131205980.74206      3194.075 6        40.019                                    24967662.400 5 102238407.22405      2488.887 5        30.732    24967662.993 5 102238416.23805      2488.681 5        35.414
S44        42.000    40787194.045 6 214338365.80506      -552.699 6        36.832
G29        43.000    25687721.387 6 134989883.30206      -769.001 6        37.278                                    25687717.382 4 105186907.99004      -599.223 4        27.305    25687717.955 5 105186906.98105      -599.141 5        34.648
C05        44.000                                                                                                                                    39192459.753 6 204085462.57506      -538.271 6        38.964    39192454.501 7 157811850.94507      -416.291 7        43.890    39192456.133 6 165836260.02506      -437.421 6        39.895
G04        46.000    22469334.407 7 118077180.32007     -3201.992 7        43.973                                    22469330.585 5  92008178.33805     -2495.057 5        31.200    22469330.655 7  92008180.34707     -2495.116 7        42.328
R11        47.000    21890382.186 7 116975548.62207      3631.698 7        46.307                                                                    21890380.266 7  90980985.86707      2824.661 7        44.003
C20        49.000                                                                                                                                    22265816.922 8 115943978.62608     -1643.801 8        52.181                                                                    22265810.746 8  94213964.39708     -1335.760 8        49.617
C06        50.000                                                                                                                                    39684571.060 6 206648004.58506     -1537.663 6        37.871    39684564.829 6 159793328.81106     -1189.137 6        41.688    39684564.558 6 167918411.75606     -1249.601 6        37.773
S48        51.000    77162130.185 6 405489594.25406      -472.985 6        38.243
E06        52.000    25366513.498 7 133301955.71107      1499.479 7        44.047                                                                    25366512.731 7  99543680.45307      1119.700 7        46.714    25366512.921 7 102140469.90007      1148.963 7        47.797
C09        53.000                                                                                                                                    39104191.509 6 203625808.31806     -1220.493 6        40.877    39104187.545 7 157456382.75007      -943.783 7        44.900    39104185.509 6 165462628.96406      -991.802 6        40.617
C60        54.000                                                                                                                                    40787200.478 6 212389854.61806      -547.676 6        40.465                                                                    40787184.158 6 172584123.56506      -444.979 6        39.378
R09        55.000    21805923.943 7 116442444.70707     -3147.749 7        46.280                                                                    21805922.179 7  90566340.80907     -2448.186 7        44.573
G07        56.000    20906774.703 8 109865862.73508       416.944 8        49.437                                    20906769.534 8  85609747.04908       324.895 8        49.556    20906769.766 7  85609756.05207       324.996 7        45.160
C02        57.000                                                                                                                                    40745921.938 5 212174750.95705      -567.012 5        35.005    40745915.550 6 164066969.36706      -438.535 6        39.252    40745918.608 5 172409367.68905      -460.896 5        35.305
I03        58.000    99514024.882 6 314729166.07806       840.188 6        40.446
R07        59.000    22688927.960 7 121455662.74207     -3592.667 7        44.644                                                                    22688926.007 6  94465566.62806     -2794.262 6        40.734
C35        60.000                                                                                                                                    25449059.870 7 132519928.41907     -2511.206 7        42.591                                                                    25449057.919 6 107683291.69806     -2040.612 6        41.433
> 2025 01 02 05 00 45.0000000  0 57
G09         1.000    20568874.523 8 108090200.60008     -2047.992 8        48.747                                    20568871.705 8  84226136.54608     -1595.836 8        51.499    20568871.974 7  84226136.54307     -1595.774 7        45.762
G06         2.000    22401394.993 7 117720144.60007     -3181.685 7        45.249                                    22401393.241 7  91729987.39107     -2479.233 7        44.194    22401394.498 7  91729995.38507     -2479.250 7        43.071
E11         3.000    24654351.810 7 129559512.86507     -1154.415 7        43.065                                                                    24654346.821 7  96748978.58107      -862.121 7        45.023    24654346.752 7  99272861.02207      -884.581 7        45.196
G16         4.000    23557426.094 6 123795125.16506     -1169.313 6        40.119                                    23557421.193 3  96463717.61903      -911.148 3        22.171
S21         5.000    38428215.597 7 201941351.04607      -487.948 7        42.751
E10         6.000    25079730.750 7 131794884.09907     -2624.468 7        46.305                                                                    25079729.441 8  98418254.31908     -1959.817 8        48.984    25079729.313 8 100985686.51408     -2010.951 8        49.333
G20         7.000    22033125.345 7 115784868.30207      2182.392 7        46.041                                    22033120.387 5  90221956.87105      1700.562 5        32.838
G03         8.000    25339078.298 3                     -4185.951 3        19.433
R10         9.000    20201031.850 7 107682868.29207       220.833 7        45.913
R17        10.000    22647355.413 7 121190578.79907      1386.669 7        44.981                                                                    22647353.331 6  94259333.05606      1078.393 6        41.776
G30        11.000    22389630.695 7 117658314.01307      2479.339 7        46.418                                    22389628.427 7  91681795.46407      1931.952 7        44.691    22389628.550 6  91681803.46006      1931.923 6        41.509
S27        12.000    39064590.430 6 205285801.79006      -501.832 6        36.790
G26        13.000    25362084.299 5 133278659.46305     -3128.020 5        32.150                                    25362083.470 3 103853507.72103     -2437.413 3        19.194    25362083.829 5 103853507.68505     -2437.384 5        32.150
S36        14.000    38196053.331 7 200722142.27107      -488.242 7        45.168
I09        15.000    38116009.141 7 149575404.37407      -805.660 7        42.754
E09        16.000    27633763.166 6 145216426.12406      1917.076 6        39.772                                                                    27633762.047 6 108440836.83106      1431.599 6        40.760    27633761.919 6 111269724.44906      1468.960 6        41.816
S45        17.000    63381666.204 6 333073939.77306      -529.527 6        37.592
E36        18.000    26826621.570 6 140974845.18306      1434.118 6        40.138                                                                    26826621.503 7 105273443.83007      1070.883 7        43.937    26826621.288 7 108019705.80407      1098.775 7        44.533
E12        19.000    26333701.582 6 138384539.17706     -3461.826 6        40.689                                                                    26333697.551 7 103339091.66907     -2585.097 7        42.616    26333697.721 7 106034893.62707     -2652.502 7        43.350
E21        20.000    26383352.182 6 138645450.65106      1199.986 6        41.826                                                                    26383351.600 7 103533956.17807       896.075 7        45.192    26383351.208 7 106234838.24307       919.414 7        45.511
G11        21.000    22115817.077 7 116219422.79307      -856.761 7        45.800                                    22115812.755 5  90560572.05905      -667.607 5        35.186    22115813.014 7  90560585.05007      -667.574 7        44.992
I06        22.000    37951548.181 7 148930267.52407      -349.306 7        43.323
S28        23.000    40857218.992 5 214706142.11805      -488.111 5        35.290
R08        24.000    19717545.326 8 105586603.88208     -1404.296 8        49.845                                                                    19717543.074 7  82122918.98407     -1092.185 7        47.812
S23        25.000    38134734.584 7 200399367.00807      -484.663 7        45.083
R01        26.000    20769529.319 7 111025045.39407      2010.602 7        46.507                                                                    20769528.710 6  86352806.40506      1563.874 6        40.098
C44        27.000                                                                                                                                    25664458.819 6 133641574.03506      -489.021 6        40.853                                                                    25664456.930 6 108594720.98306      -397.482 6        40.856
R24        29.000    21652351.183 8 115784860.82308     -2377.261 8        49.052                                                                    21652348.933 7  90054880.44607     -1848.952 7        42.663
E19        30.000    23889738.711 7 125541457.54707     -2007.613 7        42.563                                                                    23889735.989 7  93748493.77607     -1499.209 7        44.841    23889735.739 7  96194103.36807     -1538.214 7        45.220
C23        31.000                                                                                                                                    26178915.103 6 136320489.71706     -3217.815 6        41.230                                                                    26178906.696 6 110771531.44906     -2614.677 6        40.484
R23        32.000    23713386.409 6 126850625.63306     -4859.060 6        41.583
E29        33.000    27924456.707 6 146744075.99306     -2972.274 6        37.293                                                                    27924455.975 6 109581625.03606     -2219.540 6        41.490    27924455.442 6 112440271.18706     -2277.464 6        40.882
E04        34.000    23803683.941 8 125089239.87008       579.762 8        48.221                                                                    23803681.271 8  93410807.88308       432.943 8        50.825    23803681.129 8  95847606.99108       444.207 8        51.607
C16        35.000                                                                                                                                    40259886.563 6 209643823.14006     -1523.745 6        39.613    40259885.744 6 162109914.39606     -1178.162 6        39.486    40259883.591 6 170352778.95706     -1238.239 6        36.363
C32        36.000                                                                                                                                    26329145.188 6 137102801.89206     -3330.138 6        40.810                                                                    26329145.960 6 111407273.66506     -2705.927 6        41.256
I01        37.000   384570813.860 7 205997663.20407     -2926.088 7        42.633
E27        38.000    27416280.377 6 144073529.97206     -1284.958 6        40.179                                                                    27416279.689 6 107587388.00806      -959.723 6        41.800    27416279.793 7 110394011.76307      -984.520 7        42.982
C19        39.000                                                                                                                                    22451416.166 8 116910421.55708       973.072 8        50.577                                                                    22451410.946 8  94999272.39308       790.570 8        49.860
C39        40.000                                                                                                                                    41186509.494 6 214468981.49806     -1659.296 6        38.706                                                                    41186506.080 6 174273608.43506     -1348.303 6        37.149
G05        41.000    24964627.443 6 131190011.11706      3193.889 6        39.204                                    24964623.624 5 102225963.36605      2488.744 5        30.506    24964623.000 5 102225972.36605      2488.888 5        35.248
S44        42.000    40787722.211 6 214341128.59506      -552.493 6        37.115
G29        43.000    25688454.504 6 134993734.85806      -771.683 6        37.418                                    25688450.357 4 105189909.20004      -601.316 4        27.689    25688450.684 5 105189908.20605      -601.508 5        34.176
C05        44.000                                                                                                                                    39192976.387 6 204088153.95606      -538.150 6        39.051    39192971.407 7 157813932.08607      -416.101 7        43.960    39192973.017 6 165838447.01306      -437.477 6        39.880
G04        46.000    22472381.218 7 118093192.11307     -3202.667 7        44.129                                    22472377.508 5  92020655.06005     -2495.585 5        31.253    22472377.756 7  92020657.06307     -2495.653 7        42.248
R11        47.000    21886984.826 7 116957394.09607      3630.130 7        46.317                                                                    21886982.854 7  90966865.68307      2823.385 7        44.242
C20        49.000                                                                                                                                    22267396.003 8 115952201.21608     -1645.257 8        52.295                                                                    22267389.786 8  94220645.91808     -1336.977 8        49.798
C06        50.000                                                                                                                                    39686047.553 6 206655693.26606     -1537.587 6        37.856    39686041.357 6 159799274.17906     -1189.013 6        41.702    39686040.891 6 167924659.43306     -1249.447 6        37.868
S48        51.000    77162584.332 6 405491959.02806      -472.881 6        38.132
E06        52.000    25365087.521 7 133294459.81907      1498.951 7        44.287                                                                    25365086.284 7  99538082.87407      1119.242 7        46.690    25365086.445 7 102134726.29207      1148.529 7        47.804
C09        53.000                                                                                                                                    39105363.685 6 203631911.03406     -1220.707 6        41.163    39105359.603 7 157461101.75107      -943.862 7        44.892    39105357.495 6 165467587.92206      -991.964 6        40.942
C60        54.000                                                                                                                                    40787726.488 6 212392592.28306      -547.418 6        40.427                                                                    40787709.878 6 172586348.15906      -445.234 6        39.486
R09        55.000    21808873.611 7 116458191.44407     -3150.995 7        46.800                                                                    21808871.724 7  90578588.26307     -2450.800 7        45.463
G07        56.000    20906378.922 8 109863783.82308       414.552 8        49.348                                    20906373.929 8  85608127.11808       323.027 8        49.593    20906373.843 7  85608136.12507       323.041 7        45.323
C02        57.000                                                                                                                                    40746465.678 5 212177585.70405      -567.041 5        35.114    40746459.603 6 164069161.35706      -438.381 6        39.408    40746463.207 5 172411671.15405      -460.648 5        35.514
I03        58.000    99512954.361 6 314724965.31506       840.236 6        40.534
R07        59.000    22692283.031 7 121473627.90407     -3593.423 7        44.063                                                                    22692282.456 6  94479539.52506     -2794.976 6        40.470
C35        60.000                                                                                                                                    25451471.563 7 132532487.92207     -2512.642 7        43.433                                                                    25451469.930 6 107693497.33306     -2041.846 6        41.707
> 2025 01 02 05 00 50.0000000  0 56
G09         1.000    20570824.099 8 108100445.02408     -2049.560 8        48.948                                    20570821.167 8  84234119.21308     -1597.060 8        51.617    20570821.444 7  84234119.21507     -1597.105 7        46.167
G06         2.000    22404423.687 7 117736059.16207     -3183.733 7        45.070                                    22404421.688 7  91742388.34507     -2480.835 7        44.290    22404422.531 7  91742396.35407     -2480.815 7        42.870
E11         3.000    24655451.178 7 129565292.36207     -1156.968 7        42.885                                                                    24655446.649 7  96753294.43607      -863.975 7        45.016    24655446.523 7  99277289.46307      -886.447 7        45.290
G16         4.000    23558540.618 6 123800981.62506     -1172.768 6        40.625                                    23558535.629 3  96468281.08103      -913.843 3        22.552
S21         5.000    38428684.943 7 201943791.77007      -487.999 7        42.701
E10         6.000    25082229.139 7 131808011.74107     -2626.290 7        46.363                                                                    25082227.612 8  98428057.42208     -1961.178 8        49.044    25082227.366 8 100995745.34908     -2012.350 8        49.480
G20         7.000    22031050.328 7 115773961.34107      2180.718 7        46.279                                    22031044.897 5  90213457.93605      1699.259 5        33.000
R10         9.000    20200827.030 7 107681776.12907       216.316 7        45.186
R17        10.000    22646060.907 7 121183656.30507      1382.623 7        45.332                                                                    22646060.202 6  94253948.89906      1075.359 6        41.504
G30        11.000    22387272.692 7 117645921.92607      2477.790 7        46.411                                    22387270.241 7  91672139.29407      1930.745 7        44.784    22387270.557 6  91672147.29706      1930.752 6        41.507
S27        12.000    39065070.892 6 205288311.23306      -501.644 6        37.028
G26        13.000    25365062.027 5 133294305.31205     -3130.029 5        32.347                                    25365060.595 3 103865699.28703     -2438.995 3        19.075    25365060.678 5 103865699.24405     -2438.860 5        31.208
S36        14.000    38196516.752 7 200724584.43707      -488.308 7        45.202
I09        15.000    38117036.071 7 149579433.28607      -805.589 7        42.844
E09        16.000    27631939.181 6 145206841.92706      1916.915 6        39.450                                                                    27631938.307 6 108433679.79706      1431.532 6        40.813    27631937.975 6 111262380.72106      1468.739 6        41.888
S45        17.000    63382127.036 6 333076587.74206      -529.344 6        37.282
E36        18.000    26825258.590 6 140967680.50006      1432.198 6        40.493                                                                    26825258.202 7 105268093.57907      1069.591 7        44.105    26825257.857 7 108014215.98507      1097.425 7        44.615
E12        19.000    26336996.001 6 138401851.03206     -3462.749 6        41.066                                                                    26336991.803 7 103352019.35407     -2585.740 7        42.650    26336992.025 7 106048158.56007     -2653.294 7        43.530
E21        20.000    26382211.662 6 138639456.23106      1198.114 6        41.685                                                                    26382210.822 7 103529479.84007       894.599 7        45.121    26382210.514 7 106230245.12007       918.069 7        45.552
G11        21.000    22116634.122 7 116223715.48707      -860.004 7        45.997                                    22116629.631 5  90563917.01205      -670.129 5        35.257    22116629.661 7  90563930.01007      -670.157 7        44.856
I06        22.000    37951993.265 7 148932014.28207      -349.250 7        43.422
S28        23.000    40857683.683 5 214708583.04505      -488.341 5        35.176
R08        24.000    19718857.460 8 105593630.79308     -1406.248 8        49.714                                                                    19718855.165 7  82128384.36607     -1093.760 7        47.843
S23        25.000    38135195.608 7 200401790.93007      -484.557 7        45.037
R01        26.000    20767649.337 7 111014996.00507      2009.522 7        46.619                                                                    20767648.267 6  86344990.22106      1562.929 6        39.811
C44        27.000                                                                                                                                    25664929.731 6 133644026.56306      -491.730 6        41.254                                                                    25664927.773 6 108596713.85606      -399.574 6        40.751
R24        29.000    21654575.351 8 115796757.26508     -2381.054 8        48.814                                                                    21654574.540 7  90064133.23607     -1851.950 7        43.050
E19        30.000    23891649.270 7 125551498.10207     -2008.247 7        42.652                                                                    23891646.757 7  93755991.59207     -1499.729 7        44.861    23891646.372 7  96201796.77907     -1538.767 7        45.305
C23        31.000                                                                                                                                    26182005.443 6 136336582.41806     -3219.030 6        41.580                                                                    26181997.109 6 110784608.09406     -2615.728 6        40.689
R23        32.000    23717929.214 6 126874922.71706     -4859.393 6        41.464
E29        33.000    27927284.637 6 146758938.11706     -2972.247 6        37.316                                                                    27927284.222 6 109592723.33506     -2219.521 6        41.712    27927283.573 6 112451659.01506     -2277.426 6        41.080
E04        34.000    23803132.814 8 125086343.97208       578.794 8        48.156                                                                    23803130.192 8  93408645.35908       432.250 8        50.862    23803130.120 8  95845388.05108       443.548 8        51.721
C16        35.000                                                                                                                                    40261349.495 6 209651442.11806     -1523.607 6        39.483    40261348.675 6 162115805.85006     -1178.158 6        39.580    40261346.912 6 170358969.99606     -1238.236 6        36.212
C32        36.000                                                                                                                                    26332342.685 6 137119453.49706     -3330.243 6        40.791                                                                    26332343.681 6 111420804.44406     -2706.232 6        41.130
I01        37.000   384574542.503 7 206012294.22207     -2926.127 7        42.707
E27        38.000    27417504.324 6 144079961.31206     -1287.246 6        39.679                                                                    27417503.567 6 107592190.62306      -961.251 6        41.702    27417503.543 7 110398939.67007      -986.278 7        42.921
C19        39.000                                                                                                                                    22450482.699 8 116905560.04208       971.834 8        50.633                                                                    22450477.305 8  94995322.00808       789.667 8        49.755
C39        40.000                                                                                                                                    41188102.677 6 214477277.69606     -1659.067 6        38.724                                                                    41188099.238 6 174280349.75006     -1348.232 6        36.790
G05        41.000    24961589.249 6 131174042.88906      3193.745 6        39.402                                    24961585.004 5 102213520.59705      2488.636 5        30.370    24961585.021 5 102213529.60505      2488.946 5        35.333
S44        42.000    40788247.528 6 214343891.51106      -552.452 6        37.028
G29        43.000    25689189.787 6 134997601.51506      -774.656 6        37.777                                    25689186.292 4 105192922.18804      -603.629 4        28.237    25689186.903 5 105192921.18005      -603.563 5        35.005
C05        44.000                                                                                                                                    39193492.957 6 204090845.61706      -538.131 6        38.949    39193488.170 7 157816013.43907      -416.085 7        43.896    39193489.905 6 165840634.18706      -437.430 6        39.751
G04        46.000    22475429.016 7 118109208.33407     -3203.556 7        44.348                                    22475425.304 5  92033135.22305     -2496.271 5        31.321    22475425.709 7  92033137.22107     -2496.208 7        42.286
R11        47.000    21883589.405 7 116939248.68107      3628.456 7        46.677                                                                    21883587.911 7  90952752.59107      2822.091 7        44.621
C20        49.000                                                                                                                                    22268976.579 8 115960431.78908     -1646.685 8        52.222                                                                    22268970.390 8  94227333.93408     -1338.091 8        49.741
C06        50.000                                                                                                                                    39687523.928 6 206663382.44906     -1537.604 6        37.834    39687518.016 6 159805219.93806     -1189.038 6        41.778    39687517.626 6 167930907.51706     -1249.467 6        37.796
S48        51.000    77163041.216 6 405494324.04206      -472.869 6        38.309
E06        52.000    25363661.619 7 133286967.68407      1498.210 7        44.403                                                                    25363660.586 7  99532488.08807      1118.885 7        46.655    25363660.758 7 102128985.56407      1148.075 7        47.891
C09        53.000                                                                                                                                    39106536.155 6 203638014.92006     -1220.714 6        41.015    39106531.563 7 157465821.65007      -943.916 7        44.957    39106529.666 6 165472547.83006      -991.918 6        40.708
C60        54.000                                                                                                                                    40788251.967 6 212395330.09606      -547.511 6        40.455                                                                    40788235.656 6 172588572.82606      -444.886 6        39.363
R09        55.000    21811825.299 7 116473955.27507     -3154.332 7        46.157                                                                    21811823.710 7  90590849.02907     -2453.320 7        44.921
G07        56.000    20905985.877 8 109861717.73008       412.149 8        49.385                                    20905980.771 8  85606517.17408       321.155 8        49.716    20905981.065 7  85606526.18107       321.193 7        45.133
C02        57.000                                                                                                                                    40747010.478 5 212180420.66005      -566.737 5        35.086    40747004.426 6 164071353.50706      -438.228 6        39.529    40747007.493 5 172413974.74505      -460.466 5        35.595
I03        58.000    99511884.245 6 314720764.71506       840.245 6        40.281
R07        59.000    22695639.823 7 121491597.49407     -3594.149 7        43.714                                                                    22695639.648 6  94493515.85706     -2795.549 6        40.641
C35        60.000                                                                                                                                    25453885.987 7 132545056.21707     -2514.336 7        43.403                                                                    25453883.542 6 107703710.10006     -2043.138 6        41.385
> 2025 01 02 05 00 55.0000000  0 56
G09         1.000    20572774.988 8 108110697.50408     -2051.184 8        48.915                                    20572772.158 8  84242108.15808     -1598.325 8        51.731    20572772.338 7  84242108.16207     -1598.376 7        46.093
G06         2.000    22407453.824 7 117751984.07607     -3185.858 7        45.303                                    22407452.089 7  91754797.37307     -2482.488 7        44.372    22407453.291 7  91754805.37307     -2482.497 7        42.942
E11         3.000    24656553.731 7 129571084.09607     -1159.443 7        42.565                                                                    24656548.820 7  96757619.43207      -865.831 7        44.877    24656548.626 7  99281727.28707      -888.335 7        45.383
G16         4.000    23559658.747 6 123806855.30506     -1176.291 6        40.813                                    23559653.391 3  96472857.97403      -916.588 3        22.705
S21         5.000    38429148.257 7 201946232.26107      -487.893 7        42.559
E10         6.000    25084728.992 7 131821148.49607     -2628.114 7        46.402                                                                    25084727.482 8  98437867.34108     -1962.596 8        48.930    25084727.230 8 101005811.18108     -2013.791 8        49.488
G20         7.000    22028976.493 7 115763062.83107      2179.107 7        46.247                                    22028970.941 5  90204965.59405      1698.005 5        33.120
R10         9.000    20200625.446 7 107680706.82407       211.703 7        45.341
R17        10.000    22644770.922 7 121176753.54307      1378.734 7        45.552                                                                    22644769.790 6  94248580.08706      1072.322 6        41.163
G30        11.000    22384915.835 7 117633537.42307      2476.197 7        46.092                                    22384913.495 7  91662489.03107      1929.501 7        44.843    22384914.211 6  91662497.02206      1929.611 6        41.216
S27        12.000    39065548.046 6 205290820.12206      -501.622 6        36.934
G26        13.000    25368041.820 5 133309961.30505     -3132.231 5        31.887                                    25368039.747 3 103877898.77003     -2440.687 3        19.254    25368039.990 5 103877898.76305     -2440.650 5        31.404
S36        14.000    38196983.509 7 200727027.07807      -488.431 7        45.112
I09        15.000    38118062.863 7 149583462.49907      -805.831 7        42.718
E09        16.000    27630115.617 6 145197259.04906      1916.603 6        39.613                                                                    27630114.923 6 108426523.76806      1431.229 6        40.806    27630114.535 7 111255038.00907      1468.499 7        42.142
S45        17.000    63382590.551 6 333079235.31506      -529.275 6        37.444
E36        18.000    26823896.463 6 140960525.08606      1430.252 6        40.586                                                                    26823896.490 7 105262750.25207      1068.133 7        43.881    26823896.141 7 108008733.26807      1095.896 7        44.795
E12        19.000    26340290.916 6 138419167.52206     -3463.610 6        41.116                                                                    26340287.031 7 103364950.50007     -2586.427 7        42.635    26340287.110 7 106061427.03707     -2653.854 7        43.670
E21        20.000    26381072.882 6 138633470.99306      1196.206 6        41.588                                                                    26381071.821 7 103525010.34007       893.346 7        45.106    26381071.641 7 106225659.03407       916.671 7        45.880
G11        21.000    22117454.305 7 116228024.71107      -863.335 7        46.427                                    22117449.646 5  90567274.84705      -672.729 5        35.357    22117449.720 7  90567287.84707      -672.732 7        44.784
I06        22.000    37952438.515 7 148933760.95507      -349.142 7        43.270
S28        23.000    40858150.664 5 214711023.61905      -488.126 5        35.338
R08        24.000    19720171.833 8 105600667.65608     -1408.146 8        50.103                                                                    19720168.876 7  82133857.47707     -1095.251 7        47.773
S23        25.000    38135655.850 7 200404214.43307      -484.517 7        44.953
R01        26.000    20765770.208 7 111004952.42207      2008.302 7        47.136                                                                    20765770.189 6  86337178.53606      1562.076 6        39.571
C44        27.000                                                                                                                                    25665402.920 6 133646492.04506      -494.119 6        40.901                                                                    25665401.319 6 108598717.27906      -401.499 6        40.953
R24        29.000    21656803.081 7 115808672.78307     -2384.885 7        47.986                                                                    21656802.842 7  90073400.87307     -1854.928 7        43.793
E19        30.000    23893560.475 7 125561542.18407     -2009.059 7        42.620                                                                    23893557.927 7  93763492.03807     -1500.195 7        44.736    23893557.738 7  96209492.89507     -1539.417 7        45.410
C23        31.000                                                                                                                                    26185097.213 6 136352681.98206     -3220.567 6        41.695                                                                    26185088.843 6 110797690.29206     -2616.978 6        40.670
R23        32.000    23722470.826 6 126899220.68606     -4859.690 6        41.754
E29        33.000    27930112.716 6 146773799.91906     -2972.181 6        37.089                                                                    27930112.483 7 109603821.42307     -2219.472 7        42.017    27930111.549 6 112463046.62906     -2277.377 6        40.915
E04        34.000    23802582.577 8 125083452.90708       577.953 8        48.169                                                                    23802580.057 8  93406486.45308       431.539 8        50.777    23802579.919 8  95843172.82708       442.796 8        51.861
C16        35.000                                                                                                                                    40262812.920 6 209659060.75406     -1523.363 6        39.468    40262811.780 6 162121697.07806     -1178.181 6        39.574    40262809.891 6 170365160.75806     -1238.033 6        36.431
C32        36.000                                                                                                                                    26335540.984 6 137136106.99406     -3330.733 6        41.042                                                                    26335541.786 6 111434336.75706     -2706.554 6        41.352
I01        37.000   384578271.275 7 206026925.64707     -2926.179 7        42.588
E27        38.000    27418729.991 6 144086404.03506     -1289.604 6        39.556                                                                    27418729.533 6 107597001.73406      -962.934 6        41.564    27418729.551 7 110403876.29507      -988.007 7        42.910
C19        39.000                                                                                                                                    22449550.145 8 116900704.56908       970.646 8        50.631                                                                    22449544.930 8  94991376.53708       788.684 8        49.983
C39        40.000                                                                                                                                    41189695.634 6 214485572.97106     -1658.749 6        38.483                                                                    41189692.190 6 174287090.35906     -1347.835 6        37.040
G05        41.000    24958551.089 6 131158075.47906      3193.693 6        39.357                                    24958546.353 5 102201078.46405      2488.595 5        30.453    24958546.584 5 102201087.47605      2488.667 5        34.876
S44        42.000    40788771.088 6 214346653.95506      -552.156 6        36.991
G29        43.000    25689928.777 6 135001482.65906      -777.544 6        37.830                                    25689924.825 4 105195946.46204      -605.875 4        28.445    25689925.160 5 105195945.47605      -605.761 5        35.186
C05        44.000                                                                                                                                    39194009.832 6 204093536.94306      -538.046 6        38.829    39194005.188 7 157818094.54607      -416.135 7        44.030    39194006.726 6 165842821.10606      -437.346 6        40.143
G04        46.000    22478477.301 7 118125228.35007     -3204.131 7        44.491                                    22478473.886 5  92045618.35405     -2496.722 5        31.509    22478474.252 7  92045620.34507     -2496.731 7        42.705
R11        47.000    21880195.690 7 116921111.77707      3626.727 7        47.272                                                                    21880193.735 7  90938646.10207      2820.751 7        44.468
C20        49.000                                                                                                                                    22270558.500 8 115968669.78408     -1648.191 8        52.211                                                                    22270552.385 8  94234027.97408     -1339.306 8        49.924
C06        50.000                                                                                                                                    39689001.296 6 206671071.61406     -1537.490 6        37.656    39688994.708 7 159811165.68307     -1188.993 7        42.028    39688994.076 6 167937155.59006     -1249.507 6        38.132
S48        51.000    77163497.782 6 405496688.72106      -472.484 6        38.435
E06        52.000    25362236.429 7 133279478.71307      1497.698 7        44.360                                                                    25362235.451 7  99526895.67707      1118.350 7        46.612    25362235.581 7 102123247.26007      1147.548 7        47.990
C09        53.000                                                                                                                                    39107708.504 6 203644119.43806     -1220.809 6        41.080    39107703.801 7 157470542.05707      -943.988 7        45.103    39107702.030 6 165477508.23006      -991.939 6        40.982
C60        54.000                                                                                                                                    40788777.695 6 212398067.43206      -547.368 6        40.510                                                                    40788761.380 6 172590797.12506      -444.753 6        39.495
R09        55.000    21814779.824 7 116489735.90907     -3157.616 7        45.726                                                                    21814777.951 7  90603122.84307     -2455.938 7        44.295
G07        56.000    20905595.159 8 109859663.86708       409.735 8        49.617                                    20905589.942 8  85604916.76308       319.273 8        49.854    20905590.120 7  85604925.77107       319.220 7        45.169
C02        57.000                                                                                                                                    40747554.845 5 212183255.23205      -566.829 5        34.748    40747548.425 6 164073545.39106      -438.388 6        39.724    40747551.783 5 172416278.06905      -460.298 5        35.714
I03        58.000    99510813.846 6 314716563.87806       840.276 6        40.284
R07        59.000    22698998.228 7 121509571.08307     -3594.900 7        44.020                                                                    22698997.214 6  94507495.29906     -2796.041 6        40.651
C35        60.000                                                                                                                                    25456300.804 7 132557632.73307     -2516.052 7        42.544                                                                    25456298.560 6 107713929.52606     -2044.421 6        41.623
> 2025 01 02 05 01  0.0000000  0 56
G09         1.000    20574727.274 8 108120958.53408     -2053.196 8        48.725                                    20574724.777 8  84250103.76508     -1599.893 8        51.787    20574724.626 7  84250103.76707     -1599.897 7        45.568
G06         2.000    22410486.428 7 117767919.81807     -3188.371 7        45.004                                    22410484.537 7  91767214.82707     -2484.447 7        44.405    22410485.465 7  91767222.83707     -2484.489 7        43.191
E11         3.000    24657658.178 7 129576888.54907     -1162.346 7        42.931                                                                    24657653.296 7  96761953.92607      -867.922 7        44.757    24657653.074 7  99286174.85907      -890.624 7        45.305
G16         4.000    23560779.929 6 123812746.69206     -1180.022 6        40.207                                    23560774.396 3  96477448.66903      -919.493 3        22.457
S21         5.000    38429611.280 7 201948673.08707      -488.397 7        42.375
E10         6.000    25087230.415 7 131834294.86307     -2630.301 7        46.215                                                                    25087229.102 8  98447684.42408     -1964.257 8        48.763    25087228.905 8 101015884.35808     -2015.413 8        49.585
G20         7.000    22026903.947 7 115752173.27107      2176.906 7        45.896                                    22026898.742 5  90196480.21905      1696.294 5        33.084
R10         9.000    20200429.410 7 107679660.86607       206.692 7        45.357
R17        10.000    22643485.690 7 121169870.94607      1374.380 7        44.980                                                                    22643483.960 6  94243226.95906      1068.953 6        41.938
G30        11.000    22382560.622 7 117621161.03007      2474.302 7        46.184                                    22382558.305 7  91652845.08607      1928.025 7        44.882    22382558.991 6  91652853.09006      1927.983 6        41.049
S27        12.000    39066028.812 6 205293329.21606      -501.906 6        36.669
G26        13.000    25371023.706 5 133325627.94505     -3134.521 5        30.694                                    25371021.009 3 103890106.54503     -2442.484 3        19.373    25371022.091 5 103890106.53305     -2442.219 5        31.381
S36        14.000    38197446.971 7 200729469.77407      -488.667 7        44.927
I09        15.000    38119089.769 7 149587492.38907      -806.166 7        42.660
E09        16.000    27628292.341 6 145187677.97906      1915.959 6        39.697                                                                    27628291.754 6 108419369.06506      1430.806 6        40.689    27628291.393 7 111247696.67607      1467.928 7        42.028
S45        17.000    63383052.071 6 333080183.09116      -529.525 6        37.089
E36        18.000    26822536.380 6 140953379.40206      1428.060 6        40.460                                                                    26822536.545 7 105257414.19507      1066.435 7        43.894    26822536.435 7 108003257.99907      1094.245 7        44.611
E12        19.000    26343586.773 6 138436489.11706     -3464.984 6        40.670                                                                    26343583.101 7 103377885.44707     -2587.343 7        42.356    26343583.429 7 106074699.42407     -2655.055 7        43.729
E21        20.000    26379935.660 6 138627495.43306      1194.029 6        41.976                                                                    26379934.678 7 103520548.06507       891.710 7        44.743    26379934.555 7 106221080.35907       914.943 7        45.926
G11        21.000    22118277.399 7 116232350.95807      -867.003 7        46.246                                    22118272.885 5  90570645.94905      -675.587 5        35.443    22118273.233 7  90570658.94307      -675.562 7        44.432
I06        22.000    37952883.558 7 148935507.89207      -349.578 7        43.437
S28        23.000    40858611.478 5 214713464.79005      -488.340 5        34.890
R08        24.000    19721488.450 8 105607714.92408     -1410.605 8        50.641                                                                    19721485.041 7  82139338.67807     -1097.166 7        47.659
S23        25.000    38136117.755 7 200406637.94907      -484.739 7        44.799
R01        26.000    20763893.556 7 110994914.95007      2006.738 7        47.590                                                                    20763891.655 6  86329371.58506      1560.891 6        39.363
C44        27.000                                                                                                                                    25665878.985 6 133648971.05406      -497.237 6        40.710                                                                    25665877.488 6 108600731.67806      -404.163 6        40.739
R24        29.000    21659034.888 8 115820607.88008     -2389.101 8        48.561                                                                    21659033.876 7  90082683.72807     -1858.149 7        43.579
E19        30.000    23895472.460 7 125571590.22807     -2010.077 7        42.482                                                                    23895470.011 7  93770995.45707     -1501.099 7        44.554    23895469.891 7  96217192.05307     -1540.271 7        45.505
C23        31.000                                                                                                                                    26188190.612 6 136368788.85706     -3222.296 6        41.766                                                                    26188181.943 6 110810778.44306     -2618.401 6        40.505
R23        32.000    23727011.865 6 126923520.09406     -4860.048 6        41.883
E29        33.000    27932940.883 6 146788661.95106     -2972.546 6        36.896                                                                    27932940.778 6 109614919.65606     -2219.714 6        41.983    27932939.707 6 112474434.38406     -2277.608 6        40.865
E04        34.000    23802033.248 8 125080567.15008       576.559 8        48.256                                                                    23802030.893 8  93404331.50208       430.532 8        50.685    23802030.767 8  95840961.65808       441.763 8        51.811
C16        35.000                                                                                                                                    40264275.890 6 209666679.57506     -1523.965 6        39.532    40264275.263 6 162127588.41506     -1178.239 6        39.375    40264272.932 6 170371351.66306     -1238.206 6        36.193
C32        36.000                                                                                                                                    26338739.945 6 137152762.86706     -3331.581 6        41.509                                                                    26338740.385 6 111447870.99306     -2707.151 6        41.306
I01        37.000   384581999.993 7 206041557.87407     -2926.661 7        42.612
E27        38.000    27419958.254 6 144092858.61006     -1292.210 6        39.378                                                                    27419957.804 6 107601821.71306      -965.004 6        41.635    27419957.700 7 110408822.00507      -990.030 7        42.849
C19        39.000                                                                                                                                    22448618.970 8 116895855.64208       968.995 8        50.740                                                                    22448613.684 8  94987436.37808       787.415 8        49.828
C39        40.000                                                                                                                                    41191288.350 6 214493867.83906     -1658.958 6        38.604                                                                    41191285.144 6 174293830.58306     -1347.789 6        36.873
G05        41.000    24955512.726 6 131142109.43006      3192.907 6        38.901                                    24955507.917 5 102188637.39005      2487.981 5        30.521    24955508.367 5 102188646.40105      2488.094 5        35.429
S44        42.000    40789297.581 6 214349416.46306      -552.659 6        36.790
G29        43.000    25690669.383 6 135005378.81506      -780.821 6        37.815                                    25690666.207 4 105198982.41704      -608.435 4        28.682    25690666.202 5 105198981.41905      -608.455 5        34.490
C05        44.000                                                                                                                                    39194527.324 6 204096228.44006      -538.422 6        39.129    39194522.255 7 157820175.77807      -416.272 7        43.951    39194523.690 6 165845008.16706      -437.613 6        40.045
G04        46.000    22481526.261 7 118141252.69007     -3205.483 7        44.378                                    22481523.273 5  92058104.84905     -2497.774 5        31.555    22481523.593 7  92058106.84907     -2497.687 7        42.868
R11        47.000    21876803.779 7 116902983.91507      3624.560 7        47.197                                                                    21876801.346 7  90924546.63507      2819.097 7        44.223
C20        49.000                                                                                                                                    22272142.215 8 115976915.67008     -1650.087 8        52.332                                                                    22272135.985 8  94240728.42008     -1340.751 8        49.738
C06        50.000                                                                                                                                    39690477.507 6 206678761.18406     -1537.985 6        37.244    39690471.415 6 159817111.73906     -1189.279 6        41.971    39690471.042 6 167943403.98506     -1249.682 6        38.081
S48        51.000    77163954.639 6 405499053.29806      -472.801 6        38.012
E06        52.000    25360812.113 7 133271993.39107      1496.625 7        44.286                                                                    25360811.067 7  99521305.99007      1117.553 7        46.397    25360811.132 7 102117511.74907      1146.745 7        47.953
C09        53.000                                                                                                                                    39108881.094 6 203650225.02106     -1221.355 6        41.011    39108876.387 7 157475263.28107      -944.464 7        44.938    39108874.502 6 165482469.51706      -992.330 6        40.841
C60        54.000                                                                                                                                    40789303.496 6 212400804.80806      -547.613 6        40.541                                                                    40789287.055 6 172593021.45106      -444.969 6        39.523
R09        55.000    21817738.339 7 116505533.62407     -3161.390 7        46.139                                                                    21817736.899 7  90615409.96507     -2458.849 7        44.298
G07        56.000    20905206.617 8 109857622.70708       406.821 8        49.195                                    20905201.519 8  85603326.24808       317.003 8        49.948    20905201.833 7  85603335.25407       317.060 7        45.360
C02        57.000                                                                                                                                    40748099.229 5 212186089.88305      -567.121 5        34.852    40748092.725 6 164075737.30106      -438.502 6        39.465    40748096.176 5 172418581.44505      -460.686 5        35.681
I03        58.000    99509743.252 6 314712363.15106       840.044 6        40.276
R07        59.000    22702357.437 7 121527549.12007     -3596.138 7        44.617                                                                    22702355.801 6  94521478.19506     -2797.098 6        39.853
C35        60.000                                                                                                                                    25458716.872 7 132570217.89107     -2518.079 7        42.569                                                                    25458715.499 6 107724155.98806     -2046.127 6        41.559
> 2025 01 02 05 01  5.0000000  0 56
G09         1.000    20576681.603 8 108131228.45808     -2054.754 8        48.599                                    20576679.091 8  84258106.30108     -1601.107 8        51.882    20576679.227 7  84258106.30407     -1600.997 7        45.412
G06         2.000    22413520.908 7 117783866.70707     -3190.354 7        44.733                                    22413519.132 7  91779640.97907     -2485.988 7        44.391    22413520.347 7  91779648.97607     -2485.983 7        43.209
E11         3.000    24658765.073 7 129582706.04907     -1164.627 7        43.058                                                                    24658760.348 7  96766298.16007      -869.798 7        44.725    24658760.175 7  99290632.41707      -892.436 7        45.362
G16         4.000    23561904.025 6 123818656.22106     -1183.607 6        40.386                                    23561898.745 3  96482053.50403      -922.296 3        22.514
S21         5.000    38430077.080 7 201951114.31907      -488.159 7        42.138
E10         6.000    25089733.953 7 131847451.14807     -2632.099 7        46.350                                                                    25089732.728 8  98457508.91808     -1965.533 8        48.584    25089732.486 8 101025965.14908     -2016.776 8        49.528
G20         7.000    22024833.412 7 115741293.01007      2175.245 7        45.627                                    22024828.318 5  90188002.09605      1694.995 5        33.204
R10         9.000    20200237.804 7 107678638.73407       202.281 7        44.868
R17        10.000    22642202.411 7 121163008.92807      1370.580 7        44.405                                                                    22642201.233 6  94237889.85106      1066.000 6        41.719
G30        11.000    22380206.968 7 117608793.07907      2472.901 7        45.932                                    22380204.755 7  91643207.72407      1926.935 7        44.954    22380205.729 6  91643215.73506      1926.902 6        41.580
S27        12.000    39066500.470 6 205295838.68406      -502.059 6        36.586
G26        13.000    25374005.451 5 133341305.61605     -3136.762 5        30.445                                    25374004.283 3 103902322.92003     -2444.229 3        18.478    25374004.087 5 103902322.87305     -2443.565 5        31.441
S36        14.000    38197912.842 7 200731913.31307      -488.559 7        44.909
I09        15.000    38120116.793 7 149591523.18607      -806.213 7        42.804
E09        16.000    27626469.649 6 145178099.05206      1915.797 6        39.429                                                                    27626468.713 6 108412215.98506      1430.468 6        40.536    27626468.449 7 111240356.97507      1467.867 7        42.045
S45        17.000    63383508.843 6 333082831.36206      -529.694 6        36.991
E36        18.000    26821179.144 6 140946243.81206      1426.246 6        40.808                                                                    26821178.725 7 105252085.67207      1065.047 7        43.579    26821178.589 7 107997790.47407      1092.776 7        44.752
E12        19.000    26346883.799 6 138453816.08606     -3465.830 6        40.782                                                                    26346880.420 7 103390824.42907     -2588.181 7        42.108    26346880.597 7 106087975.91607     -2655.510 7        43.691
E21        20.000    26378800.466 7 138621529.89407      1192.259 7        42.174                                                                    26378799.446 7 103516093.28707       890.312 7        44.518    26378799.392 7 106216509.36007       913.527 7        45.919
G11        21.000    22119103.675 7 116236694.56307      -870.280 7        46.212                                    22119099.420 5  90574030.57705      -678.141 5        35.562    22119099.931 7  90574043.57807      -678.249 7        44.843
I06        22.000    37953328.900 7 148937255.34507      -349.454 7        43.348
S28        23.000    40859076.486 5 214715905.90305      -488.127 5        35.033
R08        24.000    19722806.499 8 105614772.91408     -1412.517 8        50.525                                                                    19722802.876 7  82144828.22107     -1098.687 7        47.119
S23        25.000    38136578.363 7 200409061.97007      -484.678 7        44.697
R01        26.000    20762017.011 7 110984884.00607      2005.677 7        47.322                                                                    20762016.292 6  86321569.76206      1559.995 6        40.021
C44        27.000                                                                                                                                    25666358.590 6 133651463.85406      -499.841 6        41.502                                                                    25666356.095 6 108602757.28306      -405.960 6        40.930
R24        29.000    21661270.670 8 115832562.91608     -2392.812 8        48.156                                                                    21661269.233 7  90091982.08907     -1861.139 7        43.503
E19        30.000    23897385.459 7 125581642.67907     -2010.765 7        42.883                                                                    23897383.042 7  93778502.14507     -1501.582 7        44.367    23897382.747 7  96224894.56907     -1540.729 7        45.434
C23        31.000                                                                                                                                    26191285.698 6 136384903.37106     -3223.650 6        41.940                                                                    26191276.526 6 110823872.79606     -2619.224 6        40.965
R23        32.000    23731554.614 6 126947821.29306     -4860.251 6        41.445
E29        33.000    27935769.158 6 146803524.48706     -2972.458 6        36.911                                                                    27935769.101 6 109626018.27006     -2219.555 6        41.850    27935767.922 6 112485822.55606     -2277.617 6        40.894
E04        34.000    23801485.243 8 125077687.05608       575.642 8        48.448                                                                    23801482.824 8  93402180.78508       429.866 8        50.490    23801482.724 8  95838754.83808       441.104 8        51.785
C16        35.000                                                                                                                                    40265738.388 6 209674298.88906     -1523.927 6        39.586    40265737.783 6 162133480.15606     -1178.287 6        39.366    40265736.191 6 170377542.97406     -1238.035 6        36.310
C32        36.000                                                                                                                                    26341939.114 6 137169421.44106     -3331.728 6        41.521                                                                    26341939.571 6 111461407.43406     -2707.256 6        41.526
I01        37.000   384585728.626 7 206056191.10507     -2926.566 7        42.682
E27        38.000    27421189.325 6 144099325.38306     -1294.400 6        39.643                                                                    27421188.211 6 107606650.79906      -966.528 6        41.504    27421188.193 7 110413777.08207      -991.948 7        42.663
C19        39.000                                                                                                                                    22447689.123 8 116891013.58208       967.804 8        50.883                                                                    22447683.888 8  94983501.80408       786.661 8        50.040
C39        40.000                                                                                                                                    41192881.718 6 214502162.64806     -1658.915 6        38.631                                                                    41192878.128 6 174300570.78606     -1347.766 6        36.809
G05        41.000    24952474.427 6 131126145.08406      3192.899 6        39.150                                    24952469.834 5 102176197.63505      2487.973 5        30.528    24952471.123 5 102176206.63205      2487.988 5        35.438
S44        42.000    40789824.495 6 214352179.31306      -552.455 6        36.654
G29        43.000    25691414.250 6 135009290.27506      -783.698 6        38.096                                    25691410.406 4 105202030.31304      -610.674 4        28.645    25691410.985 5 105202029.31205      -610.688 5        34.171
C05        44.000                                                                                                                                    39195044.718 6 204098920.44006      -538.391 6        39.321    39195039.072 7 157822257.39107      -416.165 7        43.911    39195040.494 6 165847195.62206      -437.303 6        40.243
G04        46.000    22484576.542 7 118157281.65807     -3206.072 7        44.897                                    22484573.541 5  92070594.94605     -2498.237 5        31.872    22484573.758 7  92070596.94307     -2498.282 7        43.363
R11        47.000    21873412.423 7 116884865.43007      3622.860 7        46.363                                                                    21873410.876 7  90910454.50207      2817.749 7        44.674
C20        49.000                                                                                                                                    22273727.220 8 115985169.79808     -1651.504 8        52.463                                                                    22273721.124 8  94247435.57408     -1341.799 8        49.983
C06        50.000                                                                                                                                    39691953.823 6 206686451.51706     -1538.063 6        37.561    39691948.241 6 159823058.39306     -1189.246 6        41.936    39691947.995 6 167949653.02006     -1249.669 6        38.297
S48        51.000    77164410.570 6 405501418.45506      -473.015 6        37.834
E06        52.000    25359388.360 7 133264512.05707      1496.050 7        44.593                                                                    25359387.436 7  99515719.27907      1117.144 7        46.251    25359387.459 7 102111779.30007      1146.323 7        47.932
C09        53.000                                                                                                                                    39110053.525 6 203656332.03006     -1221.314 6        41.032    39110049.179 7 157479985.61007      -944.412 7        44.849    39110047.212 6 165487431.97506      -992.431 6        41.058
C60        54.000                                                                                                                                    40789829.390 6 212403542.54006      -547.462 6        40.801                                                                    40789812.860 6 172595246.07606      -444.715 6        39.670
R09        55.000    21820700.486 7 116521348.78307     -3164.582 7        46.045                                                                    21820699.023 7  90627710.63807     -2461.319 7        45.430
G07        56.000    20904820.635 8 109855594.61108       404.430 8        49.427                                    20904815.582 8  85601745.91708       315.141 8        49.959    20904815.910 7  85601754.91607       315.139 7        45.342
C02        57.000                                                                                                                                    40748643.153 5 212188925.01905      -567.116 5        35.157    40748637.426 6 164077929.58806      -438.381 6        39.213    40748640.650 5 172420885.21805      -460.623 5        35.795
I03        58.000    99508673.021 6 314708162.76506       840.178 6        40.331
R07        59.000    22705716.590 7 121545531.96807     -3596.858 7        44.761                                                                    22705716.082 6  94535464.86306     -2797.565 6        41.130
C35        60.000                                                                                                                                    25461135.914 7 132582812.01607     -2519.638 7        42.990                                                                    25461134.022 6 107734389.74906     -2047.206 6        41.754
> 2025 01 02 05 01 10.0000000  0 56
G09         1.000    20578637.817 8 108141506.98608     -2056.665 8        48.406                                    20578635.032 8  84266115.54208     -1602.596 8        51.829    20578635.481 7  84266115.54607     -1602.572 7        45.684
G06         2.000    22416557.611 7 117799824.44507     -3192.681 7        45.032                                    22416555.807 7  91792075.57607     -2487.804 7        44.369    22416556.829 7  91792083.58007     -2487.843 7        43.354
E11         3.000    24659874.443 7 129588536.31707     -1167.537 7        43.162                                                                    24659869.868 7  96770651.93307      -871.742 7        44.910    24659869.609 7  99295099.77407      -894.515 7        45.448
G16         4.000    23563032.001 6 123824583.52206     -1187.331 6        40.062                                    23563026.806 3  96486672.16803      -925.188 3        22.514
S21         5.000    38430540.089 7 201953555.71207      -488.365 7        42.434
E10         6.000    25092239.341 7 131860617.07607     -2634.178 7        46.604                                                                    25092238.089 8  98467340.61708     -1967.057 8        48.905    25092237.898 8 101036053.33108     -2018.396 8        49.629
G20         7.000    22022764.650 7 115730421.78107      2173.203 7        45.294                                    22022759.571 5  90179531.00805      1693.404 5        33.293
R10         9.000    20200050.707 7 107677639.97607       197.197 7        45.461
R17        10.000    22640924.132 7 121156167.22407      1366.336 7        45.177                                                                    22640922.952 7  94232568.52207      1062.685 7        42.184
G30        11.000    22377854.941 7 117596433.31707      2471.044 7        46.166                                    22377852.807 7  91633576.74607      1925.488 7        45.028    22377853.384 6  91633584.75406      1925.379 6        41.852
S27        12.000    39066984.358 6 205298348.85006      -502.102 6        36.794
G26        13.000    25376991.095 5 133356993.90105     -3138.408 5        30.294                                    25376989.865 3 103914547.54603     -2445.494 3        18.060    25376990.198 5 103914547.58105     -2445.841 5        31.819
S36        14.000    38198379.071 7 200734356.90907      -488.854 7        44.966
I09        15.000    38121144.126 7 149595554.67107      -806.356 7        42.800
E09        16.000    27624646.859 6 145168521.98706      1915.063 6        38.339                                                                    27624646.237 6 108405064.27906      1430.053 6        40.791    27624645.860 6 111233018.69906      1467.507 6        41.871
S45        17.000    63383973.758 6 333085479.81406      -529.661 6        37.248
E36        18.000    26819823.184 6 140939118.03606      1424.114 6        40.713                                                                    26819822.745 7 105246764.47807      1063.461 7        43.767    26819822.602 7 107992330.46207      1091.287 7        44.706
E12        19.000    26350182.279 6 138471148.21706     -3466.941 6        40.722                                                                    26350178.625 7 103403767.25107     -2589.031 7        42.411    26350178.694 7 106101256.39207     -2656.555 7        43.683
E21        20.000    26377667.155 7 138615574.11107      1190.143 7        42.554                                                                    26377666.032 7 103511645.77607       888.807 7        44.778    26377665.924 7 106211945.83507       911.931 7        45.815
G11        21.000    22119933.676 7 116241055.25707      -873.953 7        46.084                                    22119929.237 5  90577428.51905      -681.003 5        35.514    22119929.552 7  90577441.51307      -680.939 7        45.153
I06        22.000    37953774.551 7 148939003.09807      -349.556 7        43.302
S28        23.000    40859540.610 5 214718347.00805      -488.190 5        34.986
R08        24.000    19724125.952 8 105621841.39008     -1414.792 8        50.596                                                                    19724123.306 7  82150325.92807     -1100.385 7        47.335
S23        25.000    38137040.819 7 200411486.27007      -485.041 7        44.950
R01        26.000    20760140.600 7 110974859.33407      2004.272 7        47.117                                                                    20760140.071 6  86313772.80406      1558.940 6        40.296
C44        27.000                                                                                                                                    25666839.762 6 133653970.21606      -502.507 6        41.697                                                                    25666837.500 6 108604793.93306      -408.507 6        40.889
R24        29.000    21663510.629 8 115844537.45308     -2396.962 8        48.133                                                                    21663508.739 7  90101295.60307     -1864.319 7        42.482
E19        30.000    23899299.176 7 125591699.16007     -2011.874 7        43.111                                                                    23899296.719 7  93786011.86107     -1502.348 7        44.767    23899296.438 7  96232600.17907     -1541.417 7        45.562
C23        31.000                                                                                                                                    26194381.570 6 136401025.25406     -3225.162 6        41.712                                                                    26194372.759 6 110836973.16506     -2620.915 6        40.803
R23        32.000    23736097.641 6 126972124.01306     -4860.833 6        40.672
E29        33.000    27938597.520 6 146818387.29706     -2972.576 6        36.703                                                                    27938597.405 6 109637117.08606     -2219.785 6        41.981    27938596.377 6 112497210.91406     -2277.805 6        41.001
E04        34.000    23800938.173 8 125074812.33108       574.315 8        48.542                                                                    23800935.836 8  93400034.07608       428.877 8        50.761    23800935.717 8  95836552.12808       440.066 8        51.896
C16        35.000                                                                                                                                    40267201.740 6 209681918.41406     -1523.950 6        39.444    40267201.566 6 162139372.06006     -1178.498 6        39.267    40267199.410 6 170383734.49306     -1238.711 6        36.276
C32        36.000                                                                                                                                    26345138.594 7 137186082.44807     -3332.548 7        42.009                                                                    26345139.099 6 111474945.86406     -2708.003 6        41.552
I01        37.000   384589457.604 7 206070825.20107     -2926.973 7        42.595
E27        38.000    27422422.178 6 144105804.07306     -1296.923 6        39.535                                                                    27422421.203 6 107611488.78506      -968.543 6        41.728    27422421.027 7 110418741.26807      -993.817 7        42.730
C19        39.000                                                                                                                                    22446760.566 8 116886178.13508       966.372 8        50.855                                                                    22446755.246 8  94979572.62708       785.183 8        49.941
C39        40.000                                                                                                                                    41194474.629 6 214510457.06906     -1659.005 6        38.360                                                                    41194471.012 6 174307310.68706     -1348.105 6        36.972
G05        41.000    24949436.814 6 131110182.24406      3192.303 6        39.048                                    24949432.279 5 102163759.06205      2487.511 5        30.906    24949433.517 6 102163768.08406      2487.457 6        36.272
S44        42.000    40790351.064 6 214354942.25406      -552.568 6        36.760
G29        43.000    25692161.820 6 135013216.78106      -786.794 6        37.255                                    25692157.542 4 105205089.92204      -613.088 4        28.597    25692158.565 5 105205088.94705      -613.234 5        34.952
C05        44.000                                                                                                                                    39195560.761 6 204101612.70306      -538.571 6        39.081    39195556.023 7 157824339.21207      -416.334 7        43.755    39195557.758 6 165849383.30806      -437.673 6        40.088
G04        46.000    22487627.610 7 118173314.99407     -3207.240 7        44.369                                    22487624.606 5  92083088.45405     -2499.151 5        31.668    22487624.548 7  92083090.44407     -2499.162 7        43.378
R11        47.000    21870023.134 7 116866756.08307      3620.930 7        46.526                                                                    21870021.516 7  90896369.44607      2816.223 7        44.331
C20        49.000                                                                                                                                    22275313.803 8 115993431.88508     -1653.289 8        52.431                                                                    22275307.765 8  94254149.22008     -1343.490 8        49.909
C06        50.000                                                                                                                                    39693430.721 6 206694142.33906     -1538.256 6        37.270    39693425.261 6 159829005.41306     -1189.484 6        41.828    39693424.888 6 167955902.44406     -1250.055 6        38.120
S48        51.000    77164867.283 6 405503783.89506      -472.958 6        38.120
E06        52.000    25357965.663 7 133257034.44107      1495.091 7        44.883                                                                    25357964.442 7  99510135.34007      1116.500 7        46.580    25357964.508 8 102106049.69708      1145.571 8        48.093
C09        53.000                                                                                                                                    39111226.475 6 203662440.16906     -1221.881 6        40.784    39111222.255 7 157484708.80507      -944.751 7        44.969    39111220.322 6 165492395.34406      -992.775 6        40.982
C60        54.000                                                                                                                                    40790355.105 6 212406280.37306      -547.564 6        40.565                                                                    40790338.557 6 172597470.80006      -444.983 6        39.703
R09        55.000    21823665.358 7 116537181.09507     -3168.287 7        46.010                                                                    21823664.182 7  90640024.66007     -2464.104 7        45.219
G07        56.000    20904437.363 8 109853579.31208       401.694 8        49.395                                    20904432.083 8  85600175.55108       313.009 8        49.993    20904432.256 7  85600184.55007       313.043 7        45.539
C02        57.000                                                                                                                                    40749188.199 5 212191760.30905      -567.383 5        35.105    40749181.869 6 164080122.00006      -438.584 6        39.342    40749185.195 5 172423189.11005      -461.075 5        35.686
I03        58.000    99507602.302 6 314703962.56406       840.058 6        40.217
R07        59.000    22709076.417 7 121563519.39307     -3598.083 7        44.336                                                                    22709075.799 6  94549455.05706     -2798.485 6        41.909
C35        60.000                                                                                                                                    25463556.055 7 132595414.87107     -2521.479 7        42.554                                                                    25463554.199 6 107744630.62106     -2049.010 6        41.652
> 2025 01 02 05 01 15.0000000  0 56
G09         1.000    20580595.447 8 108151794.05808     -2058.368 8        48.228                                    20580592.588 8  84274131.44308     -1603.923 8        51.574    20580592.980 7  84274131.44607     -1603.991 7        45.690
G06         2.000    22419596.473 7 117815793.00107     -3194.782 7        45.121                                    22419594.565 7  91804518.60507     -2489.441 7        44.169    22419595.557 7  91804526.60907     -2489.459 7        43.420
E11         3.000    24660986.528 7 129594379.31607     -1170.004 7        43.335                                                                    24660981.658 7  96775015.20607      -873.684 7        44.856    24660981.573 7  99299576.86507      -896.472 7        45.469
G16         4.000    23564163.573 6 123830528.49706     -1190.948 6        40.017                                    23564157.903 3  96491304.61803      -928.016 3        22.362
S21         5.000    38431003.613 7 201955996.89007      -488.330 7        42.402
E10         6.000    25094746.743 7 131873792.60307     -2636.149 7        46.455                                                                    25094745.342 8  98477179.48108     -1968.517 8        48.839    25094745.066 8 101046148.86008     -2019.951 8        49.615
G20         7.000    22020697.814 7 115719559.54107      2171.459 7        45.782                                    22020692.541 5  90171066.92905      1692.044 5        33.102
R10         9.000    20199867.596 7 107676664.58907       192.598 7        45.126
R17        10.000    22639650.229 7 121149345.91907      1362.257 7        44.995                                                                    22639648.095 6  94227263.06906      1059.493 6        41.621
G30        11.000    22375504.993 7 117584081.69107      2469.429 7        46.134                                    22375502.402 7  91623952.10107      1924.230 7        44.928    22375503.393 7  91623960.10607      1924.181 7        42.334
S27        12.000    39067459.074 6 205300858.53006      -502.184 6        37.093
G26        13.000    25379979.092 5 133372692.86005     -3140.527 5        30.000                                    25379977.302 2 103926780.50302     -2447.176 2        17.660    25379976.917 5 103926780.51705     -2447.613 5        30.581
S36        14.000    38198843.427 7 200736800.81507      -488.792 7        44.936
I09        15.000    38122171.568 7 149599586.84907      -806.465 7        42.794
E09        16.000    27622825.263 6 145158946.72706      1914.937 6        38.994                                                                    27622824.258 6 108397913.92106      1429.958 6        40.772    27622823.820 6 111225681.81406      1467.215 6        41.881
S45        17.000    63384435.784 6 333088128.48706      -529.887 6        37.474
E36        18.000    26818468.930 6 140932002.04806      1422.232 6        40.462                                                                    26818468.595 7 105241450.59307      1061.997 7        43.901    26818468.418 7 107986877.95907      1089.706 7        44.813
E12        19.000    26353481.593 6 138488485.42906     -3467.947 6        40.172                                                                    26353477.809 7 103416713.86207     -2589.802 7        42.413    26353477.910 7 106114540.74907     -2657.358 7        43.712
E21        20.000    26376535.415 7 138609628.02307      1188.189 7        42.495                                                                    26376534.617 7 103507205.51907       887.392 7        44.755    26376534.268 7 106207389.74207       910.425 7        45.770
G11        21.000    22120766.449 7 116245432.97507      -877.350 7        45.965                                    22120762.349 5  90580839.72705      -683.646 5        35.276    22120762.439 7  90580852.72207      -683.644 7        44.927
I06        22.000    37954219.893 7 148940751.14907      -349.703 7        43.348
S28        23.000    40860009.459 5 214720788.50405      -488.478 5        35.081
R08        24.000    19725447.795 8 105628920.24508     -1416.846 8        50.395                                                                    19725445.321 7  82155831.70107     -1101.976 7        47.503
S23        25.000    38137501.991 7 200413910.61907      -484.884 7        44.787
R01        26.000    20758266.463 7 110964840.88607      2003.048 7        46.955                                                                    20758266.046 6  86305980.69506      1557.815 6        40.689
C44        27.000                                                                                                                                    25667323.171 6 133656490.07606      -505.375 6        41.366                                                                    25667321.111 6 108606841.50606      -410.657 6        40.932
R24        29.000    21665753.838 8 115856531.56808     -2400.804 8        48.645                                                                    21665752.045 7  90110624.36307     -1867.346 7        42.796
E19        30.000    23901213.699 7 125601759.64407     -2012.579 7        43.211                                                                    23901211.098 7  93793524.55007     -1502.878 7        44.694    23901210.917 7  96240308.86407     -1542.122 7        45.526
C23        31.000                                                                                                                                    26197479.144 6 136417154.45606     -3226.665 6        41.232                                                                    26197470.306 6 110850079.43006     -2621.820 6        40.732
R23        32.000    23740640.014 6 126996428.15506     -4860.923 6        40.741
E29        33.000    27941426.120 6 146833250.28806     -2972.636 6        36.888                                                                    27941425.701 6 109648216.05906     -2219.842 6        41.974    27941424.884 6 112508599.41806     -2277.709 6        41.294
E04        34.000    23800392.224 8 125071942.95708       573.301 8        48.415                                                                    23800389.807 8  93397891.36408       428.078 8        50.788    23800389.683 8  95834353.51808       439.249 8        51.900
C16        35.000                                                                                                                                    40268665.655 6 209689538.13506     -1523.908 6        38.982    40268664.485 6 162145264.08506     -1178.397 6        39.336    40268662.843 6 170389926.09306     -1238.388 6        36.215
C32        36.000                                                                                                                                    26348338.349 6 137202745.81706     -3333.010 6        41.750                                                                    26348339.016 6 111488486.17906     -2708.228 6        41.528
I01        37.000   384593187.227 7 206085460.10607     -2927.032 7        42.580
E27        38.000    27423657.028 6 144112294.62906     -1299.454 6        39.465                                                                    27423656.331 6 107616335.63306      -970.339 6        41.816    27423656.222 7 110423714.54607      -995.639 7        42.514
C19        39.000                                                                                                                                    22445833.161 8 116881349.25408       965.098 8        50.684                                                                    22445827.944 8  94975648.74708       784.218 8        49.984
C39        40.000                                                                                                                                    41196067.888 6 214518751.07506     -1658.715 6        38.207                                                                    41196063.836 6 174314050.23606     -1347.931 6        36.911
G05        41.000    24946399.947 6 131094220.83506      3192.138 6        39.823                                    24946395.166 5 102151321.60505      2487.388 5        31.177    24946395.930 6 102151330.61106      2487.309 6        36.302
S44        42.000    40790875.581 6 214357705.25206      -552.679 6        36.662
G29        43.000    25692911.747 6 135017158.29406      -790.064 6        36.590                                    25692907.653 4 105208161.23904      -615.627 4        28.303    25692908.744 5 105208160.22805      -615.309 5        35.495
C05        44.000                                                                                                                                    39196077.931 6 204104305.08706      -538.363 6        38.910    39196073.157 7 157826421.15307      -416.462 7        43.702    39196074.691 6 165851571.09506      -437.668 6        40.055
G04        46.000    22490679.342 7 118189352.62407     -3207.916 7        43.445                                    22490676.461 5  92095585.30505     -2499.672 5        31.200    22490676.130 7  92095587.31207     -2499.708 7        43.048
R11        47.000    21866636.444 7 116848655.83007      3619.057 7        46.261                                                                    21866633.879 7  90882291.46407      2814.929 7        44.167
C20        49.000                                                                                                                                    22276902.064 8 116001701.87108     -1654.851 8        52.258                                                                    22276895.910 8  94260869.24408     -1344.712 8        49.887
C06        50.000                                                                                                                                    39694907.717 6 206701833.59606     -1538.693 6        36.741    39694902.132 6 159834952.76306     -1189.424 6        41.740    39694902.132 6 167962152.18906     -1250.043 6        38.261
S48        51.000    77165323.009 6 405506149.36206      -473.283 6        37.989
E06        52.000    25356543.146 7 133249560.47707      1494.347 7        44.698                                                                    25356542.211 7  99504554.14207      1115.915 7        46.559    25356542.308 8 102100322.90008      1145.073 8        48.046
C09        53.000                                                                                                                                    39112399.648 6 203668549.41206     -1222.007 6        40.441    39112395.502 7 157489432.85007      -944.929 7        44.892    39112393.581 6 165497359.58706      -993.026 6        40.920
C60        54.000                                                                                                                                    40790880.981 6 212409018.24706      -547.533 6        40.477                                                                    40790864.451 6 172599695.52606      -444.977 6        39.595
R09        55.000    21826632.797 7 116553030.51607     -3171.704 7        45.541                                                                    21826631.462 7  90652351.99907     -2466.880 7        44.799
G07        56.000    20904056.166 8 109851576.76108       399.196 8        49.278                                    20904051.006 8  85598615.12208       311.064 8        49.776    20904051.075 7  85598624.12907       311.047 7        45.559
C02        57.000                                                                                                                                    40749732.628 5 212194595.72305      -567.244 5        34.738    40749726.177 6 164082314.50906      -438.536 6        39.282    40749729.772 5 172425493.12005      -460.989 5        35.757
I03        58.000    99506532.159 6 314699762.48906       840.082 6        40.203
R07        59.000    22712437.457 7 121581511.24607     -3598.915 7        44.829                                                                    22712436.444 7  94563448.70307     -2799.113 7        42.136
C35        60.000                                                                                                                                    25465977.905 6 132608026.36306     -2523.268 6        41.921                                                                    25465976.237 6 107754878.47506     -2050.289 6        41.595
> 2025 01 02 05 01 20.0000000  0 56
G09         1.000    20582554.320 8 108162089.44708     -2059.884 8        48.625                                    20582551.726 8  84282153.82008     -1605.104 8        51.407    20582551.918 7  84282153.82507     -1605.150 7        45.634
G06         2.000    22422636.891 7 117831772.12307     -3196.764 7        44.555                                    22422635.349 7  91816969.86907     -2490.980 7        44.063    22422636.260 7  91816977.87107     -2491.044 7        43.100
E11         3.000    24662100.566 7 129600234.80307     -1172.348 7        43.287                                                                    24662096.020 7  96779387.80907      -875.348 7        44.927    24662095.802 7  99304063.54307      -898.249 7        45.541
G16         4.000    23565298.062 6 123836490.92406     -1194.282 6        39.541                                    23565292.684 3  96495950.66403      -930.600 3        22.476
S21         5.000    38431468.287 7 201958437.75407      -488.247 7        42.296
E10         6.000    25097255.572 7 131886977.48807     -2637.890 7        46.412                                                                    25097254.262 8  98487025.33908     -1969.862 8        48.964    25097254.064 8 101056251.56508     -2021.276 8        49.750
G20         7.000    22018632.817 7 115708706.07507      2169.883 7        45.967                                    22018627.192 5  90162609.68205      1690.818 5        32.940
R10         9.000    20199688.891 7 107675712.37307       188.143 7        45.708
R17        10.000    22638378.433 7 121142544.52207      1358.246 7        44.205                                                                    22638377.338 6  94221973.09006      1056.432 6        41.464
G30        11.000    22373155.698 7 117571737.98207      2468.007 7        46.501                                    22373153.503 7  91614333.62907      1923.124 7        44.761    22373154.061 6  91614341.63406      1923.054 6        41.619
S27        12.000    39067934.417 6 205303368.80206      -501.878 6        36.715
G26        13.000    25382967.645 4 133388402.25604     -3142.898 4        29.858                                    25382966.770 2 103939021.58702     -2449.015 2        16.755    25382966.723 4 103939021.58604     -2449.110 4        29.791
S36        14.000    38199307.631 7 200739244.55607      -488.785 7        44.879
I09        15.000    38123199.599 7 149603619.53607      -806.547 7        42.836
E09        16.000    27621003.946 6 145149373.07906      1914.632 6        39.655                                                                    27621002.561 6 108390764.76706      1429.669 6        40.939    27621002.203 7 111218346.16707      1466.976 7        42.104
S45        17.000    63384895.140 6 333090776.98406      -529.793 6        37.123
E36        18.000    26817116.385 6 140924895.63006      1420.425 6        40.470                                                                    26817116.424 7 105236143.85307      1060.656 7        43.865    26817116.033 7 107981432.77607      1088.344 7        44.986
E12        19.000    26356781.887 6 138505827.48106     -3468.874 6        40.424                                                                    26356777.881 7 103429664.07707     -2590.385 7        42.444    26356777.988 7 106127828.80107     -2657.942 7        43.746
E21        20.000    26375406.015 7 138603691.43007      1186.321 7        42.288                                                                    26375405.166 7 103502772.35807       885.971 7        44.942    26375404.494 7 106202840.92607       909.070 7        45.774
G11        21.000    22121603.089 7 116249827.47407      -880.530 7        46.261                                    22121598.646 5  90584264.01805      -686.127 5        35.076    22121598.560 7  90584277.02507      -686.205 7        44.652
I06        22.000    37954665.108 7 148942499.30007      -349.632 7        43.255
S28        23.000    40860470.971 5 214723229.99305      -488.243 5        34.900
R08        24.000    19726771.473 8 105636009.23608     -1418.847 8        50.263                                                                    19726769.126 7  82161345.35807     -1103.565 7        47.264
S23        25.000    38137963.203 7 200416334.88407      -484.714 7        44.748
R01        26.000    20756393.879 7 110954828.41007      2001.825 7        47.058                                                                    20756393.058 6  86298193.18106      1557.003 6        40.031
C44        27.000                                                                                                                                    25667810.058 6 133659023.21106      -507.856 6        40.930                                                                    25667807.838 6 108608899.89306      -412.920 6        41.077
R24        29.000    21667999.878 8 115868544.99208     -2404.606 8        48.441                                                                    21667999.150 7  90119968.12807     -1870.239 7        43.566
E19        30.000    23903128.672 7 125611823.91007     -2013.149 7        43.007                                                                    23903126.300 7  93801040.07607     -1503.317 7        44.769    23903126.104 7  96248020.44707     -1542.484 7        45.609
C23        31.000                                                                                                                                    26200577.592 6 136433290.74106     -3228.020 6        40.858                                                                    26200568.962 6 110863191.48806     -2623.140 6        40.749
R23        32.000    23745184.071 6 127020733.33206     -4861.162 6        40.310
E29        33.000    27944254.719 6 146848113.27906     -2972.430 6        37.221                                                                    27944254.008 7 109659315.02007     -2219.815 7        42.074    27944253.319 6 112519987.91706     -2277.686 6        41.604
E04        34.000    23799847.136 8 125069078.68208       572.390 8        48.447                                                                    23799844.740 8  93395752.45808       427.434 8        50.784    23799844.588 8  95832158.81508       438.558 8        51.998
C16        35.000                                                                                                                                    40270128.492 6 209697157.80906     -1524.034 6        39.102    40270127.745 6 162151156.10706     -1178.416 6        39.123    40270125.925 6 170396117.72506     -1238.624 6        36.352
C32        36.000                                                                                                                                    26351538.922 6 137219411.35206     -3333.359 6        41.547                                                                    26351539.744 6 111502028.28506     -2708.712 6        41.552
I01        37.000   384596916.790 7 206100095.62507     -2927.118 7        42.451
E27        38.000    27424894.548 6 144118796.82506     -1301.610 6        39.210                                                                    27424893.506 6 107621191.16806      -971.958 6        41.750    27424893.587 7 110428696.74907      -997.213 7        42.637
C19        39.000                                                                                                                                    22444907.102 8 116876526.71908       963.929 8        50.514                                                                    22444901.842 8  94971730.06008       783.116 8        50.094
C39        40.000                                                                                                                                    41197659.999 6 214527044.45806     -1658.543 6        38.057                                                                    41197656.413 6 174320789.29006     -1347.974 6        36.790
G05        41.000    24943362.675 6 131078260.58006      3191.992 6        39.249                                    24943358.134 5 102138885.04605      2487.268 5        30.777    24943357.708 5 102138894.05705      2487.222 5        35.176
S44        42.000    40791403.273 6 214360468.06806      -552.561 6        36.798
G29        43.000    25693663.760 6 135021114.53106      -792.633 6        37.134                                    25693660.745 4 105211244.00204      -617.631 4        28.133    25693660.812 5 105211243.00405      -617.717 5        34.562
C05        44.000                                                                                                                                    39196595.485 6 204106997.48306      -538.221 6        38.655    39196590.189 7 157828503.07107      -416.390 7        43.790    39196591.767 6 165853758.89806      -437.679 6        40.169
G04        46.000    22493732.142 7 118205394.35107     -3208.656 7        43.111                                    22493729.095 5  92108085.34805     -2500.247 5        30.906    22493729.093 7  92108087.33507     -2500.283 7        42.993
R11        47.000    21863250.672 7 116830564.48007      3617.410 7        46.145                                                                    21863248.791 7  90868220.42307      2813.609 7        44.623
C20        49.000                                                                                                                                    22278491.684 8 116009979.56008     -1656.212 8        52.118                                                                    22278485.605 8  94267595.55908     -1346.055 8        50.058
C06        50.000                                                                                                                                    39696385.097 6 206709525.03706     -1538.398 6        36.703    39696379.059 6 159840900.27906     -1189.487 6        41.726    39696379.141 6 167968402.13206     -1250.150 6        38.291
S48        51.000    77165781.730 6 405508514.75206      -473.169 6        38.075
E06        52.000    25355121.363 7 133242089.96507      1493.809 7        44.694                                                                    25355120.624 7  99498975.52107      1115.428 7        46.604    25355120.717 8 102094598.74908      1144.586 8        48.167
C09        53.000                                                                                                                                    39113573.221 6 203674659.52906     -1222.194 6        40.229    39113568.958 7 157494157.59307      -944.978 7        44.816    39113566.831 6 165502324.57006      -993.230 6        41.101
C60        54.000                                                                                                                                    40791406.755 6 212411755.95006      -547.499 6        40.265                                                                    40791390.305 6 172601920.13806      -445.110 6        39.703
R09        55.000    21829603.957 7 116568896.74007     -3174.949 7        45.418                                                                    21829603.102 7  90664692.38707     -2469.364 7        45.041
G07        56.000    20903677.300 8 109849586.74908       396.792 8        49.465                                    20903672.314 8  85597064.46508       309.189 8        49.602    20903672.338 7  85597073.46707       309.194 7        45.333
C02        57.000                                                                                                                                    40750277.088 5 212197431.04005      -567.056 5        34.733    40750271.152 6 164084506.93906      -438.274 6        39.291    40750274.277 5 172427797.02505      -460.945 5        35.919
I03        58.000    99505461.900 6 314695562.37406       839.968 6        40.226
R07        59.000    22715799.368 7 121599507.33607     -3599.662 7        43.879                                                                    22715798.598 6  94577445.65906     -2799.696 6        41.924
C35        60.000                                                                                                                                    25468401.242 7 132620646.27707     -2524.939 7        42.184                                                                    25468399.627 6 107765133.19006     -2051.755 6        41.812
> 2025 01 02 05 01 25.0000000  0 56
G09         1.000    20584515.311 8 108172393.21608     -2061.658 8        48.878                                    20584512.448 8  84290182.73008     -1606.488 8        51.277    20584513.021 7  84290182.73307     -1606.485 7        45.601
G06         2.000    22425679.553 7 117847761.85507     -3199.088 7        44.885                                    22425678.141 7  91829429.39207     -2492.794 7        43.977    22425679.082 7  91829437.38607     -2492.726 7        43.263
E11         3.000    24663217.264 7 129606102.84607     -1174.883 7        43.414                                                                    24663212.551 7  96783769.80107      -877.369 7        45.088    24663212.438 7  99308559.83707      -900.264 7        45.580
G16         4.000    23566435.877 6 123842470.85006     -1197.747 6        39.898                                    23566430.614 3  96500610.35103      -933.317 3        22.057
S21         5.000    38431933.626 7 201960878.51207      -488.228 7        42.525
E10         6.000    25099766.402 7 131900171.78007     -2639.829 7        46.497                                                                    25099765.069 8  98496878.21608     -1971.359 8        48.948    25099764.802 8 101066361.47008     -2022.800 8        49.713
G20         7.000    22016568.739 7 115697861.42607      2167.931 7        46.011                                    22016563.566 5  90154159.30405      1689.297 5        32.784
R10         9.000    20199514.646 7 107674783.37307       183.407 7        45.720
R17        10.000    22637110.259 7 121135763.29707      1353.991 7        44.832                                                                    22637109.583 6  94216698.81506      1053.181 6        41.509
G30        11.000    22370808.441 7 117559402.27807      2466.225 7        46.649                                    22370806.102 7  91604721.39407      1921.734 7        44.643    22370806.391 6  91604729.39006      1921.737 6        41.700
S27        12.000    39068412.657 6 205305878.70706      -501.960 6        37.036
G26        13.000    25385959.579 4 133404122.08304     -3145.077 4        29.991                                    25385958.147 2 103951270.81002     -2450.703 2        16.868    25385958.818 4 103951270.81304     -2450.933 4        29.915
S36        14.000    38199772.992 7 200741688.48107      -488.750 7        45.129
I09        15.000    38124227.175 7 149607652.75507      -806.887 7        42.707
E09        16.000    27619182.226 6 145139801.06706      1914.072 6        39.646                                                                    27619180.787 6 108383616.83706      1429.344 6        41.135    27619180.676 7 111211011.77207      1466.685 7        42.085
S45        17.000    63385358.803 6 333093425.35906      -529.660 6        37.293
E36        18.000    26815766.104 6 140917798.83506      1418.297 6        40.841                                                                    26815765.911 7 105230844.29107      1059.091 7        44.054    26815765.637 7 107975994.96907      1086.734 7        44.990
E12        19.000    26360082.820 6 138523174.42406     -3469.945 6        40.782                                                                    26360078.874 7 103442617.96807     -2591.200 7        42.502    26360079.145 7 106141120.61207     -2658.838 7        43.877
E21        20.000    26374277.944 7 138597764.39307      1184.352 7        42.555                                                                    26374277.195 7 103498346.33107       884.363 7        45.014    26374276.717 7 106198299.43307       907.459 7        45.732
G11        21.000    22122442.450 7 116254238.84507      -884.012 7        46.325                                    22122438.144 5  90587701.44205      -688.838 5        34.971    22122438.253 7  90587714.43907      -688.820 7        44.253
I06        22.000    37955110.850 7 148944247.61007      -349.850 7        43.437
S28        23.000    40860935.657 5 214725671.46105      -488.344 5        35.138
R08        24.000    19728097.263 8 105643108.54408     -1420.971 8        50.318                                                                    19728094.882 7  82166867.04107     -1105.154 7        47.157
S23        25.000    38138424.652 7 200418759.28207      -484.911 7        44.948
R01        26.000    20754521.591 7 110944822.04607      2000.627 7        46.861                                                                    20754521.421 6  86290410.48606      1555.943 6        39.838
C44        27.000                                                                                                                                    25668298.442 6 133661569.66506      -510.642 6        40.360                                                                    25668296.970 6 108610969.06806      -414.675 6        40.691
R24        29.000    21670249.977 8 115880577.72008     -2408.530 8        48.575                                                                    21670248.950 7  90129326.92907     -1873.301 7        43.556
E19        30.000    23905044.626 7 125621892.00107     -2013.951 7        43.136                                                                    23905042.196 7  93808558.46107     -1504.007 7        44.783    23905041.967 7  96255734.96107     -1543.254 7        45.688
C23        31.000                                                                                                                                    26203677.956 6 136449434.11006     -3229.379 6        40.479                                                                    26203669.075 6 110876309.28706     -2623.924 6        40.503
R23        32.000    23749729.448 6 127045039.80206     -4861.602 6        40.420
E29        33.000    27947083.068 6 146862976.29106     -2972.447 6        37.520                                                                    27947082.112 6 109670413.99006     -2219.841 6        41.864    27947082.007 7 112531376.44807     -2277.821 7        42.019
E04        34.000    23799303.330 8 125066219.57708       571.264 8        48.456                                                                    23799300.698 8  93393617.41208       426.548 8        50.875    23799300.550 8  95829968.07208       437.663 8        52.069
C16        35.000                                                                                                                                    40271591.293 6 209704777.45106     -1524.082 6        39.006    40271591.185 6 162157048.08906     -1178.461 6        39.465    40271589.092 6 170402309.30006     -1238.188 6        36.170
C32        36.000                                                                                                                                    26354739.757 6 137236079.08906     -3333.939 6        41.847                                                                    26354740.629 6 111515572.15806     -2708.838 6        41.425
I01        37.000   384600646.308 7 206114731.76007     -2927.328 7        42.633
E27        38.000    27426133.883 6 144125310.72006     -1304.066 6        39.420                                                                    27426133.119 6 107626055.42906      -973.795 6        41.807    27426133.108 7 110433687.90807      -999.177 7        42.754
C19        39.000                                                                                                                                    22443982.149 8 116871710.59708       962.526 8        50.370                                                                    22443976.906 8  94967816.54808       782.301 8        49.971
C39        40.000                                                                                                                                    41199253.497 6 214535337.26606     -1658.492 6        37.724                                                                    41199249.053 6 174327527.86506     -1347.603 6        36.601
G05        41.000    24940325.662 6 131062301.56506      3191.629 6        39.631                                    24940321.115 5 102126449.44905      2486.984 5        30.317    24940320.995 5 102126458.45805      2486.675 5        35.200
S44        42.000    40791926.131 6 214363230.74506      -552.355 6        36.839
G29        43.000    25694420.283 6 135025085.60506      -795.862 6        37.380                                    25694416.476 4 105214338.34804      -620.154 4        28.436    25694417.036 5 105214337.36005      -620.154 5        33.311
C05        44.000                                                                                                                                    39197112.101 6 204109689.88306      -538.638 6        39.000    39197107.162 7 157830585.00307      -416.481 7        44.039    39197108.762 6 165855946.66806      -437.532 6        40.150
G04        46.000    22496786.179 7 118221440.20707     -3209.667 7        43.407                                    22496782.524 5  92120588.60805     -2501.038 5        30.838    22496782.589 7  92120590.59207     -2501.034 7        43.026
R11        47.000    21859866.726 7 116812482.14507      3615.538 7        46.947                                                                    21859865.289 7  90854156.38207      2812.054 7        44.438
C20        49.000                                                                                                                                    22280082.809 8 116018264.99508     -1657.901 8        51.951                                                                    22280076.666 8  94274328.13608     -1347.049 8        49.906
C06        50.000                                                                                                                                    39697862.311 6 206717216.75706     -1538.353 6        37.047    39697856.005 6 159846847.99806     -1189.582 6        41.604    39697856.159 6 167974652.26506     -1249.989 6        38.438
S48        51.000    77166236.937 6 405510879.92306      -473.155 6        38.225
E06        52.000    25353700.374 7 133234622.96607      1492.933 7        44.792                                                                    25353699.691 7  99493399.50907      1114.862 7        46.742    25353699.736 8 102088877.27608      1143.916 8        48.251
C09        53.000                                                                                                                                    39114746.259 6 203680770.55506     -1222.462 6        40.174    39114742.309 7 157498883.01607      -945.146 7        45.138    39114740.462 6 165507290.25406      -993.140 6        40.813
C60        54.000                                                                                                                                    40791932.510 6 212414493.51806      -547.536 6        40.434                                                                    40791915.998 6 172604144.60306      -444.783 6        39.532
R09        55.000    21832578.318 7 116584779.82707     -3178.387 7        44.886                                                                    21832577.912 7  90677045.89807     -2472.126 7        45.273
G07        56.000    20903301.150 8 109847609.32408       394.192 8        49.480                                    20903296.013 8  85595523.61408       307.164 8        49.496    20903296.245 7  85595532.61507       307.126 7        45.162
C02        57.000                                                                                                                                    40750821.960 5 212200266.35205      -567.432 5        34.905    40750815.312 6 164086699.36506      -438.558 6        39.592    40750818.804 5 172430100.92105      -460.867 5        35.681
I03        58.000    99504391.673 6 314691362.26206       839.895 6        40.203
R07        59.000    22719162.558 7 121617507.57207     -3600.494 7        45.473                                                                    22719160.762 6  94591445.83306     -2800.428 6        41.943
C35        60.000                                                                                                                                    25470826.851 7 132633274.61407     -2526.550 7        42.294                                                                    25470824.911 6 107775394.75406     -2052.951 6        41.592
> 2025 01 02 05 01 30.0000000  0 56
G09         1.000    20586477.724 8 108182705.28008     -2063.065 8        48.410                                    20586474.744 8  84298218.10408     -1607.583 8        51.433    20586475.258 7  84298218.10807     -1607.537 7        45.738
G06         2.000    22428724.686 7 117863762.09607     -3200.942 7        44.950                                    22428722.891 7  91841897.11107     -2494.241 7        44.039    22428723.675 7  91841905.12207     -2494.285 7        43.875
E11         3.000    24664336.486 7 129611983.36107     -1177.149 7        43.496                                                                    24664331.584 7  96788161.08007      -878.993 7        45.148    24664331.477 7  99313065.68007      -901.929 7        45.294
G16         4.000    23567577.309 6 123848468.25306     -1201.008 6        40.091                                    23567571.937 3  96505283.65303      -935.848 3        22.286
S21         5.000    38432399.734 7 201963319.25507      -487.962 7        42.519
E10         6.000    25102278.906 7 131913375.39407     -2641.508 7        46.504                                                                    25102277.631 8  98506738.05308     -1972.507 8        49.122    25102277.439 8 101076478.52508     -2024.000 8        49.465
G20         7.000    22014506.821 7 115687025.53807      2166.460 7        45.919                                    22014501.539 5  90145715.75305      1688.144 5        32.940
R10         9.000    20199344.849 7 107673877.71307       178.946 7        45.765
R17        10.000    22635847.683 7 121129002.08507      1350.354 7        44.108                                                                    22635846.224 6  94211440.10006      1050.270 6        41.483
G30        11.000    22368462.497 7 117547074.46907      2464.881 7        46.277                                    22368460.182 7  91595115.30907      1920.684 7        44.710    22368460.710 7  91595123.31807      1920.676 7        42.527
S27        12.000    39068889.846 6 205308388.50206      -501.766 6        37.161
G26        13.000    25388951.690 5 133419852.20305     -3146.671 5        30.513                                    25388951.496 2 103963528.05802     -2451.938 2        16.717    25388951.383 5 103963528.07305     -2451.879 5        30.626
S36        14.000    38200237.353 7 200744132.26407      -488.724 7        45.071
I09        15.000    38125255.043 7 149611686.46007      -806.673 7        42.984
E09        16.000    27617360.716 6 145130230.60906      1914.202 6        39.462                                                                    27617359.439 6 108376470.07906      1429.446 6        41.347    27617359.365 6 111203678.58106      1466.596 6        41.902
S45        17.000    63385819.554 6 333096073.42506      -529.386 6        37.448
E36        18.000    26814417.359 6 140910711.58106      1416.722 6        40.737                                                                    26814417.203 7 105225551.86807      1057.909 7        44.132    26814417.067 7 107970564.48307      1085.456 7        44.707
E12        19.000    26363384.611 6 138540526.15406     -3470.591 6        40.729                                                                    26363380.753 7 103455575.43807     -2591.841 7        42.609    26363381.052 7 106154416.09507     -2659.419 7        43.526
E21        20.000    26373152.114 7 138591846.84207      1182.634 7        42.775                                                                    26373151.122 7 103493927.36707       883.205 7        45.148    26373150.642 7 106193765.20007       906.311 7        45.500
G11        21.000    22123285.056 7 116258666.97807      -887.128 7        46.410                                    22123280.772 5  90591151.93405      -691.267 5        35.052    22123280.946 7  90591164.94507      -691.250 7        44.683
I06        22.000    37955556.310 7 148945995.99807      -349.544 7        43.606
S28        23.000    40861403.541 5 214728112.75105      -487.893 5        35.481
R08        24.000    19729425.015 8 105650218.00508     -1422.760 8        50.178                                                                    19729422.508 7  82172396.63107     -1106.526 7        47.818
S23        25.000    38138886.078 7 200421183.61307      -484.787 7        44.956
R01        26.000    20752651.034 7 110934821.72407      1999.727 7        46.900                                                                    20752649.685 6  86282632.44606      1555.326 6        39.973
C44        27.000                                                                                                                                    25668789.834 6 133664129.36506      -513.057 6        40.300                                                                    25668788.397 6 108613049.05106      -416.750 6        40.775
R24        29.000    21672503.898 8 115892629.79608     -2412.153 8        48.848                                                                    21672502.715 7  90138700.76807     -1876.197 7        43.577
E19        30.000    23906961.296 7 125631963.88807     -2014.538 7        43.012                                                                    23906958.765 7  93816079.67407     -1504.369 7        44.919    23906958.484 7  96263452.39007     -1543.715 7        45.338
C23        31.000                                                                                                                                    26206779.480 6 136465584.53806     -3230.708 6        40.296                                                                    26206770.565 6 110889432.82806     -2625.083 6        40.384
R23        32.000    23754274.116 6 127069347.30406     -4861.400 6        41.251
E29        33.000    27949910.908 6 146877839.26306     -2972.458 6        37.577                                                                    27949910.437 6 109681512.93906     -2219.639 6        41.886    27949910.293 6 112542764.92906     -2277.686 6        41.757
E04        34.000    23798760.142 8 125063365.55508       570.429 8        48.277                                                                    23798757.549 8  93391486.16008       426.032 8        51.016    23798757.412 8  95827781.22408       437.096 8        51.769
C16        35.000                                                                                                                                    40273055.215 6 209712397.04706     -1523.897 6        38.982    40273054.601 6 162162940.03906     -1178.349 6        39.823    40273052.437 6 170408500.85106     -1238.196 6        36.246
C32        36.000                                                                                                                                    26357941.236 7 137252748.94607     -3334.053 7        42.000                                                                    26357941.817 6 111529117.76906     -2709.034 6        41.523
I01        37.000   384604376.379 7 206129368.53007     -2927.263 7        42.804
E27        38.000    27427375.910 6 144131836.22806     -1306.176 6        39.453                                                                    27427374.925 6 107630928.36906      -975.197 6        41.805    27427374.790 7 110438687.97407     -1000.823 7        42.609
C19        39.000                                                                                                                                    22443058.495 8 116866900.80308       961.511 8        50.214                                                                    22443053.243 8  94963908.20508       781.338 8        49.933
C39        40.000                                                                                                                                    41200845.641 6 214543629.41206     -1658.022 6        37.955                                                                    41200841.460 6 174334265.90906     -1347.382 6        36.605
G05        41.000    24937289.274 6 131046343.68706      3191.499 6        39.790                                    24937284.459 5 102114014.74405      2486.881 5        30.762    24937285.017 5 102114023.75305      2486.956 5        35.990
S44        42.000    40792455.839 6 214365993.23406      -552.293 6        36.972
G29        43.000    25695179.059 6 135029071.37806      -798.411 6        37.130                                    25695174.949 4 105217444.14904      -622.138 4        28.682    25695175.360 5 105217443.16605      -622.004 5        34.348
C05        44.000                                                                                                                                    39197629.146 6 204112382.19606      -538.254 6        38.868    39197624.260 7 157832666.86807      -416.245 7        44.001    39197625.811 6 165858134.40306      -437.378 6        39.817
G04        46.000    22499840.106 7 118237490.09107     -3210.142 7        43.920                                    22499836.692 5  92133095.00105     -2501.411 5        30.996    22499836.637 7  92133097.00007     -2501.423 7        43.105
R11        47.000    21856484.805 7 116794408.70307      3613.869 7        46.650                                                                    21856482.728 7  90840099.24907      2810.887 7        44.668
C20        49.000                                                                                                                                    22281675.379 8 116026558.09808     -1659.226 8        51.977                                                                    22281669.303 8  94281066.96708     -1348.182 8        49.839
C06        50.000                                                                                                                                    39699339.885 6 206724908.63906     -1538.315 6        36.828    39699333.245 6 159852795.85106     -1189.522 6        41.485    39699333.273 6 167980902.55006     -1249.904 6        38.523
S48        51.000    77166693.928 6 405513244.88506      -472.932 6        38.300
E06        52.000    25352279.713 7 133227159.36807      1492.511 7        44.566                                                                    25352279.364 7  99487826.04607      1114.557 7        46.862    25352279.519 7 102083158.42207      1143.607 7        47.938
C09        53.000                                                                                                                                    39115919.814 6 203686882.44006     -1222.339 6        40.296    39115916.070 7 157503609.11707      -945.187 7        45.177    39115914.253 6 165512256.67706      -993.111 6        41.006
C60        54.000                                                                                                                                    40792457.953 6 212417230.88306      -547.453 6        40.403                                                                    40792441.566 6 172606368.95406      -444.806 6        39.637
R09        55.000    21835555.705 7 116600679.76207     -3181.441 7        44.733                                                                    21835555.095 7  90689412.50307     -2474.454 7        44.761
G07        56.000    20902927.257 8 109845644.36808       391.920 8        49.460                                    20902922.087 8  85593992.48008       305.392 8        49.591    20902922.153 7  85594001.48407       305.371 7        45.391
C02        57.000                                                                                                                                    40751366.438 5 212203101.47905      -566.933 5        34.838    40751359.978 6 164088891.68006      -438.468 6        39.562    40751363.224 5 172432404.71205      -460.491 5        35.814
I03        58.000    99503321.420 6 314687162.07206       840.093 6        40.358
R07        59.000    22722527.280 7 121635512.16407     -3601.214 7        46.115                                                                    22722524.211 7  94605449.38007     -2800.999 7        42.034
C35        60.000                                                                                                                                    25473253.086 7 132645911.34107     -2528.082 7        42.326                                                                    25473251.553 6 107785663.12606     -2054.226 6        41.661
> 2025 01 02 05 01 35.0000000  0 56
G09         1.000    20588441.388 8 108193025.52308     -2064.952 8        48.295                                    20588438.604 8  84306259.85108     -1609.052 8        51.445    20588438.869 7  84306259.85107     -1609.000 7        45.490
G06         2.000    22431771.234 7 117879772.73507     -3203.121 7        44.999                                    22431769.613 7  91854372.93207     -2495.936 7        44.110    22431770.256 7  91854380.92707     -2495.976 7        43.573
E11         3.000    24665457.805 7 129617876.20307     -1179.748 7        43.062                                                                    24665453.056 7  96792561.59407      -881.038 7        45.031    24665452.866 7  99317580.98407      -904.044 7        45.252
G16         4.000    23568721.810 6 123854482.99606     -1204.868 6        39.919                                    23568716.695 3  96509970.46103      -938.857 3        22.571
S21         5.000    38432862.525 7 201965759.76407      -488.048 7        42.690
E10         6.000    25104793.062 7 131926588.20607     -2643.562 7        46.326                                                                    25104791.976 8  98516604.76508     -1974.021 8        49.036    25104791.745 8 101086602.62808     -2025.545 8        49.438
G20         7.000    22012446.670 7 115676198.30707      2164.555 7        46.197                                    22012441.262 5  90137278.95305      1686.666 5        32.940
R10         9.000    20199179.149 7 107672995.10307       174.150 7        45.550
R17        10.000    22634587.867 7 121122260.81607      1346.167 7        45.335                                                                    22634586.695 6  94206196.88806      1046.986 6        41.754
G30        11.000    22366117.920 7 117534754.46707      2463.228 7        46.128                                    22366115.746 7  91585515.30907      1919.400 7        44.749    22366116.450 6  91585523.30206      1919.349 6        41.814
S27        12.000    39069370.112 6 205310897.92606      -501.745 6        36.873
G26        13.000    25391948.053 5 133435592.63405     -3149.182 5        31.570                                    25391946.843 2 103975793.29802     -2453.924 2        17.736    25391947.721 5 103975793.30905     -2453.748 5        31.192
S36        14.000    38200702.750 7 200746576.43907      -488.845 7        45.071
I09        15.000    38126282.881 7 149615720.56207      -806.857 7        42.899
E09        16.000    27615539.435 6 145120661.65806      1913.445 6        39.562                                                                    27615538.492 6 108369324.41806      1429.065 6        41.058    27615538.478 6 111196346.50406      1466.224 6        41.926
S45        17.000    63386282.586 6 333098721.19106      -529.475 6        37.478
E36        18.000    26813070.342 6 140903633.78306      1414.551 6        40.353                                                                    26813070.319 7 105220266.49607      1056.289 7        43.953    26813070.195 7 107965141.23007      1083.842 7        44.683
E12        19.000    26366687.509 6 138557882.57806     -3471.736 6        40.644                                                                    26366683.621 7 103468536.39007     -2592.448 7        42.468    26366683.831 7 106167715.17007     -2660.126 7        43.433
E21        20.000    26372027.662 7 138585938.66007      1180.661 7        42.728                                                                    26372026.720 7 103489515.42007       881.645 7        45.053    26372026.333 7 106189238.15807       904.646 7        45.556
G11        21.000    22124130.819 7 116263111.77507      -890.672 7        46.274                                    22124126.588 5  90594615.41105      -694.029 5        35.224    22124127.245 7  90594628.41307      -694.043 7        44.602
I06        22.000    37956001.965 7 148947744.41207      -349.798 7        43.553
S28        23.000    40861866.010 5 214730553.89405      -488.092 5        35.362
R08        24.000    19730754.560 8 105657337.45808     -1424.995 8        50.275                                                                    19730752.080 7  82177933.98207     -1108.361 7        47.383
S23        25.000    38139347.483 7 200423607.60807      -484.921 7        45.013
R01        26.000    20750781.337 7 110924827.07607      1998.256 7        47.181                                                                    20750780.694 6  86274858.83406      1554.075 6        40.000
C44        27.000                                                                                                                                    25669284.271 6 133666702.19006      -515.836 6        40.296                                                                    25669282.407 6 108615139.67206      -419.257 6        40.844
R24        29.000    21674761.608 8 115904700.90208     -2416.158 8        49.130                                                                    21674759.582 7  90148089.39007     -1879.297 7        43.001
E19        30.000    23908878.835 7 125642039.37807     -2015.560 7        42.692                                                                    23908876.122 7  93823603.57707     -1505.055 7        44.892    23908875.800 7  96271172.55807     -1544.358 7        45.311
C23        31.000                                                                                                                                    26209882.096 6 136481741.86606     -3232.194 6        40.396                                                                    26209873.265 6 110902561.96706     -2626.437 6        40.291
R23        32.000    23758817.957 7 127093655.90007     -4861.795 7        42.045
E29        33.000    27952739.388 6 146892702.06806     -2972.402 6        37.051                                                                    27952738.704 6 109692611.77306     -2219.693 6        41.874    27952738.649 6 112554153.29106     -2277.616 6        41.664
E04        34.000    23798217.797 8 125060516.50108       569.253 8        48.302                                                                    23798215.436 8  93389358.62108       425.133 8        50.937    23798215.305 8  95825598.18008       436.247 8        51.691
C16        35.000                                                                                                                                    40274518.839 6 209720016.43306     -1523.840 6        38.928    40274517.854 6 162168831.83206     -1178.319 6        39.646    40274515.536 5 170414692.20205     -1238.270 5        35.924
C32        36.000                                                                                                                                    26361142.916 7 137269420.81907     -3334.763 7        42.138                                                                    26361143.453 6 111542665.01206     -2709.824 6        41.466
I01        37.000   384608106.499 7 206144005.85407     -2927.558 7        42.883
E27        38.000    27428619.696 6 144138373.21606     -1308.662 6        39.024                                                                    27428618.989 6 107635809.88306      -977.139 6        41.809    27428618.674 7 110443696.83507     -1002.673 7        42.364
C19        39.000                                                                                                                                    22442135.986 8 116862097.23608       960.077 8        50.037                                                                    22442130.805 8  94960004.89808       780.088 8        49.921
C39        40.000                                                                                                                                    41202437.599 6 214551920.77306     -1658.172 6        37.905                                                                    41202433.725 6 174341003.30406     -1347.427 6        36.522
G05        41.000    24934252.348 6 131030386.88406      3191.285 6        39.985                                    24934248.084 5 102101580.88005      2486.715 5        31.245    24934248.755 5 102101589.86705      2486.554 5        35.690
S44        42.000    40792978.885 6 214368755.41506      -552.613 6        36.737
G29        43.000    25695940.464 6 135033071.76106      -801.568 6        37.251                                    25695936.095 4 105220561.32504      -624.596 4        28.294    25695937.014 5 105220560.34505      -624.937 5        34.148
C05        44.000                                                                                                                                    39198146.615 6 204115074.34006      -538.426 6        38.748    39198141.144 7 157834748.61107      -416.403 7        43.972    39198142.776 6 165860321.98206      -437.745 6        39.994
G04        46.000    22502895.191 7 118253543.91607     -3211.142 7        44.000                                    22502891.619 5  92145604.47605     -2502.191 5        31.057    22502891.554 7  92145606.47607     -2502.392 7        42.447
R11        47.000    21853104.162 7 116776344.04507      3611.983 7        47.264                                                                    21853102.577 7  90826048.96607      2809.307 7        45.192
C20        49.000                                                                                                                                    22283269.540 8 116034858.75508     -1660.899 8        51.785                                                                    22283263.375 8  94287811.91708     -1349.658 8        49.830
C06        50.000                                                                                                                                    39700816.284 6 206732600.62206     -1538.453 6        36.877    39700810.430 6 159858743.76606     -1189.660 6        41.499    39700810.602 6 167987152.89706     -1250.031 6        38.384
S48        51.000    77167150.266 6 405515609.56606      -472.810 6        38.168
E06        52.000    25350860.295 7 133219699.10107      1491.657 7        43.987                                                                    25350859.774 7  99482255.06807      1113.883 7        46.744    25350859.938 7 102077442.11107      1142.943 7        47.879
C09        53.000                                                                                                                                    39117094.028 6 203692995.05006     -1222.729 6        40.160    39117090.088 7 157508335.76507      -945.400 7        45.294    39117088.051 6 165517223.66806      -993.737 6        40.987
C60        54.000                                                                                                                                    40792983.583 6 212419967.93706      -547.470 6        40.224                                                                    40792967.312 6 172608592.99706      -444.926 6        39.529
R09        55.000    21838537.071 7 116616596.38407     -3185.062 7        45.726                                                                    21838535.061 7  90701792.09707     -2477.221 7        44.327
G07        56.000    20902555.777 8 109843691.80808       389.195 8        49.199                                    20902550.518 8  85592471.00608       303.268 8        49.714    20902550.733 7  85592480.00607       303.316 7        45.055
C02        57.000                                                                                                                                    40751910.804 5 212205936.38805      -567.057 5        34.638    40751904.287 6 164091083.79106      -438.519 6        39.562    40751907.541 5 172434708.27705      -460.794 5        35.552
I03        58.000    99502250.808 6 314682961.73906       840.070 6        40.431
R07        59.000    22725889.682 7 121653520.81207     -3602.225 7        45.458                                                                    22725887.964 6  94619456.09806     -2801.689 6        41.459
C35        60.000                                                                                                                                    25475681.673 6 132658556.30206     -2529.855 6        41.814                                                                    25475679.908 6 107795938.17606     -2055.811 6        41.478
> 2025 01 02 05 01 40.0000000  0 56
G09         1.000    20590406.849 8 108203354.72508     -2066.722 8        48.711                                    20590404.191 8  84314308.58208     -1610.431 8        51.269    20590404.655 7  84314308.58407     -1610.418 7        45.825
G06         2.000    22434819.916 7 117895794.52107     -3205.422 7        44.820                                    22434818.423 7  91866857.44207     -2497.730 7        43.896    22434818.774 7  91866865.44407     -2497.721 7        42.882
E11         3.000    24666581.717 7 129623782.19407     -1182.479 7        43.215                                                                    24666576.933 7  96796971.90407      -883.018 7        44.882    24666576.803 7  99322106.34707      -906.011 7        45.240
G16         4.000    23569870.201 6 123860515.86106     -1208.376 6        40.448                                    23569864.856 3  96514671.38503      -941.585 3        22.590
S21         5.000    38433328.450 7 201968200.87507      -488.353 7        42.760
E10         6.000    25107309.644 7 131939811.00507     -2645.540 7        46.296                                                                    25107308.134 8  98526478.93408     -1975.549 8        48.771    25107308.039 8 101096734.38608     -2027.131 8        49.331
G20         7.000    22010387.870 7 115665380.57107      2162.581 7        45.821                                    22010382.683 5  90128849.55205      1685.131 5        32.760
R10         9.000    20199018.325 7 107672136.24807       169.477 7        45.758
R17        10.000    22633332.366 7 121115540.36007      1342.096 7        46.208                                                                    22633330.899 7  94200969.86307      1043.918 7        42.025
G30        11.000    22363774.912 7 117522443.08607      2461.395 7        45.774                                    22363772.942 7  91575922.02107      1917.968 7        44.540    22363773.560 6  91575930.03206      1917.975 6        41.707
S27        12.000    39069847.837 6 205313408.47806      -502.199 6        36.873
G26        13.000    25394944.992 5 133451344.04805     -3151.281 5        31.857                                    25394944.310 2 103988067.11502     -2455.519 2        17.736    25394944.359 5 103988067.12205     -2455.740 5        31.540
S36        14.000    38201167.973 7 200749021.47707      -488.905 7        45.126
I09        15.000    38127311.475 7 149619755.66707      -807.191 7        42.929
E09        16.000    27613718.934 6 145111094.91106      1913.197 6        39.892                                                                    27613718.018 6 108362180.44406      1428.560 6        40.856    27613717.879 6 111189016.15506      1465.938 6        41.900
S45        17.000    63386741.227 6 333099769.64416      -529.836 6        37.641
E36        18.000    26811725.439 6 140896566.22206      1412.479 6        40.708                                                                    26811725.266 7 105214988.78207      1054.717 7        43.771    26811725.247 7 107959725.84007      1082.254 7        44.606
E12        19.000    26369991.242 6 138575244.49006     -3472.890 6        40.739                                                                    26369987.523 7 103481501.45507     -2593.414 7        42.360    26369987.589 7 106181018.44407     -2661.027 7        43.418
E21        20.000    26370905.024 7 138580040.65007      1178.657 7        42.684                                                                    26370904.258 7 103485111.07107       880.122 7        44.837    26370904.058 7 106184718.90707       903.118 7        45.672
G11        21.000    22124979.769 7 116267574.01007      -894.177 7        45.792                                    22124975.745 5  90598092.47805      -696.760 5        35.019    22124975.922 7  90598105.46707      -696.735 7        44.534
I06        22.000    37956447.515 7 148949493.41907      -349.861 7        43.500
S28        23.000    40862330.884 5 214732995.46105      -488.474 5        35.100
R08        24.000    19732086.099 8 105664467.79708     -1427.124 8        50.056                                                                    19732083.150 7  82183479.79207     -1109.953 7        47.340
S23        25.000    38139808.986 7 200426032.19407      -485.043 7        45.037
R01        26.000    20748913.101 7 110914839.20407      1996.900 7        47.504                                                                    20748912.328 6  86267090.46806      1553.234 6        39.420
C44        27.000                                                                                                                                    25669781.324 6 133669288.94006      -518.689 6        40.660                                                                    25669779.248 6 108617241.63806      -421.609 6        40.741
R24        29.000    21677022.542 8 115916791.91308     -2420.208 8        48.362                                                                    21677020.533 7  90157493.50607     -1882.341 7        43.566
E19        30.000    23910796.941 7 125652119.31407     -2016.382 7        42.650                                                                    23910794.234 7  93831130.80107     -1505.755 7        44.676    23910793.983 7  96278896.14807     -1545.069 7        45.285
C23        31.000                                                                                                                                    26212986.890 6 136497906.87506     -3233.855 6        40.415                                                                    26212977.681 6 110915697.37106     -2627.610 6        40.129
R23        32.000    23763362.721 7 127117966.30707     -4862.137 7        42.282
E29        33.000    27955568.005 6 146907565.51206     -2972.704 6        37.085                                                                    27955567.293 6 109703711.07506     -2219.903 6        41.855    27955567.075 6 112565542.13806     -2277.737 6        41.709
E04        34.000    23797676.907 8 125057673.20508       568.140 8        48.420                                                                    23797674.312 8  93387235.38408       424.221 8        50.726    23797674.251 8  95823419.55808       435.276 8        51.720
C16        35.000                                                                                                                                    40275981.619 6 209727636.42206     -1524.180 6        39.111    40275981.199 6 162174724.08406     -1178.392 6        39.811    40275979.009 5 170420884.07205     -1238.280 5        35.790
C32        36.000                                                                                                                                    26364345.224 6 137286095.47506     -3335.204 6        41.995                                                                    26364345.621 6 111556214.52606     -2710.092 6        41.333
I01        37.000   384611836.811 7 206158644.28607     -2927.705 7        42.652
E27        38.000    27429865.899 6 144144922.49306     -1311.140 6        38.688                                                                    27429865.289 6 107640700.58306      -979.153 6        41.495    27429864.758 7 110448715.10607     -1004.530 7        42.191
C19        39.000                                                                                                                                    22441214.957 8 116857300.68708       958.611 8        50.075                                                                    22441209.638 8  94956107.31308       778.987 8        49.852
C39        40.000                                                                                                                                    41204030.379 6 214560212.16606     -1658.258 6        37.936                                                                    41204026.036 6 174347740.73306     -1347.502 6        36.454
G05        41.000    24931216.142 6 131014431.80906      3190.906 6        39.441                                    24931211.987 5 102089148.35505      2486.424 5        30.725    24931211.740 5 102089157.37605      2486.423 5        35.081
S44        42.000    40793505.405 6 214371518.03406      -552.534 6        36.919
G29        43.000    25696703.962 6 135037087.55606      -804.827 6        37.641                                    25696700.228 4 105223690.51704      -627.125 4        28.019    25696700.157 5 105223689.52805      -627.322 5        34.300
C05        44.000                                                                                                                                    39198663.320 6 204117767.10006      -538.644 6        38.925    39198658.417 7 157836830.82107      -416.519 7        44.086    39198659.888 6 165862510.07106      -437.660 6        39.913
G04        46.000    22505950.814 7 118269602.45607     -3212.203 7        44.116                                    22505947.423 5  92158117.62405     -2503.016 5        30.951    22505947.292 7  92158119.60507     -2502.945 7        42.349
R11        47.000    21849726.021 7 116758289.03007      3610.104 7        47.182                                                                    21849724.111 7  90812006.18907      2807.736 7        45.496
C20        49.000                                                                                                                                    22284865.036 8 116043167.74308     -1662.578 8        51.759                                                                    22284858.994 8  94294563.65408     -1350.949 8        49.709
C06        50.000                                                                                                                                    39702293.408 6 206740293.41606     -1538.460 6        36.994    39702287.650 6 159864692.32106     -1189.667 6        41.464    39702287.941 6 167993403.94606     -1250.303 6        38.486
S48        51.000    77167603.966 6 405517974.81606      -473.008 6        38.360
E06        52.000    25349441.658 7 133212242.92207      1490.891 7        44.027                                                                    25349440.910 7  99476687.14407      1113.287 7        46.628    25349441.101 7 102071728.93307      1142.365 7        47.847
C09        53.000                                                                                                                                    39118268.204 6 203699109.16106     -1222.935 6        40.274    39118264.332 7 157513063.59507      -945.733 7        45.445    39118262.180 6 165522191.89106      -993.731 6        40.863
C60        54.000                                                                                                                                    40793509.338 6 212422705.46306      -547.558 6        40.184                                                                    40793493.019 6 172610817.47306      -444.929 6        39.348
R09        55.000    21841521.009 7 116632530.40707     -3188.496 7        45.052                                                                    21841519.681 7  90714185.22907     -2479.994 7        45.148
G07        56.000    20902186.531 8 109841752.46708       386.548 8        49.194                                    20902181.479 8  85590959.83208       301.206 8        49.501    20902181.734 7  85590968.83207       301.196 7        45.165
C02        57.000                                                                                                                                    40752455.501 5 212208771.86205      -567.102 5        35.029    40752448.952 6 164093276.34606      -438.513 6        39.658    40752452.167 5 172437012.34605      -460.814 5        35.648
I03        58.000    99501180.285 6 314678761.87306       839.943 6        40.236
R07        59.000    22729254.358 7 121671534.31807     -3603.164 7        45.124                                                                    22729252.613 6  94633466.59206     -2802.500 6        41.144
C35        60.000                                                                                                                                    25478111.416 7 132671210.29007     -2531.717 7        42.106                                                                    25478109.988 6 107806220.57706     -2057.091 6        41.340
> 2025 01 02 05 01 45.0000000  0 56
G09         1.000    20592374.345 8 108213692.51208     -2068.499 8        49.046                                    20592371.410 8  84322363.99708     -1611.817 8        51.436    20592371.636 7  84322363.99807     -1611.839 7        46.008
G06         2.000    22437870.888 7 117911827.10407     -3207.624 7        45.020                                    22437869.300 7  91879350.36307     -2499.447 7        43.939    22437869.687 7  91879358.37507     -2499.627 7        42.984
E11         3.000    24667707.496 7 129629700.95007     -1185.124 7        43.372                                                                    24667703.171 7  96801391.75407      -884.934 7        44.960    24667703.115 7  99326641.49607      -908.128 7        45.297
G16         4.000    23571021.661 6 123866566.47506     -1212.104 6        40.477                                    23571016.339 3  96519386.15703      -944.495 3        22.781
S21         5.000    38433790.539 7 201970642.38607      -488.414 7        42.567
E10         6.000    25109827.348 7 131953043.40807     -2647.611 7        46.598                                                                    25109826.279 8  98536360.27608     -1977.124 8        48.888    25109826.096 8 101106873.49908     -2028.665 8        49.409
G20         7.000    22008330.935 7 115654571.94007      2160.640 7        45.460                                    22008325.844 5  90120427.24205      1683.613 5        32.910
R10         9.000    20198861.788 7 107671300.88707       164.654 7        46.080
R17        10.000    22632080.091 7 121108840.26407      1337.780 7        45.765                                                                    22632078.261 6  94195758.67406      1040.599 6        41.268
G30        11.000    22361434.140 7 117510139.94007      2459.682 7        46.001                                    22361431.690 7  91566335.15607      1916.633 7        44.628    22361432.243 6  91566343.15906      1916.656 6        41.788
S27        12.000    39070324.284 6 205315919.52006      -502.102 6        36.715
G26        13.000    25397945.032 5 133467106.05405     -3153.363 5        32.156                                    25397943.732 3 104000349.18903     -2457.171 3        18.149    25397943.551 5 104000349.21305     -2457.267 5        30.264
S36        14.000    38201633.983 7 200751466.42207      -489.137 7        45.139
I09        15.000    38128339.531 7 149623791.46207      -807.163 7        42.889
E09        16.000    27611899.067 6 145101530.05906      1912.754 6        40.043                                                                    27611897.952 6 108355037.86306      1428.284 6        41.008    27611897.718 6 111181687.24706      1465.608 6        41.890
S45        17.000    63387202.059 6 333102418.27806      -530.129 6        37.527
E36        18.000    26810382.339 6 140889508.55306      1410.434 6        40.865                                                                    26810382.286 7 105209718.44107      1053.252 7        43.826    26810382.172 7 107954318.01407      1080.701 7        44.668
E12        19.000    26373295.940 6 138592611.46606     -3474.100 6        41.251                                                                    26373292.316 7 103494470.29807     -2594.257 7        42.248    26373292.363 7 106194325.60607     -2661.856 7        43.450
E21        20.000    26369784.306 7 138574152.46207      1176.542 7        42.546                                                                    26369783.620 7 103480714.04407       878.565 7        44.736    26369783.574 7 106180207.17907       901.529 7        45.929
G11        21.000    22125832.274 7 116272053.30407      -897.601 7        46.055                                    22125828.076 5  90601582.83905      -699.423 5        35.195    22125828.275 7  90601595.83407      -699.468 7        44.795
I06        22.000    37956893.350 7 148951242.73707      -349.905 7        43.435
S28        23.000    40862795.347 5 214735437.47805      -488.395 5        35.252
R08        24.000    19733419.655 8 105671608.57908     -1429.341 8        50.085                                                                    19733416.919 7  82189033.74307     -1111.722 7        47.579
S23        25.000    38140269.111 7 200428457.05507      -485.043 7        44.834
R01        26.000    20747046.157 7 110904857.68607      1995.566 7        46.929                                                                    20747045.230 6  86259327.08706      1551.930 6        39.970
C44        27.000                                                                                                                                    25670280.433 6 133671889.22506      -521.566 6        41.104                                                                    25670278.600 6 108619354.58206      -423.759 6        40.815
R24        29.000    21679287.035 8 115928902.44008     -2424.161 8        49.288                                                                    21679285.789 7  90166912.81607     -1885.544 7        42.830
E19        30.000    23912715.575 7 125662203.32107     -2017.307 7        42.851                                                                    23912713.084 7  93838661.06707     -1506.449 7        44.770    23912712.900 7  96286622.85107     -1545.765 7        45.208
C23        31.000                                                                                                                                    26216092.991 6 136514079.18906     -3235.175 6        39.880                                                                    26216083.528 6 110928838.70706     -2628.804 6        40.222
R23        32.000    23767907.867 7 127142278.01507     -4862.687 7        42.235
E29        33.000    27958396.365 6 146922429.20306     -2972.701 6        37.361                                                                    27958395.741 6 109714810.56606     -2220.153 6        41.688    27958395.491 6 112576931.17706     -2277.869 6        41.797
E04        34.000    23797136.668 8 125054835.32608       566.854 8        48.545                                                                    23797134.318 8  93385116.18008       423.340 8        50.809    23797134.156 8  95821245.06908       434.365 8        51.703
C16        35.000                                                                                                                                    40277445.567 6 209735256.63006     -1524.071 6        39.168    40277444.844 6 162180616.52306     -1178.698 6        39.847    40277442.553 6 170427076.11706     -1238.251 6        36.102
C32        36.000                                                                                                                                    26367548.111 7 137302772.56107     -3335.836 7        42.030                                                                    26367548.279 6 111569766.00706     -2710.462 6        41.321
I01        37.000   384615567.228 7 206173283.52907     -2927.952 7        42.425
E27        38.000    27431114.754 6 144151483.67306     -1313.646 6        38.610                                                                    27431113.789 6 107645600.16006      -980.853 6        41.340    27431113.345 7 110453742.51407     -1006.602 7        42.322
C19        39.000                                                                                                                                    22440295.353 8 116852510.77708       957.255 8        50.233                                                                    22440289.789 8  94952215.12908       777.891 8        49.865
C39        40.000                                                                                                                                    41205622.138 6 214568503.18606     -1658.215 6        38.096                                                                    41205618.245 6 174354477.87206     -1347.339 6        36.310
G05        41.000    24928180.330 6 130998478.36206      3190.341 6        39.901                                    24928175.880 5 102076717.10005      2485.977 5        30.860    24928175.916 5 102076726.09405      2486.119 5        35.495
S44        42.000    40794032.426 6 214374280.79106      -552.857 6        37.096
G29        43.000    25697470.450 6 135041118.32606      -807.846 6        38.135                                    25697467.089 4 105226831.37804      -629.498 4        28.493    25697467.616 5 105226830.37605      -629.485 5        33.886
C05        44.000                                                                                                                                    39199180.177 6 204120460.10406      -538.833 6        38.988    39199175.515 7 157838913.20107      -416.520 7        44.065    39199177.098 6 165864698.35306      -437.763 6        39.973
G04        46.000    22509007.362 7 118285665.32507     -3213.100 7        44.129                                    22509003.992 5  92170634.13705     -2503.717 5        31.253    22509004.017 7  92170636.13107     -2503.712 7        42.519
R11        47.000    21846348.473 7 116740243.32207      3608.049 7        47.358                                                                    21846346.441 7  90797970.63107      2806.387 7        45.081
C20        49.000                                                                                                                                    22286462.348 8 116051484.70008     -1664.282 8        51.868                                                                    22286456.215 8  94301321.86908     -1352.296 8        49.762
C06        50.000                                                                                                                                    39703770.901 6 206747986.72406     -1538.822 6        37.074    39703765.461 6 159870641.26706     -1189.983 6        41.230    39703765.237 6 167999655.38506     -1250.451 6        38.303
S48        51.000    77168059.740 6 405520340.16606      -473.190 6        38.081
E06        52.000    25348023.912 7 133204790.47007      1490.057 7        44.348                                                                    25348022.733 7  99471121.99307      1112.713 7        46.679    25348022.924 7 102066018.61707      1141.657 7        47.894
C09        53.000                                                                                                                                    39119442.345 6 203705224.45706     -1223.347 6        40.379    39119438.439 7 157517792.32607      -945.956 7        45.454    39119436.680 6 165527161.06506      -994.026 6        40.844
C60        54.000                                                                                                                                    40794034.969 6 212425443.09906      -547.747 6        40.343                                                                    40794018.711 6 172613042.01106      -445.000 6        39.504
R09        55.000    21844507.598 7 116648481.37407     -3191.941 7        45.135                                                                    21844506.947 7  90726591.54707     -2482.680 7        44.886
G07        56.000    20901820.135 8 109839825.90408       383.922 8        49.314                                    20901814.860 8  85589458.61608       299.158 8        49.618    20901814.932 7  85589467.62107       299.108 7        45.415
C02        57.000                                                                                                                                    40752999.385 5 212211607.49705      -567.234 5        34.981    40752993.292 6 164095469.02206      -438.500 6        39.456    40752996.753 5 172439316.50505      -460.588 5        35.686
I03        58.000    99500110.554 6 314674562.15306       839.881 6        40.305
R07        59.000    22732620.686 7 121689552.25107     -3604.165 7        45.079                                                                    22732619.506 6  94647480.54206     -2803.207 6        40.715
C35        60.000                                                                                                                                    25480543.705 7 132683872.92407     -2533.557 7        42.015                                                                    25480541.845 6 107816510.01306     -2058.603 6        41.518
> 2025 01 02 05 01 50.0000000  0 56
G09         1.000    20594343.079 8 108224038.77208     -2070.077 8        48.781                                    20594340.243 8  84330426.01908     -1613.048 8        51.373    20594340.393 7  84330426.02107     -1613.012 7        46.153
G06         2.000    22440924.112 7 117927870.33907     -3209.729 7        44.712                                    22440922.179 7  91891851.58407     -2501.090 7        43.949    22440923.041 7  91891859.58307     -2501.076 7        43.276
E11         3.000    24668836.671 7 129635632.36707     -1187.639 7        43.001                                                                    24668831.967 7  96805821.06207      -886.911 7        44.891    24668831.769 7  99331186.35207      -909.954 7        45.157
G16         4.000    23572175.874 6 123872634.73906     -1215.430 6        40.043                                    23572171.171 3  96524114.66803      -947.092 3        22.800
S21         5.000    38434257.153 7 201973084.09707      -488.315 7        42.419
E10         6.000    25112347.567 7 131966285.29507     -2649.263 7        46.424                                                                    25112346.127 8  98546248.69508     -1978.341 8        48.816    25112345.837 8 101117019.87808     -2029.965 8        49.291
G20         7.000    22006276.059 7 115643772.30507      2159.080 7        45.153                                    22006270.709 5  90112011.94005      1682.399 5        32.946
R10         9.000    20198709.058 7 107670488.77807       160.113 7        45.843
R17        10.000    22630831.884 7 121102160.43107      1333.904 7        44.713                                                                    22630830.490 6  94190563.24906      1037.493 6        41.998
G30        11.000    22359094.682 7 117497844.94007      2458.257 7        46.155                                    22359092.021 7  91556754.64307      1915.525 7        44.656    22359092.566 6  91556762.65806      1915.469 6        41.766
S27        12.000    39070801.970 6 205318429.81206      -501.956 6        36.994
G26        13.000    25400946.713 5 133482878.61205     -3155.645 5        31.985                                    25400945.125 3 104012639.50703     -2458.947 3        18.478    25400943.797 4 104012639.52504     -2459.049 4        29.991
S36        14.000    38202098.961 7 200753911.87407      -489.164 7        45.062
I09        15.000    38129368.555 7 149627827.91207      -807.370 7        43.082
E09        16.000    27610079.749 6 145091966.98706      1912.537 6        39.847                                                                    27610078.094 6 108347896.60406      1428.084 6        40.827    27610077.993 6 111174359.69306      1465.288 6        41.874
S45        17.000    63387666.129 6 333105067.10206      -529.809 6        37.516
E36        18.000    26809041.121 6 140882460.65406      1408.605 6        40.472                                                                    26809041.168 7 105204455.40107      1052.024 7        43.786    26809041.060 7 107948917.68007      1079.308 7        44.587
E12        19.000    26376601.953 6 138609983.38606     -3474.908 6        40.791                                                                    26376598.105 7 103507442.83007     -2594.847 7        42.421    26376598.148 7 106207636.57007     -2662.593 7        43.306
E21        20.000    26368665.928 7 138568273.97307      1174.785 7        42.279                                                                    26368665.066 7 103476324.26107       877.223 7        44.724    26368665.024 7 106175702.89707       900.028 7        45.908
G11        21.000    22126687.856 7 116276549.55807      -900.902 7        45.895                                    22126683.636 5  90605086.41005      -702.001 5        35.100    22126683.980 7  90605099.41107      -702.046 7        45.081
I06        22.000    37957339.027 7 148952992.30007      -349.887 7        43.420
S28        23.000    40863260.615 5 214737879.49205      -488.551 5        35.210
R08        24.000    19734754.576 8 105678759.64608     -1431.287 8        49.822                                                                    19734752.273 7  82194595.69107     -1113.236 7        47.331
S23        25.000    38140731.691 7 200430882.00507      -484.936 7        44.882
R01        26.000    20745179.396 7 110894882.25507      1994.465 7        46.912                                                                    20745178.142 6  86251568.41206      1551.389 6        39.556
C44        27.000                                                                                                                                    25670782.328 6 133674502.93106      -524.145 6        41.161                                                                    25670780.377 6 108621478.43606      -425.851 6        40.667
R24        29.000    21681555.130 8 115941032.30308     -2427.858 8        49.048                                                                    21681553.702 7  90176347.15307     -1888.317 7        42.891
E19        30.000    23914635.384 7 125672291.27507     -2018.013 7        42.578                                                                    23914632.830 7  93846194.27807     -1506.917 7        44.716    23914632.642 7  96294352.58407     -1546.260 7        45.216
C23        31.000                                                                                                                                    26219199.892 6 136530258.71506     -3236.575 6        39.508                                                                    26219190.597 6 110941985.87706     -2629.956 6        40.365
R23        32.000    23772452.899 6 127166590.82006     -4862.567 6        41.368
E29        33.000    27961224.836 6 146937293.04406     -2972.558 6        37.346                                                                    27961224.365 6 109725910.15306     -2219.835 6        41.547    27961224.021 6 112588320.33606     -2277.836 6        41.678
E04        34.000    23796597.714 8 125052002.69708       566.030 8        48.413                                                                    23796595.277 8  93383000.90708       422.701 8        50.776    23796595.171 8  95819074.61508       433.718 8        51.565
C16        35.000                                                                                                                                    40278909.249 6 209742876.94006     -1524.001 6        39.216    40278908.484 6 162186509.04706     -1178.542 6        39.826    40278905.875 6 170433268.26506     -1238.484 6        36.102
C32        36.000                                                                                                                                    26370751.293 6 137319451.95406     -3336.135 6        41.433                                                                    26370751.491 6 111583319.36106     -2710.781 6        41.275
I01        37.000   384619297.606 7 206187923.59107     -2927.941 7        42.277
E27        38.000    27432365.894 6 144158056.65106     -1315.666 6        38.417                                                                    27432364.605 6 107650508.54706      -982.575 6        41.371    27432364.165 6 110458778.94606     -1008.228 6        41.983
C19        39.000                                                                                                                                    22439376.813 8 116847727.41908       956.022 8        50.398                                                                    22439371.191 8  94948328.26308       776.851 8        49.841
C39        40.000                                                                                                                                    41207214.546 6 214576793.74906     -1657.993 6        37.996                                                                    41207210.388 6 174361214.63906     -1347.466 6        36.268
G05        41.000    24925144.661 6 130982526.32306      3190.288 6        39.219                                    24925140.158 5 102064286.94205      2485.930 5        30.762    24925141.258 5 102064295.94605      2486.029 5        35.629
S44        42.000    40794556.715 6 214377043.51406      -552.577 6        37.002
G29        43.000    25698241.159 6 135045164.00806      -810.830 6        37.074                                    25698236.874 4 105229983.86504      -631.814 4        28.019    25698237.476 5 105229982.81105      -631.458 5        32.802
C05        44.000                                                                                                                                    39199697.817 6 204123153.22906      -538.688 6        38.940    39199692.640 7 157840995.71007      -416.628 7        43.918    39199694.156 6 165866886.74106      -437.719 6        40.074
G04        46.000    22512064.595 7 118301732.41707     -3213.796 7        44.009                                    22512061.352 5  92183153.94705     -2504.262 5        31.155    22512061.723 7  92183155.94607     -2504.313 7        42.686
R11        47.000    21842973.285 7 116722206.80307      3606.396 7        46.522                                                                    21842970.866 7  90783942.21607      2804.997 7        44.948
C20        49.000                                                                                                                                    22288060.928 8 116059809.52608     -1665.723 8        51.886                                                                    22288054.868 8  94308086.47408     -1353.584 8        49.833
C06        50.000                                                                                                                                    39705249.338 6 206755680.35406     -1538.713 6        37.119    39705242.774 6 159876590.47606     -1189.872 6        41.068    39705242.659 6 168005907.10106     -1250.480 6        38.282
S48        51.000    77168517.187 6 405522705.68906      -473.155 6        38.192
E06        52.000    25346606.482 7 133197341.64307      1489.473 7        44.414                                                                    25346605.240 7  99465559.56407      1112.280 7        46.555    25346605.429 7 102060311.07107      1141.322 7        47.828
C09        53.000                                                                                                                                    39120616.855 6 203711340.75106     -1223.385 6        40.520    39120613.135 7 157522521.83407      -945.895 7        45.448    39120611.359 6 165532131.06306      -994.018 6        40.839
C60        54.000                                                                                                                                    40794560.970 6 212428180.70706      -547.621 6        40.377                                                                    40794544.494 6 172615266.53506      -444.943 6        39.396
R09        55.000    21847498.585 7 116664449.36107     -3195.197 7        46.521                                                                    21847496.398 7  90739011.08607     -2485.237 7        44.536
G07        56.000    20901455.823 8 109837912.02208       381.536 8        49.631                                    20901450.664 8  85587967.28208       297.301 8        49.656    20901451.047 7  85587976.27707       297.320 7        45.397
C02        57.000                                                                                                                                    40753544.677 5 212214443.16205      -567.036 5        34.900    40753537.878 6 164097661.73906      -438.603 6        39.207    40753541.325 5 172441620.70605      -460.634 5        35.719
I03        58.000    99499040.304 6 314670362.52906       839.904 6        40.284
R07        59.000    22735987.889 7 121707574.65307     -3604.944 7        45.573                                                                    22735986.338 6  94661497.95806     -2803.797 6        40.858
C35        60.000                                                                                                                                    25482976.763 6 132696544.06506     -2535.134 6        41.743                                                                    25482975.195 6 107826806.34606     -2059.920 6        41.626
