     3.04           OBSERVATION DATA    M                   RINEX VERSION / TYPE
ssrcrin-15.6.1x                         20250102 081500 UTC PGM / RUN BY / DATE 
(00000000023479385599111004) Septentrio proprietary         COMMENT             
rref                                                        MARKER NAME         
01                                                          MARKER NUMBER       
geodetic                                                    MARKER TYPE         
NFB                 CLIMERS@TUW                             OBSERVER / AGENCY   
3297213             SEPT ASTERX SB3 PROB4.14.4              REC # / TYPE / VERS 
Unknown             Unknown                                 ANT # / TYPE        
  4127831.8465  1207193.2261  4695248.0430                  APPROX POSITION XYZ 
        0.0000        0.0000        0.0000                  ANTENNA: DELTA H/E/N
G   23 X1  C1C L1C D1C S1C C1W S1W C2W L2W D2W S2W C2L L2L  SYS / # / OBS TYPES 
       D2L S2L C5Q L5Q D5Q S5Q C1L L1L D1L S1L              SYS / # / OBS TYPES 
E   21 X1  C1C L1C D1C S1C C6C L6C D6C S6C C5Q L5Q D5Q S5Q  SYS / # / OBS TYPES 
       C7Q L7Q D7Q S7Q C8Q L8Q D8Q S8Q                      SYS / # / OBS TYPES 
S    9 X1  C1C L1C D1C S1C C5I L5I D5I S5I                  SYS / # / OBS TYPES 
R   17 X1  C1C L1C D1C S1C C2P L2P D2P S2P C2C L2C D2C S2C  SYS / # / OBS TYPES 
       C3Q L3Q D3Q S3Q                                      SYS / # / OBS TYPES 
C   25 X1  C1P L1P D1P S1P C5P L5P D5P S5P C2I L2I D2I S2I  SYS / # / OBS TYPES 
       C7I L7I D7I S7I C6I L6I D6I S6I C7D L7D D7D S7D      SYS / # / OBS TYPES 
J   17 X1  C1C L1C D1C S1C C2L L2L D2L S2L C5Q L5Q D5Q S5Q  SYS / # / OBS TYPES 
       C1L L1L D1L S1L                                      SYS / # / OBS TYPES 
I    5 X1  C5A L5A D5A S5A                                  SYS / # / OBS TYPES 
SEPTENTRIO RECEIVERS OUTPUT ALIGNED CARRIER PHASES.         COMMENT             
NO FURTHER PHASE SHIFT APPLIED IN THE RINEX ENCODER.        COMMENT             
G L1C                                                       SYS / PHASE SHIFT   
G L2W                                                       SYS / PHASE SHIFT   
G L2L  0.00000                                              SYS / PHASE SHIFT   
G L5Q  0.00000                                              SYS / PHASE SHIFT   
G L1L  0.00000                                              SYS / PHASE SHIFT   
E L1C  0.00000                                              SYS / PHASE SHIFT   
E L6C  0.00000                                              SYS / PHASE SHIFT   
E L5Q  0.00000                                              SYS / PHASE SHIFT   
E L7Q  0.00000                                              SYS / PHASE SHIFT   
E L8Q  0.00000                                              SYS / PHASE SHIFT   
S L1C                                                       SYS / PHASE SHIFT   
S L5I                                                       SYS / PHASE SHIFT   
R L1C                                                       SYS / PHASE SHIFT   
R L2P  0.00000                                              SYS / PHASE SHIFT   
R L2C                                                       SYS / PHASE SHIFT   
R L3Q  0.00000                                              SYS / PHASE SHIFT   
C L1P  0.00000                                              SYS / PHASE SHIFT   
C L5P  0.00000                                              SYS / PHASE SHIFT   
C L2I                                                       SYS / PHASE SHIFT   
C L7I                                                       SYS / PHASE SHIFT   
C L6I                                                       SYS / PHASE SHIFT   
C L7D                                                       SYS / PHASE SHIFT   
J L1C                                                       SYS / PHASE SHIFT   
J L2L  0.00000                                              SYS / PHASE SHIFT   
J L5Q  0.00000                                              SYS / PHASE SHIFT   
J L1L  0.00000                                              SYS / PHASE SHIFT   
I L5A                                                       SYS / PHASE SHIFT   
  2025     1     2     8    15    0.0000000     GPS         TIME OF FIRST OBS   
 C1C    0.000 C2C    0.000 C2P    0.000                     GLONASS COD/PHS/BIS 
DBHZ                                                        SIGNAL STRENGTH UNIT
    18                                                      LEAP SECONDS        
 24 R01  1 R02 -4 R03  5 R04  6 R05  1 R06 -4 R07  5 R08  6 GLONASS SLOT / FRQ #
    R09 -2 R10 -7 R11  0 R12 -1 R13 -2 R14 -7 R15  0 R16 -1 GLONASS SLOT / FRQ #
    R17  4 R18 -3 R19  3 R20  2 R21  4 R22 -3 R23  3 R24  2 GLONASS SLOT / FRQ #
                                                            END OF HEADER       
> 2025 01 02 08 15  0.0000000  0 54
E24         1.000    28167212.973 6 148019746.86206      2713.473 6        38.517                                                                    28167220.905 6 110534273.13106      2026.308 6        41.874    28167219.328 6 113417767.31806      2079.191 6        41.626
G15         2.000    22032948.050 7 115783877.96907      2482.010 7        46.448                                    22032945.966 7  90221180.65807      1934.034 7        42.969    22032946.487 6  90221175.66806      1934.061 6        41.795
E15         3.000    28784672.725 6 151264465.66806       537.210 6        36.450                                                                    28784676.525 6 112957229.96206       401.247 6        40.584    28784675.583 6 115903936.60506       411.733 6        41.271
G08         4.000    24617299.921 6 129364804.66006     -1882.330 6        38.273                                    24617305.857 4 100803766.03704     -1466.736 4        29.630    24617306.900 6 100803762.02006     -1466.735 6        36.427
S21         5.000    38598774.456 7 202837580.64907      -505.989 7        42.313
E05         6.000    25604494.455 6 134552485.54306      2065.884 6        40.262                                                                    25604497.801 7 100477479.84207      1542.712 7        43.037    25604497.014 7 103098630.98107      1582.874 7        43.731
G20         7.000    23352009.730 6 122715547.85606     -3925.102 6        41.735                                    23352011.157 4  95622460.54804     -3058.520 4        26.766
R02         8.000    19287278.047 8 102920580.11008      -338.340 8        52.120                                                                    19287279.345 7  80049332.47107      -263.169 7        47.113
R20         9.000    24125182.385 5 129008216.88405      1066.059 5        31.532                                                                    24125188.634 6 100339745.51306       829.136 6        39.568
G24        10.000    25589842.895 5 134475521.76105      3078.964 5        35.024                                    25589844.943 3 104786133.26503      2399.198 3        23.829    25589844.750 5 104786138.29405      2398.798 5        31.026
G30        11.000    21514473.218 7 113059285.88407     -2386.112 7        47.712                                    21514473.839 8  88098125.92708     -1859.306 8        48.205    21514474.328 7  88098133.92307     -1859.347 7        44.274
S27        12.000    39287499.473 5 206457168.34005      -537.111 5        35.338
G13        13.000    20229354.642 8 106305947.60308       603.669 8        48.909                                    20229351.827 6  82835774.22006       470.389 6        40.293
S36        14.000    38367860.305 7 201624939.88007      -506.890 7        44.737
I09        15.000    39965234.184 6 156831977.48706     -1036.955 6        41.578
E09        16.000    23796788.387 8 125052955.75208       318.956 8        48.346                                                                    23796789.888 8  93383690.42608       238.197 8        50.751    23796789.390 8  95819784.03908       244.429 8        51.594
S45        17.000    63549245.885 6 333953619.23906      -553.330 6        36.922
E36        18.000    28574476.703 6 150159798.69806     -3226.722 6        36.284                                                                    28574483.157 6 112132311.70006     -2409.726 6        37.947    28574481.672 6 115057503.69106     -2472.515 6        38.691
R19        19.000    24272778.481 5 129842958.11905     -2562.677 5        32.479                                                                    24272779.525 6 100988960.49606     -1993.055 6        37.841
E21        20.000    28479505.240 6 149660690.75006     -3347.010 6        36.314                                                                    28479514.086 6 111759586.99706     -2499.577 6        40.393    28479512.551 6 114675054.87806     -2564.717 6        40.424
R03        21.000    21766808.455 8 116519391.01908      3117.616 8        48.992                                                                    21766808.901 7  90626183.26607      2424.906 7        44.671
I06        22.000    38205140.700 7 149925309.19107      -446.773 7        43.056
S28        23.000    41036868.285 5 215650033.95705      -514.142 5        35.395
S23        25.000    38300655.946 7 201271238.11707      -505.823 7        44.369
R01        26.000    21267800.997 7 113688513.92207     -3984.381 7        45.558                                                                    21267805.272 6  88424372.64006     -3099.064 6        40.198
C07        27.000                                                                                                                                    39237913.478 6 204322083.15306       174.298 6        40.453    39237912.528 7 157994781.74007       134.855 7        44.102    39237909.942 6 166028405.88106       141.799 6        40.734
C40        29.000                                                                                                                                    39255066.622 7 204411421.28507       266.517 7        42.878                                                                    39255068.717 7 166101025.08607       216.608 7        42.597
G14        31.000    20750760.403 8 109045983.65708       231.981 8        48.246                                    20750758.782 6  84970896.10406       180.763 6        40.269    20750758.827 7  84970882.10207       180.742 7        47.582
G23        32.000    25533218.880 5 134177952.10705      2843.533 5        35.919                                    25533216.021 3 104554231.92103      2215.752 3        18.746    25533216.463 6 104554226.90106      2215.741 6        36.643
I02        33.000    37860502.496 6 148572733.19806       183.006 6        41.912
E04        34.000    24442479.057 7 128446078.71607     -2125.888 7        46.816                                                                    24442480.467 8  95917522.45008     -1587.503 8        49.867    24442480.046 8  98419715.94608     -1628.919 8        50.485
R13        35.000    21289472.303 7 113684611.35907      2832.596 7        44.107
R12        36.000    19256210.312 8 102863208.70708      -360.497 8        51.731                                                                    19256211.998 7  80004719.76407      -280.362 7        47.533
I01        37.000   392777190.159 6 238201003.24806     -3174.744 6        39.378
C10        38.000                                                                                                                                    39327017.164 6 204786086.19006       507.082 6        40.195    39327018.540 7 158353590.54107       392.155 7        44.008    39327015.474 6 166405456.74306       412.169 6        40.844
C19        39.000                                                                                                                                    24130292.438 8 125652681.12508     -3440.369 8        48.089                                                                    24130291.265 7 102103055.75307     -2795.463 7        47.161
E34        40.000    27882744.571 6 146524773.47006     -1703.670 6        38.925                                                                    27882747.949 6 109417838.06406     -1272.205 6        40.474    27882747.379 6 112272217.54206     -1305.306 6        41.323
G05        41.000    21772616.841 7 114415832.54607     -2490.190 7        47.635                                    21772615.678 7  89155162.62407     -1940.409 7        46.703    21772616.107 7  89155171.61807     -1940.339 7        43.469
S44        42.000    41045946.000 6 215697929.68206      -516.144 6        38.003
C36        43.000                                                                                                                                    21621995.551 8 112591384.31908      -160.524 8        51.417                                                                    21622001.454 8  91489738.12208      -130.319 8        49.952
C05        44.000                                                                                                                                    39501873.873 6 205696551.53306      -563.492 6        38.501    39501875.252 7 159057618.14007      -435.771 7        42.603    39501875.945 6 167145378.55706      -457.882 6        39.922
G18        46.000    25357809.704 6 133256156.63406     -1720.493 6        39.120                                    25357808.023 3 103835943.92103     -1340.641 3        20.119    25357808.674 6 103835933.91006     -1340.586 6        37.327
R11        47.000    21924053.233 7 117155411.89107     -4183.879 7        47.945                                                                    21924055.688 7  91120863.68207     -3254.025 7        44.277
C45        50.000                                                                                                                                    24157152.923 7 125792636.76207      2250.648 7        46.571                                                                    24157148.574 7 102216804.89307      1828.954 7        46.684
S48        51.000    77315255.427 6 406293155.75306      -493.644 6        37.614
E06        52.000    23426229.309 8 123105655.34408      -927.514 8        48.592                                                                    23426231.204 8  91929549.04508      -692.628 8        50.653    23426230.852 8  94327710.26208      -710.702 8        51.158
C09        53.000                                                                                                                                    40946473.036 5 213218901.36705     -1145.364 5        35.938    40946477.362 6 164874333.04506      -885.839 6        40.112    40946473.570 6 173257772.51506      -930.753 6        37.127
C60        54.000                                                                                                                                    41045949.142 6 213737057.27706      -511.168 6        40.460                                                                    41045941.359 6 173678800.65806      -415.292 6        38.541
E31        55.000    24340061.879 7 127907887.52307      1368.033 7        47.794                                                                    24340065.288 8  95515661.32108      1021.623 8        49.230    24340064.444 8  98007370.46608      1048.215 8        50.026
G07        56.000    24167183.281 6 126999314.06306     -3240.016 6        41.487                                    24167185.084 5  98960460.68105     -2524.680 5        34.624    24167184.102 6  98960469.68606     -2524.771 6        38.580
C02        57.000                                                                                                                                    41082352.863 5 213926464.63905      -557.593 5        33.611    41082358.401 6 165421460.35406      -431.011 6        37.471    41082358.749 5 173832742.30205      -453.448 5        33.257
I03        58.000    96092512.693 6 301302183.24406       847.501 6        41.156
C21        59.000                                                                                                                                    24667416.281 7 128449662.68807      2173.359 7        45.767                                                                    24667411.952 7 104375840.06007      1766.127 7        45.986
C22        60.000                                                                                                                                    21833847.029 8 113694532.19408      -635.726 8        52.032                                                                    21833841.978 8  92386088.56808      -516.465 8        49.789
> 2025 01 02 08 15  5.0000000  0 54
E24         1.000    28164631.195 6 148006179.88906      2713.430 6        38.646                                                                    28164639.105 6 110524141.99206      2026.296 6        41.831    28164637.431 6 113407371.86906      2079.189 6        41.316
G15         2.000    22030587.030 7 115771471.74607      2480.582 7        46.347                                    22030585.146 7  90211513.47107      1932.922 7        42.940    22030585.371 6  90211508.47406      1932.893 6        41.425
E15         3.000    28784162.516 6 151261784.41506       535.214 6        36.287                                                                    28784166.563 6 112955227.70406       399.751 6        41.046    28784165.351 6 115901882.12906       410.176 6        41.259
G08         4.000    24619093.171 6 129374224.25306     -1885.257 6        38.015                                    24619098.401 4 100811105.91604     -1469.024 4        29.621    24619099.499 6 100811101.90406     -1469.113 6        36.132
S21         5.000    38599255.670 6 202840111.19206      -505.949 6        41.866
E05         6.000    25602528.214 6 134542156.15706      2065.928 6        39.937                                                                    25602532.216 7 100469766.33107      1542.844 7        43.145    25602531.477 7 103090716.25307      1583.018 7        43.814
G20         7.000    23355744.697 6 122735175.95706     -3925.981 6        41.900                                    23355746.321 4  95637755.13704     -3059.192 4        26.443
R02         8.000    19287597.119 8 102922281.18508      -341.928 8        52.166                                                                    19287598.154 7  80050655.51207      -265.970 7        46.648
R20         9.000    24124187.529 5 129002895.60805      1062.697 5        30.732                                                                    24124193.759 6 100335606.75006       826.284 6        38.955
G24        10.000    25586913.359 5 134460127.42005      3078.975 5        34.752                                    25586915.373 3 104774137.65503      2399.195 3        23.676    25586915.288 5 104774142.67205      2399.554 5        32.671
G30        11.000    21516744.254 7 113071219.75307     -2387.311 7        47.731                                    21516744.798 8  88107425.03308     -1860.240 8        48.172    21516745.281 7  88107433.03407     -1860.304 7        44.056
S27        12.000    39288015.879 5 206459854.33405      -537.234 5        35.800
G13        13.000    20228781.445 8 106302934.69608       601.627 8        48.970                                    20228778.485 6  82833426.49806       468.805 6        40.260
S36        14.000    38368339.368 7 201627474.23907      -506.572 7        44.473
I09        15.000    39966555.620 6 156837162.01306     -1036.738 6        41.697
E09        16.000    23796485.441 8 125051363.95508       317.838 8        48.528                                                                    23796486.964 8  93382501.74208       237.345 8        50.896    23796486.475 8  95818564.34808       243.511 8        51.648
S45        17.000    63549732.348 6 333956385.45906      -553.163 6        36.597
E36        18.000    28577546.757 5 150175934.24705     -3226.954 5        35.648                                                                    28577554.130 6 112144360.95906     -2409.953 6        38.285    28577552.541 6 115069867.27406     -2472.698 6        38.790
R19        19.000    24275176.082 5 129855779.27505     -2565.725 5        34.243                                                                    24275176.005 6 100998932.49706     -1995.572 6        38.724
E21        20.000    28482690.506 5 149677428.12005     -3347.878 5        35.781                                                                    28482699.156 6 111772085.62106     -2499.875 6        40.563    28482697.540 6 114687879.56506     -2565.067 6        40.367
R03        21.000    21763897.368 8 116503806.70608      3116.257 8        48.890                                                                    21763897.866 7  90614062.14707      2423.706 7        45.387
I06        22.000    38205709.859 7 149927543.07007      -446.642 7        43.192
S28        23.000    41037357.172 5 215652604.74505      -514.084 5        34.676
S23        25.000    38301135.929 7 201273767.39407      -505.686 7        44.140
R01        26.000    21271529.731 7 113708441.57907     -3986.527 7        45.848                                                                    21271533.615 6  88439871.88606     -3100.693 6        40.420
C07        27.000                                                                                                                                    39237746.539 6 204321213.02706       173.781 6        40.358    39237745.362 7 157994108.89307       134.422 7        43.824    39237742.767 6 166027698.82406       141.205 6        40.765
C40        29.000                                                                                                                                    39254811.346 7 204410091.16707       265.670 7        42.936                                                                    39254813.263 7 166099944.25307       215.872 7        42.495
G14        31.000    20750541.145 8 109044831.35608       229.107 8        48.344                                    20750539.516 6  84969998.20506       178.521 6        40.188    20750539.727 7  84969984.21307       178.516 7        47.659
G23        32.000    25530513.649 6 134163736.26706      2842.839 6        36.601                                    25530510.948 3 104543154.59003      2215.193 3        18.687    25530510.517 6 104543149.57806      2215.227 6        37.739
I02        33.000    37860269.269 7 148571819.19607       182.886 7        42.119
E04        34.000    24444502.557 7 128456711.08407     -2126.984 7        46.953                                                                    24444503.805 8  95925462.19708     -1588.310 8        50.001    24444503.283 8  98427862.82008     -1629.774 8        50.548
R13        35.000    21286821.608 7 113670454.40507      2830.412 7        44.227
R12        36.000    19256549.678 8 102865020.33208      -363.999 8        51.894                                                                    19256551.121 7  80006128.80507      -283.142 7        47.266
I01        37.000   392781235.258 6 238216876.56106     -3174.399 6        39.646
C10        38.000                                                                                                                                    39326530.315 6 204783552.18706       506.608 6        40.191    39326531.731 7 158351631.07407       391.735 7        43.543    39326528.707 6 166403397.62406       411.581 6        40.872
C19        39.000                                                                                                                                    24133596.915 7 125669886.40407     -3441.582 7        47.572                                                                    24133595.497 7 102117036.41507     -2796.596 7        47.118
E34        40.000    27884366.645 6 146533296.89506     -1705.609 6        38.793                                                                    27884369.767 6 109424202.95606     -1273.662 6        40.565    27884369.371 6 112278748.47706     -1306.956 6        41.201
G05        41.000    21774987.744 7 114428290.61507     -2492.912 7        47.334                                    21774986.376 7  89164870.19807     -1942.526 7        46.603    21774986.693 7  89164879.19707     -1942.593 7        43.109
S44        42.000    41046434.136 6 215700508.55206      -515.586 6        37.569
C36        43.000                                                                                                                                    21622150.586 8 112592192.07508      -162.483 8        51.335                                                                    21622156.537 8  91490394.47808      -132.069 8        49.916
C05        44.000                                                                                                                                    39502415.253 6 205699369.36706      -563.404 6        38.147    39502416.337 7 159059797.07107      -435.699 7        42.112    39502417.150 6 167147668.25306      -457.626 6        39.916
G18        46.000    25359448.232 6 133264765.32006     -1722.760 6        38.342                                    25359446.336 3 103842651.95803     -1342.419 3        19.731    25359446.922 6 103842641.98006     -1342.620 6        37.531
R11        47.000    21927968.620 7 117176334.51507     -4185.021 7        47.782                                                                    21927970.926 7  91137136.79107     -3254.906 7        44.086
C45        50.000                                                                                                                                    24154992.473 7 125781386.23707      2249.639 7        46.455                                                                    24154988.010 7 102207662.91907      1828.048 7        46.613
S48        51.000    77315732.831 6 406295625.72506      -493.605 6        37.875
E06        52.000    23427112.613 8 123110296.58008      -928.770 8        48.734                                                                    23427114.444 8  91933014.90208      -693.616 8        50.781    23427114.074 8  94331266.53308      -711.694 8        51.261
C09        53.000                                                                                                                                    40947572.807 6 213224629.01006     -1145.430 6        36.348    40947577.793 6 164878761.99706      -885.572 6        40.226    40947573.599 6 173262426.66406      -930.560 6        37.350
C60        54.000                                                                                                                                    41046439.862 6 213739612.70906      -510.802 6        40.455                                                                    41046431.985 6 173680877.14106      -415.280 6        38.360
E31        55.000    24338761.175 7 127901051.81107      1366.321 7        47.931                                                                    24338764.495 8  95510556.74308      1020.355 8        49.415    24338763.673 8  98002132.72108      1046.954 8        50.041
G07        56.000    24170265.932 6 127015515.10706     -3240.137 6        41.285                                    24170268.040 5  98973084.84305     -2524.776 5        34.671    24170267.414 6  98973093.84106     -2524.837 6        38.081
C02        57.000                                                                                                                                    41082888.577 5 213929252.46405      -557.401 5        33.293    41082894.048 6 165423616.07306      -430.999 6        37.119    41082894.445 5 173835007.59205      -452.857 5        33.102
I03        58.000    96091432.734 6 301297945.65906       847.571 6        40.982
C21        59.000                                                                                                                                    24665329.597 7 128438799.21707      2172.139 7        45.681                                                                    24665325.778 7 104367012.58607      1765.071 7        45.845
C22        60.000                                                                                                                                    21834458.736 8 113697717.42808      -638.273 8        51.957                                                                    21834453.703 8  92388676.81608      -518.675 8        49.629
> 2025 01 02 08 15 10.0000000  0 54
E24         1.000    28162049.540 6 147992613.91906      2713.191 6        38.336                                                                    28162057.410 6 110514011.62506      2026.081 6        41.833    28162055.712 6 113396977.22906      2078.898 6        41.442
G15         2.000    22028227.418 7 115759073.78907      2479.002 7        45.843                                    22028225.918 7  90201852.72607      1931.690 7        42.817    22028226.488 7  90201847.73007      1931.637 7        42.030
E15         3.000    28783654.301 5 151259114.37405       533.115 5        35.795                                                                    28783658.522 6 112953233.83806       397.980 6        41.201    28783657.362 6 115899836.24406       408.429 6        41.349
G08         4.000    24620887.914 6 129383658.73206     -1888.288 6        37.157                                    24620893.829 4 100818457.40304     -1471.387 4        29.384    24620895.004 6 100818453.37806     -1471.277 6        36.268
S21         5.000    38599740.850 6 202842641.46106      -505.968 6        41.805
E05         6.000    25600562.772 6 134531827.58606      2065.680 6        40.043                                                                    25600566.910 7 100462053.43307      1542.576 7        43.221    25600565.962 7 103082802.14107      1582.908 7        43.985
G20         7.000    23359481.010 6 122754809.04906     -3927.017 6        41.237                                    23359482.348 4  95653053.62504     -3060.006 4        26.371
R02         8.000    19287919.345 8 102924001.23608      -345.805 8        52.035                                                                    19287920.508 7  80051993.32407      -268.957 7        46.759
R20         9.000    24123193.987 5 128997593.15605      1058.671 5        31.223                                                                    24123202.018 6 100331482.54506       823.607 6        39.054
G24        10.000    25583983.247 5 134444733.95905      3078.981 5        34.171                                    25583986.151 3 104762142.74203      2399.206 3        23.581    25583986.920 5 104762147.78405      2399.025 5        32.677
G30        11.000    21519016.391 7 113083160.57907     -2388.775 7        47.509                                    21519017.071 8  88116729.55708     -1861.379 8        48.046    21519017.393 7  88116737.55407     -1861.322 7        44.011
S27        12.000    39288523.613 5 206462539.96805      -537.084 5        35.138
G13        13.000    20228210.205 8 106299933.00808       599.400 8        48.597                                    20228207.302 6  82831087.51406       467.066 6        40.174
S36        14.000    38368824.096 7 201630007.82407      -506.416 7        44.191
I09        15.000    39967876.652 7 156842346.54107     -1036.786 7        42.155
E09        16.000    23796183.815 8 125049778.70708       316.552 8        48.311                                                                    23796185.335 8  93381317.94808       236.359 8        50.855    23796184.836 8  95817349.66908       242.542 8        51.686
S45        17.000    63550214.612 6 333959151.43406      -552.992 6        36.764
E36        18.000    28580617.954 5 150192072.10705     -3227.657 5        34.700                                                                    28580624.788 6 112156411.93906     -2410.312 6        38.255    28580623.676 6 115082232.62106     -2473.075 6        38.802
R19        19.000    24277575.861 5 129868617.30005     -2569.023 5        32.168                                                                    24277575.931 6 101008917.64806     -1998.225 6        38.027
E21        20.000    28485875.980 5 149694168.61205     -3348.261 5        35.648                                                                    28485884.686 6 111784586.60006     -2500.324 6        40.625    28485883.317 6 114700706.67506     -2565.553 6        40.667
R03        21.000    21760987.292 8 116488229.73908      3114.886 8        49.566                                                                    21760987.714 7  90601946.70607      2422.708 7        44.719
I06        22.000    38206279.091 7 149929776.94407      -446.716 7        43.359
S28        23.000    41037841.037 5 215655175.44405      -513.998 5        34.633
S23        25.000    38301619.674 7 201276296.31007      -505.610 7        43.790
R01        26.000    21275259.784 7 113728380.82307     -3988.836 7        46.228                                                                    21275263.212 6  88455380.13706     -3102.286 6        40.219
C07        27.000                                                                                                                                    39237580.685 6 204320346.77606       172.941 6        40.567    39237579.188 7 157993439.06107       133.859 7        43.877    39237576.491 6 166026994.94306       140.280 6        40.660
C40        29.000                                                                                                                                    39254556.707 7 204408765.84707       264.701 7        42.817                                                                    39254558.713 7 166098867.36407       214.891 7        42.521
G14        31.000    20750324.739 8 109043694.34508       225.996 8        48.165                                    20750323.130 6  84969112.22206       176.102 6        40.138    20750323.398 7  84969098.21207       176.169 7        47.620
G23        32.000    25527809.897 6 134149526.66806      2841.362 6        37.108                                    25527807.025 3 104532082.13303      2214.062 3        19.433    25527807.420 6 104532077.10906      2214.176 6        38.288
I02        33.000    37860036.533 7 148570906.19607       182.661 7        42.451
E04        34.000    24446526.892 7 128467349.73307     -2128.247 7        46.833                                                                    24446528.325 8  95933406.62308     -1589.254 8        50.016    24446527.662 8  98436014.49508     -1630.714 8        50.597
R13        35.000    21284172.540 7 113656308.82307      2828.181 7        44.761
R12        36.000    19256892.266 8 102866850.60208      -367.773 8        52.032                                                                    19256893.726 7  80007552.33007      -286.038 7        47.488
I01        37.000   392785280.011 6 238232749.74506     -3174.531 6        39.934
C10        38.000                                                                                                                                    39326044.699 6 204781021.41106       505.959 6        40.389    39326045.638 7 158349674.12707       391.247 7        43.642    39326042.733 6 166401341.18206       410.915 6        40.849
C19        39.000                                                                                                                                    24136902.002 7 125687098.71607     -3442.979 7        47.523                                                                    24136901.090 7 102131022.80907     -2797.865 7        47.099
E34        40.000    27885990.699 6 146541831.10106     -1707.887 6        38.640                                                                    27885993.690 6 109430575.87206     -1275.309 6        40.651    27885993.405 6 112285287.65406     -1308.579 6        41.333
G05        41.000    21777361.182 7 114440763.27407     -2495.779 7        47.692                                    21777359.837 7  89174589.13807     -1944.761 7        46.423    21777360.394 7  89174598.14207     -1944.797 7        43.081
S44        42.000    41046924.020 6 215703087.10906      -515.515 6        37.036
C36        43.000                                                                                                                                    21622307.925 8 112593010.62908      -164.660 8        51.378                                                                    21622313.756 8  91491059.63108      -133.919 8        49.914
C05        44.000                                                                                                                                    39502956.118 6 205702186.97106      -563.167 6        38.483    39502957.349 7 159061975.83107      -435.771 7        42.377    39502958.185 6 167149957.82006      -457.895 6        40.019
G18        46.000    25361088.587 6 133273387.05206     -1725.520 6        38.291                                    25361087.024 3 103849370.18103     -1344.562 3        19.403    25361087.211 6 103849360.19006     -1344.632 6        36.820
R11        47.000    21931884.725 7 117197263.45007     -4186.270 7        47.157                                                                    21931887.220 7  91153414.83207     -3256.014 7        44.304
C45        50.000                                                                                                                                    24152832.660 7 125770141.61907      2248.471 7        46.273                                                                    24152828.500 7 102198525.76907      1826.924 7        46.692
S48        51.000    77316204.032 6 406298095.26206      -493.688 6        36.862
E06        52.000    23427997.148 8 123114945.27208      -930.372 8        48.563                                                                    23427999.035 8  91936486.31508      -694.729 8        50.786    23427998.670 8  94334828.50808      -712.864 8        51.323
C09        53.000                                                                                                                                    40948672.819 6 213230355.97806     -1145.235 6        36.219    40948677.604 6 164883190.43706      -885.489 6        40.253    40948673.401 6 173267080.28806      -930.659 6        37.633
C60        54.000                                                                                                                                    41046930.967 6 213742167.83306      -510.982 6        40.391                                                                    41046922.705 6 173682953.35906      -415.203 6        38.628
E31        55.000    24337462.152 8 127894225.43508      1364.516 8        48.007                                                                    24337465.528 8  95505459.12808      1018.939 8        49.468    24337464.687 8  97996902.12608      1045.547 8        50.098
G07        56.000    24173349.291 6 127031717.98306     -3240.571 6        41.523                                    24173351.197 5  98985710.42805     -2525.114 5        34.514    24173350.736 6  98985719.42706     -2525.164 6        37.890
C02        57.000                                                                                                                                    41083423.964 5 213932039.94305      -557.573 5        33.006    41083428.903 6 165425771.50206      -430.866 6        37.013    41083429.475 5 173837272.65805      -453.195 5        33.234
I03        58.000    96090353.344 6 301293707.79506       847.643 6        41.092
C21        59.000                                                                                                                                    24663244.565 7 128427942.45007      2170.859 7        45.592                                                                    24663240.895 7 104358190.58707      1763.831 7        45.839
C22        60.000                                                                                                                                    21835072.957 8 113700915.95808      -640.862 8        51.948                                                                    21835067.912 8  92391275.88908      -520.934 8        49.726
> 2025 01 02 08 15 15.0000000  0 54
E24         1.000    28159468.010 6 147979049.07106      2712.626 6        38.411                                                                    28159476.097 6 110503882.07406      2025.616 6        41.573    28159474.442 6 113386583.42106      2078.451 6        41.406
G15         2.000    22025869.538 7 115746684.22307      2476.851 7        45.583                                    22025868.277 7  90192198.51807      1930.017 7        42.751    22025868.857 6  90192193.53006      1929.882 6        41.831
E15         3.000    28783148.433 5 151256455.70905       530.482 5        35.948                                                                    28783152.495 6 112951248.43606       396.022 6        40.729    28783151.584 6 115897799.05206       406.441 6        41.194
G08         4.000    24622686.533 6 129393108.20806     -1891.842 6        36.900                                    24622692.177 4 100825820.57004     -1474.148 4        29.223    24622693.283 6 100825816.54806     -1473.943 6        36.665
S21         5.000    38600220.923 7 202845171.51207      -506.370 7        42.466
E05         6.000    25598598.059 6 134521499.92706      2065.132 6        39.952                                                                    25598601.387 7 100454341.21607      1542.184 7        42.959    25598600.687 7 103074888.74507      1582.460 7        43.807
G20         7.000    23363217.905 6 122774447.26506     -3928.445 6        40.551                                    23363219.471 4  95668356.08204     -3061.111 4        26.443
R02         8.000    19288245.274 8 102925740.67908      -350.030 8        52.037                                                                    19288246.670 7  80053346.21807      -272.209 7        46.906
R20         9.000    24122206.204 5 128992309.45605      1054.455 5        31.011                                                                    24122214.448 6 100327373.03106       820.226 6        39.622
G24        10.000    25581054.835 5 134429341.55305      3078.150 5        35.176                                    25581057.002 3 104750148.66703      2398.557 3        23.333    25581056.795 5 104750153.68205      2398.427 5        32.156
G30        11.000    21521289.999 7 113095108.44307     -2390.551 7        47.655                                    21521290.703 7  88126039.56807     -1862.764 7        47.982    21521290.971 7  88126047.56507     -1862.807 7        44.129
S27        12.000    39289040.363 5 206465225.73405      -537.464 5        35.552
G13        13.000    20227641.111 8 106296942.58708       596.681 8        48.393                                    20227638.252 6  82828757.31206       464.948 6        40.112
S36        14.000    38369304.563 7 201632540.77107      -506.787 7        44.167
I09        15.000    39969197.634 6 156847531.18006     -1037.128 6        41.781
E09        16.000    23795883.245 8 125048200.13508       314.787 8        48.480                                                                    23795884.967 8  93380139.13208       235.097 8        50.702    23795884.440 8  95816140.10408       241.186 8        51.609
S45        17.000    63550694.847 6 333961917.26206      -553.229 6        36.820
E36        18.000    28583689.106 5 150208212.35505     -3228.488 5        34.990                                                                    28583695.921 6 112168464.70206     -2410.997 6        38.084    28583695.340 6 115094599.80306     -2473.878 6        38.736
R19        19.000    24279979.780 5 129881472.45205     -2572.613 5        32.910                                                                    24279978.929 6 101018916.09506     -2001.326 6        36.771
E21        20.000    28489062.236 5 149710912.38105     -3349.410 5        35.062                                                                    28489070.948 6 111797090.04506     -2501.188 6        40.348    28489069.843 6 114713536.28006     -2566.267 6        40.496
R03        21.000    21758079.057 8 116472659.89608      3112.922 8        49.679                                                                    21758079.029 7  90589836.80807      2421.162 7        44.244
I06        22.000    38206848.148 7 149932010.93707      -446.987 7        43.306
S28        23.000    41038330.854 5 215657745.78405      -514.306 5        34.786
S23        25.000    38302096.944 7 201278825.07307      -506.120 7        43.917
R01        26.000    21278992.219 7 113748331.93207     -3991.691 7        46.320                                                                    21278995.926 6  88470897.63806     -3104.617 6        40.219
C07        27.000                                                                                                                                    39237415.444 6 204319484.41806       171.772 6        40.582    39237413.446 7 157992772.22407       132.798 7        43.687    39237410.780 6 166026294.16906       139.806 6        40.744
C40        29.000                                                                                                                                    39254303.540 7 204407445.47307       263.403 7        42.783                                                                    39254305.048 7 166097794.45507       213.956 7        42.540
G14        31.000    20750111.385 7 109042572.72007       222.536 7        47.901                                    20750109.686 6  84968238.22906       173.404 6        40.129    20750109.900 7  84968224.22907       173.400 7        47.895
G23        32.000    25525107.175 6 134135323.43206      2839.643 6        37.301                                    25525104.019 3 104521014.61103      2212.715 3        19.313    25525103.893 6 104521009.61306      2212.656 6        37.943
I02        33.000    37859804.078 7 148569994.34807       181.951 7        42.468
E04        34.000    24448552.645 7 128477994.75607     -2129.850 7        46.874                                                                    24448554.004 8  95941355.82408     -1590.474 8        49.808    24448553.307 8  98444171.06708     -1631.956 8        50.508
R13        35.000    21281525.836 7 113642175.03507      2825.413 7        44.432
R12        36.000    19257238.135 8 102868699.66908      -371.986 8        51.834                                                                    19257239.881 7  80008990.50707      -289.328 7        47.174
I01        37.000   392789325.318 6 238248622.86806     -3174.832 6        39.904
C10        38.000                                                                                                                                    39325559.074 6 204778494.07506       504.822 6        40.346    39325560.494 7 158347719.81407       390.368 7        43.300    39325557.393 6 166399287.47906       410.349 6        40.636
C19        39.000                                                                                                                                    24140208.625 7 125704318.15907     -3444.884 7        47.600                                                                    24140207.921 7 102145014.98607     -2799.269 7        47.025
E34        40.000    27887616.330 6 146550376.12606     -1710.384 6        38.501                                                                    27887619.871 6 109436956.90506     -1277.255 6        40.348    27887619.519 6 112291835.14206     -1310.623 6        41.421
G05        41.000    21779737.667 7 114453250.67007     -2499.208 7        47.137                                    21779736.116 7  89184319.55807     -1947.428 7        46.424    21779736.908 7  89184328.55107     -1947.483 7        43.217
S44        42.000    41047413.878 6 215705665.43706      -516.051 6        37.267
C36        43.000                                                                                                                                    21622467.132 8 112593840.11008      -167.260 8        51.351                                                                    21622473.075 8  91491733.63908      -135.894 8        49.876
C05        44.000                                                                                                                                    39503497.358 6 205705004.50206      -563.661 6        38.553    39503498.393 7 159064154.50507      -435.819 7        42.271    39503499.310 6 167152247.28306      -458.126 6        39.916
G18        46.000    25362731.703 6 133282021.95406     -1728.645 6        38.087                                    25362730.095 3 103856098.67503     -1346.995 3        19.701    25362729.925 6 103856088.66606     -1346.876 6        37.040
R11        47.000    21935802.739 7 117218198.82107     -4188.006 7        47.366                                                                    21935805.175 7  91169697.86507     -3257.336 7        43.617
C45        50.000                                                                                                                                    24150674.800 7 125758903.05307      2246.827 7        46.334                                                                    24150670.169 7 102189393.51407      1825.772 7        46.619
S48        51.000    77316676.294 6 406300564.42606      -494.165 6        37.724
E06        52.000    23428883.125 8 123119601.51108      -932.260 8        48.600                                                                    23428885.066 8  91939963.36908      -696.171 8        50.671    23428884.739 8  94338396.26608      -714.320 8        51.215
C09        53.000                                                                                                                                    40949770.702 6 213236082.43406     -1145.522 6        36.102    40949777.022 6 164887618.48406      -885.832 6        40.379    40949773.371 6 173271733.47606      -930.794 6        37.550
C60        54.000                                                                                                                                    41047421.187 6 213744722.69206      -511.187 6        40.338                                                                    41047413.515 6 173685029.40106      -415.420 6        38.520
E31        55.000    24336164.868 7 127887408.52507      1362.226 7        47.787                                                                    24336168.339 8  95500368.58408      1017.228 8        49.354    24336167.473 8  97991678.78608      1043.758 8        50.068
G07        56.000    24176433.186 6 127047922.78506     -3241.573 6        41.018                                    24176434.850 5  98998337.52205     -2525.897 5        34.338    24176434.529 6  98998346.52506     -2525.861 6        37.561
C02        57.000                                                                                                                                    41083958.949 5 213934827.25605      -558.029 5        33.419    41083964.013 6 165427926.79706      -431.224 6        37.168    41083964.773 5 173839537.50905      -453.118 5        33.263
I03        58.000    96089273.764 6 301289469.73706       847.451 6        41.225
C21        59.000                                                                                                                                    24661161.042 7 128417092.54407      2169.008 7        46.001                                                                    24661157.273 7 104349374.13107      1762.479 7        45.839
C22        60.000                                                                                                                                    21835689.825 8 113704127.94008      -644.014 8        52.002                                                                    21835684.737 8  92393885.87508      -523.295 8        49.696
> 2025 01 02 08 15 20.0000000  0 54
E24         1.000    28156887.160 6 147965486.00006      2712.546 6        38.619                                                                    28156895.021 6 110493753.86206      2025.534 6        41.306    28156893.289 6 113376190.97906      2078.481 6        41.399
G15         2.000    22023513.972 7 115734303.66907      2475.264 7        46.063                                    22023512.318 7  90182551.33807      1928.780 7        42.950    22023512.639 6  90182546.34006      1928.751 6        41.595
E15         3.000    28782644.884 5 151253809.06905       528.246 5        35.705                                                                    28782648.831 6 112949272.01906       394.540 6        40.837    28782647.911 6 115895771.09206       404.695 6        41.237
G08         4.000    24624488.275 6 129402573.26206     -1894.476 6        36.284                                    24624493.472 4 100833195.88404     -1476.204 4        29.204    24624494.122 6 100833191.87706     -1476.305 6        36.325
S21         5.000    38600702.910 7 202847702.06907      -506.091 7        42.370
E05         6.000    25596633.019 6 134511173.80206      2065.255 6        40.143                                                                    25596636.491 7 100446630.16107      1542.099 7        43.109    25596635.788 7 103066976.52807      1582.303 7        43.778
G20         7.000    23366956.406 6 122794091.16206     -3929.291 6        41.445                                    23366957.676 4  95683662.98104     -3061.771 4        26.503
R02         8.000    19288575.169 8 102927499.72108      -353.806 8        52.278                                                                    19288576.153 7  80054714.34807      -275.187 7        47.075
R20         9.000    24121221.003 5 128987045.20105      1050.501 5        30.445                                                                    24121229.324 6 100323278.62006       817.481 6        39.180
G24        10.000    25578126.229 5 134413950.79605      3078.112 5        35.638                                    25578128.151 3 104738155.85403      2398.526 3        23.562    25578128.480 5 104738160.88105      2398.388 5        32.335
G30        11.000    21523565.210 7 113107063.98607     -2391.834 7        47.743                                    21523565.784 8  88135355.56308     -1863.764 8        48.144    21523566.161 7  88135363.55907     -1863.873 7        44.241
S27        12.000    39289552.480 6 206467912.34006      -537.422 6        36.049
G13        13.000    20227074.455 8 106293964.21308       594.544 8        48.779                                    20227071.479 6  82826436.49406       463.284 6        40.298
S36        14.000    38369785.737 7 201635074.46007      -506.686 7        43.867
I09        15.000    39970519.040 6 156852716.40506     -1037.079 6        41.666
E09        16.000    23795584.263 8 125046628.86808       313.536 8        48.437                                                                    23795585.952 8  93378965.77508       234.176 8        50.793    23795585.455 8  95814936.13908       240.266 8        51.540
S45        17.000    63551180.631 6 333964683.65306      -553.343 6        36.737
E36        18.000    28586761.859 6 150224355.60806     -3228.911 6        36.042                                                                    28586768.177 6 112180519.70906     -2411.016 6        38.456    28586767.499 6 115106969.29706     -2474.003 6        38.748
R19        19.000    24282384.579 5 129894345.42005     -2576.009 5        32.808                                                                    24282385.611 6 101028928.42406     -2003.790 6        37.244
E21        20.000    28492249.270 5 149727660.08705     -3349.898 5        35.771                                                                    28492258.116 6 111809596.37806     -2501.416 6        40.286    28492256.711 6 114726368.87506     -2566.731 6        40.608
R03        21.000    21755171.710 8 116457098.23408      3111.576 8        49.335                                                                    21755172.003 7  90577733.29107      2420.163 7        44.441
I06        22.000    38207417.560 7 149934245.47107      -446.897 7        43.289
S28        23.000    41038823.832 5 215660316.72705      -514.199 5        34.576
S23        25.000    38302580.675 7 201281354.55107      -505.907 7        44.140
R01        26.000    21282726.462 7 113768295.36707     -3993.859 7        46.767                                                                    21282730.965 6  88486424.71906     -3106.467 6        40.687
C07        27.000                                                                                                                                    39237250.888 6 204318626.63206       171.117 6        40.563    39237248.649 7 157992108.93307       132.350 7        43.482    39237245.943 6 166025597.16606       139.093 6        40.977
C40        29.000                                                                                                                                    39254051.042 7 204406130.65707       262.394 7        42.703                                                                    39254052.631 7 166096726.07807       213.200 7        42.720
G14        31.000    20749900.984 7 109041467.13507       219.572 7        47.657                                    20749899.296 6  84967376.73206       171.095 6        40.141    20749899.482 7  84967362.72507       171.107 7        47.704
G23        32.000    25522405.796 6 134121127.20306      2838.416 6        37.115                                    25522402.609 3 104509952.57903      2211.771 3        19.851    25522402.887 6 104509947.56006      2211.773 6        38.420
I02        33.000    37859572.529 7 148569084.15707       181.912 7        42.425
E04        34.000    24450579.701 7 128488646.81707     -2131.059 7        47.004                                                                    24450581.064 8  95949310.26608     -1591.344 8        49.914    24450580.317 8  98452333.01508     -1632.846 8        50.436
R13        35.000    21278881.162 7 113628053.33807      2823.211 7        44.662
R12        36.000    19257587.943 8 102870568.17308      -375.598 8        51.986                                                                    19257589.584 7  80010443.77407      -292.122 7        47.082
I01        37.000   392793370.202 6 238264496.39906     -3174.718 6        39.988
C10        38.000                                                                                                                                    39325074.612 6 204775970.73606       504.293 6        40.236    39325075.841 7 158345768.60107       389.939 7        43.179    39325072.689 6 166397237.07506       409.719 6        40.825
C19        39.000                                                                                                                                    24143517.083 7 125721545.35107     -3446.154 7        47.436                                                                    24143516.276 7 102159013.46307     -2800.276 7        47.204
E34        40.000    27889244.605 6 146558932.65306     -1712.371 6        39.402                                                                    27889247.999 6 109443346.48906     -1278.809 6        40.348    27889247.788 6 112298391.41906     -1312.094 6        41.278
G05        41.000    21782116.649 7 114465753.33307     -2502.017 7        47.223                                    21782115.309 7  89194061.87807     -1949.620 7        46.499    21782115.698 7  89194070.87207     -1949.557 7        43.249
S44        42.000    41047905.617 6 215708244.14806      -515.535 6        37.244
C36        43.000                                                                                                                                    21622628.481 8 112594681.11508      -169.315 8        51.217                                                                    21622634.615 8  91492417.02608      -137.536 8        49.992
C05        44.000                                                                                                                                    39504038.559 6 205707822.54006      -563.503 6        38.363    39504039.656 7 159066333.57507      -435.817 7        42.303    39504040.510 6 167154537.15906      -457.917 6        40.114
G18        46.000    25364377.319 6 133290670.57806     -1731.091 6        38.396                                    25364375.884 3 103862837.85403     -1348.895 3        19.284    25364375.954 6 103862827.84906     -1348.881 6        36.083
R11        47.000    21939722.159 7 117239141.21007     -4189.110 7        47.185                                                                    21939724.244 7  91185986.35707     -3258.195 7        43.365
C45        50.000                                                                                                                                    24148517.789 7 125747671.14607      2245.886 7        45.794                                                                    24148513.219 7 102180266.68607      1824.887 7        46.681
S48        51.000    77317151.869 6 406303034.29506      -494.235 6        37.127
E06        52.000    23429770.902 8 123124265.94408      -933.631 8        48.624                                                                    23429772.717 8  91943446.54208      -697.206 8        50.659    23429772.329 8  94341970.30608      -715.392 8        51.183
C09        53.000                                                                                                                                    40950871.033 6 213241809.00606     -1145.254 6        36.004    40950876.682 6 164892046.59406      -885.728 6        40.424    40950872.798 6 173276386.77306      -930.634 6        37.887
C60        54.000                                                                                                                                    41047912.006 6 213747277.98106      -511.074 6        40.293                                                                    41047904.146 6 173687105.75706      -415.110 6        38.577
E31        55.000    24334869.449 8 127880601.71008      1360.406 8        48.129                                                                    24334873.008 8  95495285.57608      1015.880 8        49.387    24334872.184 8  97986463.17708      1042.381 8        49.993
G07        56.000    24179517.256 6 127064130.17106     -3241.720 6        41.597                                    24179518.937 5  99010966.62905     -2526.009 5        34.633    24179518.950 6  99010975.64106     -2526.166 6        37.618
C02        57.000                                                                                                                                    41084494.238 5 213937614.92405      -557.473 5        33.210    41084499.897 6 165430082.42006      -431.159 6        37.316    41084500.107 5 173841802.74805      -453.103 5        33.467
I03        58.000    96088193.132 6 301285231.99306       847.527 6        41.244
C21        59.000                                                                                                                                    24659078.637 7 128406250.09507      2167.865 7        45.943                                                                    24659075.055 7 104340563.76207      1761.466 7        45.971
C22        60.000                                                                                                                                    21836309.383 8 113707353.96808      -646.521 8        51.956                                                                    21836304.283 8  92396507.27908      -525.285 8        49.819
> 2025 01 02 08 15 25.0000000  0 54
E24         1.000    28154306.366 6 147951924.46906      2712.315 6        38.697                                                                    28154314.385 6 110483626.78406      2025.533 6        41.371    28154312.618 6 113365799.71606      2078.166 6        41.561
G15         2.000    22021159.975 7 115721931.99107      2473.642 7        45.901                                    22021158.076 7  90172911.07007      1927.513 7        42.798    22021158.427 7  90172906.06607      1927.466 7        42.097
E15         3.000    28782143.527 6 151251174.21306       525.953 6        36.306                                                                    28782147.345 6 112947304.42406       392.704 6        40.949    28782146.473 6 115893752.15806       403.043 6        41.163
G08         4.000    24626292.818 6 129412053.72606     -1897.497 6        37.350                                    24626297.628 4 100840583.19504     -1478.559 4        28.844    24626298.008 6 100840579.18006     -1478.463 6        36.548
S21         5.000    38601186.472 7 202850232.87907      -506.138 7        42.072
E05         6.000    25594668.350 6 134500849.03406      2064.905 6        40.193                                                                    25594671.710 7 100438920.08707      1542.107 7        43.103    25594670.997 7 103059065.33307      1582.171 7        43.772
G20         7.000    23370695.641 6 122813740.49106     -3930.252 6        41.642                                    23370696.748 4  95698974.10504     -3062.522 4        25.985
R02         8.000    19288908.328 8 102929278.34608      -357.453 8        52.282                                                                    19288909.088 7  80056097.72407      -278.060 7        46.630
R20         9.000    24120241.186 5 128981800.17805      1047.316 5        30.649                                                                    24120248.533 6 100319199.19106       814.451 6        39.354
G24        10.000    25575197.739 5 134398561.49705      3077.847 5        35.229                                    25575199.695 3 104726164.18503      2398.322 3        23.790    25575200.331 5 104726169.17705      2398.404 5        32.275
G30        11.000    21525841.451 8 113119026.95408     -2393.152 8        48.141                                    21525842.274 8  88144677.34308     -1864.791 8        48.040    21525842.510 7  88144685.34007     -1864.789 7        44.190
S27        12.000    39290061.235 5 206470599.29205      -537.366 5        35.752
G13        13.000    20226510.098 8 106290997.65308       592.319 8        48.943                                    20226506.981 6  82824124.88606       461.547 6        40.234
S36        14.000    38370265.761 7 201637608.50207      -506.612 7        43.418
I09        15.000    39971840.320 6 156857902.03506     -1037.039 6        41.404
E09        16.000    23795286.926 8 125045064.67108       312.291 8        48.635                                                                    23795288.316 8  93377797.70208       233.222 8        50.817    23795287.809 8  95813737.59508       239.313 8        51.520
S45        17.000    63551663.114 6 333967450.42906      -553.296 6        36.526
E36        18.000    28589835.082 6 150240501.66906     -3229.591 6        36.756                                                                    28589840.817 6 112192576.80906     -2411.527 6        38.802    28589839.601 6 115119340.93506     -2474.407 6        38.805
R19        19.000    24284793.369 5 129907235.81505     -2579.568 5        31.698                                                                    24284795.915 6 101038954.26306     -2006.573 6        37.535
E21        20.000    28495437.394 5 149744411.40905     -3350.196 5        35.748                                                                    28495445.703 6 111822105.45806     -2502.078 6        40.272    28495444.453 6 114739204.28206     -2567.268 6        40.603
R03        21.000    21752265.970 8 116441544.23708      3110.171 8        48.627                                                                    21752266.343 7  90565635.75107      2419.028 7        44.457
I06        22.000    38207987.792 7 149936480.40507      -446.984 7        43.342
S28        23.000    41039313.412 5 215662887.55405      -514.156 5        34.633
S23        25.000    38303062.568 7 201283884.36807      -505.800 7        44.227
R01        26.000    21286463.771 7 113788270.76207     -3996.128 7        47.215                                                                    21286466.775 6  88501961.10906     -3108.180 6        39.994
C07        27.000                                                                                                                                    39237086.525 6 204317773.16206       170.491 6        40.503    39237084.831 7 157991448.97507       131.838 7        43.475    39237082.312 6 166024903.66006       138.319 6        40.911
C40        29.000                                                                                                                                    39253799.267 7 204404821.15607       261.525 7        42.525                                                                    39253801.048 7 166095662.02507       212.426 7        42.804
G14        31.000    20749693.760 8 109040377.33608       216.519 8        48.009                                    20749691.907 6  84966527.53706       168.717 6        40.072    20749692.168 7  84966513.53107       168.734 7        47.481
G23        32.000    25519705.043 6 134106937.68806      2837.367 6        37.629                                    25519702.581 3 104498895.78103      2210.938 3        20.190    25519703.370 6 104498890.77406      2211.121 6        38.727
I02        33.000    37859340.949 7 148568175.52707       181.820 7        42.836
E04        34.000    24452608.062 7 128499305.62807     -2132.293 7        47.068                                                                    24452609.351 8  95957269.75108     -1592.216 8        49.882    24452608.613 8  98460500.14508     -1633.826 8        50.365
R13        35.000    21276239.180 7 113613943.75007      2820.878 7        44.915
R12        36.000    19257941.533 8 102872455.85808      -379.284 8        51.856                                                                    19257943.049 7  80011911.97407      -294.995 7        47.357
I01        37.000   392797415.256 6 238280370.21006     -3174.635 6        40.098
C10        38.000                                                                                                                                    39324590.369 6 204773451.20706       503.736 6        40.341    39324591.912 7 158343820.33707       389.409 7        43.308    39324588.902 6 166395189.74306       409.146 6        40.996
C19        39.000                                                                                                                                    24146826.785 7 125738780.05607     -3447.528 7        47.620                                                                    24146826.256 7 102173018.04007     -2801.505 7        47.472
E34        40.000    27890875.714 6 146567500.40506     -1714.584 6        39.880                                                                    27890878.496 6 109449744.47906     -1280.307 6        40.391    27890878.061 6 112304956.31406     -1313.740 6        41.273
G05        41.000    21784498.626 7 114478271.02107     -2504.883 7        47.476                                    21784497.352 7  89203815.90107     -1951.854 7        46.439    21784497.814 7  89203824.90607     -1951.878 7        43.397
S44        42.000    41048396.373 6 215710823.05106      -515.604 6        37.527
C36        43.000                                                                                                                                    21622792.488 8 112595533.40908      -171.460 8        51.410                                                                    21622798.237 8  91493109.58508      -139.367 8        50.060
C05        44.000                                                                                                                                    39504579.683 6 205710640.85706      -563.603 6        38.492    39504580.736 7 159068512.86807      -435.761 7        42.284    39504581.621 6 167156827.27106      -458.107 6        40.176
G18        46.000    25366026.196 6 133299332.73306     -1733.454 6        38.102                                    25366024.218 3 103869587.56903     -1350.729 3        19.373    25366025.354 5 103869577.56005     -1350.632 5        35.048
R11        47.000    21943642.415 7 117260090.41607     -4190.324 7        47.556                                                                    21943645.330 7  91202280.14407     -3259.093 7        44.137
C45        50.000                                                                                                                                    24146362.642 7 125736445.67307      2244.615 7        46.436                                                                    24146357.567 7 102171145.08607      1823.767 7        46.776
S48        51.000    77317626.715 6 406305504.53606      -494.086 6        37.323
E06        52.000    23430660.000 8 123128938.33508      -935.120 8        48.734                                                                    23430661.865 8  91946935.65908      -698.309 8        50.752    23430661.495 8  94345550.44208      -716.512 8        51.134
C09        53.000                                                                                                                                    40951970.938 6 213247535.43806     -1145.151 6        36.087    40951976.763 6 164896474.63206      -885.501 6        40.756    40951972.759 6 173281039.95606      -930.727 6        37.853
C60        54.000                                                                                                                                    41048402.614 6 213749833.43206      -510.863 6        40.417                                                                    41048395.010 6 173689182.28506      -415.550 6        38.874
E31        55.000    24333576.051 8 127873804.76308      1358.523 8        48.252                                                                    24333579.505 8  95490209.93808      1014.480 8        49.415    24333578.661 8  97981255.13008      1040.890 8        50.023
G07        56.000    24182601.758 6 127080339.86406     -3242.060 6        41.766                                    24182603.641 5  99023597.53205     -2526.278 5        34.729    24182603.557 6  99023606.52506     -2526.273 6        38.018
C02        57.000                                                                                                                                    41085029.885 5 213940402.86405      -557.618 5        33.503    41085034.748 6 165432238.21506      -431.115 6        37.331    41085035.534 5 173844068.16005      -453.242 5        33.533
I03        58.000    96087113.309 6 301280994.36206       847.635 6        41.039
C21        59.000                                                                                                                                    24656997.789 7 128395414.90107      2166.517 7        45.919                                                                    24656994.273 7 104331759.26807      1760.372 7        46.054
C22        60.000                                                                                                                                    21836931.452 8 113710593.83008      -649.223 8        52.109                                                                    21836926.501 8  92399139.92608      -527.625 8        49.849
> 2025 01 02 08 15 30.0000000  0 54
E24         1.000    28151725.833 6 147938364.57706      2711.756 6        38.619                                                                    28151734.205 6 110473500.94706      2025.022 6        41.104    28151732.431 6 113355409.71906      2077.814 6        41.802
G15         2.000    22018807.122 7 115709569.22707      2471.588 7        45.619                                    22018805.524 7  90163277.74407      1925.908 7        42.845    22018805.703 6  90163272.74706      1925.924 6        41.483
E15         3.000    28781644.426 5 151248551.23805       523.052 5        35.600                                                                    28781648.269 6 112945345.66306       390.821 6        40.639    28781647.322 6 115891742.30606       401.086 6        41.089
G08         4.000    24628099.812 6 129421549.62506     -1900.834 6        37.251                                    24628104.714 4 100847982.54504     -1481.163 4        29.033    24628105.200 6 100847978.52306     -1481.027 6        36.151
S21         5.000    38601666.675 6 202852763.99906      -506.220 6        41.690
E05         6.000    25592703.660 6 134490525.67006      2064.320 6        40.343                                                                    25592707.412 7 100431211.08007      1541.788 7        42.946    25592706.527 7 103051155.21407      1581.911 7        43.668
G20         7.000    23374435.847 6 122833395.49006     -3931.631 6        41.921                                    23374436.836 4  95714289.65304     -3063.605 4        25.895
R02         8.000    19289245.231 8 102931076.71808      -361.727 8        52.171                                                                    19289246.351 7  80057496.43607      -281.336 7        46.799
R20         9.000    24119262.038 5 128976574.64705      1043.004 5        30.408                                                                    24119271.522 6 100315134.85706       811.398 6        39.207
G24        10.000    25572268.261 5 134383173.75505      3077.219 5        34.890                                    25572271.542 4 104714173.71604      2397.838 4        24.286    25572271.792 5 104714178.69005      2397.749 5        32.257
G30        11.000    21528119.436 7 113130997.48107     -2394.928 7        47.533                                    21528120.203 8  88154005.01208     -1866.170 8        48.061    21528120.471 7  88154013.01207     -1866.184 7        43.678
S27        12.000    39290568.898 5 206473286.39805      -537.612 5        35.710
G13        13.000    20225947.434 8 106288042.99608       589.589 8        48.806                                    20225944.728 6  82821822.54906       459.422 6        40.276
S36        14.000    38370746.559 7 201640142.77607      -507.065 7        43.505
I09        15.000    39973162.172 6 156863088.13006     -1037.320 6        41.206
E09        16.000    23794990.447 8 125043507.65908       310.605 8        48.500                                                                    23794992.021 8  93376634.99208       231.922 8        50.744    23794991.497 8  95812544.55008       238.019 8        51.430
S45        17.000    63552145.821 6 333970217.67006      -553.722 6        36.597
E36        18.000    28592907.436 6 150256650.57006     -3230.099 6        36.537                                                                    28592913.799 6 112204636.04906     -2412.190 6        38.360    28592912.419 6 115131714.77106     -2475.121 6        38.562
R19        19.000    24287205.869 5 129920143.76805     -2583.573 5        32.473                                                                    24287208.574 6 101048993.72806     -2009.284 6        37.021
E21        20.000    28498625.726 5 149761166.48205     -3351.457 5        35.757                                                                    28498634.064 6 111834617.32106     -2502.709 6        40.074    28498632.948 6 114752042.55106     -2567.961 6        40.694
R03        21.000    21749361.371 8 116425998.24208      3108.312 8        48.723                                                                    21749362.596 7  90553544.41107      2417.646 7        44.206
I06        22.000    38208557.047 7 149938715.78907      -447.225 7        43.541
S28        23.000    41039800.082 5 215665459.37205      -514.829 5        34.757
S23        25.000    38303543.822 7 201286414.64807      -506.143 7        43.829
R01        26.000    21290202.415 7 113808258.54107     -3998.840 7        46.934                                                                    21290205.957 6  88517507.11706     -3110.184 6        39.508
C07        27.000                                                                                                                                    39236923.152 6 204316924.12606       169.362 6        40.362    39236921.817 7 157990792.45707       130.826 7        43.678    39236919.224 6 166024213.76206       137.421 6        40.853
C40        29.000                                                                                                                                    39253549.163 7 204403517.08807       260.184 7        42.324                                                                    39253550.666 7 166094602.38107       211.440 7        42.715
G14        31.000    20749489.294 7 109039303.44107       213.095 7        47.961                                    20749487.531 6  84965690.73006       166.048 6        40.150    20749487.808 7  84965676.73107       166.057 7        47.253
G23        32.000    25517006.411 6 134092755.09506      2835.824 6        37.830                                    25517003.590 3 104487844.35803      2209.742 3        20.929    25517004.137 6 104487839.36706      2209.601 6        38.904
I02        33.000    37859109.388 7 148567268.19907       181.283 7        43.001
E04        34.000    24454637.533 7 128509971.35007     -2134.042 7        47.087                                                                    24454638.993 8  95965234.40308     -1593.528 8        49.774    24454638.322 8  98468672.56808     -1635.124 8        50.355
R13        35.000    21273598.946 7 113599846.12107      2818.223 7        44.337
R12        36.000    19258298.554 8 102874362.76908      -383.394 8        51.937                                                                    19258300.090 7  80013395.12507      -298.255 7        47.296
I01        37.000   392801460.676 6 238296244.35806     -3174.919 6        40.265
C10        38.000                                                                                                                                    39324106.962 6 204770935.58306       502.595 6        40.043    39324108.938 7 158341875.09007       388.701 7        43.397    39324105.795 6 166393145.58406       408.537 6        40.901
C19        39.000                                                                                                                                    24150138.033 7 125756022.35707     -3449.303 7        47.586                                                                    24150137.759 7 102187028.79507     -2802.870 7        47.580
E34        40.000    27892508.104 6 146576079.51906     -1717.123 6        39.312                                                                    27892511.168 6 109456150.93206     -1282.192 6        40.439    27892510.403 6 112311529.88806     -1315.620 6        41.142
G05        41.000    21786883.789 7 114490803.83207     -2508.240 7        47.690                                    21786882.301 7  89213581.71207     -1954.467 7        46.473    21786882.967 7  89213590.70307     -1954.375 7        43.475
S44        42.000    41048887.939 6 215713402.18406      -515.898 6        37.614
C36        43.000                                                                                                                                    21622958.367 8 112596397.11008      -173.961 8        51.193                                                                    21622964.134 8  91493811.41208      -141.380 8        49.980
C05        44.000                                                                                                                                    39505121.157 6 205713459.52806      -563.916 6        38.510    39505122.071 7 159070692.43707      -435.938 7        42.430    39505123.157 6 167159117.67506      -458.347 6        40.021
G18        46.000    25367677.009 6 133308008.55606     -1736.656 6        38.057                                    25367675.244 3 103876347.94803     -1353.240 3        19.224    25367676.159 5 103876337.93005     -1353.220 5        35.414
R11        47.000    21947563.852 7 117281046.46707     -4191.952 7        46.643                                                                    21947566.723 7  91218579.26707     -3260.426 7        44.629
C45        50.000                                                                                                                                    24144207.966 7 125725226.74907      2243.047 7        46.172                                                                    24144203.114 7 102162028.80407      1822.603 7        46.656
S48        51.000    77318103.305 6 406307975.63806      -494.273 6        37.180
E06        52.000    23431550.661 8 123133618.79308      -936.992 8        48.569                                                                    23431552.476 8  91950430.79608      -699.684 8        50.704    23431552.148 8  94349136.76008      -717.922 8        51.119
C09        53.000                                                                                                                                    40953070.966 5 213253261.84505     -1145.544 5        35.943    40953076.622 6 164900902.60006      -885.619 6        40.567    40953072.622 6 173285693.06606      -930.461 6        38.024
C60        54.000                                                                                                                                    41048893.545 6 213752389.14606      -511.247 6        40.358                                                                    41048885.837 6 173691259.01406      -415.535 6        38.949
E31        55.000    24332284.366 8 127867017.78008      1356.320 8        48.067                                                                    24332287.967 8  95485141.74608      1012.844 8        49.310    24332287.098 8  97976054.71908      1039.281 8        49.960
G07        56.000    24185687.088 6 127096551.96506     -3242.701 6        40.782                                    24185688.703 5  99036230.31205     -2526.775 5        34.676    24185688.860 6  99036239.31106     -2526.828 6        37.902
C02        57.000                                                                                                                                    41085565.120 5 213943191.12605      -557.831 5        33.186    41085570.859 6 165434394.25806      -431.468 6        37.845    41085571.221 5 173846333.85005      -453.253 5        32.802
I03        58.000    96086033.885 6 301276756.90506       847.415 6        41.185
C21        59.000                                                                                                                                    24654918.566 7 128384587.07307      2164.694 7        45.652                                                                    24654914.897 7 104322960.76007      1759.093 7        45.953
C22        60.000                                                                                                                                    21837556.399 8 113713847.62708      -652.277 8        52.070                                                                    21837551.337 8  92401783.89508      -529.944 8        49.812
> 2025 01 02 08 15 35.0000000  0 54
E24         1.000    28149145.691 6 147924805.55006      2711.455 6        38.637                                                                    28149153.937 6 110463375.73206      2024.675 6        40.949    28149152.345 7 113345020.36807      2077.459 7        42.169
G15         2.000    22016456.041 7 115697214.60207      2469.728 7        45.664                                    22016454.519 7  90153650.76307      1924.464 7        42.751    22016454.950 6  90153645.75906      1924.530 6        41.678
E15         3.000    28781147.076 5 151245939.31305       520.905 5        35.410                                                                    28781151.329 6 112943395.20706       388.986 6        40.472    28781150.496 6 115889740.95506       399.162 6        41.159
G08         4.000    24629908.982 6 129431060.21506     -1903.866 6        37.361                                    24629914.563 4 100855393.33604     -1483.526 4        28.938    24629915.176 6 100855389.31106     -1483.473 6        36.064
S21         5.000    38602145.460 6 202855294.81606      -506.479 6        41.809
E05         6.000    25590739.286 6 134480202.94006      2063.999 6        40.300                                                                    25590742.998 7 100423502.56807      1541.395 7        42.883    25590742.087 7 103043245.59807      1581.664 7        43.791
G20         7.000    23378176.960 6 122853055.18706     -3932.666 6        41.380                                    23378177.969 4  95729608.86704     -3064.407 4        25.684
R02         8.000    19289585.663 8 102932893.89208      -365.654 8        52.106                                                                    19289586.935 7  80058909.80107      -284.396 7        46.882
R20         9.000    24118290.449 5 128971367.76605      1039.175 5        31.411                                                                    24118297.951 6 100311085.00606       808.350 6        39.228
G24        10.000    25569339.573 5 134367786.71905      3076.839 5        34.243                                    25569343.390 4 104702183.79704      2397.536 4        24.436    25569342.720 5 104702188.79005      2397.351 5        31.117
G30        11.000    21530398.483 7 113142974.73907     -2396.409 7        47.262                                    21530399.403 7  88163337.93007     -1867.327 7        47.937    21530400.034 7  88163345.92507     -1867.357 7        43.865
S27        12.000    39291083.792 5 206475973.17805      -537.448 5        35.609
G13        13.000    20225387.266 8 106285099.42508       587.272 8        48.729                                    20225384.595 6  82819528.85406       457.615 6        40.133
S36        14.000    38371229.096 7 201642677.54207      -507.298 7        43.532
I09        15.000    39974483.707 6 156868274.12906     -1037.487 6        40.944
E09        16.000    23794695.358 8 125041957.04508       309.159 8        48.458                                                                    23794696.969 8  93375477.05908       230.833 8        50.530    23794696.413 8  95811356.41208       236.851 8        51.510
S45        17.000    63552626.771 6 333971284.54516      -553.811 6        36.234
E36        18.000    28595980.580 6 150272801.57906     -3230.753 6        36.779                                                                    28595987.017 6 112216696.84106     -2412.455 6        37.951    28595985.758 6 115144090.19306     -2475.542 6        38.333
R19        19.000    24289623.262 5 129933068.36505     -2586.796 5        31.698                                                                    24289625.470 6 101059046.22806     -2012.066 6        37.301
E21        20.000    28501814.619 5 149777924.50405     -3352.281 5        35.905                                                                    28501823.027 6 111847131.37906     -2503.292 6        39.571    28501821.937 6 114764883.07206     -2568.630 6        40.751
R03        21.000    21746458.584 8 116410459.30208      3106.786 8        48.902                                                                    21746459.679 7  90541458.57007      2416.344 7        44.749
I06        22.000    38209126.668 7 149940951.03507      -447.232 7        43.319
S28        23.000    41040290.382 5 215668030.69305      -514.273 5        34.738
S23        25.000    38304027.446 7 201288944.36907      -506.221 7        44.194
R01        26.000    21293942.698 7 113828257.64707     -4001.293 7        46.372                                                                    21293948.249 6  88533061.94706     -3111.946 6        40.489
C07        27.000                                                                                                                                    39236760.964 6 204316078.73106       168.404 6        40.265    39236759.437 7 157990138.74707       130.184 7        43.848    39236756.920 6 166023526.80706       136.882 6        40.965
C40        29.000                                                                                                                                    39253299.922 7 204402217.66207       259.135 7        42.497                                                                    39253301.041 7 166093546.50307       210.597 7        42.701
G14        31.000    20749287.763 8 109038244.65008       209.971 8        48.092                                    20749286.027 6  84964865.70206       163.614 6        40.076    20749286.418 7  84964851.69907       163.599 7        47.258
G23        32.000    25514308.504 6 134078578.62906      2834.243 6        37.732                                    25514306.164 3 104476797.71703      2208.503 3        20.952    25514306.546 6 104476792.69806      2208.625 6        39.045
I02        33.000    37858878.822 7 148566361.76207       181.006 7        43.162
E04        34.000    24456668.322 7 128520643.15507     -2135.402 7        47.013                                                                    24456669.771 8  95973203.59508     -1594.577 8        49.520    24456669.169 8  98476849.65108     -1636.165 8        50.389
R13        35.000    21270960.244 7 113585759.98207      2815.743 7        44.512
R12        36.000    19258658.892 8 102876288.17008      -387.220 8        51.740                                                                    19258660.489 7  80014892.65507      -301.166 7        47.684
I01        37.000   392805505.549 6 238312118.22806     -3174.947 6        40.312
C10        38.000                                                                                                                                    39323624.232 6 204768423.06506       501.840 6        39.997    39323626.321 7 158339932.25407       388.002 7        43.293    39323623.384 6 166391103.95406       407.856 6        40.784
C19        39.000                                                                                                                                    24153450.672 7 125773271.47607     -3450.793 7        47.510                                                                    24153450.192 7 102201045.08007     -2804.011 7        47.448
E34        40.000    27894142.407 6 146584669.16106     -1719.427 6        38.571                                                                    27894145.795 6 109462565.26206     -1283.932 6        40.231    27894144.916 6 112318111.54806     -1317.397 6        41.147
G05        41.000    21789271.366 7 114503351.01807     -2511.105 7        47.687                                    21789269.973 7  89223358.72607     -1956.704 7        46.372    21789270.050 7  89223367.72207     -1956.814 7        43.344
S44        42.000    41049379.120 6 215715980.84106      -515.864 6        37.346
C36        43.000                                                                                                                                    21623126.192 8 112597271.41608      -176.263 8        51.213                                                                    21623132.013 8  91494521.84708      -143.151 8        49.952
C05        44.000                                                                                                                                    39505662.089 6 205716277.77906      -563.901 6        38.547    39505663.432 7 159072871.70007      -436.002 7        42.451    39505664.219 6 167161407.72406      -458.204 6        39.940
G18        46.000    25369330.351 6 133316697.16806     -1739.394 6        38.174                                    25369328.484 3 103883118.26203     -1355.343 3        19.075    25369330.178 6 103883108.26606     -1355.316 6        36.809
R11        47.000    21951486.824 7 117302008.60407     -4193.402 7        46.863                                                                    21951489.006 7  91234883.11307     -3261.550 7        44.780
C45        50.000                                                                                                                                    24142054.607 7 125714013.59307      2241.742 7        46.203                                                                    24142049.722 7 102152917.19507      1821.625 7        46.690
S48        51.000    77318580.490 6 406310446.24306      -494.288 6        37.501
E06        52.000    23432442.582 8 123138306.51208      -938.584 8        48.519                                                                    23432444.524 8  91953931.36108      -700.925 8        50.432    23432444.175 8  94352728.64308      -719.177 8        51.140
C09        53.000                                                                                                                                    40954170.495 5 213258987.41805     -1145.460 5        35.733    40954175.761 6 164905329.96306      -885.629 6        40.636    40954172.126 6 173290345.57006      -930.686 6        37.558
C60        54.000                                                                                                                                    41049384.278 6 213754944.35406      -511.310 6        40.410                                                                    41049376.298 6 173693335.29106      -415.499 6        38.586
E31        55.000    24330994.808 7 127860239.99207      1354.253 7        47.858                                                                    24330998.227 8  95480080.41208      1011.309 8        49.089    24330997.286 8  97970861.35308      1037.687 8        50.067
G07        56.000    24188772.043 6 127112765.71406     -3243.168 6        40.048                                    24188774.046 5  99048864.37205     -2527.137 5        34.267    24188774.140 6  99048873.35306     -2527.235 6        37.486
C02        57.000                                                                                                                                    41086100.727 5 213945978.87205      -557.688 5        33.563    41086105.992 6 165436549.91506      -431.199 6        37.573    41086106.461 5 173848599.11605      -453.313 5        33.443
I03        58.000    96084953.704 6 301272519.06206       847.449 6        41.263
C21        59.000                                                                                                                                    24652840.315 7 128373765.83307      2163.299 7        45.809                                                                    24652836.755 7 104314167.60507      1757.911 7        45.916
C22        60.000                                                                                                                                    21838183.859 8 113717114.57308      -655.016 8        52.033                                                                    21838178.723 8  92404438.54408      -532.172 8        49.776
> 2025 01 02 08 15 40.0000000  0 54
E24         1.000    28146566.040 6 147911248.50406      2711.259 6        39.081                                                                    28146574.064 6 110453252.00606      2024.767 6        40.920    28146572.726 7 113334632.55107      2077.301 7        42.133
G15         2.000    22014107.109 7 115684869.32607      2468.128 7        45.797                                    22014105.298 7  90144031.07307      1923.215 7        42.451    22014106.197 7  90144026.06407      1923.363 7        42.290
E15         3.000    28780653.005 5 151243339.64305       518.552 5        35.771                                                                    28780656.543 6 112941453.86106       387.315 6        40.379    28780655.782 6 115887748.97106       397.642 6        41.056
G08         4.000    24631721.683 6 129440586.57406     -1906.859 6        37.422                                    24631727.350 4 100862816.41304     -1485.856 4        28.730    24631727.915 5 100862812.40905     -1485.837 5        35.690
S21         5.000    38602627.363 6 202857826.42706      -506.374 6        41.728
E05         6.000    25588774.564 6 134469881.96106      2064.074 6        40.019                                                                    25588778.925 7 100415795.34507      1541.399 7        42.847    25588777.940 7 103035337.33107      1581.549 7        43.799
G20         7.000    23381919.242 6 122872720.70106     -3933.766 6        41.514                                    23381920.297 4  95744932.61004     -3065.258 4        25.609
R02         8.000    19289929.858 8 102934731.06508      -369.414 8        52.024                                                                    19289931.426 7  80060338.70507      -287.250 7        46.863
R20         9.000    24117321.577 5 128966180.50105      1035.755 5        30.634                                                                    24117327.868 6 100307050.47006       805.355 6        39.393
G24        10.000    25566413.588 5 134352401.58205      3076.877 5        34.800                                    25566415.385 3 104690195.35503      2397.587 3        23.333    25566415.917 5 104690200.36605      2397.542 5        31.509
G30        11.000    21532679.218 7 113154959.86107     -2397.804 7        47.273                                    21532680.091 7  88172676.97007     -1868.414 7        47.597    21532680.543 7  88172684.96707     -1868.469 7        43.937
S27        12.000    39291594.773 6 206478660.72406      -537.632 6        36.011
G13        13.000    20224829.691 8 106282168.10308       585.077 8        49.133                                    20224826.800 6  82817244.70206       455.906 6        39.889
S36        14.000    38371713.722 7 201645212.98907      -507.363 7        43.632
I09        15.000    39975805.300 6 156873460.81906     -1037.281 6        40.651
E09        16.000    23794401.769 8 125040413.94408       307.914 8        48.231                                                                    23794403.321 8  93374324.73208       229.947 8        50.585    23794402.824 8  95810174.02608       235.954 8        51.548
S45        17.000    63553111.464 6 333974052.21106      -553.739 6        36.495
E36        18.000    28599054.831 5 150288955.74705     -3231.166 5        35.919                                                                    28599061.121 6 112228759.99406     -2412.697 6        37.936    28599060.088 6 115156468.04106     -2475.712 6        38.730
R19        19.000    24292043.121 5 129946010.88105     -2589.773 5        33.317                                                                    24292044.731 6 101069112.65306     -2014.614 6        38.234
E21        20.000    28505004.217 6 149794686.57406     -3352.780 6        36.019                                                                    28505012.701 6 111859648.49006     -2503.751 6        39.480    28505011.712 6 114777726.71306     -2568.986 6        40.639
R03        21.000    21743557.833 8 116394928.62708      3105.327 8        49.198                                                                    21743558.298 7  90529379.15107      2415.217 7        44.825
I06        22.000    38209696.602 7 149943187.01507      -447.234 7        42.991
S28        23.000    41040781.397 5 215670602.75005      -514.530 5        34.743
S23        25.000    38304506.236 7 201291474.87807      -506.215 7        44.045
R01        26.000    21297686.766 7 113848269.21107     -4003.563 7        46.288                                                                    21297691.483 6  88548626.46106     -3113.760 6        40.241
C07        27.000                                                                                                                                    39236599.156 6 204315238.13506       167.733 6        40.002    39236598.122 7 157989488.73207       129.623 7        43.856    39236595.556 6 166022843.72706       136.273 6        41.042
C40        29.000                                                                                                                                    39253051.528 7 204400923.98607       258.222 7        42.353                                                                    39253052.609 7 166092495.29807       209.839 7        42.766
G14        31.000    20749089.399 8 109037202.09608       206.908 8        48.370                                    20749087.616 6  84964053.32106       161.226 6        39.751    20749087.913 7  84964039.31307       161.266 7        47.238
G23        32.000    25511612.345 6 134064409.38806      2833.131 6        37.667                                    25511610.084 3 104465756.70903      2207.648 3        20.095    25511610.160 6 104465751.70106      2207.686 6        38.285
I02        33.000    37858648.217 7 148565457.02807       180.929 7        43.018
E04        34.000    24458700.327 7 128531322.16107     -2136.485 7        46.797                                                                    24458702.020 8  95981178.15808     -1595.390 8        49.596    24458701.366 8  98485032.25408     -1637.050 8        50.359
R13        35.000    21268325.149 7 113571686.25107      2813.574 7        44.190
R12        36.000    19259022.675 8 102878233.14108      -390.924 8        51.894                                                                    19259024.512 7  80016405.40707      -304.061 7        47.124
I01        37.000   392809550.823 6 238327992.63006     -3174.794 6        40.155
C10        38.000                                                                                                                                    39323142.894 6 204765914.76906       501.152 6        39.877    39323144.430 7 158337992.66607       387.580 7        43.126    39323141.649 6 166389065.75806       407.248 6        40.832
C19        39.000                                                                                                                                    24156764.724 7 125790528.50407     -3452.176 7        47.328                                                                    24156763.884 7 102215067.80407     -2805.201 7        47.278
E34        40.000    27895778.759 6 146593270.41506     -1721.257 6        38.640                                                                    27895782.541 6 109468988.29506     -1285.525 6        40.303    27895781.865 6 112324702.13206     -1319.059 6        40.994
G05        41.000    21791661.647 7 114515913.62307     -2514.003 7        47.443                                    21791660.578 7  89233147.75107     -1958.959 7        46.117    21791660.988 7  89233156.75307     -1959.005 7        43.500
S44        42.000    41049869.460 6 215718560.10306      -515.851 6        37.490
C36        43.000                                                                                                                                    21623296.404 8 112598157.43708      -178.353 8        51.176                                                                    21623302.184 8  91495241.80708      -144.967 8        50.078
C05        44.000                                                                                                                                    39506203.566 6 205719096.77106      -564.011 6        38.601    39506204.642 7 159075051.50007      -435.852 7        42.440    39506205.612 6 167163698.36506      -458.142 6        40.136
G18        46.000    25370986.000 6 133325399.72106     -1741.957 6        39.462                                    25370984.495 3 103889899.46203     -1357.372 3        18.716    25370985.317 6 103889889.46306     -1357.264 6        36.068
R11        47.000    21955411.885 7 117322977.93607     -4194.507 7        47.182                                                                    21955412.826 7  91251192.56407     -3262.373 7        43.848
C45        50.000                                                                                                                                    24139902.746 7 125702807.30307      2240.682 7        46.409                                                                    24139897.710 7 102143811.18707      1820.697 7        46.720
S48        51.000    77319060.818 6 406312917.27306      -494.138 6        37.384
E06        52.000    23433336.228 8 123143002.63508      -940.023 8        48.353                                                                    23433338.201 8  91957438.19908      -701.993 8        50.444    23433337.887 8  94356326.96408      -720.267 8        51.145
C09        53.000                                                                                                                                    40955269.664 5 213264713.27805     -1145.004 5        35.724    40955274.865 6 164909757.55806      -885.466 6        40.417    40955271.454 6 173294998.30206      -930.582 6        37.777
C60        54.000                                                                                                                                    41049874.856 6 213757500.13906      -511.045 6        40.088                                                                    41049867.148 6 173695412.07706      -415.460 6        38.709
E31        55.000    24329707.024 7 127853472.49207      1352.485 7        47.847                                                                    24329710.320 8  95475026.76308      1010.032 8        49.133    24329709.504 8  97965675.87108      1036.329 8        49.990
G07        56.000    24191858.236 6 127128982.17706     -3243.586 6        40.613                                    24191859.837 5  99061500.55305     -2527.464 5        33.808    24191859.256 6  99061509.55006     -2527.482 6        37.766
C02        57.000                                                                                                                                    41086635.721 5 213948767.27305      -557.803 5        33.054    41086641.312 6 165438706.05606      -431.551 6        37.304    41086641.880 5 173850864.89905      -453.472 5        33.234
I03        58.000    96083873.901 6 301268281.65406       847.422 6        41.092
C21        59.000                                                                                                                                    24650763.426 7 128362952.29007      2162.000 7        45.601                                                                    24650760.210 7 104305380.71807      1756.719 7        45.994
C22        60.000                                                                                                                                    21838813.729 8 113720395.76808      -657.627 8        51.929                                                                    21838808.829 8  92407104.77808      -534.412 8        49.926
> 2025 01 02 08 15 45.0000000  0 54
E24         1.000    28143986.510 6 147897692.44706      2710.944 6        39.027                                                                    28143994.312 6 110443129.02206      2024.295 6        41.020    28143992.974 7 113324245.46007      2077.279 7        42.140
G15         2.000    22011759.557 7 115672532.30607      2466.430 7        45.428                                    22011757.647 7  90134417.81107      1921.893 7        42.540    22011757.729 7  90134412.81507      1921.901 7        42.174
E15         3.000    28780160.379 6 151240751.11606       516.398 6        36.174                                                                    28780163.991 6 112939520.86906       385.593 6        40.482    28780163.143 6 115885765.54506       395.706 6        41.237
G08         4.000    24633538.284 6 129450127.68706     -1910.001 6        36.677                                    24633542.931 4 100870250.99204     -1488.303 4        29.014    24633543.628 5 100870246.96305     -1488.249 5        35.400
S21         5.000    38603108.715 7 202860357.75507      -506.422 7        42.047
E05         6.000    25586811.306 6 134459561.72806      2063.746 6        39.880                                                                    25586815.036 7 100408088.66707      1541.137 7        43.113    25586814.159 7 103027429.60707      1581.291 7        43.691
G20         7.000    23385662.302 6 122892390.97206     -3934.689 6        41.459                                    23385663.372 4  95760260.05604     -3065.977 4        25.744
R02         8.000    19290277.773 8 102936587.26808      -373.350 8        51.878                                                                    19290279.039 7  80061782.41707      -290.369 7        46.880
R20         9.000    24116355.258 5 128961012.03805      1031.696 5        30.241                                                                    24116360.934 6 100303030.52106       802.367 6        39.339
G24        10.000    25563486.969 5 134337017.26805      3076.503 5        35.552                                    25563487.795 3 104678207.56903      2397.278 3        23.143    25563488.450 5 104678212.56905      2397.473 5        31.570
G30        11.000    21534961.108 7 113166951.78607     -2399.281 7        47.364                                    21534962.081 7  88182021.31207     -1869.567 7        47.634    21534962.692 7  88182029.30707     -1869.563 7        44.214
S27        12.000    39292104.694 5 206481347.95005      -537.410 5        35.795
G13        13.000    20224273.879 8 106279247.95308       582.712 8        49.032                                    20224271.107 6  82814969.25806       454.060 6        40.002
S36        14.000    38372195.405 7 201647748.17007      -507.055 7        43.898
I09        15.000    39977126.865 6 156878647.49106     -1037.542 6        40.534
E09        16.000    23794109.292 8 125038877.32208       306.465 8        48.148                                                                    23794110.935 8  93373177.24608       228.893 8        50.727    23794110.391 8  95808996.60808       234.858 8        51.356
S45        17.000    63553592.955 6 333976819.47606      -553.571 6        36.699
E36        18.000    28602128.523 5 150305112.03405     -3231.760 5        35.562                                                                    28602135.630 6 112240824.76006     -2413.335 6        37.996    28602134.681 6 115168847.52906     -2476.289 6        38.760
R19        19.000    24294465.952 5 129958970.25305     -2593.542 5        32.976                                                                    24294466.241 6 101079192.13506     -2017.372 6        38.255
E21        20.000    28508194.498 6 149811451.68106     -3353.604 6        36.208                                                                    28508202.999 6 111872167.83706     -2504.215 6        39.432    28508201.963 6 114790572.65106     -2569.530 6        40.598
R03        21.000    21740658.220 8 116379405.25108      3103.770 8        49.509                                                                    21740658.349 7  90517305.40607      2414.119 7        45.321
I06        22.000    38210266.007 7 149945422.94207      -447.316 7        42.976
S28        23.000    41041266.702 5 215673174.37905      -514.521 5        34.529
S23        25.000    38304990.177 7 201294005.22007      -506.235 7        44.262
R01        26.000    21301432.960 7 113868292.25907     -4005.930 7        46.613                                                                    21301437.346 6  88564199.90206     -3115.709 6        40.062
C07        27.000                                                                                                                                    39236438.211 6 204314401.17606       166.849 6        40.038    39236437.199 7 157988841.55307       129.080 7        43.687    39236434.792 6 166022163.66806       135.475 6        40.996
C40        29.000                                                                                                                                    39252804.155 7 204399635.01607       257.176 7        42.210                                                                    39252805.094 7 166091447.94307       208.808 7        42.753
G14        31.000    20748893.950 8 109036174.73308       203.751 8        48.486                                    20748892.139 6  84963252.77506       158.767 6        39.847    20748892.589 7  84963238.77607       158.825 7        47.646
G23        32.000    25508917.035 6 134050246.36806      2831.775 6        37.225                                    25508914.970 3 104454720.54903      2206.586 3        19.045    25508914.999 6 104454715.55106      2206.549 6        38.261
I02        33.000    37858417.739 7 148564553.22007       180.429 7        43.156
E04        34.000    24460733.790 7 128542007.34207     -2137.840 7        46.794                                                                    24460735.346 8  95989157.33408     -1596.420 8        49.793    24460734.681 8  98493219.58108     -1638.044 8        50.207
R13        35.000    21265692.010 7 113557623.99607      2811.090 7        44.780
R12        36.000    19259390.615 8 102880196.57408      -394.772 8        51.997                                                                    19259392.287 7  80017932.51807      -307.021 7        47.651
I01        37.000   392813596.126 6 238343866.85506     -3174.913 6        40.186
C10        38.000                                                                                                                                    39322661.845 6 204763409.59806       500.572 6        39.465    39322663.292 7 158336055.51207       386.947 7        43.319    39322660.465 6 166387030.12706       406.499 6        40.782
C19        39.000                                                                                                                                    24160080.161 7 125807792.40907     -3453.636 7        47.010                                                                    24160079.015 7 102229096.12707     -2806.486 7        47.064
E34        40.000    27897418.231 6 146601882.33306     -1723.687 6        38.495                                                                    27897421.311 6 109475419.22806     -1287.256 6        40.329    27897420.956 6 112331300.83106     -1320.754 6        40.987
G05        41.000    21794055.030 7 114528490.63807     -2517.056 7        47.395                                    21794053.916 7  89242948.00607     -1961.340 7        46.171    21794054.351 7  89242956.99907     -1961.280 7        43.111
S44        42.000    41050362.792 6 215721138.90206      -515.846 6        37.490
C36        43.000                                                                                                                                    21623468.690 8 112599054.13108      -180.608 8        51.106                                                                    21623474.413 8  91495970.45808      -146.845 8        49.992
C05        44.000                                                                                                                                    39506744.610 6 205721915.42306      -563.881 6        38.117    39506745.811 7 159077231.07507      -436.085 7        42.309    39506746.915 6 167165988.77606      -458.439 6        40.033
G18        46.000    25372644.138 6 133334115.12806     -1744.492 6        37.701                                    25372643.262 3 103896690.69803     -1359.338 3        18.955    25372644.001 5 103896680.67805     -1359.321 5        35.462
R11        47.000    21959336.745 7 117343953.42607     -4195.950 7        46.971                                                                    21959338.669 7  91267506.79107     -3263.464 7        44.140
C45        50.000                                                                                                                                    24137751.718 7 125691606.86807      2239.301 7        46.545                                                                    24137746.622 7 102134709.94307      1819.439 7        46.684
S48        51.000    77319538.816 6 406315388.24706      -494.585 6        37.955
E06        52.000    23434231.422 8 123147706.10508      -941.659 8        48.449                                                                    23434233.280 8  91960950.52208      -703.188 8        50.634    23434232.897 8  94359930.91708      -721.543 8        51.010
C09        53.000                                                                                                                                    40956369.183 5 213270438.43005     -1145.291 5        35.676    40956374.534 6 164914184.56406      -885.542 6        40.617    40956371.128 6 173299650.42406      -930.555 6        37.875
C60        54.000                                                                                                                                    41050365.835 6 213760055.50406      -511.279 6        39.976                                                                    41050358.043 6 173697488.52106      -415.548 6        38.589
E31        55.000    24328420.831 7 127846714.26807      1350.508 7        47.829                                                                    24328424.282 8  95469980.04608      1008.490 8        49.312    24328423.495 8  97960497.49508      1034.796 8        49.845
G07        56.000    24194944.539 6 127145200.31806     -3243.957 6        40.651                                    24194945.950 5  99074138.03605     -2527.754 5        33.737    24194945.854 6  99074147.03806     -2527.676 6        37.656
C02        57.000                                                                                                                                    41087171.180 5 213951555.23005      -557.570 5        33.012    41087176.463 6 165440861.87706      -431.314 6        37.259    41087177.294 5 173853130.36505      -453.464 5        33.192
I03        58.000    96082794.105 6 301264043.88506       847.493 6        41.220
C21        59.000                                                                                                                                    24648688.158 7 128352145.43807      2160.563 7        45.585                                                                    24648684.865 7 104296599.26807      1755.432 7        46.023
C22        60.000                                                                                                                                    21839446.496 8 113723690.19208      -660.402 8        51.806                                                                    21839441.525 8  92409781.77708      -536.766 8        49.836
> 2025 01 02 08 15 50.0000000  0 54
E24         1.000    28141406.802 6 147884137.47106      2710.766 6        38.946                                                                    28141414.836 6 110433006.84606      2024.231 6        41.151    28141413.552 6 113313859.22806      2077.150 6        41.838
G15         2.000    22009413.503 7 115660203.75207      2464.641 7        45.372                                    22009411.593 7  90124811.14307      1920.499 7        42.480    22009411.440 7  90124806.14307      1920.559 7        42.165
E15         3.000    28779669.877 6 151238173.97606       513.926 6        36.185                                                                    28779673.549 6 112937596.33806       383.944 6        40.255    28779672.940 6 115883790.83306       393.881 6        40.667
G08         4.000    24635356.812 6 129459683.68206     -1912.993 6        36.582                                    24635361.500 4 100877697.17404     -1490.630 4        28.967    24635362.549 6 100877693.13406     -1490.358 6        36.079
S21         5.000    38603592.021 6 202862888.80106      -506.289 6        41.931
E05         6.000    25584847.328 6 134449242.36806      2063.705 6        39.700                                                                    25584851.344 7 100400382.66807      1540.983 7        43.126    25584850.454 7 103019522.57607      1581.193 7        43.615
G20         7.000    23389406.270 6 122912066.18206     -3935.702 6        41.452                                    23389407.573 4  95775591.35604     -3066.774 4        25.609
R02         8.000    19290629.304 8 102938462.72608      -377.143 8        52.107                                                                    19290630.654 7  80063241.09107      -293.329 7        47.069
R20         9.000    24115390.204 5 128955862.38805      1028.200 5        30.211                                                                    24115398.318 6 100299025.21606       799.545 6        39.592
G24        10.000    25560559.644 5 134321633.94805      3076.421 5        34.748                                    25560560.009 3 104666220.52903      2397.219 3        22.705    25560561.767 5 104666225.51805      2397.633 5        31.502
G30        11.000    21537244.797 7 113178950.66107     -2400.625 7        47.681                                    21537245.416 7  88191371.07507     -1870.615 7        47.559    21537245.848 7  88191379.07507     -1870.604 7        44.331
S27        12.000    39292614.907 5 206484035.10005      -537.632 5        35.910
G13        13.000    20223720.426 8 106276339.15608       580.461 8        49.019                                    20223717.578 6  82812702.65706       452.309 6        39.898
S36        14.000    38372677.423 7 201650283.15307      -507.364 7        43.754
I09        15.000    39978448.808 6 156883834.20506     -1037.500 6        40.570
E09        16.000    23793818.116 8 125037347.35308       305.140 8        48.113                                                                    23793819.767 8  93372034.73108       227.920 8        50.757    23793819.224 8  95807824.28708       233.860 8        51.277
S45        17.000    63554076.650 6 333979586.62006      -553.671 6        36.786
E36        18.000    28605203.669 5 150321270.60305     -3232.139 5        35.186                                                                    28605210.270 6 112252891.19806     -2413.492 6        38.090    28605209.697 6 115181228.76106     -2476.619 6        38.745
R19        19.000    24296892.414 5 129971946.51505     -2597.136 5        34.062                                                                    24296891.264 6 101089284.79506     -2020.008 6        36.488
E21        20.000    28511385.393 5 149828219.90805     -3354.014 5        35.829                                                                    28511393.897 6 111884689.54806     -2504.609 6        39.501    28511392.906 6 114803421.02306     -2570.079 6        40.465
R03        21.000    21737760.177 8 116363889.15508      3102.293 8        48.947                                                                    21737759.732 7  90505237.33507      2412.978 7        44.903
I06        22.000    38210835.991 7 149947658.91407      -447.283 7        42.974
S28        23.000    41041756.300 5 215675746.16505      -514.593 5        34.657
S23        25.000    38305471.530 7 201296535.55607      -506.181 7        44.379
R01        26.000    21305180.953 7 113888326.95907     -4008.261 7        46.608                                                                    21305184.919 6  88579782.41906     -3117.540 6        40.312
C07        27.000                                                                                                                                    39236278.634 6 204313568.14906       166.136 6        40.179    39236276.929 7 157988197.41707       128.384 7        43.805    39236274.844 6 166021486.74806       135.004 6        41.273
C40        29.000                                                                                                                                    39252557.623 7 204398350.95607       256.156 7        42.383                                                                    39252558.398 7 166090404.53307       208.275 7        42.724
G14        31.000    20748701.263 8 109035162.74008       200.682 8        48.374                                    20748699.560 6  84962464.20906       156.375 6        39.811    20748700.007 7  84962450.20507       156.404 7        47.570
G23        32.000    25506223.594 6 134036089.72906      2830.548 6        36.197                                    25506221.037 3 104443689.35803      2205.631 3        18.836    25506220.790 6 104443684.36406      2205.657 6        37.803
I02        33.000    37858187.880 7 148563650.53807       180.287 7        43.338
E04        34.000    24462768.542 7 128552698.84507     -2139.042 7        46.834                                                                    24462769.895 8  95997141.23808     -1597.296 8        49.764    24462769.192 8  98501411.76608     -1639.031 8        50.172
R13        35.000    21263060.694 7 113543573.38507      2808.823 7        44.609
R12        36.000    19259761.905 8 102882178.80608      -398.496 8        51.743                                                                    19259763.280 7  80019474.25107      -309.925 7        47.546
I01        37.000   392817641.277 6 238359740.95206     -3174.904 6        40.255
C10        38.000                                                                                                                                    39322181.046 6 204760907.83306       499.902 6        39.547    39322182.752 7 158334120.99007       386.521 7        43.456    39322180.134 6 166384997.21606       406.219 6        40.822
C19        39.000                                                                                                                                    24163396.803 7 125825063.35307     -3454.997 7        47.261                                                                    24163395.929 7 102243130.14107     -2807.385 7        47.099
E34        40.000    27899058.991 6 146610504.98906     -1725.821 6        38.498                                                                    27899062.195 6 109481858.21206     -1288.683 6        40.353    27899061.848 6 112337907.79506     -1322.354 6        40.999
G05        41.000    21796451.390 7 114541082.24207     -2519.901 7        47.530                                    21796450.044 7  89252759.63207     -1963.557 7        46.120    21796450.361 7  89252768.62607     -1963.537 7        43.350
S44        42.000    41050848.951 6 215723717.42406      -515.806 6        37.380
C36        43.000                                                                                                                                    21623642.810 8 112599961.69508      -182.734 8        51.372                                                                    21623648.675 8  91496707.90808      -148.390 8        50.019
C05        44.000                                                                                                                                    39507285.762 6 205724733.92006      -563.764 6        38.378    39507287.074 7 159079410.50407      -435.883 7        42.267    39507287.977 6 167168279.01406      -458.146 6        39.847
G18        46.000    25374305.742 6 133342843.60606     -1747.223 6        38.676                                    25374304.385 3 103903492.09203     -1361.469 3        18.836    25374304.899 6 103903482.09106     -1361.545 6        36.631
R11        47.000    21963262.831 7 117364935.14507     -4197.197 7        47.247                                                                    21963265.396 7  91283825.88207     -3264.426 7        44.318
C45        50.000                                                                                                                                    24135601.861 7 125680412.44907      2238.165 7        46.524                                                                    24135596.792 7 102125613.56107      1818.762 7        46.643
S48        51.000    77320013.305 6 406317859.19906      -494.177 6        37.346
E06        52.000    23435127.873 8 123152417.10408      -943.036 8        48.302                                                                    23435129.745 8  91964468.47508      -704.268 8        50.638    23435129.404 8  94363540.64108      -722.609 8        50.963
C09        53.000                                                                                                                                    40957468.417 5 213276163.02905     -1144.990 5        35.448    40957474.146 6 164918611.15406      -885.419 6        40.334    40957470.464 6 173304302.09306      -930.351 6        37.539
C60        54.000                                                                                                                                    41050856.296 6 213762610.58506      -511.020 6        40.350                                                                    41050848.531 6 173699564.70306      -415.251 6        38.456
E31        55.000    24327136.646 7 127839965.48607      1348.695 7        47.645                                                                    24327140.047 8  95464940.37508      1007.151 8        49.284    24327139.282 8  97955326.35608      1033.404 8        49.812
G07        56.000    24198031.353 6 127161420.35206     -3244.495 6        40.632                                    24198032.532 5  99086777.00005     -2528.176 5        33.617    24198033.017 6  99086785.98106     -2527.805 6        37.584
C02        57.000                                                                                                                                    41087707.774 5 213954342.95405      -557.860 5        32.952    41087712.288 6 165443017.51006      -431.137 6        37.399    41087712.999 5 173855395.54905      -452.885 5        33.431
I03        58.000    96081714.095 6 301259805.90406       847.479 6        41.352
C21        59.000                                                                                                                                    24646614.495 7 128341345.44007      2159.214 7        45.691                                                                    24646610.875 7 104287823.36107      1754.536 7        45.922
C22        60.000                                                                                                                                    21840081.902 8 113726998.03408      -663.026 8        51.949                                                                    21840076.791 8  92412469.64508      -538.678 8        49.827
> 2025 01 02 08 15 55.0000000  0 54
E24         1.000    28138827.578 6 147870584.07406      2710.614 6        38.685                                                                    28138835.605 6 110422885.83406      2024.149 6        41.030    28138834.426 7 113303474.19407      2076.830 7        42.116
G15         2.000    22007069.111 7 115647884.06607      2463.174 7        45.499                                    22007067.237 7  90115211.38807      1919.356 7        42.447    22007067.359 7  90115206.38507      1919.400 7        42.064
E15         3.000    28779181.250 5 151235608.54405       511.859 5        35.714                                                                    28779185.242 6 112935680.58806       382.316 6        40.133    28779184.583 6 115881825.11006       392.324 6        40.713
G08         4.000    24637177.777 6 129469254.93506     -1915.833 6        37.236                                    24637183.042 4 100885155.24004     -1492.842 4        28.663    24637184.795 6 100885151.21006     -1492.693 6        36.851
S21         5.000    38604076.218 7 202865419.88707      -506.195 7        42.064
E05         6.000    25582883.792 6 134438924.31806      2063.710 6        39.553                                                                    25582887.783 7 100392677.62707      1540.983 7        43.227    25582886.894 7 103011616.54107      1581.158 7        43.831
G20         7.000    23393151.161 7 122931746.68707     -3936.589 7        42.127                                    23393152.830 4  95790926.77404     -3067.455 4        25.925
R02         8.000    19290984.487 8 102940357.57908      -380.920 8        52.023                                                                    19290985.587 7  80064714.86307      -296.352 7        47.008
R20         9.000    24114430.040 5 128950731.94205      1024.178 5        30.604                                                                    24114439.043 6 100295034.90006       796.493 6        39.571
G24        10.000    25557631.232 5 134306252.08605      3076.115 5        35.452                                    25557632.867 3 104654234.64803      2396.975 3        22.743    25557634.989 5 104654239.62505      2396.907 5        32.623
G30        11.000    21539529.522 7 113190956.91307     -2401.905 7        47.181                                    21539530.174 7  88200726.58207     -1871.614 7        47.496    21539530.207 7  88200734.57807     -1871.622 7        44.271
S27        12.000    39293130.462 5 206486722.39305      -536.949 5        35.810
G13        13.000    20223169.123 8 106273442.14508       578.282 8        48.905                                    20223166.299 6  82810445.23806       450.609 6        39.829
S36        14.000    38373161.016 7 201652818.57907      -506.998 7        44.047
I09        15.000    39979770.395 6 156889021.27006     -1037.385 6        40.603
E09        16.000    23793528.407 8 125035824.42308       303.954 8        48.043                                                                    23793530.036 8  93370897.47708       226.926 8        50.884    23793529.457 8  95806657.36608       232.858 8        51.421
S45        17.000    63554555.901 6 333982353.97606      -553.695 6        36.722
E36        18.000    28608279.541 5 150337431.83805     -3232.453 5        35.733                                                                    28608285.978 6 112264959.65206     -2413.860 6        38.300    28608285.034 6 115193612.02206     -2476.727 6        38.829
R19        19.000    24299321.276 5 129984940.22005     -2600.651 5        33.707                                                                    24299320.475 6 101099390.97006     -2022.556 6        36.775
E21        20.000    28514577.352 6 149844991.73006     -3354.634 6        36.405                                                                    28514585.673 6 111897213.92506     -2505.095 6        39.556    28514584.363 6 114816272.11906     -2570.411 6        40.491
R03        21.000    21734862.403 8 116348380.87608      3100.984 8        49.400                                                                    21734862.630 7  90493175.32007      2411.869 7        44.366
I06        22.000    38211405.731 7 149949895.23207      -447.256 7        43.052
S28        23.000    41042249.234 5 215678317.99405      -514.285 5        34.719
S23        25.000    38305954.469 7 201299066.11407      -506.110 7        44.283
R01        26.000    21308930.449 7 113908373.69307     -4010.483 7        46.395                                                                    21308935.783 6  88595374.28606     -3119.288 6        40.889
C07        27.000                                                                                                                                    39236119.716 6 204312739.40706       165.248 6        40.145    39236118.009 7 157987556.59007       127.887 7        43.845    39236115.735 6 166020813.34106       134.326 6        41.247
C40        29.000                                                                                                                                    39252311.781 7 204397072.16407       255.197 7        42.368                                                                    39252312.768 7 166089365.43507       207.332 7        42.783
G14        31.000    20748511.562 8 109034166.48908       197.747 8        48.427                                    20748509.990 6  84961687.90906       154.090 6        39.778    20748510.195 7  84961673.90707       154.000 7        47.359
G23        32.000    25503531.147 6 134021939.88906      2829.249 6        36.359                                    25503528.539 3 104432663.48203      2204.614 3        18.746    25503529.061 6 104432658.45906      2204.671 6        37.588
I02        33.000    37857958.106 7 148562749.29107       180.064 7        43.355
E04        34.000    24464804.328 7 128563397.09307     -2140.269 7        46.785                                                                    24464805.692 8  96005130.17908     -1598.233 8        49.897    24464805.012 8  98509609.11408     -1639.964 8        50.289
R13        35.000    21260431.872 7 113529534.74307      2806.594 7        44.465
R12        36.000    19260136.517 8 102884180.13708      -402.142 8        51.931                                                                    19260137.798 7  80021030.84307      -312.794 7        47.500
I01        37.000   392821686.600 6 238375615.24806     -3174.936 6        40.174
C10        38.000                                                                                                                                    39321701.696 6 204758409.77306       499.298 6        39.541    39321703.201 7 158332189.34007       386.023 7        43.900    39321700.498 6 166382967.35406       405.647 6        40.677
C19        39.000                                                                                                                                    24166714.741 7 125842341.69907     -3456.349 7        47.635                                                                    24166714.288 7 102257170.20207     -2808.671 7        47.371
E34        40.000    27900702.060 6 146619138.79106     -1727.946 6        38.429                                                                    27900705.148 6 109488305.51506     -1290.309 6        40.288    27900704.596 6 112344523.29406     -1323.948 6        41.118
G05        41.000    21798850.370 7 114553688.78707     -2522.751 7        47.843                                    21798849.011 7  89262582.89707     -1965.776 7        46.068    21798849.424 7  89262591.89507     -1965.819 7        43.041
S44        42.000    41051341.666 6 215726296.08106      -515.701 6        37.788
C36        43.000                                                                                                                                    21623819.285 8 112600880.46808      -184.849 8        51.354                                                                    21623825.179 8  91497454.49508      -150.256 8        50.021
C05        44.000                                                                                                                                    39507827.266 6 205727552.61206      -563.577 6        38.264    39507828.310 7 159081590.10507      -435.931 7        42.533    39507829.222 6 167170569.44306      -458.185 6        39.814
G18        46.000    25375970.211 6 133351585.47306     -1749.659 6        37.924                                    25375967.895 3 103910303.93303     -1363.376 3        18.597    25375968.126 6 103910293.94406     -1363.517 6        37.214
R11        47.000    21967190.536 7 117385923.50607     -4198.332 7        47.488                                                                    21967192.856 7  91300150.13807     -3265.265 7        44.119
C45        50.000                                                                                                                                    24133452.864 7 125669224.45707      2237.018 7        46.595                                                                    24133448.274 7 102116522.41207      1817.698 7        46.712
S48        51.000    77320492.757 6 406320330.41406      -494.238 6        38.069
E06        52.000    23436025.785 8 123157136.01708      -944.536 8        48.200                                                                    23436027.738 8  91967992.33008      -705.349 8        50.736    23436027.385 8  94367156.42308      -723.751 8        51.120
C09        53.000                                                                                                                                    40958568.050 5 213281887.39605     -1144.927 5        35.471    40958573.268 6 164923037.59406      -885.273 6        40.570    40958569.775 6 173308953.60606      -930.245 6        37.418
C60        54.000                                                                                                                                    41051347.254 6 213765165.80206      -510.943 6        40.207                                                                    41051339.466 6 173701641.03706      -415.343 6        38.730
E31        55.000    24325854.258 7 127833226.54307      1346.843 7        47.254                                                                    24325857.656 8  95459908.05608      1005.785 8        49.387    24325856.905 8  97950162.76008      1031.990 8        49.972
G07        56.000    24201118.081 6 127177642.62706     -3244.650 6        40.031                                    24201119.566 5  99099417.71405     -2528.289 5        33.377    24201119.964 6  99099426.70306     -2528.270 6        37.913
C02        57.000                                                                                                                                    41088242.679 5 213957130.84505      -557.528 5        33.515    41088247.161 6 165445173.26806      -431.074 6        37.505    41088248.261 5 173857660.96905      -453.208 5        33.862
I03        58.000    96080634.360 6 301255568.00006       847.643 6        41.352
C21        59.000                                                                                                                                    24644541.578 7 128330552.69607      2157.926 7        45.449                                                                    24644538.192 7 104279053.37207      1753.346 7        46.022
C22        60.000                                                                                                                                    21840719.680 8 113730319.64608      -665.613 8        51.740                                                                    21840714.626 8  92415168.72708      -540.966 8        49.838
> 2025 01 02 08 16  0.0000000  0 54
E24         1.000    28136248.599 6 147857032.28806      2710.081 6        38.252                                                                    28136256.752 6 110412766.02906      2023.741 6        40.806    28136255.466 7 113293090.39807      2076.521 7        42.036
G15         2.000    22004726.400 7 115635573.37507      2461.140 7        45.421                                    22004724.603 7  90105618.64607      1917.773 7        42.531    22004724.604 6  90105613.64506      1917.870 6        41.828
E15         3.000    28778695.485 5 151233055.02705       509.456 5        35.681                                                                    28778699.319 6 112933773.71206       380.448 6        40.091    28778698.575 6 115879868.48406       390.222 6        40.892
G08         4.000    24639001.970 6 129478841.62606     -1919.265 6        37.055                                    24639007.540 4 100892625.32704     -1495.525 4        28.929    24639008.132 6 100892621.29406     -1495.301 6        36.590
S21         5.000    38604559.121 6 202867951.49506      -506.556 6        41.931
E05         6.000    25580920.633 6 134428607.67606      2063.134 6        39.664                                                                    25580924.620 7 100384973.65407      1540.486 7        43.098    25580923.821 7 103003711.59307      1580.632 7        43.882
G20         7.000    23396897.437 7 122951432.61007     -3937.948 7        42.193                                    23396899.084 4  95806266.41404     -3068.524 4        26.395
R02         8.000    19291343.316 8 102942272.26808      -385.005 8        52.072                                                                    19291344.529 7  80066204.05207      -299.437 7        46.959
R20         9.000    24113474.503 5 128945621.11705      1020.062 5        30.619                                                                    24113483.385 6 100291059.73506       793.380 6        39.529
G24        10.000    25554704.313 5 134290871.69005      3076.089 5        34.129                                    25554706.432 3 104642249.88803      2396.961 3        22.533    25554707.445 5 104642254.90405      2396.805 5        33.036
G30        11.000    21541815.270 7 113202970.64207     -2403.634 7        46.846                                    21541816.354 7  88210087.91607     -1872.956 7        47.585    21541816.505 7  88210095.91507     -1873.033 7        44.155
S27        12.000    39293640.241 5 206489410.40505      -537.609 5        35.543
G13        13.000    20222620.045 8 106270557.03708       575.724 8        48.670                                    20222617.273 6  82808197.09606       448.619 6        39.916
S36        14.000    38373643.222 7 201655354.38707      -507.205 7        43.992
I09        15.000    39981092.375 6 156894208.79806     -1037.559 6        40.341
E09        16.000    23793239.949 8 125034308.66908       302.343 8        48.081                                                                    23793241.557 8  93369765.57208       225.753 8        50.806    23793241.002 8  95805495.93308       231.627 8        51.478
S45        17.000    63555041.197 6 333985121.82306      -553.886 6        36.533
E36        18.000    28611355.671 5 150353595.85705     -3233.405 5        35.729                                                                    28611361.799 6 112277030.16006     -2414.353 6        38.270    28611360.689 6 115205997.42906     -2477.263 6        38.775
R19        19.000    24301752.867 5 129997951.23705     -2603.958 5        33.150                                                                    24301753.119 6 101109510.68206     -2025.388 6        37.561
E21        20.000    28517769.580 6 149861767.21606     -3355.631 6        36.586                                                                    28517777.906 6 111909741.05106     -2505.826 6        39.444    28517776.689 6 114829126.03106     -2571.093 6        40.317
R03        21.000    21731967.131 8 116332880.59008      3099.138 8        49.748                                                                    21731967.308 7  90481119.54407      2410.420 7        44.996
I06        22.000    38211976.158 7 149952131.97107      -447.418 7        42.900
S28        23.000    41042735.697 5 215680890.46605      -514.862 5        34.824
S23        25.000    38306436.036 7 201301596.96107      -506.446 7        44.169
R01        26.000    21312682.422 7 113928432.47607     -4013.145 7        45.345                                                                    21312687.420 6  88610975.51606     -3121.273 6        39.703
C07        27.000                                                                                                                                    39235961.646 6 204311915.03006       164.330 6        40.172    39235960.006 7 157986919.13607       127.075 7        43.894    39235957.448 6 166020143.47606       133.366 6        41.325
C40        29.000                                                                                                                                    39252067.067 7 204395798.76507       254.021 7        42.531                                                                    39252068.264 7 166088330.71007       206.249 7        42.872
G14        31.000    20748325.021 8 109033186.11608       194.356 8        48.203                                    20748323.438 6  84960923.98206       151.449 6        39.835    20748323.737 7  84960909.97907       151.455 7        47.646
G23        32.000    25500839.594 6 134007796.98006      2827.776 6        37.236                                    25500837.346 3 104421642.99603      2203.466 3        19.224    25500837.763 6 104421637.97406      2203.531 6        38.102
I02        33.000    37857728.722 7 148561849.34707       179.554 7        43.316
E04        34.000    24466841.162 7 128574102.17907     -2141.785 7        46.833                                                                    24466842.761 8  96013124.22408     -1599.411 8        49.767    24466842.137 8  98517811.70008     -1641.150 8        50.384
R13        35.000    21257804.791 7 113515508.20207      2803.888 7        44.250
R12        36.000    19260514.635 8 102886200.58808      -406.144 8        51.997                                                                    19260516.017 7  80022602.29707      -315.880 7        47.346
I01        37.000   392825731.904 6 238391489.77806     -3175.092 6        40.319
C10        38.000                                                                                                                                    39321222.795 6 204755915.58006       498.265 6        39.757    39321224.249 7 158330260.67707       385.303 7        43.812    39321221.558 6 166380940.62706       404.770 6        40.818
C19        39.000                                                                                                                                    24170034.848 7 125859627.56907     -3458.044 7        47.753                                                                    24170033.986 7 102271216.36207     -2810.018 7        47.560
E34        40.000    27902346.949 6 146627783.87206     -1730.417 6        38.093                                                                    27902350.302 6 109494761.23106     -1292.072 6        40.279    27902349.694 6 112351147.43006     -1325.838 6        41.118
G05        41.000    21801252.087 7 114566310.39107     -2525.934 7        47.796                                    21801250.827 7  89272417.89707     -1968.257 7        46.112    21801251.516 7  89272426.88907     -1968.259 7        43.644
S44        42.000    41051834.863 6 215728874.96006      -515.878 6        37.524
C36        43.000                                                                                                                                    21623997.897 8 112601810.59508      -187.270 8        51.295                                                                    21624003.754 8  91498210.29808      -152.258 8        50.075
C05        44.000                                                                                                                                    39508368.570 6 205730371.68306      -563.839 6        38.396    39508370.061 7 159083769.99207      -436.153 7        42.538    39508370.749 6 167172860.16406      -458.368 6        39.859
G18        46.000    25377635.003 6 133360340.87206     -1752.564 6        37.853                                    25377634.049 3 103917126.28903     -1365.640 3        18.388    25377633.780 6 103917116.30806     -1365.661 6        37.244
R11        47.000    21971119.589 7 117406918.63307     -4199.875 7        47.474                                                                    21971121.610 7  91316479.63707     -3266.472 7        43.801
C45        50.000                                                                                                                                    24131305.842 7 125658042.98207      2235.509 7        46.332                                                                    24131300.984 7 102107436.56207      1816.487 7        46.861
S48        51.000    77320967.746 6 406324401.70516      -494.653 6        37.508
E06        52.000    23436925.251 8 123161862.97308      -946.342 8        48.321                                                                    23436927.240 8  91971522.19208      -706.702 8        50.686    23436926.865 8  94370778.36508      -725.081 8        51.147
C09        53.000                                                                                                                                    40959667.216 5 213287611.72905     -1144.664 5        35.867    40959672.934 6 164927463.98206      -885.317 6        40.636    40959669.143 6 173313605.07406      -930.517 6        37.671
C60        54.000                                                                                                                                    41051837.817 6 213767721.24006      -511.279 6        40.379                                                                    41051830.012 6 173703717.50906      -415.509 6        38.859
E31        55.000    24324573.698 7 127826497.56907      1344.724 7        47.480                                                                    24324577.149 8  95454883.17608      1004.183 8        49.365    24324576.459 8  97945006.79408      1030.343 8        50.041
G07        56.000    24204205.491 6 127193867.23606     -3245.275 6        39.423                                    24204207.190 5  99112060.23105     -2528.779 5        33.473    24204207.454 6  99112069.21806     -2528.897 6        38.078
C02        57.000                                                                                                                                    41088777.556 5 213959918.96905      -557.796 5        33.473    41088782.857 6 165447329.21606      -431.305 6        37.565    41088783.608 5 173859926.51405      -453.396 5        33.772
I03        58.000    96079554.576 6 301251330.25806       847.458 6        41.259
C21        59.000                                                                                                                                    24642470.390 7 128319767.33807      2156.199 7        45.464                                                                    24642467.006 7 104270289.36907      1752.110 7        46.012
C22        60.000                                                                                                                                    21841360.212 8 113733655.17908      -668.624 8        51.892                                                                    21841355.197 8  92417879.11508      -543.343 8        50.004
> 2025 01 02 08 16  5.0000000  0 54
E24         1.000    28133670.052 6 147843482.13606      2710.033 6        38.357                                                                    28133678.242 6 110402647.44406      2023.828 6        40.756    28133676.964 7 113282707.84807      2076.613 7        42.028
G15         2.000    22002385.573 7 115623271.65607      2459.684 7        45.481                                    22002383.682 7  90096032.89007      1916.635 7        42.430    22002383.694 6  90096027.89906      1916.623 6        41.294
E15         3.000    28778212.326 5 151230513.34005       507.492 5        35.776                                                                    28778215.874 6 112931875.67906       378.891 6        40.174    28778215.003 6 115877920.93506       388.718 6        40.839
G08         4.000    24640829.079 6 129488443.67106     -1921.780 6        37.210                                    24640834.779 4 100900107.37704     -1497.480 4        28.749    24640834.976 5 100900103.37305     -1497.613 5        35.790
S21         5.000    38605040.188 6 202870483.72006      -506.158 6        41.852
E05         6.000    25578957.918 6 134418292.43606      2063.130 6        39.571                                                                    25578961.585 7 100377270.71307      1540.595 7        43.272    25578960.829 7 102995807.69707      1580.813 7        44.056
G20         7.000    23400644.466 6 122971123.89406     -3938.521 6        41.943                                    23400646.299 4  95821610.23104     -3068.970 4        26.156
R02         8.000    19291705.920 8 102944206.60108      -388.664 8        52.172                                                                    19291706.876 7  80067708.54207      -302.276 7        46.935
R20         9.000    24112523.669 5 128940529.58105      1016.789 5        31.230                                                                    24112531.412 6 100287099.64106       790.695 6        39.580
G24        10.000    25551777.468 5 134275492.83705      3075.929 5        34.248                                    25551780.023 3 104630266.36103      2396.829 3        23.238    25551781.347 5 104630271.35705      2396.756 5        33.587
G30        11.000    21544103.142 7 113214991.80907     -2404.716 7        47.038                                    21544103.933 7  88219455.04607     -1873.804 7        47.524    21544104.205 7  88219463.05207     -1873.840 7        43.917
S27        12.000    39294150.337 5 206492098.65505      -537.425 5        35.386
G13        13.000    20222073.491 8 106267683.76808       573.633 8        48.470                                    20222070.528 6  82805958.18006       446.985 6        39.871
S36        14.000    38374126.761 7 201657890.01807      -507.019 7        44.024
I09        15.000    39982414.930 6 156899396.75606     -1037.526 6        40.658
E09        16.000    23792952.813 8 125032800.05908       301.148 8        48.217                                                                    23792954.492 8  93368639.00608       224.909 8        50.897    23792953.935 8  95804339.98108       230.800 8        51.677
S45        17.000    63555526.744 6 333987890.17806      -553.819 6        36.352
E36        18.000    28614431.803 5 150369762.60805     -3233.252 5        35.929                                                                    28614438.183 6 112289102.71606     -2414.524 6        38.471    28614436.984 6 115218384.92606     -2477.479 6        38.763
R19        19.000    24304188.236 5 130010979.77605     -2607.207 5        33.647                                                                    24304189.782 6 101119643.98806     -2027.746 6        38.051
E21        20.000    28520962.394 6 149878546.33706     -3356.060 6        36.389                                                                    28520970.795 6 111922270.88006     -2506.285 6        39.532    28520969.542 6 114841982.71706     -2571.379 6        40.482
R03        21.000    21729073.094 8 116317388.27408      3097.859 8        49.786                                                                    21729073.476 7  90469069.95807      2409.363 7        44.892
I06        22.000    38212545.997 7 149954369.16007      -447.232 7        42.902
S28        23.000    41043226.977 5 215683463.51705      -514.249 5        34.567
S23        25.000    38306916.253 7 201304128.29707      -506.123 7        44.042
R01        26.000    21316438.162 7 113948503.36307     -4015.241 7        46.096                                                                    21316441.783 6  88626586.17806     -3122.900 6        39.952
C07        27.000                                                                                                                                    39235803.934 6 204311095.03006       163.794 6        40.572    39235802.434 7 157986285.07207       126.656 7        43.816    39235799.955 6 166019477.17406       132.980 6        41.311
C40        29.000                                                                                                                                    39251823.597 7 204394530.72507       253.315 7        42.751                                                                    39251824.700 7 166087300.35407       205.675 7        42.817
G14        31.000    20748141.471 8 109032221.59808       191.534 8        48.153                                    20748139.887 6  84960172.40406       149.246 6        39.844    20748139.963 7  84960158.40707       149.279 7        47.207
G23        32.000    25498149.817 6 133993660.99806      2826.776 6        38.318                                    25498147.647 3 104410627.89403      2202.695 3        19.851    25498148.034 6 104410622.88006      2202.610 6        38.592
I02        33.000    37857499.863 7 148560950.79107       179.763 7        43.431
E04        34.000    24468879.691 7 128584814.08907     -2142.949 7        47.003                                                                    24468881.178 8  96021123.36308     -1600.218 8        49.911    24468880.640 8  98526019.51308     -1641.989 8        50.563
R13        35.000    21255180.163 7 113501493.99007      2801.873 7        44.123
R12        36.000    19260896.513 8 102888240.22908      -409.702 8        51.598                                                                    19260898.067 7  80024188.68407      -318.626 7        47.573
I01        37.000   392829777.408 6 238407364.59606     -3174.822 6        40.253
C10        38.000                                                                                                                                    39320745.096 6 204753425.27606       497.764 6        40.122    39320745.892 7 158328335.01707       384.953 7        43.890    39320743.199 6 166378917.04806       404.484 6        40.737
C19        39.000                                                                                                                                    24173355.912 7 125876920.95207     -3459.221 7        47.298                                                                    24173355.006 7 102285268.62307     -2810.934 7        47.527
E34        40.000    27903994.251 6 146636440.14906     -1732.194 6        38.219                                                                    27903997.721 6 109501225.33506     -1293.480 6        40.470    27903996.913 6 112357780.16406     -1327.259 6        41.123
G05        41.000    21803657.024 7 114578946.99007     -2528.606 7        47.547                                    21803655.509 7  89282264.58207     -1970.340 7        46.025    21803655.876 7  89282273.58007     -1970.359 7        43.314
S44        42.000    41052325.374 6 215731454.07206      -515.635 6        37.236
C36        43.000                                                                                                                                    21624178.575 8 112602752.05208      -189.257 8        51.442                                                                    21624184.545 8  91498975.31308      -153.824 8        50.040
C05        44.000                                                                                                                                    39508910.079 6 205733191.08706      -563.960 6        38.402    39508911.355 7 159085950.11307      -435.924 7        42.455    39508912.133 6 167175151.14606      -457.980 6        39.913
G18        46.000    25379304.004 6 133369109.78806     -1754.869 6        37.588                                    25379302.657 3 103923959.19603     -1367.419 3        18.567    25379302.851 6 103923949.18506     -1367.383 6        37.705
R11        47.000    21975049.872 7 117427920.47407     -4200.863 7        47.660                                                                    21975051.765 7  91332814.37707     -3267.277 7        43.807
C45        50.000                                                                                                                                    24129159.993 7 125646868.03007      2234.470 7        46.640                                                                    24129155.048 7 102098356.02607      1815.563 7        46.822
S48        51.000    77321443.902 6 406326873.74806      -494.356 6        37.955
E06        52.000    23437826.179 8 123166597.93608      -947.573 8        48.331                                                                    23437828.285 8  91975058.03208      -707.631 8        50.717    23437827.953 8  94374406.45408      -726.140 8        51.323
C09        53.000                                                                                                                                    40960766.817 6 213293335.99706     -1144.667 6        36.042    40960772.425 6 164931890.33606      -885.248 6        40.479    40960768.458 6 173318256.49106      -930.114 6        37.595
C60        54.000                                                                                                                                    41052329.092 6 213770276.88206      -510.915 6        40.682                                                                    41052321.112 6 173705794.18206      -415.189 6        38.781
E31        55.000    24323295.350 7 127819778.53207      1343.015 7        47.705                                                                    24323298.549 8  95449865.72308      1002.887 8        49.445    24323297.840 8  97939858.44708      1029.096 8        50.174
G07        56.000    24207293.780 6 127210094.20206     -3245.346 6        39.736                                    24207295.270 5  99124704.58905     -2528.835 5        33.814    24207295.890 6  99124713.59206     -2528.928 6        37.909
C02        57.000                                                                                                                                    41089313.212 5 213962707.32305      -557.358 5        33.078    41089318.571 6 165449485.33006      -430.954 6        37.414    41089319.174 5 173862192.31005      -453.159 5        33.617
I03        58.000    96078474.422 6 301247092.65606       847.682 6        41.437
C21        59.000                                                                                                                                    24640400.894 7 128308989.34907      2155.023 7        45.523                                                                    24640397.138 7 104261531.37307      1751.101 7        46.029
C22        60.000                                                                                                                                    21842003.655 8 113737004.59408      -671.072 8        52.131                                                                    21841998.446 8  92420600.79208      -545.357 8        49.858
> 2025 01 02 08 16 10.0000000  0 54
E24         1.000    28131091.716 6 147829933.44406      2709.724 6        38.027                                                                    28131099.896 6 110392529.96706      2023.452 6        40.841    28131098.512 6 113272326.41806      2076.307 6        41.986
G15         2.000    22000046.162 7 115610978.75707      2457.820 7        45.564                                    22000044.411 7  90086454.00407      1915.184 7        42.500    22000044.814 6  90086449.00906      1915.101 6        41.917
E15         3.000    28777730.832 6 151227983.31506       504.922 6        36.314                                                                    28777734.425 6 112929986.35706       376.846 6        40.322    28777733.600 6 115875982.32406       386.984 6        41.042
G08         4.000    24642659.301 6 129498060.88206     -1924.809 6        36.427                                    24642664.836 4 100907601.25904     -1499.844 4        28.379    24642665.364 5 100907597.24505     -1499.776 5        35.838
S21         5.000    38605522.287 6 202873016.27506      -506.521 6        41.890
E05         6.000    25576995.665 6 134407978.40006      2062.724 6        40.117                                                                    25576998.953 7 100369568.66507      1540.345 7        43.219    25576998.171 7 102987904.73007      1580.640 7        44.033
G20         7.000    23404392.278 6 122990820.39206     -3939.730 6        41.285                                    23404394.221 4  95836958.11504     -3069.902 4        25.669
R02         8.000    19292071.822 8 102946160.40408      -392.572 8        51.930                                                                    19292073.237 7  80069228.15107      -305.286 7        46.868
R20         9.000    24111575.896 5 128935457.20005      1013.075 5        30.664                                                                    24111582.698 6 100283154.46806       787.447 6        39.676
G24        10.000    25548851.053 5 134260115.33705      3075.698 5        33.778                                    25548854.071 3 104618283.85903      2396.657 3        23.429    25548854.809 5 104618288.88005      2396.325 5        32.976
G30        11.000    21546392.169 7 113227020.21907     -2406.304 7        46.607                                    21546392.876 7  88228827.82007     -1875.038 7        47.519    21546393.114 7  88228835.81707     -1875.092 7        43.879
S27        12.000    39294666.219 5 206494786.94605      -537.348 5        35.157
G13        13.000    20221528.723 8 106264822.17808       571.283 8        48.350                                    20221526.005 6  82803728.36606       445.157 6        39.961
S36        14.000    38374613.372 7 201660426.04507      -507.228 7        43.903
I09        15.000    39983737.012 6 156904584.99806     -1037.475 6        40.648
E09        16.000    23792667.129 8 125031298.42008       299.736 8        48.273                                                                    23792668.742 8  93367517.64508       223.851 8        50.903    23792668.197 8  95803189.37208       229.637 8        51.703
S45        17.000    63556005.368 6 333990658.74306      -553.784 6        36.439
E36        18.000    28617508.965 6 150385931.92106     -3234.122 6        36.650                                                                    28617515.377 6 112301177.18406     -2415.123 6        38.691    28617514.221 6 115230774.37006     -2477.990 6        38.922
R19        19.000    24306624.647 5 130024025.41805     -2610.744 5        32.976                                                                    24306628.743 6 101129790.62806     -2030.503 6        38.622
E21        20.000    28524156.018 6 149895328.88906     -3356.922 6        36.560                                                                    28524164.653 6 111934803.26106     -2506.521 6        39.637    28524163.131 6 114854842.06006     -2571.964 6        40.329
R03        21.000    21726180.803 8 116301903.66008      3096.287 8        49.783                                                                    21726180.222 7  90457026.36307      2408.208 7        45.276
I06        22.000    38213116.180 7 149956606.61407      -447.485 7        43.069
S28        23.000    41043719.910 5 215686036.44605      -514.307 5        34.814
S23        25.000    38307399.072 7 201306659.74807      -506.249 7        44.181
R01        26.000    21320195.288 7 113968586.10307     -4017.590 7        46.501                                                                    21320199.527 6  88642206.04806     -3124.775 6        40.148
C07        27.000                                                                                                                                    39235647.220 6 204310279.19306       162.837 6        40.420    39235645.351 7 157985654.22907       125.933 7        43.765    39235643.294 6 166018814.25106       132.249 6        41.116
C40        29.000                                                                                                                                    39251580.957 7 204393267.87107       252.218 7        43.029                                                                    39251582.204 7 166086274.20207       204.870 7        42.705
G14        31.000    20747961.045 8 109031272.74708       188.332 8        48.066                                    20747959.328 6  84959433.03706       146.752 6        39.862    20747959.639 7  84959419.04207       146.775 7        47.519
G23        32.000    25495460.526 6 133979531.75506      2825.302 6        38.480                                    25495458.852 3 104399618.04503      2201.539 3        20.571    25495458.914 6 104399613.03506      2201.459 6        38.501
I02        33.000    37857271.275 7 148560053.70707       179.369 7        43.606
E04        34.000    24470919.258 7 128595532.61707     -2144.195 7        46.981                                                                    24470920.902 8  96029127.45408     -1601.254 8        49.935    24470920.312 8  98534232.40508     -1642.986 8        50.519
R13        35.000    21252558.222 7 113487491.58907      2799.392 7        44.497
R12        36.000    19261281.701 8 102890298.86708      -413.530 8        51.501                                                                    19261283.324 7  80025789.84207      -321.655 7        47.523
I01        37.000   392833822.585 6 238423239.53106     -3175.020 6        40.210
C10        38.000                                                                                                                                    39320267.563 6 204750938.59106       497.007 6        40.169    39320268.372 7 158326412.15707       384.445 7        43.917    39320265.690 6 166376896.41406       403.803 6        40.779
C19        39.000                                                                                                                                    24176678.078 7 125894221.62007     -3460.748 7        47.533                                                                    24176677.453 7 102299326.81707     -2812.217 7        47.424
E34        40.000    27905643.497 6 146645107.51906     -1734.429 6        37.887                                                                    27905646.866 6 109507697.69406     -1295.208 6        40.300    27905646.140 6 112364421.36306     -1328.942 6        41.290
G05        41.000    21806064.186 7 114591598.38507     -2531.674 7        47.241                                    21806062.986 7  89292122.79607     -1972.727 7        46.050    21806063.563 7  89292131.79207     -1972.711 7        43.355
S44        42.000    41052815.508 6 215734033.18606      -515.922 6        37.467
C36        43.000                                                                                                                                    21624361.471 8 112603704.64508      -191.514 8        51.368                                                                    21624367.505 8  91499749.37508      -155.683 8        49.963
C05        44.000                                                                                                                                    39509451.561 6 205736010.58006      -563.786 6        38.465    39509452.806 7 159088130.34007      -435.978 7        42.546    39509453.695 6 167177442.24406      -458.270 6        39.982
G18        46.000    25380975.577 6 133377891.99706     -1757.662 6        37.724                                    25380973.886 3 103930802.47803     -1369.604 3        19.463    25380973.982 6 103930792.46406     -1369.644 6        37.754
R11        47.000    21978981.381 7 117448928.80507     -4202.111 7        47.564                                                                    21978983.432 7  91349154.18207     -3268.482 7        43.572
C45        50.000                                                                                                                                    24127015.184 7 125635699.40207      2233.224 7        46.648                                                                    24127010.248 7 102089280.61807      1814.614 7        46.745
S48        51.000    77321916.642 6 406329346.28106      -494.539 6        37.558
E06        52.000    23438728.770 8 123171340.73108      -949.233 8        48.400                                                                    23438730.819 8  91978599.72108      -708.850 8        50.773    23438730.508 8  94378040.52808      -727.285 8        51.344
C09        53.000                                                                                                                                    40961866.637 6 213299059.95806     -1144.636 6        36.110    40961871.265 6 164936316.45606      -885.140 6        40.431    40961867.564 6 173322907.69906      -930.281 6        37.225
C60        54.000                                                                                                                                    41052819.674 6 213772832.55706      -510.960 6        40.539                                                                    41052811.743 6 173707870.88306      -415.356 6        38.643
E31        55.000    24322018.554 7 127813069.26007      1340.956 7        47.718                                                                    24322021.816 8  95444855.56008      1001.310 8        49.449    24322021.077 8  97934717.58208      1027.506 8        50.186
G07        56.000    24210382.141 6 127226323.29706     -3245.856 6        40.682                                    24210383.753 5  99137350.61005     -2529.229 5        34.076    24210384.061 6  99137359.62506     -2529.529 6        38.517
C02        57.000                                                                                                                                    41089849.275 5 213965495.77605      -557.745 5        33.419    41089854.115 6 165451641.50906      -431.137 6        37.588    41089854.656 5 173864458.12105      -453.173 5        33.443
I03        58.000    96077394.857 6 301242855.06506       847.567 6        41.492
C21        59.000                                                                                                                                    24638332.441 7 128298218.55607      2153.570 7        45.422                                                                    24638328.710 7 104252779.22807      1749.803 7        45.865
C22        60.000                                                                                                                                    21842649.234 8 113740367.70408      -673.917 8        52.036                                                                    21842644.277 8  92423333.59508      -547.689 8        49.780
> 2025 01 02 08 16 15.0000000  0 54
E24         1.000    28128513.926 6 147816386.32406      2709.188 6        38.018                                                                    28128522.090 6 110382413.65406      2022.942 6        41.070    28128520.561 6 113261946.19506      2075.859 6        41.974
G15         2.000    21997708.648 7 115598694.78707      2455.841 7        45.819                                    21997706.866 7  90076882.08407      1913.643 7        42.337    21997707.597 7  90076877.08507      1913.589 7        42.324
E15         3.000    28777251.381 5 151225465.08105       502.453 5        35.590                                                                    28777255.375 6 112928105.84006       375.188 6        40.250    28777254.374 6 115874052.76906       384.819 6        41.056
G08         4.000    24644491.984 6 129507693.41506     -1928.191 6        37.361                                    24644497.892 4 100915107.07204     -1502.484 4        28.161    24644498.998 6 100915103.03906     -1502.298 6        36.801
S21         5.000    38606006.027 7 202875549.20507      -506.829 7        42.083
E05         6.000    25575032.949 6 134397665.70106      2062.420 6        39.937                                                                    25575036.576 7 100361867.63307      1540.055 7        43.209    25575035.795 7 102980002.79607      1580.286 7        43.954
G20         7.000    23408141.470 6 123010522.19906     -3941.136 6        41.955                                    23408143.211 4  95852310.13704     -3071.010 4        25.383
R02         8.000    19292441.776 8 102948133.82208      -396.747 8        52.030                                                                    19292443.322 7  80070763.03007      -308.539 7        47.056
R20         9.000    24110629.681 5 128930404.31905      1008.349 5        31.577                                                                    24110637.861 6 100279224.42906       784.343 6        39.006
G24        10.000    25545926.358 5 134244739.27905      3074.906 5        34.729                                    25545928.606 3 104606302.50303      2396.038 3        23.333    25545928.616 5 104606307.49605      2396.236 5        32.228
G30        11.000    21548682.425 7 113239056.00607     -2408.071 7        47.412                                    21548683.219 7  88238206.34407     -1876.416 7        47.339    21548683.631 7  88238214.35607     -1876.496 7        43.968
S27        12.000    39295174.468 5 206497475.58705      -537.670 5        35.014
G13        13.000    20220986.694 8 106261972.40008       568.617 8        48.791                                    20220983.749 6  82801507.75506       443.079 6        39.814
S36        14.000    38375097.416 7 201662962.39507      -507.379 7        44.134
I09        15.000    39985059.365 6 156909773.63906     -1037.897 6        40.479
E09        16.000    23792382.838 8 125029803.88508       298.065 8        48.131                                                                    23792384.377 8  93366401.58808       222.615 8        50.866    23792383.786 8  95802044.19808       228.438 8        51.595
S45        17.000    63556485.768 6 333991827.55616      -554.107 6        36.495
E36        18.000    28620586.542 6 150402103.88406     -3234.871 6        36.469                                                                    28620592.849 6 112313253.64006     -2415.567 6        38.610    28620591.710 6 115243165.85106     -2478.572 6        38.520
R19        19.000    24309068.830 5 130037088.29305     -2614.309 5        34.200                                                                    24309070.145 6 101139950.67006     -2033.378 6        38.207
E21        20.000    28527350.535 6 149912114.99706     -3357.695 6        36.197                                                                    28527358.723 6 111947338.30606     -2507.378 6        39.598    28527357.398 6 114867704.11306     -2572.735 6        39.934
R03        21.000    21723289.075 8 116286427.09708      3094.459 8        48.884                                                                    21723289.380 7  90444989.04007      2406.865 7        45.317
I06        22.000    38213686.232 7 149958844.44907      -447.679 7        42.952
S28        23.000    41044203.391 5 215688609.66705      -514.611 5        34.819
S23        25.000    38307880.764 7 201309191.57607      -506.501 7        44.191
R01        26.000    21323954.644 7 113988680.86807     -4020.294 7        46.987                                                                    21323957.986 6  88657835.26506     -3126.945 6        39.532
C07        27.000                                                                                                                                    39235491.566 6 204309467.69106       161.790 6        40.627    39235489.378 7 157985026.74007       125.101 7        43.545    39235487.491 6 166018154.84906       131.241 6        41.290
C40        29.000                                                                                                                                    39251339.328 7 204392010.34307       250.953 7        43.069                                                                    39251340.633 7 166085252.35707       203.703 7        42.626
G14        31.000    20747783.388 8 109030339.70208       184.898 8        48.579                                    20747781.773 6  84958705.98906       144.073 6        39.766    20747782.093 7  84958691.98507       144.066 7        47.308
G23        32.000    25492773.142 6 133965409.41606      2823.580 6        38.964                                    25492771.246 3 104388613.58603      2200.217 3        20.857    25492771.138 6 104388608.55606      2200.326 6        38.574
I02        33.000    37857042.746 7 148559158.11907       178.898 7        43.443
E04        34.000    24472960.200 7 128606257.93507     -2145.816 7        46.680                                                                    24472961.868 8  96037136.59608     -1602.392 8        49.837    24472961.263 8  98542450.48708     -1644.177 8        50.493
R13        35.000    21249938.012 7 113473501.25807      2796.648 7        44.191
R12        36.000    19261670.593 8 102892376.64908      -417.612 8        51.516                                                                    19261672.169 7  80027405.90007      -324.830 7        47.602
I01        37.000   392837868.391 6 238439114.72006     -3175.133 6        40.279
C10        38.000                                                                                                                                    39319789.863 6 204748455.71506       495.994 6        40.021    39319791.520 7 158324492.24507       383.616 7        43.839    39319788.790 6 166374878.87906       402.974 6        40.763
C19        39.000                                                                                                                                    24180002.318 7 125911529.72707     -3462.482 7        47.054                                                                    24180001.340 7 102313391.02407     -2813.684 7        47.425
E34        40.000    27907295.224 6 146653786.02806     -1737.067 6        38.090                                                                    27907298.346 6 109514178.38806     -1297.005 6        40.367    27907297.770 6 112371071.11906     -1330.851 6        41.201
G05        41.000    21808474.670 7 114604264.77007     -2534.905 7        47.370                                    21808473.329 7  89301992.69107     -1975.250 7        45.941    21808474.164 7  89302001.68307     -1975.297 7        43.786
S44        42.000    41053304.462 6 215736612.46206      -516.162 6        37.236
C36        43.000                                                                                                                                    21624546.525 8 112604668.49808      -194.029 8        51.348                                                                    21624552.583 8  91500532.57508      -157.777 8        49.931
C05        44.000                                                                                                                                    39509993.217 6 205738830.37406      -564.071 6        38.351    39509994.588 7 159090310.77807      -436.133 7        42.275    39509995.204 6 167179733.54306      -458.487 6        39.916
G18        46.000    25382649.470 6 133386687.60406     -1760.659 6        39.309                                    25382647.695 3 103937656.16903     -1371.941 3        18.985    25382647.224 6 103937646.17806     -1371.874 6        37.172
R11        47.000    21982913.150 7 117469943.72107     -4203.801 7        46.788                                                                    21982916.648 7  91365499.07007     -3269.549 7        43.704
C45        50.000                                                                                                                                    24124871.252 7 125624537.25207      2231.674 7        46.752                                                                    24124866.679 7 102080210.46007      1813.253 7        46.763
S48        51.000    77322393.804 6 406331819.17906      -494.829 6        37.871
E06        52.000    23439632.843 8 123176091.50608      -951.076 8        48.424                                                                    23439634.927 8  91982147.36308      -710.185 8        50.755    23439634.542 8  94381680.72608      -728.733 8        51.288
C09        53.000                                                                                                                                    40962965.614 6 213304783.81906     -1144.774 6        36.204    40962970.745 6 164940742.48606      -885.206 6        40.184    40962966.681 6 173327558.77206      -930.412 6        36.866
C60        54.000                                                                                                                                    41053310.573 6 213775388.38806      -511.353 6        40.498                                                                    41053302.521 6 173709947.68306      -415.577 6        38.715
E31        55.000    24320743.532 7 127806369.88507      1338.770 7        47.576                                                                    24320746.977 8  95439852.78508       999.722 8        49.404    24320746.226 8  97929584.30108      1025.858 8        50.130
G07        56.000    24213471.291 6 127242554.66406     -3246.656 6        41.642                                    24213472.602 5  99149998.39505     -2529.856 5        34.133    24213472.724 6  99150007.38906     -2529.824 6        38.414
C02        57.000                                                                                                                                    41090384.300 5 213968284.35205      -557.734 5        33.509    41090389.542 6 165453797.82306      -431.377 6        37.456    41090390.083 5 173866724.06005      -453.333 5        33.473
I03        58.000    96076314.756 6 301238617.57806       847.468 6        41.402
C21        59.000                                                                                                                                    24636265.354 7 128287455.09907      2151.818 7        45.166                                                                    24636261.742 7 104244033.00907      1748.402 7        45.959
C22        60.000                                                                                                                                    21843297.797 8 113743744.66208      -676.927 8        52.046                                                                    21843292.842 8  92426077.63008      -550.149 8        49.759
> 2025 01 02 08 16 20.0000000  0 54
E24         1.000    28125936.459 6 147802840.79906      2708.933 6        38.231                                                                    28125944.689 6 110372298.51806      2022.884 6        40.934    28125942.770 6 113251567.19606      2075.687 6        41.983
G15         2.000    21995372.528 7 115586419.70807      2454.169 7        45.345                                    21995371.002 7  90067317.08607      1912.340 7        42.391    21995371.544 7  90067312.08107      1912.534 7        42.438
E15         3.000    28776774.284 5 151222958.64305       500.358 5        35.752                                                                    28776778.444 6 112926234.11506       373.552 6        40.236    28776777.461 6 115872132.21606       383.288 6        41.213
G08         4.000    24646327.868 6 129517341.19706     -1930.852 6        37.781                                    24646333.793 4 100922624.78204     -1504.545 4        28.417    24646334.947 6 100922620.76306     -1504.682 6        36.163
S21         5.000    38606485.496 6 202878082.33706      -506.618 6        41.754
E05         6.000    25573070.814 6 134387354.33006      2062.223 6        39.955                                                                    25573074.360 7 100354167.57707      1539.998 7        43.156    25573073.669 7 102972101.87907      1580.195 7        44.020
G20         7.000    23411891.989 7 123030229.24307     -3941.805 7        42.108                                    23411893.235 4  95867666.24904     -3071.526 4        25.459
R02         8.000    19292815.207 8 102950126.82208      -400.370 8        52.016                                                                    19292816.658 7  80072313.13307      -311.450 7        46.620
R20         9.000    24109689.514 5 128925370.74705      1005.012 5        31.049                                                                    24109695.568 6 100275309.38006       781.659 6        38.784
G24        10.000    25543001.690 6 134229364.65806      3074.856 6        36.076                                    25543003.024 4 104594322.26104      2395.987 4        24.030    25543002.249 5 104594327.23805      2395.921 5        31.283
G30        11.000    21550974.471 7 113251099.15207     -2409.162 7        47.126                                    21550974.943 7  88247590.60007     -1877.267 7        47.415    21550975.155 7  88247598.59707     -1877.283 7        43.911
S27        12.000    39295684.407 5 206500164.60905      -537.716 5        35.143
G13        13.000    20220446.754 8 106259134.39008       566.532 8        48.712                                    20220443.689 6  82799296.31406       441.453 6        39.760
S36        14.000    38375579.001 7 201665498.86107      -507.188 7        44.017
I09        15.000    39986381.950 6 156914962.63106     -1037.575 6        40.348
E09        16.000    23792099.845 8 125028316.41108       296.931 8        48.033                                                                    23792101.306 8  93365290.80408       221.723 8        50.791    23792100.762 8  95800904.44008       227.514 8        51.653
S45        17.000    63556972.996 6 333994596.59506      -553.660 6        36.370
E36        18.000    28623664.164 6 150418278.46106     -3234.993 6        36.344                                                                    28623670.425 6 112325332.03906     -2415.762 6        38.312    28623669.468 6 115255559.37106     -2478.720 6        38.571
R19        19.000    24311512.491 5 130050168.47205     -2617.782 5        33.677                                                                    24311513.869 6 101150124.06706     -2035.902 6        36.919
E21        20.000    28530545.245 5 149928904.62905     -3358.165 5        35.990                                                                    28530553.905 6 111959875.99806     -2507.839 6        39.625    28530552.337 6 114880568.85806     -2573.051 6        39.964
R03        21.000    21720398.557 8 116270958.25408      3093.072 8        48.890                                                                    21720399.571 7  90432957.72107      2405.737 7        44.928
I06        22.000    38214256.859 7 149961082.62407      -447.586 7        42.991
S28        23.000    41044693.731 5 215691183.33005      -514.650 5        34.305
S23        25.000    38308360.162 7 201311723.70307      -506.314 7        44.029
R01        26.000    21327716.026 7 114008787.53307     -4022.405 7        46.943                                                                    21327719.250 6  88673473.74906     -3128.576 6        39.880
C07        27.000                                                                                                                                    39235336.683 6 204308660.47506       161.154 6        40.622    39235334.719 7 157984402.55207       124.546 7        43.740    39235332.535 6 166017498.94406       130.758 6        41.371
C40        29.000                                                                                                                                    39251098.508 7 204390758.09207       250.037 7        43.139                                                                    39251100.121 7 166084234.82707       203.198 7        42.789
G14        31.000    20747608.847 8 109029422.41908       181.985 8        48.310                                    20747607.241 6  84957991.22506       141.808 6        39.775    20747607.618 7  84957977.22607       141.737 7        47.392
G23        32.000    25490087.071 6 133951293.90206      2822.539 6        37.905                                    25490085.093 3 104377614.44403      2199.388 3        20.429    25490085.712 6 104377609.42606      2199.282 6        38.336
I02        33.000    37856814.963 7 148558263.86907       178.676 7        43.374
E04        34.000    24475002.473 7 128616989.96307     -2146.898 7        46.478                                                                    24475004.117 8  96045150.75808     -1603.238 8        49.839    24475003.417 8  98550673.71208     -1645.008 8        50.484
R13        35.000    21247320.773 7 113459523.06307      2794.659 7        44.811
R12        36.000    19262063.063 8 102894473.45408      -421.116 8        51.537                                                                    19262064.751 7  80029036.74107      -327.539 7        47.181
I01        37.000   392841913.750 6 238454990.13706     -3174.928 6        40.174
C10        38.000                                                                                                                                    39319313.407 6 204745976.59506       495.599 6        40.038    39319315.301 7 158322575.22607       383.161 7        44.000    39319312.795 6 166372864.39606       402.762 6        40.791
C19        39.000                                                                                                                                    24183327.297 7 125928845.20707     -3463.723 7        46.906                                                                    24183326.459 7 102327461.25107     -2814.519 7        47.323
E34        40.000    27908949.061 6 146662475.65806     -1738.991 6        38.517                                                                    27908952.030 6 109520667.38806     -1298.569 6        40.253    27908951.531 6 112377729.40606     -1332.409 6        41.166
G05        41.000    21810887.710 7 114616946.07507     -2537.704 7        47.089                                    21810886.507 7  89311874.21007     -1977.429 7        45.916    21810887.154 7  89311883.19907     -1977.339 7        44.051
S44        42.000    41053799.618 6 215739191.85306      -515.831 6        37.270
C36        43.000                                                                                                                                    21624733.830 8 112605643.58508      -196.051 8        51.318                                                                    21624739.851 8  91501324.92508      -159.323 8        50.030
C05        44.000                                                                                                                                    39510534.767 6 205741650.37106      -564.032 6        38.342    39510535.676 7 159092491.37807      -436.075 7        42.440    39510536.781 6 167182025.03506      -458.114 6        40.081
G18        46.000    25384325.395 6 133395496.64106     -1762.978 6        37.800                                    25384323.914 3 103944520.36103     -1373.744 3        19.045    25384324.171 6 103944510.33506     -1373.819 6        36.767
R11        47.000    21986846.927 7 117490965.25807     -4204.837 7        46.215                                                                    21986850.002 7  91381849.13507     -3270.433 7        44.185
C45        50.000                                                                                                                                    24122728.999 7 125613381.53007      2230.585 7        46.616                                                                    24122724.243 7 102071145.54707      1812.602 7        46.867
S48        51.000    77322864.291 6 406334292.42306      -494.386 6        37.713
E06        52.000    23440538.546 8 123180850.19108      -952.414 8        48.259                                                                    23440540.452 8  91985700.92208      -711.226 8        50.706    23440540.093 8  94385326.99008      -729.812 8        51.279
C09        53.000                                                                                                                                    40964065.088 6 213310507.50106     -1144.464 6        36.151    40964069.852 6 164945168.37706      -885.174 6        40.265    40964065.647 6 173332209.72306      -930.371 6        37.225
C60        54.000                                                                                                                                    41053801.361 6 213777944.34106      -511.061 6        40.448                                                                    41053793.541 6 173712024.60406      -415.127 6        38.547
E31        55.000    24319470.662 7 127799680.37207      1336.995 7        47.678                                                                    24319473.984 8  95434857.37508       998.464 8        49.440    24319473.248 8  97924458.58008      1024.470 8        50.158
G07        56.000    24216559.778 7 127258788.25307     -3246.876 7        42.078                                    24216561.782 5  99162647.91905     -2530.026 5        34.014    24216560.619 6  99162656.93406     -2529.827 6        37.879
C02        57.000                                                                                                                                    41090919.616 5 213971073.14905      -557.712 5        33.036    41090925.010 6 165455954.28106      -431.239 6        37.388    41090925.980 5 173868990.19305      -453.138 5        33.719
I03        58.000    96075235.242 6 301234380.17906       847.457 6        41.011
C21        59.000                                                                                                                                    24634200.051 7 128276698.94107      2150.544 7        45.604                                                                    24634196.265 7 104235292.74707      1747.582 7        46.087
C22        60.000                                                                                                                                    21843949.057 8 113747135.42108      -679.469 8        52.044                                                                    21843943.962 8  92428832.90208      -552.065 8        49.879
> 2025 01 02 08 16 25.0000000  0 54
E24         1.000    28123358.960 6 147789296.78206      2708.983 6        38.520                                                                    28123367.308 6 110362184.50806      2022.878 6        41.101    28123365.527 6 113241189.32606      2075.592 6        41.950
G15         2.000    21993038.104 7 115574153.47207      2452.610 7        45.117                                    21993036.806 7  90057758.98107      1911.124 7        42.584    21993037.076 7  90057753.98207      1911.280 7        42.425
E15         3.000    28776299.810 5 151220463.91605       497.984 5        35.771                                                                    28776303.705 6 112924371.13506       371.824 6        40.281    28776302.781 6 115870220.63706       381.617 6        41.292
G08         4.000    24648166.630 6 129527004.16606     -1933.903 6        37.191                                    24648172.609 4 100930154.30504     -1506.933 4        28.597    24648173.090 6 100930150.28706     -1506.931 6        36.121
S21         5.000    38606970.064 6 202880615.76306      -506.614 6        41.931
E05         6.000    25571108.738 6 134377044.20506      2062.270 6        39.712                                                                    25571112.476 7 100346468.45907      1539.966 7        43.024    25571111.655 7 102964201.91207      1580.072 7        43.934
G20         7.000    23415643.221 6 123049941.47706     -3942.789 6        41.154                                    23415644.269 4  95883026.40004     -3072.294 4        25.714
R02         8.000    19293192.180 8 102952139.41308      -404.221 8        52.027                                                                    19293193.775 7  80073878.47307      -314.370 7        46.885
R20         9.000    24108750.184 4 128920356.48404      1001.211 4        29.156                                                                    24108758.924 6 100271409.36306       778.882 6        38.820
G24        10.000    25540075.282 5 134213991.38705      3074.815 5        34.995                                    25540077.671 4 104582343.06404      2395.967 4        24.406    25540077.987 5 104582348.04305      2396.365 5        31.857
G30        11.000    21553267.334 7 113263149.57207     -2410.637 7        47.072                                    21553268.063 7  88256980.52707     -1878.415 7        47.596    21553268.244 7  88256988.51707     -1878.302 7        43.706
S27        12.000    39296192.768 5 206502854.01305      -537.414 5        34.562
G13        13.000    20219908.802 8 106256308.11808       564.308 8        48.753                                    20219905.865 6  82797094.01706       439.723 6        40.036
S36        14.000    38376061.118 7 201668034.38907      -506.903 7        43.915
I09        15.000    39987703.880 6 156920151.95706     -1037.733 6        40.262
E09        16.000    23791817.953 8 125026835.96008       295.637 8        48.217                                                                    23791819.571 8  93364185.26608       220.723 8        50.776    23791819.008 8  95799770.05708       226.512 8        51.529
S45        17.000    63557455.819 6 333997365.94606      -553.576 6        36.045
E36        18.000    28626741.890 5 150434455.61805     -3235.426 5        35.448                                                                    28626748.794 6 112337412.35606     -2416.096 6        38.171    28626747.737 6 115267954.81706     -2479.137 6        38.276
R19        19.000    24313963.434 5 130063265.67405     -2620.926 5        33.766                                                                    24313963.877 6 101160310.79606     -2038.461 6        37.690
E21        20.000    28533740.976 6 149945697.72506     -3358.869 6        36.060                                                                    28533749.448 6 111972416.24806     -2508.121 6        39.532    28533747.915 6 114893436.25306     -2573.484 6        40.036
R03        21.000    21717510.723 8 116255497.43908      3091.618 8        49.047                                                                    21717511.434 7  90420932.62207      2404.588 7        44.402
I06        22.000    38214827.286 7 149963321.12307      -447.471 7        43.060
S28        23.000    41045183.624 5 215693757.11905      -514.550 5        34.405
S23        25.000    38308842.887 7 201314256.03107      -506.249 7        43.801
R01        26.000    21331479.434 7 114028905.99407     -4024.649 7        47.075                                                                    21331483.726 6  88689121.43006     -3130.285 6        39.865
C07        27.000                                                                                                                                    39235181.580 6 204307857.48106       160.439 6        40.105    39235180.503 7 157983781.62707       124.135 7        43.970    39235178.243 6 166016846.43706       130.182 6        41.380
C40        29.000                                                                                                                                    39250859.084 7 204389511.08207       249.047 7        42.876                                                                    39250860.704 7 166083221.53207       202.393 7        42.648
G14        31.000    20747436.990 8 109028520.85208       178.991 8        48.292                                    20747435.669 6  84957288.70306       139.474 6        40.072    20747436.376 7  84957274.69907       139.427 7        47.717
G23        32.000    25487402.198 6 133937185.22606      2821.331 6        37.830                                    25487400.501 3 104366620.63103      2198.471 3        20.762    25487400.573 6 104366615.62006      2198.264 6        38.252
I02        33.000    37856587.539 7 148557370.94107       178.601 7        43.488
E04        34.000    24477046.136 7 128627728.66207     -2148.228 7        46.750                                                                    24477047.603 8  96053169.90108     -1604.163 8        49.778    24477046.895 8  98558902.05408     -1646.024 8        50.481
R13        35.000    21244706.044 7 113445556.92807      2792.216 7        44.552
R12        36.000    19262459.227 8 102896589.27008      -424.848 8        51.467                                                                    19262460.689 7  80030682.37207      -330.480 7        47.140
I01        37.000   392845959.117 6 238470865.65106     -3174.918 6        40.274
C10        38.000                                                                                                                                    39318838.371 6 204743501.13206       495.016 6        39.423    39318840.319 7 158320661.05207       382.660 7        44.018    39318837.340 6 166370852.87506       402.159 6        40.732
C19        39.000                                                                                                                                    24186654.183 7 125946168.01607     -3465.057 7        46.585                                                                    24186652.791 7 102341537.41707     -2815.692 7        46.964
E34        40.000    27910604.608 6 146671176.34706     -1741.012 6        38.862                                                                    27910607.539 6 109527164.64006     -1300.154 6        40.353    27910607.170 6 112384396.15506     -1333.995 6        41.316
G05        41.000    21813303.858 7 114629642.22107     -2540.430 7        47.255                                    21813302.516 7  89321767.29907     -1979.551 7        46.192    21813302.783 7  89321776.30507     -1979.702 7        43.573
S44        42.000    41054288.443 6 215741771.31106      -515.708 6        37.093
C36        43.000                                                                                                                                    21624923.326 8 112606629.83908      -198.142 8        51.328                                                                    21624929.266 8  91502126.32708      -161.079 8        50.005
C05        44.000                                                                                                                                    39511076.007 6 205744470.59206      -563.786 6        38.339    39511077.565 7 159094672.15907      -436.039 7        42.675    39511078.504 6 167184316.68006      -458.237 6        40.045
G18        46.000    25386004.673 6 133404318.94806     -1765.695 6        38.141                                    25386002.655 3 103951394.84803     -1375.859 3        19.075    25386003.745 6 103951384.84406     -1375.689 6        37.032
R11        47.000    21990783.065 7 117511993.30907     -4206.075 7        46.773                                                                    21990785.385 7  91398204.24207     -3271.342 7        44.033
C45        50.000                                                                                                                                    24120587.305 7 125602232.21007      2229.439 7        46.208                                                                    24120583.034 7 102062085.81207      1811.526 7        46.770
S48        51.000    77323342.768 6 406336765.26506      -494.245 6        37.482
E06        52.000    23441445.610 8 123185616.76308      -953.858 8        48.334                                                                    23441447.493 8  91989260.36908      -712.301 8        50.676    23441447.191 8  94388979.28808      -730.900 8        51.205
C09        53.000                                                                                                                                    40965163.729 5 213316230.95705     -1144.653 5        35.814    40965168.786 6 164949594.07906      -884.885 6        40.117    40965164.998 6 173336860.44206      -930.051 6        36.858
C60        54.000                                                                                                                                    41054292.278 6 213780500.34406      -510.909 6        40.064                                                                    41054284.244 6 173714101.57206      -415.303 6        38.468
E31        55.000    24318199.452 7 127793000.67307      1335.175 7        47.760                                                                    24318202.894 8  95429869.29208       997.104 8        49.314    24318202.142 8  97919340.37308      1023.044 8        50.082
G07        56.000    24219649.253 7 127275024.04807     -3247.142 7        42.182                                    24219651.164 5  99175299.16805     -2530.239 5        33.904    24219650.650 6  99175308.18506     -2530.370 6        37.240
C02        57.000                                                                                                                                    41091456.183 5 213973862.02205      -557.433 5        33.551    41091460.648 6 165458110.80506      -431.249 6        37.698    41091461.408 5 173871256.34505      -453.113 5        33.257
I03        58.000    96074155.470 6 301230142.78806       847.746 6        41.392
C21        59.000                                                                                                                                    24632135.809 7 128265950.04207      2149.259 7        45.360                                                                    24632132.017 7 104226558.37907      1746.381 7        46.047
C22        60.000                                                                                                                                    21844602.801 8 113750539.90208      -682.027 8        52.019                                                                    21844597.805 8  92431599.31308      -554.215 8        49.858
> 2025 01 02 08 16 30.0000000  0 54
E24         1.000    28120781.913 6 147775754.03706      2708.466 6        38.781                                                                    28120790.054 6 110352071.45606      2022.412 6        41.333    28120788.481 6 113230812.44906      2075.397 6        41.976
G15         2.000    21990705.909 7 115561895.86507      2450.733 7        45.059                                    21990704.278 7  90048207.60007      1909.663 7        42.624    21990704.182 7  90048202.61007      1909.749 7        42.015
E15         3.000    28775827.162 5 151217980.65805       495.538 5        35.033                                                                    28775831.075 6 112922516.73506       370.015 6        40.040    28775830.420 6 115868317.86506       379.823 6        41.278
G08         4.000    24650008.283 6 129536682.09906     -1936.887 6        37.342                                    24650014.430 4 100937695.48904     -1509.250 4        28.815    24650014.815 6 100937691.47106     -1509.302 6        36.257
S21         5.000    38607451.756 6 202883149.20506      -506.498 6        41.673
E05         6.000    25569147.053 6 134366735.11906      2061.879 6        39.637                                                                    25569150.821 7 100338770.11507      1539.681 7        43.092    25569149.936 7 102956302.74707      1579.772 7        44.048
G20         7.000    23419394.973 6 123069658.62806     -3943.703 6        41.840                                    23419396.407 4  95898390.37904     -3073.002 4        25.654
R02         8.000    19293573.246 8 102954171.19208      -408.236 8        51.973                                                                    19293574.533 7  80075458.74607      -317.551 7        46.482
R20         9.000    24107815.876 4 128915361.29804       997.297 4        29.754                                                                    24107824.845 6 100267524.23206       775.659 6        38.483
G24        10.000    25537150.524 5 134198619.26205      3074.254 5        35.886                                    25537152.353 4 104570364.74504      2395.522 4        24.105    25537152.618 5 104570369.73805      2395.561 5        31.215
G30        11.000    21555561.848 7 113275206.99907     -2412.050 7        47.369                                    21555562.533 7  88266375.91307     -1879.519 7        47.614    21555562.874 7  88266383.90507     -1879.454 7        43.484
S27        12.000    39296705.677 5 206505543.59805      -537.906 5        34.862
G13        13.000    20219373.348 8 106253493.36408       561.930 8        48.803                                    20219370.245 6  82794900.69606       437.867 6        40.102
S36        14.000    38376542.837 7 201670570.07507      -506.937 7        43.852
I09        15.000    39989026.227 6 156925341.40306     -1037.793 6        40.091
E09        16.000    23791537.488 8 125025362.27608       294.210 8        48.052                                                                    23791539.179 8  93363084.78308       219.672 8        50.724    23791538.596 8  95798640.86708       225.431 8        51.565
S45        17.000    63557937.310 6 334000135.11906      -553.557 6        36.204
E36        18.000    28629821.208 5 150450635.06005     -3236.181 5        35.619                                                                    28629827.891 6 112349494.37906     -2416.457 6        38.018    28629826.856 6 115280352.03706     -2479.554 6        38.661
R19        19.000    24316413.670 5 130076379.91605     -2624.432 5        34.038                                                                    24316415.357 6 101170510.74606     -2041.151 6        38.108
E21        20.000    28536937.087 5 149962494.01405     -3359.650 5        35.862                                                                    28536945.693 6 111984958.88606     -2508.698 6        39.712    28536944.265 6 114906306.11306     -2574.143 6        39.907
R03        21.000    21714624.354 8 116240044.28808      3090.015 8        48.254                                                                    21714624.439 7  90408913.51407      2403.339 7        44.999
I06        22.000    38215397.695 7 149965559.76907      -447.656 7        42.859
S28        23.000    41045677.864 5 215696330.84405      -514.662 5        34.443
S23        25.000    38309323.622 7 201316788.27107      -506.385 7        43.820
R01        26.000    21335244.310 7 114049036.19107     -4027.107 7        46.435                                                                    21335249.393 6  88704778.19906     -3132.227 6        40.150
C07        27.000                                                                                                                                    39235027.821 6 204307058.43106       159.622 6        39.880    39235026.886 7 157983163.78007       123.335 7        44.018    39235024.774 6 166016197.16006       129.473 6        41.311
C40        29.000                                                                                                                                    39250620.586 7 204388269.03907       248.066 7        42.698                                                                    39250622.172 7 166082212.27007       201.445 7        42.499
G14        31.000    20747268.627 8 109027634.75908       175.777 8        48.608                                    20747267.031 6  84956598.23406       136.968 6        39.985    20747267.109 7  84956584.23207       136.946 7        47.407
G23        32.000    25484718.744 6 133923083.13706      2819.858 6        37.467                                    25484716.981 3 104355631.95103      2197.302 3        20.333    25484716.999 6 104355626.93406      2197.185 6        38.222
I02        33.000    37856360.243 7 148556479.07307       178.383 7        43.338
E04        34.000    24479090.918 7 128638473.80007     -2149.558 7        46.683                                                                    24479092.321 8  96061193.85808     -1605.163 8        49.699    24479091.617 8  98567135.33308     -1647.034 8        50.479
R13        35.000    21242092.201 7 113431602.54207      2789.913 7        44.631
R12        36.000    19262858.780 8 102898723.79308      -428.678 8        51.578                                                                    19262860.528 7  80032342.54907      -333.417 7        47.272
I01        37.000   392850005.015 6 238486741.13706     -3175.003 6        39.928
C10        38.000                                                                                                                                    39318364.108 6 204741029.11306       494.113 6        39.342    39318365.521 7 158318749.52507       382.124 7        44.080    39318362.492 6 166368844.14906       401.467 6        40.768
C19        39.000                                                                                                                                    24189981.730 7 125963497.88207     -3466.594 7        46.922                                                                    24189980.707 7 102355619.31807     -2816.891 7        46.795
E34        40.000    27912261.596 6 146679887.86806     -1743.136 6        38.553                                                                    27912265.333 6 109533669.98006     -1301.763 6        40.265    27912264.941 6 112391071.19206     -1335.756 6        41.161
G05        41.000    21815722.516 7 114642352.96207     -2543.469 7        47.213                                    21815721.311 7  89331671.75407     -1981.920 7        46.122    21815721.423 7  89331680.75107     -1981.998 7        43.348
S44        42.000    41054778.470 6 215744350.59006      -515.628 6        37.176
C36        43.000                                                                                                                                    21625114.951 8 112607627.01808      -200.429 8        51.510                                                                    21625120.768 8  91502936.60608      -162.912 8        49.869
C05        44.000                                                                                                                                    39511617.780 6 205747290.70006      -563.840 6        38.105    39511619.030 7 159096852.85207      -436.082 7        42.544    39511620.013 6 167186608.26106      -458.323 6        39.745
G18        46.000    25387685.749 6 133413154.33606     -1768.128 6        37.573                                    25387683.971 3 103958279.56003     -1377.762 3        19.313    25387685.229 6 103958269.56606     -1377.942 6        37.418
R11        47.000    21994719.921 7 117533027.60407     -4207.244 7        47.454                                                                    21994721.619 7  91414564.22207     -3272.337 7        43.934
C45        50.000                                                                                                                                    24118447.773 7 125591089.01807      2228.173 7        46.698                                                                    24118443.133 7 102053031.06407      1810.426 7        46.653
S48        51.000    77323820.283 6 406339238.28206      -494.587 6        37.656
E06        52.000    23442354.069 8 123190390.95808      -955.448 8        48.118                                                                    23442355.988 8  91992825.50408      -713.522 8        50.616    23442355.643 8  94392637.42608      -732.093 8        51.201
C09        53.000                                                                                                                                    40966262.973 5 213321953.90605     -1144.369 5        35.786    40966267.832 6 164954019.40506      -884.966 6        39.925    40966263.948 6 173341510.80306      -929.994 6        36.749
C60        54.000                                                                                                                                    41054782.801 6 213783056.18606      -511.009 6        40.284                                                                    41054775.071 6 173716178.37706      -415.363 6        38.492
E31        55.000    24316930.325 7 127786330.54407      1333.186 7        47.816                                                                    24316933.539 8  95424888.35908       995.591 8        49.268    24316932.829 8  97914229.50108      1021.523 8        50.139
G07        56.000    24222739.093 7 127291261.74107     -3247.682 7        42.049                                    24222740.800 5  99187951.89805     -2530.660 5        33.689    24222740.122 6  99187960.91206     -2530.559 6        36.386
C02        57.000                                                                                                                                    41091991.173 5 213976650.77005      -557.649 5        33.383    41091996.053 6 165460267.20906      -430.949 6        37.656    41091996.648 5 173873522.41305      -452.898 5        33.150
I03        58.000    96073075.488 6 301225905.26806       847.617 6        41.116
C21        59.000                                                                                                                                    24630072.442 7 128255208.16807      2147.823 7        45.238                                                                    24630069.186 7 104217829.71207      1745.115 7        45.989
C22        60.000                                                                                                                                    21845259.389 8 113753957.90208      -684.833 8        52.188                                                                    21845254.199 8  92434376.70408      -556.542 8        49.762
> 2025 01 02 08 16 35.0000000  0 54
E24         1.000    28118205.104 6 147762212.54006      2707.818 6        38.637                                                                    28118213.201 6 110341959.32306      2022.218 6        41.287    28118211.558 7 113220436.52707      2074.835 7        42.212
G15         2.000    21988375.375 7 115549646.89307      2448.846 7        45.591                                    21988373.351 7  90038662.95007      1908.192 7        42.635    21988373.306 7  90038657.94107      1908.209 7        42.135
E15         3.000    28775356.482 5 151215508.83605       493.033 5        35.371                                                                    28775360.634 6 112920670.88006       368.244 6        40.052    28775360.120 6 115866423.86506       377.881 6        41.383
G08         4.000    24651853.623 6 129546374.92106     -1940.404 6        37.119                                    24651858.966 4 100945248.29404     -1511.999 4        29.052    24651859.512 6 100945244.27406     -1511.829 6        36.650
S21         5.000    38607932.648 6 202885682.36306      -506.572 6        41.836
E05         6.000    25567185.554 6 134356427.00306      2061.326 6        39.646                                                                    25567189.089 7 100331072.49107      1539.383 7        43.082    25567188.234 7 102948404.30907      1579.619 7        44.017
G20         7.000    23423148.388 7 123089380.66107     -3944.970 7        42.082                                    23423149.511 4  95913758.15204     -3074.001 4        25.865
R02         8.000    19293957.669 8 102956222.25108      -412.202 8        51.849                                                                    19293958.639 7  80077053.99607      -320.587 7        46.565
R20         9.000    24106888.481 5 128910385.28205       992.674 5        30.068                                                                    24106893.777 6 100263653.92906       772.516 6        38.366
G24        10.000    25534225.774 6 134183248.28806      3073.818 6        36.246                                    25534227.206 4 104558387.33604      2395.181 4        24.346    25534228.623 5 104558392.31305      2395.125 5        32.018
G30        11.000    21557857.654 7 113287271.41507     -2413.634 7        47.808                                    21557858.318 7  88275776.74607     -1880.752 7        47.617    21557858.699 7  88275784.74007     -1880.712 7        43.573
S27        12.000    39297217.320 5 206508232.77205      -537.820 5        35.105
G13        13.000    20218839.745 8 106250690.08008       559.383 8        48.946                                    20218836.789 6  82792716.31706       435.883 6        40.107
S36        14.000    38377025.343 7 201673105.90307      -507.553 7        43.854
I09        15.000    39990348.852 6 156930530.95806     -1038.035 6        40.098
E09        16.000    23791258.299 8 125023895.34708       292.615 8        48.136                                                                    23791259.999 8  93361989.33708       218.519 8        50.733    23791259.452 8  95797516.84808       224.251 8        51.640
S45        17.000    63558422.683 6 334002904.25206      -553.902 6        36.098
E36        18.000    28632900.720 6 150466816.73406     -3236.688 6        36.321                                                                    28632907.128 6 112361578.09706     -2417.110 6        37.853    28632906.210 6 115292750.97906     -2480.023 6        38.670
R19        19.000    24318868.020 5 130089510.95005     -2628.172 5        33.192                                                                    24318870.549 6 101180723.78606     -2043.874 6        38.147
E21        20.000    28540133.982 5 149979293.44505     -3360.384 5        35.476                                                                    28540142.545 6 111997503.90006     -2509.323 6        39.643    28540141.087 6 114919178.37706     -2574.635 6        39.898
R03        21.000    21711738.391 8 116224598.73708      3088.284 8        48.882                                                                    21711739.226 7  90396900.28907      2401.970 7        44.479
I06        22.000    38215968.261 7 149967798.49907      -447.834 7        42.819
S28        23.000    41046166.451 5 215698904.60405      -515.035 5        34.419
S23        25.000    38309805.453 7 201319320.51707      -506.554 7        43.750
R01        26.000    21339012.164 7 114069177.89407     -4029.541 7        46.206                                                                    21339016.472 6  88720443.92706     -3134.096 6        39.871
C07        27.000                                                                                                                                    39234874.952 6 204306263.31806       158.516 6        39.964    39234874.347 7 157982548.94207       122.646 7        44.065    39234872.127 6 166015551.06606       128.820 6        41.423
C40        29.000                                                                                                                                    39250383.158 7 204387031.95107       246.726 7        42.781                                                                    39250384.565 7 166081207.05207       200.544 7        42.677
G14        31.000    20747102.962 8 109026764.08908       172.542 8        48.442                                    20747101.353 6  84955919.78906       134.448 6        40.057    20747101.693 7  84955905.79007       134.438 7        47.589
G23        32.000    25482036.654 6 133908987.61106      2818.405 6        37.391                                    25482034.697 3 104344648.37803      2196.175 3        20.048    25482035.310 6 104344643.37406      2196.045 6        38.147
I02        33.000    37856133.246 7 148555588.44007       177.935 7        43.242
E04        34.000    24481136.773 7 128649225.30607     -2151.094 7        46.679                                                                    24481138.259 8  96069222.57408     -1606.325 8        49.685    24481137.592 8  98575373.49308     -1648.218 8        50.533
R13        35.000    21239481.022 7 113417659.94207      2787.299 7        44.208
R12        36.000    19263262.115 8 102900877.05508      -432.590 8        51.590                                                                    19263263.611 7  80034017.30807      -336.449 7        47.619
I01        37.000   392854050.432 6 238502616.55106     -3175.112 6        40.019
C10        38.000                                                                                                                                    39317889.504 6 204738560.52506       493.294 6        39.667    39317891.471 7 158316840.67207       381.483 7        44.093    39317888.531 6 166366838.22906       400.827 6        40.820
C19        39.000                                                                                                                                    24193311.295 7 125980834.77107     -3468.235 7        47.178                                                                    24193310.278 7 102369706.94707     -2818.149 7        46.875
E34        40.000    27913921.746 6 146688610.14406     -1745.571 6        38.643                                                                    27913925.121 6 109540183.35506     -1303.461 6        40.324    27913924.791 6 112397754.48706     -1337.562 6        41.232
G05        41.000    21818144.296 7 114655078.17607     -2546.556 7        47.517                                    21818142.855 7  89341587.49107     -1984.326 7        46.218    21818143.195 7  89341596.48507     -1984.296 7        43.217
S44        42.000    41055268.846 6 215746929.66006      -515.898 6        37.093
C36        43.000                                                                                                                                    21625308.457 8 112608635.06608      -202.789 8        51.506                                                                    21625314.343 8  91503755.73808      -164.764 8        50.023
C05        44.000                                                                                                                                    39512159.048 6 205750110.71406      -563.963 6        38.219    39512160.454 7 159099033.46807      -436.242 7        42.569    39512161.384 6 167188899.75206      -458.253 6        40.110
G18        46.000    25389369.826 6 133422002.71706     -1771.010 6        38.216                                    25389367.953 3 103965174.39903     -1380.014 3        19.284    25389368.658 6 103965164.39606     -1380.036 6        38.009
R11        47.000    21998656.566 7 117554068.08307     -4208.856 7        47.233                                                                    21998659.247 7  91430929.01007     -3273.456 7        44.337
C45        50.000                                                                                                                                    24116309.192 7 125579951.94407      2226.687 7        46.709                                                                    24116304.303 7 102043981.30307      1809.347 7        46.735
S48        51.000    77324293.631 6 406341711.49406      -494.728 6        37.433
E06        52.000    23443263.984 8 123195172.76108      -957.226 8        48.254                                                                    23443265.928 8  91996396.32408      -714.737 8        50.637    23443265.623 8  94396301.40208      -733.472 8        51.333
C09        53.000                                                                                                                                    40967360.461 5 213327676.36305     -1144.685 5        35.752    40967366.891 6 164958444.36406      -885.097 6        40.257    40967362.913 6 173346160.76306      -930.030 6        36.854
C60        54.000                                                                                                                                    41055273.736 6 213785611.81106      -511.261 6        40.436                                                                    41055265.845 6 173718255.03206      -415.444 6        38.532
E31        55.000    24315662.820 7 127779669.94407      1331.089 7        47.523                                                                    24315666.104 8  95419914.55008       993.979 8        49.262    24315665.361 8  97909125.93708      1019.987 8        50.191
G07        56.000    24225828.817 6 127307501.30806     -3248.126 6        41.504                                    24225830.798 5  99200606.09705     -2531.000 5        33.461    24225830.967 6  99200615.10006     -2531.052 6        36.412
C02        57.000                                                                                                                                    41092525.491 5 213979439.28205      -557.858 5        33.353    41092531.637 6 165462423.44506      -431.216 6        37.732    41092532.554 5 173875788.30505      -453.262 5        33.509
I03        58.000    96071995.563 6 301221667.57806       847.517 6        41.039
C21        59.000                                                                                                                                    24628011.177 7 128244473.29007      2146.177 7        45.216                                                                    24628007.613 7 104209106.74307      1743.914 7        45.983
C22        60.000                                                                                                                                    21845918.346 8 113757389.36708      -687.756 8        52.171                                                                    21845913.185 8  92437165.05308      -558.828 8        49.848
> 2025 01 02 08 16 40.0000000  0 54
E24         1.000    28115628.584 6 147748672.60506      2707.685 6        38.441                                                                    28115636.602 6 110331848.37006      2021.966 6        41.545    28115634.963 7 113210061.80507      2074.772 7        42.116
G15         2.000    21986045.773 7 115537406.86907      2447.087 7        44.998                                    21986044.154 7  90029125.26807      1906.821 7        42.654    21986044.634 7  90029120.27007      1906.761 7        42.190
E15         3.000    28774888.614 6 151213048.82506       490.517 6        36.091                                                                    28774892.484 6 112918833.82506       366.532 6        39.988    28774891.865 6 115864538.89406       376.121 6        41.366
G08         4.000    24653700.653 6 129556082.95706     -1943.185 6        37.939                                    24653706.354 4 100952812.94704     -1514.162 4        29.251    24653706.944 6 100952808.93006     -1514.317 6        36.068
S21         5.000    38608410.843 6 202888215.92306      -506.932 6        41.757
E05         6.000    25565224.056 6 134346120.21406      2061.309 6        39.625                                                                    25565227.923 7 100323375.87207      1539.183 7        43.069    25565226.996 7 102940506.91007      1579.338 7        43.979
G20         7.000    23426902.317 6 123109107.89106     -3946.072 6        41.945                                    23426903.537 4  95929129.98404     -3074.858 4        26.060
R02         8.000    19294345.511 8 102958292.98908      -416.174 8        51.860                                                                    19294346.881 7  80078664.57007      -323.630 7        46.852
R20         9.000    24105960.230 5 128905428.58605       989.198 5        30.498                                                                    24105966.549 6 100259798.71706       769.437 6        39.399
G24        10.000    25531299.464 5 134167878.65305      3073.713 5        34.195                                    25531302.442 4 104546410.96304      2395.111 4        24.301    25531303.816 5 104546415.99105      2395.000 5        32.174
G30        11.000    21560154.933 8 113299343.15508     -2415.153 8        48.066                                    21560155.506 7  88285183.28307     -1881.932 7        47.639    21560155.834 7  88285191.28607     -1881.942 7        43.719
S27        12.000    39297736.341 5 206510921.98505      -537.870 5        35.295
G13        13.000    20218308.569 8 106247898.59808       557.012 8        48.821                                    20218305.583 6  82790541.12906       434.038 6        40.160
S36        14.000    38377509.772 7 201675642.33407      -507.681 7        44.024
I09        15.000    39991671.339 6 156935720.85506     -1038.085 6        40.172
E09        16.000    23790980.577 8 125022435.49608       291.210 8        48.002                                                                    23790982.222 8  93360899.18308       217.401 8        50.696    23790981.658 8  95796398.25508       223.104 8        51.500
S45        17.000    63558907.026 6 334005673.60806      -554.069 6        36.465
E36        18.000    28635980.620 6 150483000.98606     -3237.161 6        36.612                                                                    28635986.927 6 112373663.73306     -2417.258 6        37.803    28635985.943 6 115305151.90206     -2480.374 6        38.559
R19        19.000    24321326.482 5 130102659.14305     -2631.190 5        33.347                                                                    24321327.520 6 101190950.18406     -2046.576 6        37.800
E21        20.000    28543331.762 5 149996096.37205     -3361.143 5        35.171                                                                    28543340.187 6 112010051.49106     -2509.817 6        39.910    28543338.703 6 114932053.31406     -2575.236 6        39.937
R03        21.000    21708855.387 8 116209161.03608      3086.646 8        48.450                                                                    21708855.037 7  90384893.18707      2400.713 7        44.667
I06        22.000    38216538.849 7 149970037.56807      -447.867 7        42.552
S28        23.000    41046657.690 5 215701478.59505      -514.735 5        34.452
S23        25.000    38310289.618 7 201321853.16707      -506.711 7        43.979
R01        26.000    21342782.813 7 114089331.55507     -4032.056 7        46.246                                                                    21342787.382 6  88736118.94206     -3136.016 6        39.492
C07        27.000                                                                                                                                    39234723.375 6 204305472.50006       157.733 6        39.847    39234722.419 7 157981937.45507       122.005 7        44.310    39234720.249 6 166014908.46606       128.053 6        41.418
C40        29.000                                                                                                                                    39250146.301 7 204385800.12207       245.694 7        42.817                                                                    39250148.052 7 166080206.11107       199.672 7        42.601
G14        31.000    20746940.201 8 109025909.19508       169.340 8        48.161                                    20746938.675 6  84955253.63706       131.956 6        39.934    20746939.120 7  84955239.63107       131.913 7        47.796
G23        32.000    25479356.211 6 133894898.98306      2817.036 6        36.779                                    25479353.892 3 104333670.19203      2195.115 3        19.761    25479354.477 6 104333665.18306      2195.027 6        38.111
I02        33.000    37855906.689 7 148554699.11907       177.478 7        43.050
E04        34.000    24483184.000 7 128659983.54507     -2152.431 7        46.448                                                                    24483185.489 8  96077256.30408     -1607.279 8        49.681    24483184.895 8  98583616.80208     -1649.219 8        50.408
R13        35.000    21236872.477 7 113403729.43607      2784.794 7        44.194
R12        36.000    19263668.847 8 102903049.37208      -436.491 8        51.989                                                                    19263670.553 7  80035706.88807      -339.467 7        47.750
I01        37.000   392858095.661 6 238518492.18506     -3175.193 6        39.700
C10        38.000                                                                                                                                    39317416.318 6 204736095.67306       492.503 6        39.901    39317418.134 7 158314934.69807       380.855 7        44.283    39317415.085 6 166364835.33306       400.144 6        40.687
C19        39.000                                                                                                                                    24196642.184 7 125998179.00507     -3469.658 7        47.339                                                                    24196641.491 7 102383800.52307     -2819.470 7        47.100
E34        40.000    27915583.835 6 146697343.51906     -1747.771 6        38.033                                                                    27915587.041 6 109546705.02106     -1305.221 6        40.269    27915586.556 6 112404446.28406     -1339.320 6        40.920
G05        41.000    21820568.448 7 114667818.21507     -2549.569 7        47.653                                    21820567.221 7  89351514.77407     -1986.673 7        46.122    21820567.679 7  89351523.77507     -1986.588 7        43.177
S44        42.000    41055757.415 6 215749508.84706      -515.793 6        36.809
C36        43.000                                                                                                                                    21625504.034 8 112609654.33808      -205.034 8        51.490                                                                    21625510.127 8  91504583.97408      -166.685 8        50.038
C05        44.000                                                                                                                                    39512700.923 6 205752930.97006      -564.201 6        38.243    39512702.240 7 159101214.25407      -436.262 7        42.709    39512703.183 6 167191191.43306      -458.455 6        40.122
G18        46.000    25391056.060 6 133430864.44106     -1773.768 6        39.222                                    25391054.461 3 103972079.61603     -1382.159 3        19.821    25391053.860 6 103972069.63406     -1382.187 6        36.355
R11        47.000    22002595.248 7 117575115.07907     -4210.166 7        47.392                                                                    22002597.902 7  91447298.86107     -3274.566 7        44.245
C45        50.000                                                                                                                                    24114171.398 7 125568821.32707      2225.402 7        46.464                                                                    24114166.783 7 102034936.76707      1808.282 7        46.784
S48        51.000    77324768.030 6 406344184.99006      -495.123 6        37.720
E06        52.000    23444175.364 8 123199962.48208      -958.803 8        48.062                                                                    23444177.397 8  91999973.06308      -715.996 8        50.604    23444177.006 8  94399971.44208      -734.646 8        51.206
C09        53.000                                                                                                                                    40968459.350 6 213333398.64806     -1144.557 6        36.132    40968465.901 6 164962869.17706      -885.004 6        40.360    40968462.091 6 173350810.58306      -930.187 6        36.809
C60        54.000                                                                                                                                    41055764.586 6 213788167.53606      -511.245 6        40.365                                                                    41055756.597 6 173720331.75706      -415.403 6        38.658
E31        55.000    24314397.179 7 127773019.23807      1329.064 7        47.481                                                                    24314400.511 8  95414948.11708       992.530 8        49.235    24314399.779 8  97904029.94708      1018.369 8        50.101
G07        56.000    24228919.574 6 127323743.10506     -3248.605 6        40.808                                    24228921.378 5  99213262.02405     -2531.376 5        33.383    24228921.869 6  99213271.01406     -2531.420 6        36.174
C02        57.000                                                                                                                                    41093061.348 5 213982227.92305      -557.757 5        33.760    41093067.266 6 165464579.80506      -431.436 6        37.939    41093067.892 5 173878054.29305      -453.411 5        33.635
I03        58.000    96070915.866 6 301217429.94306       847.424 6        40.958
C21        59.000                                                                                                                                    24625951.132 7 128233745.76807      2144.658 7        44.962                                                                    24625947.452 7 104200389.73307      1742.729 7        46.038
C22        60.000                                                                                                                                    21846579.650 8 113760834.63608      -690.528 8        52.109                                                                    21846574.823 8  92439964.60708      -561.155 8        49.850
> 2025 01 02 08 16 45.0000000  0 54
E24         1.000    28113052.539 6 147735134.05006      2707.510 6        38.718                                                                    28113060.237 6 110321738.43206      2022.010 6        41.416    28113058.784 7 113199688.12407      2074.765 7        42.057
G15         2.000    21983718.354 7 115525175.56407      2445.461 7        45.222                                    21983716.608 7  90019594.38107      1905.552 7        42.662    21983716.950 7  90019589.39107      1905.462 7        42.432
E15         3.000    28774422.826 5 151210600.31905       488.815 5        35.876                                                                    28774426.582 6 112917005.40006       364.989 6        39.775    28774426.019 6 115862662.77406       374.352 6        41.085
G08         4.000    24655550.992 6 129565805.97906     -1946.131 6        37.890                                    24655556.667 4 100960389.28604     -1516.464 4        29.763    24655557.359 6 100960385.26306     -1516.311 6        36.650
S21         5.000    38608894.436 6 202890749.76706      -506.782 6        41.962
E05         6.000    25563263.167 6 134335814.51206      2061.102 6        39.640                                                                    25563266.694 7 100315680.05807      1539.072 7        43.071    25563265.899 7 102932610.34307      1579.077 7        43.945
G20         7.000    23430657.422 6 123128840.04806     -3946.836 6        41.757                                    23430658.470 4  95944505.65204     -3075.450 4        26.251
R02         8.000    19294737.486 8 102960383.08508      -419.969 8        52.113                                                                    19294738.731 7  80080290.19907      -326.660 7        46.975
R20         9.000    24105035.883 5 128900491.04805       985.680 5        31.230                                                                    24105044.154 6 100255958.39706       766.590 6        39.895
G24        10.000    25528374.709 5 134152510.31405      3073.561 5        35.495                                    25528378.015 4 104534435.59604      2394.988 4        24.060    25528377.837 5 104534440.61405      2395.076 5        32.539
G30        11.000    21562453.312 7 113311421.95507     -2416.419 7        47.629                                    21562454.037 7  88294595.32607     -1882.923 7        47.596    21562454.229 7  88294603.32907     -1882.875 7        43.953
S27        12.000    39298243.061 5 206513611.74505      -538.063 5        34.895
G13        13.000    20217779.597 8 106245118.67808       554.818 8        48.840                                    20217776.572 6  82788374.95106       432.326 6        40.157
S36        14.000    38377993.928 7 201678179.03307      -507.289 7        44.086
I09        15.000    39992994.051 6 156940910.96106     -1037.984 6        40.136
E09        16.000    23790704.071 8 125020982.48608       289.961 8        48.113                                                                    23790705.729 8  93359814.13108       216.540 8        50.706    23790705.201 8  95795284.89908       222.183 8        51.448
S45        17.000    63559388.388 6 334008442.94806      -553.709 6        36.465
E36        18.000    28639061.268 6 150499187.56806     -3237.370 6        36.817                                                                    28639067.220 6 112385751.10506     -2417.558 6        37.739    28639065.986 6 115317554.58706     -2480.573 6        38.417
R19        19.000    24323787.239 5 130115824.38305     -2634.616 5        33.102                                                                    24323788.378 6 101201189.80506     -2049.212 6        37.985
E21        20.000    28546529.838 5 150012902.52305     -3361.508 5        35.176                                                                    28546538.253 6 112022601.51306     -2510.391 6        39.880    28546537.012 6 114944930.72006     -2575.691 6        39.943
R03        21.000    21705972.340 8 116193731.42308      3085.208 8        48.819                                                                    21705972.894 7  90372892.37307      2399.574 7        44.837
I06        22.000    38217109.203 7 149972276.81207      -447.818 7        42.548
S28        23.000    41047144.444 5 215704052.37905      -514.642 5        34.386
S23        25.000    38310769.012 7 201324385.75507      -506.454 7        44.036
R01        26.000    21346555.523 7 114109496.84207     -4034.142 7        46.255                                                                    21346559.352 6  88751803.04006     -3137.693 6        38.667
C07        27.000                                                                                                                                    39234572.323 6 204304685.69706       156.933 6        39.898    39234571.616 7 157981329.05607       121.378 7        44.388    39234569.120 6 166014269.12606       127.607 6        41.364
C40        29.000                                                                                                                                    39249910.633 7 204384573.34907       244.805 7        42.971                                                                    39249912.379 7 166079209.25507       198.959 7        42.624
G14        31.000    20746780.577 8 109025069.81808       166.339 8        48.201                                    20746778.962 6  84954599.57506       129.616 6        39.943    20746779.330 8  84954585.57208       129.661 8        48.043
G23        32.000    25476676.276 6 133880817.08206      2815.657 6        37.206                                    25476674.549 3 104322697.23703      2194.025 3        19.940    25476674.565 6 104322692.21806      2194.103 6        38.477
I02        33.000    37855680.151 7 148553811.09207       177.643 7        42.868
E04        34.000    24485232.469 7 128670748.23307     -2153.499 7        46.663                                                                    24485234.015 8  96085294.86108     -1608.133 8        49.577    24485233.388 8  98591865.06508     -1650.120 8        50.365
R13        35.000    21234265.750 7 113389810.69807      2782.522 7        44.075
R12        36.000    19264078.942 8 102905240.44008      -440.045 8        51.980                                                                    19264080.413 8  80037411.04908      -342.237 8        48.042
I01        37.000   392862141.128 6 238534367.83606     -3175.205 6        39.354
C10        38.000                                                                                                                                    39316944.221 6 204733634.36706       491.836 6        40.043    39316945.254 7 158313031.46907       380.420 7        44.248    39316942.400 6 166362835.31206       399.738 6        40.772
C19        39.000                                                                                                                                    24199974.509 7 126015530.33607     -3470.972 7        47.531                                                                    24199973.805 7 102397899.87007     -2820.390 7        47.210
E34        40.000    27917247.752 6 146706087.75006     -1750.064 6        38.075                                                                    27917251.083 6 109553234.77406     -1306.655 6        40.224    27917250.546 6 112411146.38906     -1340.906 6        40.865
G05        41.000    21822995.838 7 114680572.80507     -2552.389 7        47.197                                    21822994.382 7  89361453.40207     -1988.869 7        46.080    21822995.075 7  89361462.39607     -1988.860 7        43.382
S44        42.000    41056247.715 6 215752087.90706      -515.775 6        37.267
C36        43.000                                                                                                                                    21625701.736 8 112610684.58008      -207.118 8        51.466                                                                    21625707.941 8  91505421.11408      -168.196 8        49.943
C05        44.000                                                                                                                                    39513242.683 6 205755751.19306      -563.996 6        38.480    39513243.731 7 159103395.03407      -436.178 7        42.717    39513244.809 6 167193483.08606      -458.309 6        39.949
G18        46.000    25392744.820 6 133439739.27906     -1776.173 6        37.811                                    25392743.433 3 103978995.04403     -1384.048 3        19.254    25392743.058 5 103978985.08405     -1384.362 5        35.833
R11        47.000    22006535.274 7 117596168.29907     -4211.215 7        47.213                                                                    22006537.998 7  91463673.55807     -3275.433 7        44.491
C45        50.000                                                                                                                                    24112034.915 7 125557696.91307      2224.264 7        46.377                                                                    24112030.483 7 102025897.26707      1807.499 7        46.707
S48        51.000    77325243.154 6 406346658.16206      -494.585 6        37.743
E06        52.000    23445088.471 8 123204759.89708      -960.232 8        48.057                                                                    23445090.311 8  92003555.53508      -717.011 8        50.551    23445089.978 8  94403647.37708      -735.725 8        51.132
C09        53.000                                                                                                                                    40969558.990 6 213339120.53306     -1144.262 6        36.318    40969564.885 6 164967293.68606      -884.838 6        40.617    40969560.828 6 173355460.05006      -929.691 6        36.616
C60        54.000                                                                                                                                    41056255.535 6 213790723.14706      -511.059 6        40.548                                                                    41056247.322 6 173722408.36906      -415.222 6        38.520
E31        55.000    24313133.406 7 127766378.16207      1327.291 7        47.729                                                                    24313136.776 8  95409988.88108       991.180 8        49.228    24313136.015 8  97898941.33408      1017.020 8        50.057
G07        56.000    24232010.871 6 127339986.86306     -3248.915 6        40.415                                    24232012.437 5  99225919.47305     -2531.617 5        33.162    24232013.837 6  99225928.45706     -2531.438 6        36.957
C02        57.000                                                                                                                                    41093598.144 5 213985016.47705      -557.945 5        33.563    41093602.958 6 165466736.07706      -431.166 6        37.905    41093603.422 5 173880320.21205      -453.127 5        33.461
I03        58.000    96069835.764 6 301213192.20106       847.727 6        40.861
C21        59.000                                                                                                                                    24623892.723 7 128223025.32807      2143.503 7        45.114                                                                    24623888.762 7 104191678.48407      1741.786 7        45.937
C22        60.000                                                                                                                                    21847243.879 8 113764293.47108      -693.097 8        52.225                                                                    21847239.064 8  92442775.17708      -563.095 8        49.820
> 2025 01 02 08 16 50.0000000  0 54
E24         1.000    28110476.226 6 147721596.99906      2707.291 6        38.535                                                                    28110483.958 6 110311629.64806      2021.625 6        41.478    28110482.641 7 113189315.63507      2074.293 7        42.064
G15         2.000    21981392.641 7 115512953.18707      2443.635 7        45.220                                    21981390.765 7  90010070.45207      1904.131 7        42.635    21981390.898 7  90010065.45107      1904.097 7        42.394
E15         3.000    28773958.978 6 151208163.60806       486.217 6        36.098                                                                    28773963.112 6 112915185.73706       362.999 6        40.114    28773962.272 6 115860795.63706       372.482 6        40.973
G08         4.000    24657404.671 6 129575544.15906     -1949.063 6        37.936                                    24657409.850 5 100967977.43705     -1518.742 5        30.136    24657410.989 6 100967973.42606     -1518.909 6        36.881
S21         5.000    38609380.751 6 202893284.06406      -506.881 6        41.967
E05         6.000    25561301.822 6 134325510.08306      2060.767 6        39.727                                                                    25561305.798 7 100307985.19507      1538.880 7        43.143    25561305.022 7 102924714.73807      1579.028 7        43.998
G20         7.000    23434413.182 6 123148577.32006     -3948.043 6        40.903                                    23434414.472 4  95959885.30204     -3076.382 4        26.072
R02         8.000    19295132.850 8 102962492.79508      -423.883 8        51.886                                                                    19295133.858 7  80081931.06307      -329.695 7        46.595
R20         9.000    24104116.779 5 128895572.93805       981.806 5        30.664                                                                    24104124.078 6 100252133.19706       763.456 6        39.180
G24        10.000    25525451.872 5 134137143.31405      3073.257 5        35.595                                    25525453.775 4 104522461.28504      2394.740 4        24.045    25525453.971 5 104522466.27905      2394.723 5        32.186
G30        11.000    21564752.852 7 113323508.01507     -2417.928 7        47.020                                    21564753.935 7  88304013.02407     -1884.094 7        47.561    21564754.173 7  88304021.02007     -1884.186 7        43.966
S27        12.000    39298754.087 5 206516301.75305      -538.069 5        34.957
G13        13.000    20217252.748 8 106242350.53808       552.437 8        48.930                                    20217249.815 6  82786217.95106       430.473 6        40.205
S36        14.000    38378474.676 7 201680716.04207      -507.432 7        44.032
I09        15.000    39994316.593 6 156946101.36806     -1038.247 6        40.129
E09        16.000    23790428.938 8 125019536.51108       288.479 8        48.093                                                                    23790430.575 8  93358734.33508       215.474 8        50.793    23790430.056 8  95794176.94008       221.010 8        51.513
S45        17.000    63559870.630 6 334009512.43716      -553.839 6        36.367
E36        18.000    28642141.527 6 150515376.65906     -3237.844 6        36.129                                                                    28642147.900 6 112397840.33706     -2417.857 6        37.603    28642146.692 6 115329959.21106     -2481.164 6        38.730
R19        19.000    24326249.998 5 130129006.72105     -2638.197 5        32.737                                                                    24326253.356 6 101211442.73006     -2052.127 6        37.864
E21        20.000    28549728.431 5 150029712.10705     -3362.280 5        35.081                                                                    28549737.054 6 112035154.06906     -2510.793 6        40.007    28549735.786 6 114957810.74706     -2576.148 6        39.967
R03        21.000    21703091.425 8 116178309.44708      3083.591 8        48.794                                                                    21703091.937 7  90360897.49907      2398.333 7        45.451
I06        22.000    38217680.241 7 149974516.35607      -447.844 7        42.362
S28        23.000    41047637.986 5 215706626.36705      -515.219 5        35.105
S23        25.000    38311253.968 7 201326918.63307      -506.614 7        44.041
R01        26.000    21350330.030 7 114129673.92307     -4036.656 7        45.970                                                                    21350334.617 6  88767496.28706     -3139.646 6        38.694
C07        27.000                                                                                                                                    39234422.512 6 204303903.12406       156.198 6        39.955    39234420.994 7 157980723.94307       120.703 7        44.424    39234418.764 6 166013633.24406       126.705 6        41.402
C40        29.000                                                                                                                                    39249676.090 7 204383351.79107       243.789 7        42.929                                                                    39249677.767 7 166078216.63907       198.048 7        42.580
G14        31.000    20746624.080 7 109024246.16607       163.174 7        47.989                                    20746622.228 6  84953957.76406       127.147 6        40.105    20746622.439 8  84953943.76408       127.030 8        48.026
G23        32.000    25473997.857 6 133866742.02806      2814.375 6        37.577                                    25473996.266 3 104311729.62503      2193.046 3        19.881    25473996.456 6 104311724.61106      2193.119 6        38.610
I02        33.000    37855454.161 7 148552924.11707       177.121 7        42.792
E04        34.000    24487282.389 7 128681519.61807     -2154.979 7        46.797                                                                    24487283.732 8  96093338.41008     -1609.202 8        49.732    24487283.094 8  98600118.44608     -1651.158 8        50.429
R13        35.000    21231661.212 7 113375904.17107      2780.149 7        44.542
R12        36.000    19264492.530 8 102907450.55208      -443.917 8        51.876                                                                    19264494.039 7  80039130.02107      -345.273 7        47.840
I01        37.000   392866187.155 6 238550243.64706     -3175.208 6        39.423
C10        38.000                                                                                                                                    39316472.748 6 204731176.76406       491.211 6        40.331    39316473.196 7 158311131.09407       379.789 7        44.385    39316470.474 6 166360838.31006       399.065 6        40.584
C19        39.000                                                                                                                                    24203307.735 7 126032888.95407     -3472.347 7        47.472                                                                    24203307.324 7 102412005.15107     -2821.747 7        47.195
E34        40.000    27918913.626 6 146714842.98306     -1751.970 6        38.249                                                                    27918917.214 6 109559772.78006     -1308.486 6        40.470    27918916.564 6 112417854.93306     -1342.547 6        40.784
G05        41.000    21825425.438 7 114693342.12907     -2555.342 7        47.601                                    21825424.320 7  89371403.50907     -1991.173 7        46.196    21825424.852 7  89371412.50807     -1991.225 7        43.477
S44        42.000    41056737.613 6 215754667.02706      -515.888 6        36.922
C36        43.000                                                                                                                                    21625901.944 8 112611725.98008      -209.383 8        51.401                                                                    21625907.948 8  91506267.33408      -170.227 8        49.901
C05        44.000                                                                                                                                    39513784.013 6 205758571.58306      -564.026 6        38.357    39513785.397 7 159105575.94307      -436.212 7        42.717    39513786.465 6 167195774.88206      -458.366 6        40.021
G18        46.000    25394436.200 6 133448627.37806     -1779.071 6        37.709                                    25394434.744 3 103985920.82403     -1386.300 3        18.627    25394434.241 6 103985910.82606     -1386.351 6        36.964
R11        47.000    22010475.648 7 117617227.96507     -4212.528 7        46.390                                                                    22010478.745 7  91480053.27207     -3276.389 7        44.694
C45        50.000                                                                                                                                    24109900.188 7 125546578.89807      2222.978 7        46.622                                                                    24109895.390 7 102016862.99107      1806.329 7        46.649
S48        51.000    77325724.041 6 406349131.60706      -494.775 6        37.376
E06        52.000    23446002.895 8 123209565.19708      -961.846 8        48.243                                                                    23446004.720 8  92007143.90208      -718.263 8        50.625    23446004.381 8  94407329.35108      -737.041 8        51.169
C09        53.000                                                                                                                                    40970657.720 6 213344842.18106     -1144.240 6        36.370    40970663.699 6 164971718.01406      -884.815 6        40.551    40970659.614 6 173360109.35506      -929.821 6        36.866
C60        54.000                                                                                                                                    41056745.647 6 213793278.83206      -511.277 6        40.460                                                                    41056738.226 6 173724485.07606      -415.420 6        38.483
E31        55.000    24311871.555 7 127759746.92707      1325.279 7        47.842                                                                    24311874.895 8  95405036.99008       989.626 8        49.301    24311874.180 8  97893860.26208      1015.438 8        50.111
G07        56.000    24235102.952 6 127356232.76906     -3249.462 6        40.665                                    24235104.085 5  99238578.59805     -2532.046 5        33.192    24235104.783 6  99238587.59506     -2531.871 6        37.459
C02        57.000                                                                                                                                    41094133.934 5 213987805.12405      -557.615 5        33.497    41094138.341 6 165468892.42106      -431.288 6        37.739    41094138.917 5 173882586.20605      -453.246 5        33.132
I03        58.000    96068755.884 6 301208954.49406       847.565 6        40.563
C21        59.000                                                                                                                                    24621835.609 7 128212312.22007      2141.844 7        45.529                                                                    24621831.429 7 104182973.20107      1740.325 7        46.072
C22        60.000                                                                                                                                    21847910.859 8 113767766.06808      -695.883 8        52.208                                                                    21847905.961 8  92445596.94408      -565.578 8        49.776
> 2025 01 02 08 16 55.0000000  0 54
E24         1.000    28107900.387 6 147708061.05706      2707.143 6        38.354                                                                    28107908.109 6 110301521.67006      2021.496 6        41.442    28107906.879 7 113178943.95507      2074.217 7        42.154
G15         2.000    21979068.326 7 115500739.29207      2441.893 7        45.395                                    21979066.536 7  90000553.13607      1902.771 7        42.580    21979066.782 7  90000548.13707      1902.817 7        42.114
E15         3.000    28773497.462 5 151205738.13805       484.073 5        35.957                                                                    28773501.673 6 112913374.49506       361.323 6        40.517    28773500.507 6 115858937.14906       370.780 6        40.884
G08         4.000    24659260.348 6 129585297.04606     -1951.985 6        37.599                                    24659265.882 5 100975577.03705     -1521.015 5        30.121    24659266.709 6 100975573.03406     -1521.131 6        36.794
S21         5.000    38609861.097 7 202895818.11707      -506.810 7        42.085
E05         6.000    25559341.585 6 134315206.49306      2060.573 6        39.685                                                                    25559344.977 7 100300290.95907      1538.710 7        43.204    25559344.253 7 102916819.77507      1578.920 7        44.266
G20         7.000    23438170.064 6 123168319.20606     -3948.908 6        40.973                                    23438171.337 4  95975268.54904     -3077.062 4        26.132
R02         8.000    19295531.206 8 102964621.54108      -427.684 8        51.768                                                                    19295532.511 7  80083586.75607      -332.662 7        46.522
R20         9.000    24103201.125 5 128890673.78705       977.731 5        30.226                                                                    24103208.794 6 100248322.77706       760.593 6        39.520
G24        10.000    25522526.826 5 134121777.27005      3073.119 5        34.510                                    25522529.754 4 104510487.71304      2394.634 4        24.105    25522531.456 5 104510492.70405      2394.952 5        31.781
G30        11.000    21567054.180 7 113335600.85707     -2419.301 7        47.084                                    21567055.135 7  88313436.00107     -1885.168 7        47.463    21567055.552 7  88313444.00307     -1885.182 7        43.678
S27        12.000    39299262.846 5 206518991.35205      -538.049 5        34.738
G13        13.000    20216728.079 8 106239593.65808       550.233 8        48.899                                    20216725.208 6  82784069.72906       428.754 6        40.102
S36        14.000    38378958.193 7 201683252.98107      -507.387 7        44.126
I09        15.000    39995639.321 6 156951291.73506     -1038.077 6        40.072
E09        16.000    23790155.108 7 125018097.12207       287.225 7        47.860                                                                    23790156.673 8  93357659.46708       214.411 8        50.903    23790156.115 8  95793074.02708       220.025 8        51.664
S45        17.000    63560352.765 6 334012281.79306      -553.870 6        36.578
E36        18.000    28645222.619 6 150531567.80006     -3238.366 6        36.185                                                                    28645228.943 6 112409931.11806     -2418.552 6        37.626    28645227.789 6 115342365.38106     -2481.506 6        38.751
R19        19.000    24328719.166 5 130142205.60205     -2641.489 5        32.569                                                                    24328720.468 6 101221708.49506     -2054.534 6        38.192
E21        20.000    28552928.121 5 150046524.62905     -3362.932 5        34.438                                                                    28552936.475 6 112047708.85006     -2511.240 6        40.145    28552935.115 6 114970693.05506     -2576.865 6        40.129
R03        21.000    21700212.039 8 116162895.04908      3082.085 8        48.894                                                                    21700212.341 7  90348908.51907      2397.182 7        45.248
I06        22.000    38218250.849 7 149976755.87107      -447.963 7        42.489
S28        23.000    41048125.733 5 215709200.33905      -514.768 5        34.933
S23        25.000    38311733.241 7 201329451.09507      -506.548 7        44.056
R01        26.000    21354106.109 7 114149862.41107     -4038.815 7        45.884                                                                    21354110.878 6  88783198.42306     -3141.390 6        38.856
C07        27.000                                                                                                                                    39234273.478 6 204303124.32306       155.496 6        40.155    39234271.463 7 157980121.74307       120.039 7        44.324    39234269.143 6 166013000.40506       126.173 6        41.235
C40        29.000                                                                                                                                    39249442.320 7 204382135.01307       242.751 7        42.817                                                                    39249444.046 7 166077227.91607       197.442 7        42.552
G14        31.000    20746470.041 8 109023437.78608       160.092 8        48.175                                    20746468.444 6  84953327.85206       124.748 6        40.000    20746468.666 8  84953313.85208       124.756 8        48.247
G23        32.000    25471320.471 6 133852673.42706      2813.063 6        37.905                                    25471318.999 3 104300767.02903      2192.015 3        20.238    25471319.123 6 104300762.03206      2192.015 6        38.324
I02        33.000    37855228.291 7 148552038.45007       177.107 7        42.626
E04        34.000    24489333.054 7 128692297.19807     -2156.196 7        46.532                                                                    24489334.611 8  96101386.59508     -1610.172 8        49.873    24489333.991 8  98608376.58308     -1652.178 8        50.540
R13        35.000    21229059.582 7 113362009.14007      2777.833 7        44.476
R12        36.000    19264909.672 8 102909679.14508      -447.594 8        51.882                                                                    19264911.582 8  80040863.36908      -348.147 8        48.138
I01        37.000   392870232.977 6 238566119.29206     -3175.294 6        39.526
C10        38.000                                                                                                                                    39316001.069 6 204728722.38206       490.556 6        40.467    39316002.000 7 158309233.22107       379.263 7        44.302    39315999.172 6 166358843.92706       398.667 6        40.508
C19        39.000                                                                                                                                    24206642.687 7 126050254.39607     -3473.780 7        47.399                                                                    24206642.136 7 102426115.95207     -2822.746 7        47.227
E34        40.000    27920581.885 6 146723608.81806     -1754.157 6        38.282                                                                    27920585.335 6 109566318.67706     -1310.131 6        40.472    27920584.751 6 112424571.60506     -1344.166 6        40.923
G05        41.000    21827858.329 7 114706125.78207     -2558.223 7        47.598                                    21827856.977 7  89381364.77807     -1993.416 7        46.099    21827857.292 7  89381373.78407     -1993.469 7        43.251
S44        42.000    41057230.207 6 215757245.76206      -515.860 6        37.146
C36        43.000                                                                                                                                    21626103.934 8 112612778.07408      -211.501 8        51.223                                                                    21626109.998 8  91507122.23508      -171.841 8        49.969
C05        44.000                                                                                                                                    39514325.428 6 205761391.69906      -563.998 6        38.393    39514326.816 7 159107756.63207      -436.178 7        42.482    39514327.916 6 167198066.45506      -458.306 6        39.922
G18        46.000    25396129.731 6 133457528.27906     -1781.544 6        37.267                                    25396128.394 3 103992856.59603     -1388.222 3        18.567    25396128.070 6 103992846.57206     -1388.295 6        37.301
R11        47.000    22014417.701 7 117638293.56407     -4213.719 7        46.202                                                                    22014420.579 7  91496437.60207     -3277.337 7        44.593
C45        50.000                                                                                                                                    24107766.095 7 125535466.85507      2221.755 7        46.404                                                                    24107761.395 7 102007833.54407      1805.422 7        46.655
S48        51.000    77326201.471 6 406351604.94106      -494.581 6        38.327
E06        52.000    23446918.566 8 123214377.92908      -963.321 8        48.113                                                                    23446920.539 8  92010737.81908      -719.417 8        50.762    23446920.186 8  94411017.02408      -738.137 8        51.342
C09        53.000                                                                                                                                    40971757.414 6 213350563.14806     -1144.020 6        36.442    40971762.636 6 164976141.81106      -884.791 6        40.424    40971758.179 6 173364758.08706      -929.852 6        36.979
C60        54.000                                                                                                                                    41057236.662 6 213795834.11106      -511.161 6        40.415                                                                    41057228.910 6 173726561.43506      -415.295 6        38.396
E31        55.000    24310611.346 7 127753125.07007      1323.380 7        47.423                                                                    24310614.811 8  95400092.10908       988.202 8        49.442    24310614.069 8  97888786.38108      1013.979 8        50.280
G07        56.000    24238194.463 6 127372480.35006     -3249.690 6        40.791                                    24238196.042 5  99251239.02705     -2532.216 5        33.251    24238197.133 6  99251248.01906     -2532.318 6        37.939
C02        57.000                                                                                                                                    41094668.771 5 213990593.42005      -557.919 5        33.407    41094673.674 6 165471048.49406      -431.093 6        37.716    41094674.242 5 173884851.92205      -453.259 5        33.533
I03        58.000    96067675.934 6 301204716.48606       847.533 6        40.999
C21        59.000                                                                                                                                    24619779.631 7 128201605.96707      2140.544 7        45.673                                                                    24619775.429 7 104174273.47307      1739.360 7        46.002
C22        60.000                                                                                                                                    21848580.302 8 113771251.96308      -698.534 8        52.223                                                                    21848575.358 8  92448429.50208      -567.629 8        49.757
