     3.04           OBSERVATION DATA    M                   RINEX VERSION / TYPE
ssrcrin-15.6.1x                         20250102 161500 UTC PGM / RUN BY / DATE 
(00000000023479385599111004) Septentrio proprietary         COMMENT             
rref                                                        MARKER NAME         
01                                                          MARKER NUMBER       
geodetic                                                    MARKER TYPE         
NFB                 CLIMERS@TUW                             OBSERVER / AGENCY   
3297213             SEPT ASTERX SB3 PROB4.14.4              REC # / TYPE / VERS 
Unknown             Unknown                                 ANT # / TYPE        
  4127832.0878  1207193.0688  4695247.3107                  APPROX POSITION XYZ 
        0.0000        0.0000        0.0000                  ANTENNA: DELTA H/E/N
G   23 X1  C1C L1C D1C S1C C1W S1W C2W L2W D2W S2W C2L L2L  SYS / # / OBS TYPES 
       D2L S2L C5Q L5Q D5Q S5Q C1L L1L D1L S1L              SYS / # / OBS TYPES 
E   21 X1  C1C L1C D1C S1C C6C L6C D6C S6C C5Q L5Q D5Q S5Q  SYS / # / OBS TYPES 
       C7Q L7Q D7Q S7Q C8Q L8Q D8Q S8Q                      SYS / # / OBS TYPES 
S    9 X1  C1C L1C D1C S1C C5I L5I D5I S5I                  SYS / # / OBS TYPES 
R   17 X1  C1C L1C D1C S1C C2P L2P D2P S2P C2C L2C D2C S2C  SYS / # / OBS TYPES 
       C3Q L3Q D3Q S3Q                                      SYS / # / OBS TYPES 
C   25 X1  C1P L1P D1P S1P C5P L5P D5P S5P C2I L2I D2I S2I  SYS / # / OBS TYPES 
       C7I L7I D7I S7I C6I L6I D6I S6I C7D L7D D7D S7D      SYS / # / OBS TYPES 
J   17 X1  C1C L1C D1C S1C C2L L2L D2L S2L C5Q L5Q D5Q S5Q  SYS / # / OBS TYPES 
       C1L L1L D1L S1L                                      SYS / # / OBS TYPES 
I    5 X1  C5A L5A D5A S5A                                  SYS / # / OBS TYPES 
SEPTENTRIO RECEIVERS OUTPUT ALIGNED CARRIER PHASES.         COMMENT             
NO FURTHER PHASE SHIFT APPLIED IN THE RINEX ENCODER.        COMMENT             
G L1C                                                       SYS / PHASE SHIFT   
G L2W                                                       SYS / PHASE SHIFT   
G L2L  0.00000                                              SYS / PHASE SHIFT   
G L5Q  0.00000                                              SYS / PHASE SHIFT   
G L1L  0.00000                                              SYS / PHASE SHIFT   
E L1C  0.00000                                              SYS / PHASE SHIFT   
E L6C  0.00000                                              SYS / PHASE SHIFT   
E L5Q  0.00000                                              SYS / PHASE SHIFT   
E L7Q  0.00000                                              SYS / PHASE SHIFT   
E L8Q  0.00000                                              SYS / PHASE SHIFT   
S L1C                                                       SYS / PHASE SHIFT   
S L5I                                                       SYS / PHASE SHIFT   
R L1C                                                       SYS / PHASE SHIFT   
R L2P  0.00000                                              SYS / PHASE SHIFT   
R L2C                                                       SYS / PHASE SHIFT   
R L3Q  0.00000                                              SYS / PHASE SHIFT   
C L1P  0.00000                                              SYS / PHASE SHIFT   
C L5P  0.00000                                              SYS / PHASE SHIFT   
C L2I                                                       SYS / PHASE SHIFT   
C L7I                                                       SYS / PHASE SHIFT   
C L6I                                                       SYS / PHASE SHIFT   
C L7D                                                       SYS / PHASE SHIFT   
J L1C                                                       SYS / PHASE SHIFT   
J L2L  0.00000                                              SYS / PHASE SHIFT   
J L5Q  0.00000                                              SYS / PHASE SHIFT   
J L1L  0.00000                                              SYS / PHASE SHIFT   
I L5A                                                       SYS / PHASE SHIFT   
  2025     1     2    16    15    0.0000000     GPS         TIME OF FIRST OBS   
 C1C    0.000 C2C    0.000 C2P    0.000                     GLONASS COD/PHS/BIS 
DBHZ                                                        SIGNAL STRENGTH UNIT
    18                                                      LEAP SECONDS        
 24 R01  1 R02 -4 R03  5 R04  6 R05  1 R06 -4 R07  5 R08  6 GLONASS SLOT / FRQ #
    R09 -2 R10 -7 R11  0 R12 -1 R13 -2 R14 -7 R15  0 R16 -1 GLONASS SLOT / FRQ #
    R17  4 R18 -3 R19  3 R20  2 R21  4 R22 -3 R23  3 R24  2 GLONASS SLOT / FRQ #
                                                            END OF HEADER       
> 2025 01 02 16 15  0.0000000  0 57
E24         1.000    28363280.338 6 149050162.13806     -3162.210 6        36.461                                                                    28363283.340 6 111303760.36806     -2361.362 6        41.223    28363282.568 6 114207325.64206     -2422.933 6        41.771
E11         2.000    23979558.926 7 126013614.90507     -1085.575 7        43.831                                                                    23979556.352 7  94101196.61307      -810.749 7        46.164    23979555.976 7  96555997.18007      -831.806 7        46.426
G16         3.000    24598779.494 6 129267509.05606      3113.387 6        37.009                                    24598783.486 2 100727975.56202      2426.000 2        15.571
G05         4.000    23317920.098 7 122536566.42107      1335.929 7        43.640                                    23317918.236 6  95483055.99706      1040.983 6        38.697    23317919.225 6  95483055.00706      1041.002 6        39.583
S21         5.000    38368242.794 7 201626106.24707      -481.039 7        42.963
G26         6.000    22026811.712 7 115751868.97907      2237.826 7        44.388                                    22026814.152 7  90196381.63907      1743.759 7        43.039    22026814.458 7  90196368.65007      1743.737 7        42.633
G25         7.000    21322355.603 7 112049909.68307     -3171.067 7        46.179                                    21322355.852 7  87311703.34607     -2470.958 7        45.819    21322356.474 7  87311704.34107     -2470.820 7        42.976
G04         8.000    25055395.282 6 131666961.72406      -491.837 6        37.784                                    25055395.895 3 102597612.92403      -383.217 3        19.851    25055396.041 6 102597621.92706      -383.303 6        38.033
E36         9.000    24410709.407 7 128279301.94807      1691.181 7        46.898                                                                    24410712.236 8  95793118.93808      1262.927 8        49.312    24410711.654 8  98292058.27908      1295.890 8        49.625
R08        10.000    23986967.401 6 128449123.12006     -2005.554 6        39.285                                                                    23986968.996 6  99904868.39306     -1559.834 6        39.979
G20        11.000    23574389.093 6 123884355.00006     -1058.648 6        40.894                                    23574385.410 4  96533322.21604      -824.925 4        24.226
S27        12.000    39162791.626 6 205801907.03806      -471.203 6        36.730
E08        13.000    28309516.452 6 148767588.73506     -2999.096 6        36.299                                                                    28309526.483 6 111092761.87706     -2239.549 6        38.712    28309524.260 6 113990822.97506     -2297.937 6        38.195
S36        14.000    38139426.250 7 200424496.83707      -480.750 7        44.460
C13        15.000                                                                                                                                    38397324.833 7 199944976.34107       826.817 7        43.416    38397328.193 7 154610165.59207       639.463 7        43.934    38397325.934 7 162471688.25107       671.750 7        42.262
G18        16.000    22074784.969 7 116003968.29207      2463.144 7        47.264                                    22074783.455 6  90392789.75506      1919.330 6        36.284    22074784.154 7  90392797.76907      1919.271 7        45.094
G12        17.000    24919951.620 6 130955403.14606     -4048.114 6        39.486                                    24919950.246 5 102043253.31705     -3154.382 5        30.166    24919951.020 5 102043250.31205     -3154.395 5        34.410
R01        18.000    23835542.946 6 127414629.03106      1035.327 6        38.598                                                                    23835542.792 5  99100141.26805       805.390 5        33.216
E02        19.000    23537075.852 8 123688331.62408       675.859 8        48.105                                                                    23537076.815 8  92364765.56208       504.750 8        51.132    23537076.169 8  94774267.12508       517.885 8        51.258
E10        21.000    25657479.089 7 134831172.37407     -2500.674 7        43.316                                                                    25657480.425 7 100685746.71607     -1867.377 7        46.825    25657479.871 7 103312316.73207     -1916.090 7        47.172
I06        22.000    38634226.155 6 151609164.64506      -394.579 6        41.128
S28        23.000    40846869.874 5 214651725.63705      -480.512 5        34.333
S23        25.000    38089736.145 7 200162843.35307      -484.949 7        44.793
S45        26.000    63347174.723 6 332893311.01906      -543.078 6        36.563
R09        27.000    21288531.242 8 113679730.04908      3024.784 8        48.869                                                                    21288532.373 7  88417668.77107      2352.630 7        45.217
R18        28.000    18986883.467 8 101353551.09808      -570.502 8        51.366                                                                    18986884.238 7  78830687.71607      -443.714 7        47.506
C38        29.000                                                                                                                                    38653792.170 7 201280538.88207        66.247 7        43.505                                                                    38653791.345 7 163556965.61207        53.715 7        43.691
C44        30.000                                                                                                                                    21292047.312 8 110873486.70308      -961.623 8        51.476                                                                    21292046.851 8  90093871.99708      -781.450 8        50.297
E12        31.000    27813020.386 5 146158581.73405     -3258.884 5        34.314                                                                    27813019.076 6 109144504.19506     -2433.531 6        38.474    27813019.143 6 111991735.51106     -2497.026 6        38.820
G11        32.000    24973963.799 6 131239267.77006     -3916.207 6        38.210                                    24973960.497 3 102264465.53203     -3051.599 3        20.524    24973960.264 6 102264456.54906     -3051.503 6        37.474
I02        33.000    37928989.073 6 148841526.20306      -816.264 6        41.554
R15        34.000    21638219.334 8 115628210.48108     -4217.833 8        48.849                                                                    21638220.648 7  89933119.55307     -3280.598 7        44.460
E34        35.000    28192039.373 6 148150212.72706      2796.065 6        36.711                                                                    28192051.836 6 110631715.20506      2088.035 6        39.907    28192050.438 6 113517754.33406      2142.377 6        40.381
G29        36.000    20386316.480 8 107131101.38308     -1225.370 8        49.617                                    20386313.444 8  83478887.48108      -954.835 8        51.374    20386313.833 7  83478897.48207      -954.796 7        45.959
G31        37.000    21572894.386 7 113366531.09407      -413.163 7        47.625                                    21572892.242 7  88337649.61907      -321.946 7        46.128    21572892.518 7  88337655.61607      -321.883 7        43.695
C10        38.000                                                                                                                                    40872493.807 5 212833819.35105     -1152.166 5        35.948    40872491.907 6 164576617.01506      -890.878 6        38.829    40872490.011 5 172944906.09005      -936.230 5        35.662
E25        39.000    23905412.027 7 125623991.68307     -1892.766 7        47.603                                                                    23905413.664 8  93810250.89308     -1413.390 8        50.165    23905413.051 8  96257459.41008     -1450.297 8        50.668
C12        40.000                                                                                                                                    21779249.408 7 113410454.83907       554.806 7        47.313    21779247.927 8  87696248.89008       429.017 8        52.441    21779246.783 8  92155353.17008       450.692 8        50.101
E07        41.000    27907939.490 6 146657187.04006     -1372.906 6        37.811                                                                    27907948.584 6 109516741.79406     -1025.128 6        40.815    27907947.085 6 112373697.05306     -1051.891 6        41.142
S44        42.000    40519435.794 6 212931241.29906      -406.348 6        36.442
G28        43.000    21636089.295 7 113698598.57007     -2140.280 7        47.206                                    21636087.806 6  88596398.76106     -1667.749 6        36.847    21636087.866 7  88596398.75307     -1667.746 7        45.403
C05        44.000                                                                                                                                    39331863.360 6 204811323.07206      -424.846 6        38.270    39331861.005 7 158373119.16507      -328.505 7        43.145    39331861.787 6 166426070.70806      -345.422 6        39.592
C11        45.000                                                                                                                                    25127894.819 6 130847569.69406      2589.545 6        41.819    25127897.632 7 101179673.15007      2002.310 7        44.534    25127894.432 7 106324385.46807      2104.024 7        42.787
R16        46.000    19031381.548 8 101662414.89308      -774.006 8        52.049                                                                    19031382.626 7  79070878.76707      -602.025 7        47.195
R17        47.000    21007066.812 8 112413290.99908     -3838.962 8        49.995                                                                    21007067.911 7  87432690.59107     -2985.933 7        45.995
C35        48.000                                                                                                                                    23966016.011 7 124797496.94707     -3177.943 7        45.242                                                                    23966016.567 7 101408252.56507     -2582.422 7        45.765
C24        49.000                                                                                                                                    21753752.614 8 113277563.74908     -1948.059 8        50.942                                                                    21753750.796 8  92047320.03708     -1583.029 8        50.200
R19        50.000    20689981.973 6 110677673.68006      2605.545 6        39.658                                                                    20689983.154 7  86082738.36207      2026.395 7        43.573
S48        51.000    77087271.030 6 405097091.62706      -513.993 6        38.315
C08        52.000                                                                                                                                    38222928.867 6 199036895.80706       688.958 6        41.738    38222923.745 7 153907976.64407       532.761 7        45.463    38222922.499 7 161733794.62207       559.685 7        42.531
C34        53.000                                                                                                                                    22992678.562 7 119729147.19507      1941.266 7        47.542                                                                    22992680.605 7  97289846.58107      1577.302 7        47.469
C60        54.000                                                                                                                                    40519439.231 6 210995521.87606      -402.792 6        39.111                                                                    40519425.474 6 171451107.08706      -327.280 6        40.081
C25        55.000                                                                                                                                    22721770.519 8 118318435.76908      1299.088 8        48.055                                                                    22721770.539 8  96143507.40808      1055.514 8        48.327
C26        56.000                                                                                                                                    25264274.282 7 131557770.99607     -3830.446 7        42.518                                                                    25264276.651 7 106901503.21807     -3112.649 7        43.037
C02        57.000                                                                                                                                    40714260.752 5 212009851.44905      -387.469 5        34.029    40714256.000 6 163939450.31506      -299.401 6        39.144    40714258.911 5 172275366.65205      -314.636 5        34.933
I03        58.000    86059316.372 6 261929947.04406      1085.431 6        40.572
E30        59.000    27762093.141 6 145890884.99106      2176.533 6        37.081                                                                    27762102.094 6 108944576.41006      1625.316 6        41.180    27762100.774 6 111786596.23906      1667.623 6        41.316
> 2025 01 02 16 15  5.0000000  0 57
E24         1.000    28366289.361 6 149065973.40206     -3162.380 6        36.355                                                                    28366292.041 6 111315567.48406     -2361.604 6        40.961    28366291.374 6 114219440.76306     -2423.098 6        41.783
E11         2.000    23980592.714 7 126019048.35507     -1087.800 7        43.672                                                                    23980590.212 7  94105254.05907      -812.289 7        46.027    23980589.905 7  96560160.47607      -833.516 7        46.403
G16         3.000    24595816.277 6 129251941.78206      3113.542 6        37.573                                    24595820.763 2 100715845.32102      2426.093 2        16.302
G05         4.000    23316649.732 7 122529892.74807      1333.492 7        43.172                                    23316648.354 6  95477855.73406      1039.082 6        38.586    23316649.142 6  95477854.73406      1039.093 6        40.222
S21         5.000    38368698.998 7 201628510.30907      -480.800 7        42.643
G26         6.000    22024683.340 7 115740682.56607      2236.609 7        44.777                                    22024685.436 7  90187664.98007      1742.810 7        43.005    22024685.649 7  90187651.98807      1742.802 7        42.785
G25         7.000    21325373.602 7 112065768.51407     -3172.509 7        46.637                                    21325373.701 7  87324060.87007     -2472.084 7        45.642    21325374.552 7  87324061.86207     -2472.060 7        43.268
G04         8.000    25055864.518 6 131669427.82206      -494.723 6        38.156                                    25055865.022 3 102599534.54403      -385.505 3        19.910    25055864.822 6 102599543.54106      -385.485 6        38.039
E36         9.000    24409100.938 7 128270849.43507      1689.608 7        46.672                                                                    24409103.792 8  95786807.01008      1261.807 8        49.254    24409103.191 8  98285581.69608      1294.662 8        49.677
R08        10.000    23988843.147 6 128459158.74606     -2009.043 6        39.625                                                                    23988842.933 6  99912673.92406     -1562.619 6        40.489
G20        11.000    23575397.693 6 123889655.78706     -1061.638 6        41.514                                    23575394.226 3  96537452.69803      -827.249 3        23.829
S27        12.000    39163240.138 6 205804262.13306      -470.819 6        36.658
E08        13.000    28312370.057 5 148782585.11005     -2999.381 5        35.314                                                                    28312380.261 6 111103960.43806     -2239.958 6        38.724    28312378.301 6 114002313.68506     -2298.405 6        38.378
S36        14.000    38139884.565 7 200426899.75007      -480.312 7        44.352
C13        15.000                                                                                                                                    38396531.092 7 199940843.24907       826.221 7        43.591    38396534.379 7 154606969.63207       638.888 7        43.852    38396532.262 7 162468329.78107       671.243 7        42.318
G18        16.000    22072441.957 7 115991656.63407      2461.382 7        47.644                                    22072440.655 6  90383196.26806      1917.954 6        36.170    22072441.230 7  90383204.27707      1917.996 7        45.285
G12        17.000    24923803.690 6 130975644.62806     -4048.417 6        39.336                                    24923801.955 5 102059025.89605     -3154.609 5        30.091    24923802.592 5 102059022.91005     -3154.705 5        34.695
R01        18.000    23834575.259 6 127409460.44806      1031.746 6        38.171                                                                    23834576.944 5  99096121.25705       802.411 5        33.647
E02        19.000    23536433.191 7 123684954.60907       674.840 7        47.824                                                                    23536434.211 8  92362243.77808       503.923 8        51.104    23536433.510 8  94771679.55308       517.099 8        51.227
E10        21.000    25659859.024 7 134843679.21107     -2502.202 7        42.789                                                                    25659860.382 7 100695086.24607     -1868.532 7        46.759    25659859.819 7 103321899.89007     -1917.208 7        47.212
I06        22.000    38634728.871 6 151611137.00606      -394.394 6        41.080
S28        23.000    40847323.211 5 214654126.34905      -480.237 5        34.214
S23        25.000    38090198.757 7 200165267.29607      -484.668 7        44.846
S45        26.000    63347639.964 6 332894325.17316      -542.898 6        36.548
R09        27.000    21285699.428 8 113664609.59808      3023.306 8        48.549                                                                    21285700.721 7  88405908.45007      2351.479 7        45.971
R18        28.000    18987419.092 8 101356412.22108      -574.073 8        51.146                                                                    18987420.248 7  78832913.05407      -446.543 7        47.498
C38        29.000                                                                                                                                    38653729.034 7 201280209.52307        65.460 7        43.456                                                                    38653728.109 7 163556697.99007        52.924 7        43.799
C44        30.000                                                                                                                                    21292971.603 8 110878299.13308      -963.480 8        51.595                                                                    21292971.026 8  90097782.49808      -783.066 8        50.269
E12        31.000    27816121.788 5 146174878.26205     -3259.731 5        34.300                                                                    27816120.060 6 109156673.71606     -2434.196 6        38.574    27816120.092 6 112004222.48306     -2497.778 6        38.727
G11        32.000    24977689.588 6 131258850.03406     -3916.814 6        38.414                                    24977686.794 3 102279724.45303     -3052.053 3        20.095    24977686.795 6 102279715.48006     -3052.147 6        37.440
I02        33.000    37930028.773 6 148845606.84906      -816.093 6        41.521
R15        34.000    21642165.241 7 115649303.77707     -4219.574 7        47.993                                                                    21642167.979 7  89949525.44507     -3281.885 7        43.911
E34        35.000    28189378.842 6 148136231.60806      2796.196 6        36.507                                                                    28189391.248 6 110621274.78106      2088.246 6        39.928    28189389.888 6 113507041.54306      2142.650 6        40.517
G29        36.000    20387483.019 8 107137232.54508     -1227.197 8        49.441                                    20387480.162 8  83483665.01608      -956.257 8        51.249    20387480.615 7  83483675.01507      -956.202 7        46.274
G31        37.000    21573289.113 7 113368604.65207      -416.331 7        47.945                                    21573286.809 7  88339265.38507      -324.417 7        45.916    21573287.193 7  88339271.39507      -324.428 7        43.740
C10        38.000                                                                                                                                    40873599.004 5 212839579.25505     -1152.049 5        35.767    40873598.207 6 164581070.91106      -890.734 6        39.114    40873596.464 5 172949586.47905      -936.290 5        35.638
E25        39.000    23907213.386 7 125633458.12907     -1893.907 7        47.525                                                                    23907215.085 8  93817319.99508     -1414.285 8        50.119    23907214.460 8  96264712.92208     -1451.147 8        50.686
C12        40.000                                                                                                                                    21778717.439 7 113407685.48007       552.867 7        47.543    21778715.887 8  87694107.45608       427.454 8        52.525    21778714.918 8  92153102.84408       449.093 8        50.123
E07        41.000    27909246.130 6 146664056.34506     -1374.926 6        37.580                                                                    27909255.813 6 109521871.47306     -1026.831 6        40.560    27909254.211 6 112378960.54406     -1053.583 6        41.092
S44        42.000    40519820.389 6 212933273.09006      -406.131 6        36.624
G28        43.000    21638127.324 7 113709306.72907     -2143.095 7        47.172                                    21638125.488 6  88604742.78006     -1669.944 6        36.635    21638125.532 7  88604742.77907     -1669.940 7        45.284
C05        44.000                                                                                                                                    39332270.827 6 204813446.58906      -424.529 6        38.336    39332269.027 7 158374761.21907      -328.336 7        43.069    39332269.590 6 166427796.23206      -345.158 6        39.817
C11        45.000                                                                                                                                    25125408.606 7 130834623.97307      2588.723 7        42.466    25125411.327 7 101169662.73307      2001.810 7        44.403    25125408.226 7 106313866.03807      2103.489 7        42.819
R16        46.000    19032107.328 8 101666293.75708      -777.669 8        51.795                                                                    19032108.887 7  79073895.67207      -604.868 7        47.304
R17        47.000    21010654.735 8 112432489.69508     -3840.529 8        49.651                                                                    21010655.663 7  87447622.91407     -2987.122 7        46.393
C35        48.000                                                                                                                                    23969068.074 7 124813387.91507     -3178.561 7        45.868                                                                    23969068.178 7 101421165.27307     -2582.931 7        45.849
C24        49.000                                                                                                                                    21755624.345 8 113287308.96808     -1950.181 8        51.259                                                                    21755622.291 8  92055238.83608     -1584.835 8        50.169
R19        50.000    20687547.245 6 110664652.56506      2603.023 6        39.075                                                                    20687548.873 7  86072610.87307      2024.564 7        43.812
S48        51.000    77087734.947 6 405099661.25806      -513.673 6        38.414
C08        52.000                                                                                                                                    38222267.433 6 199033452.84306       688.090 6        41.955    38222262.566 7 153905314.31407       532.070 7        45.431    38222261.176 7 161730996.92207       558.996 7        42.662
C34        53.000                                                                                                                                    22990815.379 7 119719443.80307      1940.006 7        47.802                                                                    22990817.209 7  97281961.79607      1576.216 7        47.405
C60        54.000                                                                                                                                    40519826.165 6 210997535.20906      -402.782 6        39.258                                                                    40519812.126 6 171452743.09406      -327.395 6        40.126
C25        55.000                                                                                                                                    22720524.079 8 118311944.51208      1297.192 8        48.171                                                                    22720523.930 8  96138232.73608      1053.954 8        48.302
C26        56.000                                                                                                                                    25267952.280 7 131576924.12407     -3830.842 7        43.046                                                                    25267954.877 7 106917066.69707     -3113.014 7        43.154
C02        57.000                                                                                                                                    40714633.211 5 212011787.31705      -387.109 5        34.376    40714627.941 6 163940947.26206      -299.439 6        39.183    40714630.512 5 172276939.72205      -314.814 5        34.786
I03        58.000    86057932.992 6 261924519.27906      1085.549 6        40.541
E30        59.000    27760022.403 6 145880002.14806      2176.736 6        37.342                                                                    27760031.021 6 108936449.66306      1625.399 6        41.015    27760029.719 6 111778257.48306      1667.915 6        41.371
> 2025 01 02 16 15 10.0000000  0 57
E24         1.000    28369298.633 6 149081787.18106     -3163.331 6        36.726                                                                    28369301.302 6 111327376.46406     -2362.322 6        41.139    28369300.439 6 114231557.80306     -2423.886 6        41.802
E11         2.000    23981629.065 7 126024493.93707     -1090.657 7        43.712                                                                    23981626.515 7  94109320.57607      -814.480 7        45.985    23981626.177 7  96564333.07507      -835.741 7        46.325
G16         3.000    24592853.891 6 129236376.08006      3112.795 6        37.361                                    24592858.590 2 100703716.27902      2425.556 2        16.226
G05         4.000    23315382.687 7 122523232.98107      1330.352 7        43.208                                    23315381.154 6  95472666.31106      1036.636 6        38.408    23315381.662 6  95472665.31106      1036.722 6        39.823
S21         5.000    38369155.873 7 201630915.08907      -481.379 7        42.715
G26         6.000    22022556.077 7 115729504.23907      2234.503 7        44.594                                    22022558.254 7  90178954.61107      1741.167 7        42.878    22022557.996 7  90178941.63107      1741.201 7        42.445
G25         7.000    21328393.522 7 112081636.95907     -3174.909 7        46.820                                    21328393.348 7  87336425.89407     -2473.954 7        45.544    21328393.866 7  87336426.90207     -2473.996 7        42.923
G04         8.000    25056336.464 6 131671909.42806      -498.172 6        37.539                                    25056337.046 3 102601468.25103      -388.181 3        20.143    25056337.068 6 102601477.25106      -388.176 6        37.388
E36         9.000    24407494.218 7 128262406.50607      1687.426 7        46.808                                                                    24407497.082 8  95780502.24208      1260.047 8        49.198    24407496.541 8  98279112.45308      1292.928 8        49.742
R08        10.000    23990721.092 6 128469213.27606     -2013.014 6        38.523                                                                    23990720.939 6  99920494.17106     -1565.685 6        40.563
G20        11.000    23576408.819 6 123894972.54806     -1065.149 6        41.406                                    23576405.985 3  96541595.62803      -829.981 3        23.962
S27        12.000    39163688.499 6 205806617.58006      -471.414 6        36.839
E08        13.000    28315224.260 5 148797585.35505     -3000.689 5        35.452                                                                    28315234.916 6 111115161.90906     -2240.878 6        38.661    28315233.076 6 114013807.38306     -2299.362 6        38.438
S36        14.000    38140341.279 7 200429302.54007      -480.898 7        44.319
C13        15.000                                                                                                                                    38395737.912 7 199936715.36107       824.784 7        43.245    38395741.652 7 154603777.69507       637.741 7        43.873    38395739.610 6 162464975.53606       670.355 6        41.952
G18        16.000    22070100.855 7 115979355.28407      2458.972 7        47.105                                    22070099.792 6  90373610.81506      1916.080 6        36.227    22070100.187 7  90373618.82907      1915.990 7        44.859
G12        17.000    24927656.019 6 130995888.97006     -4049.375 6        39.435                                    24927654.387 5 102074800.70705     -3155.349 5        30.038    24927656.118 5 102074797.72305     -3155.412 5        35.329
R01        18.000    23833611.413 6 127404310.89306      1027.974 6        37.826                                                                    23833614.224 5  99092116.06905       799.389 5        33.575
E02        19.000    23535791.817 7 123681584.27607       673.149 7        47.825                                                                    23535792.843 8  92359726.98208       502.674 8        51.019    23535792.113 8  94769097.09808       515.785 8        51.220
E10        21.000    25662240.940 7 134856194.87507     -2504.282 7        42.948                                                                    25662242.049 7 100704432.35507     -1870.098 7        46.718    25662241.464 7 103331489.81407     -1918.843 7        47.195
I06        22.000    38635231.902 6 151613109.51706      -394.656 6        41.168
S28        23.000    40847783.243 5 214656527.42005      -480.785 5        34.224
S23        25.000    38090660.778 7 200167691.71907      -485.022 7        44.870
S45        26.000    63348100.398 6 332897040.00606      -543.249 6        36.533
R09        27.000    21282869.380 8 113649498.55708      3020.978 8        48.783                                                                    21282871.040 7  88394155.41507      2349.677 7        46.018
R18        28.000    18987958.751 8 101359293.03508      -578.418 8        51.396                                                                    18987960.116 7  78835153.68307      -449.869 7        47.864
C38        29.000                                                                                                                                    38653667.137 7 201279885.98707        63.923 7        43.120                                                                    38653666.026 7 163556435.07607        52.082 7        43.397
C44        30.000                                                                                                                                    21293897.974 8 110883122.51608      -966.056 8        51.414                                                                    21293897.275 8  90101701.88208      -784.790 8        50.036
E12        31.000    27819223.461 5 146191179.58705     -3260.844 5        34.629                                                                    27819222.364 6 109168846.79706     -2434.972 6        38.498    27819222.083 6 112016713.12106     -2498.544 6        38.688
G11        32.000    24981416.651 6 131278437.61506     -3918.184 6        38.384                                    24981414.272 3 102294987.51603     -3053.135 3        19.910    24981414.708 6 102294978.51906     -3053.257 6        37.225
I02        33.000    37931069.430 6 148849688.31606      -816.491 6        41.681
R15        34.000    21646114.978 8 115670407.49108     -4222.037 8        48.362                                                                    21646117.215 7  89965939.43107     -3283.858 7        43.721
E34        35.000    28186718.399 6 148122251.48506      2795.633 6        36.854                                                                    28186730.847 6 110610835.12606      2087.636 6        39.898    28186729.404 6 113496329.54306      2142.076 6        40.477
G29        36.000    20388651.745 8 107143374.44708     -1229.700 8        49.459                                    20388648.914 8  83488450.92308      -958.207 8        51.101    20388649.384 7  83488460.92907      -958.277 7        46.039
G31        37.000    21573687.031 7 113370696.02207      -420.276 7        47.323                                    21573684.761 7  88340895.02907      -327.488 7        45.860    21573685.213 7  88340901.03307      -327.553 7        43.228
C10        38.000                                                                                                                                    40874705.671 5 212845339.75005     -1152.272 5        35.300    40874705.142 6 164585525.31506      -891.033 6        39.553    40874702.654 5 172954267.37205      -936.207 5        35.767
E25        39.000    23909016.099 7 125642931.87707     -1895.769 7        47.627                                                                    23909017.788 8  93824394.54508     -1415.689 8        50.125    23909017.283 8  96271972.02808     -1452.606 8        50.606
C12        40.000                                                                                                                                    21778187.758 7 113404927.39707       550.199 7        47.213    21778186.431 8  87691974.73608       425.451 8        52.575    21778185.261 8  92150861.67308       447.232 8        49.924
E07        41.000    27910555.552 6 146670936.99806     -1377.444 6        37.236                                                                    27910565.190 6 109527009.63206     -1028.743 6        40.584    27910563.402 6 112384232.73506     -1055.457 6        40.892
S44        42.000    40520211.285 6 212935305.47106      -406.840 6        36.333
G28        43.000    21640167.944 7 113720030.35907     -2146.513 7        47.229                                    21640166.118 6  88613098.85306     -1672.608 6        36.571    21640166.356 7  88613098.85907     -1672.677 7        45.053
C05        44.000                                                                                                                                    39332678.916 6 204815570.49706      -425.171 6        38.261    39332676.727 7 158376403.57707      -328.715 7        43.154    39332677.469 6 166429522.09106      -345.212 6        39.498
C11        45.000                                                                                                                                    25122923.343 7 130821682.79307      2587.468 7        42.066    25122925.663 7 101159655.83407      2000.804 7        44.336    25122923.013 7 106303350.27707      2102.765 7        42.461
R16        46.000    19032837.293 8 101670192.79108      -782.114 8        51.689                                                                    19032838.570 7  79076928.25807      -608.321 7        47.438
R17        47.000    21014244.068 8 112451697.87208     -3842.859 8        49.208                                                                    21014244.763 7  87462562.60707     -2988.879 7        45.875
C35        48.000                                                                                                                                    23972120.990 7 124829283.47707     -3179.814 7        45.702                                                                    23972120.627 7 101434081.72307     -2583.672 7        45.460
C24        49.000                                                                                                                                    21757498.116 8 113297066.66608     -1953.062 8        51.037                                                                    21757496.152 8  92063167.75908     -1586.883 8        50.004
R19        50.000    20685115.579 6 110651645.65706      2599.774 6        38.985                                                                    20685116.999 7  86062494.39807      2021.899 7        43.477
S48        51.000    77088201.118 6 405102230.82506      -514.071 6        38.186
C08        52.000                                                                                                                                    38221607.312 6 199030015.76006       686.667 6        41.757    38221602.492 7 153902656.57907       530.833 7        45.311    38221601.158 7 161728204.02307       558.105 7        42.233
C34        53.000                                                                                                                                    22988953.328 7 119709748.26607      1938.090 7        47.712                                                                    22988955.246 7  97274083.38407      1574.972 7        47.195
C60        54.000                                                                                                                                    40520212.661 6 210999549.06606      -403.063 6        39.135                                                                    40520198.823 6 171454379.52006      -327.418 6        39.946
C25        55.000                                                                                                                                    22719279.315 8 118305464.26708      1294.712 8        48.051                                                                    22719279.523 8  96132967.01308      1052.212 8        48.032
C26        56.000                                                                                                                                    25271631.200 7 131596081.04507     -3832.092 7        43.344                                                                    25271633.957 7 106932633.23807     -3113.608 7        43.010
C02        57.000                                                                                                                                    40715004.548 5 212013723.65905      -387.627 5        34.267    40714999.596 6 163942444.57506      -299.811 6        39.282    40715002.381 5 172278513.14105      -314.770 5        34.948
I03        58.000    86056549.805 6 261919091.74506      1085.114 6        40.672
E30        59.000    27757951.892 6 145869120.09906      2176.169 6        37.947                                                                    27757960.412 6 108928323.50806      1625.027 6        40.970    27757958.814 6 111769919.33006      1667.424 6        41.490
> 2025 01 02 16 15 15.0000000  0 57
E24         1.000    28372308.143 6 149097602.58206     -3163.308 6        36.968                                                                    28372310.823 6 111339186.67206     -2362.208 6        40.980    28372309.879 6 114243676.10906     -2423.890 6        41.483
E11         2.000    23982667.433 7 126029950.73407     -1092.551 7        43.928                                                                    23982664.951 7  94113395.46307      -815.896 7        45.922    23982664.480 7  96568514.26407      -837.230 7        46.285
G16         3.000    24589891.349 6 129220811.09706      3113.044 6        36.957                                    24589896.556 2 100691587.80402      2425.727 2        16.415
G05         4.000    23314118.031 7 122516586.28107      1327.959 7        43.251                                    23314116.418 6  95467487.07706      1034.776 6        38.276    23314116.144 6  95467486.06906      1034.803 6        39.273
S21         5.000    38369615.296 7 201633319.35607      -480.791 7        42.690
G26         6.000    22020430.252 7 115718333.12207      2233.405 7        44.709                                    22020432.422 7  90170249.86807      1740.312 7        42.942    22020432.405 7  90170236.87707      1740.364 7        42.106
G25         7.000    21331414.460 7 112097514.15107     -3176.312 7        47.053                                    21331414.649 7  87348797.72907     -2475.047 7        45.661    21331415.126 7  87348798.72207     -2475.003 7        42.569
G04         8.000    25056811.364 6 131674405.54306      -500.854 6        37.062                                    25056812.017 3 102603413.25703      -390.269 3        19.552    25056812.733 6 102603422.23106      -390.131 6        37.671
E36         9.000    24405889.112 7 128253972.31907      1685.899 7        46.816                                                                    24405892.141 8  95774203.99408      1258.969 8        49.211    24405891.577 8  98272649.90108      1291.789 8        49.678
R08        10.000    23992600.430 6 128479285.86406     -2016.464 6        39.234                                                                    23992601.575 6  99928328.50806     -1568.440 6        40.703
G20        11.000    23577423.120 6 123900304.45106     -1067.927 6        40.782                                    23577420.721 4  96545750.36204      -832.149 4        24.135
S27        12.000    39164137.061 6 205808973.02106      -470.970 6        36.794
E08        13.000    28318079.429 6 148812588.63806     -3001.268 6        36.144                                                                    28318089.670 6 111126365.63906     -2241.015 6        38.805    28318088.146 6 114025303.37506     -2299.505 6        38.835
S36        14.000    38140798.350 7 200431705.31807      -480.594 7        44.439
C13        15.000                                                                                                                                    38394945.818 7 199932591.86207       824.243 7        43.183    38394949.761 7 154600589.15107       637.358 7        43.900    38394947.640 7 162461624.88007       669.683 7        42.140
G18        16.000    22067761.794 7 115967063.40707      2457.420 7        46.858                                    22067760.736 6  90364032.74206      1914.871 6        36.302    22067761.109 7  90364040.75607      1914.860 7        44.801
G12        17.000    24931508.946 6 131016135.35906     -4049.549 6        38.577                                    24931507.280 5 102090577.11305     -3155.493 5        30.264    24931508.177 5 102090574.09605     -3155.433 5        35.438
R01        18.000    23832651.536 6 127399179.38006      1024.245 6        38.997                                                                    23832654.113 5  99088124.85605       796.668 5        34.138
E02        19.000    23535151.595 7 123678219.76607       672.346 7        47.840                                                                    23535152.585 8  92357214.53408       502.063 8        51.082    23535151.918 8  94766519.10908       515.129 8        51.156
E10        21.000    25664624.285 7 134868718.49007     -2505.526 7        43.175                                                                    25664625.093 7 100713784.41007     -1871.020 7        46.655    25664624.560 7 103341085.84807     -1919.889 7        47.045
I06        22.000    38635734.134 6 151615081.57506      -394.493 6        41.330
S28        23.000    40848238.141 5 214658928.14005      -480.234 5        34.071
S23        25.000    38091121.794 7 200170115.74007      -484.840 7        44.895
S45        26.000    63348567.710 6 332899754.30706      -542.852 6        36.435
R09        27.000    21280041.220 8 113634395.90408      3019.573 8        48.217                                                                    21280042.732 7  88382408.93007      2348.611 7        46.103
R18        28.000    18988502.125 8 101362192.59208      -581.825 8        51.153                                                                    18988503.291 7  78837408.90707      -452.569 7        47.781
C38        29.000                                                                                                                                    38653606.343 7 201279567.40107        63.258 7        43.143                                                                    38653604.906 7 163556176.23007        51.260 7        43.439
C44        30.000                                                                                                                                    21294826.086 8 110887955.98608      -967.730 8        51.525                                                                    21294825.489 8  90105629.50008      -786.479 8        50.048
E12        31.000    27822326.713 5 146207484.97105     -3261.811 5        34.667                                                                    27822325.235 6 109181022.89206     -2435.547 6        38.501    27822324.713 6 112029206.84906     -2499.039 6        38.504
G11        32.000    24985145.146 6 131298029.64106     -3918.991 6        38.354                                    24985142.255 3 102310254.04003     -3053.758 3        20.286    24985143.144 6 102310245.04506     -3053.756 6        37.747
I02        33.000    37932109.659 6 148853770.22406      -816.414 6        41.886
R15        34.000    21650065.387 7 115691520.50207     -4223.657 7        47.472                                                                    21650068.719 7  89982360.66107     -3285.040 7        43.795
E34        35.000    28184058.336 6 148108271.52806      2795.968 6        36.726                                                                    28184070.525 6 110600395.60006      2087.760 6        39.931    28184069.160 6 113485617.66806      2142.261 6        40.343
G29        36.000    20389822.528 8 107149526.24308     -1231.438 8        49.308                                    20389819.545 8  83493244.53708      -959.564 8        51.130    20389820.199 7  83493254.54107      -959.462 7        45.989
G31        37.000    21574087.994 7 113372804.31607      -423.417 7        46.888                                    21574085.946 7  88342537.85607      -329.936 7        45.958    21574086.558 7  88342543.86407      -329.939 7        43.312
C10        38.000                                                                                                                                    40875812.392 5 212851099.98905     -1151.883 5        35.181    40875811.269 6 164589979.49506      -890.992 6        39.622    40875808.715 5 172958948.03805      -936.365 5        35.952
E25        39.000    23910820.410 7 125652412.05907     -1896.693 7        47.780                                                                    23910821.844 8  93831473.90908     -1416.424 8        50.121    23910821.288 8  96279236.07008     -1453.371 8        50.548
C12        40.000                                                                                                                                    21777659.808 7 113402179.74807       548.527 7        47.216    21777658.778 8  87689850.09208       424.082 8        52.606    21777657.572 8  92148629.01208       445.567 8        49.841
E07        41.000    27911867.164 6 146677828.14406     -1379.238 6        37.444                                                                    27911876.603 6 109532155.62506     -1030.110 6        40.710    27911874.866 6 112389512.97806     -1056.970 6        40.903
S44        42.000    40520597.920 6 212937337.48606      -406.392 6        36.578
G28        43.000    21642211.353 7 113730768.61307     -2149.158 7        47.132                                    21642209.555 6  88621466.32606     -1674.667 6        36.703    21642209.852 7  88621466.32107     -1674.646 7        45.065
C05        44.000                                                                                                                                    39333086.697 6 204817693.97406      -424.557 6        38.270    39333084.593 7 158378045.60007      -328.423 7        43.202    39333085.228 6 166431247.61506      -345.234 6        39.513
C11        45.000                                                                                                                                    25120437.941 6 130808745.36506      2587.010 6        41.700    25120441.421 7 101149651.82407      2000.552 7        44.432    25120438.651 7 106292837.62207      2102.060 7        42.506
R16        46.000    19033571.022 8 101674111.16908      -785.731 8        51.894                                                                    19033571.893 7  79079975.88507      -611.107 7        47.347
R17        47.000    21017835.788 8 112470914.46308     -3844.318 8        50.159                                                                    21017835.817 7  87477508.84007     -2989.942 7        46.319
C35        48.000                                                                                                                                    23975174.042 7 124845182.81507     -3180.357 7        45.195                                                                    23975173.927 7 101447001.25107     -2584.364 7        45.308
C24        49.000                                                                                                                                    21759374.205 8 113306835.97408     -1955.063 8        51.098                                                                    21759372.308 8  92071106.13308     -1588.755 8        49.918
R19        50.000    20682687.303 6 110638652.24006      2597.363 6        39.096                                                                    20682688.095 7  86052388.41607      2020.090 7        43.852
S48        51.000    77088665.872 6 405104800.01006      -513.892 6        37.917
C08        52.000                                                                                                                                    38220947.824 6 199026583.81406       685.693 6        41.595    38220943.387 7 153900002.75307       530.318 7        45.264    38220942.097 7 161725415.28107       557.274 7        42.404
C34        53.000                                                                                                                                    22987092.678 8 119700059.73008      1936.952 8        48.021                                                                    22987094.674 7  97266210.68707      1573.826 7        47.207
C60        54.000                                                                                                                                    40520599.157 6 211001562.64206      -402.663 6        39.147                                                                    40520585.479 6 171456015.72906      -327.318 6        40.052
C25        55.000                                                                                                                                    22718036.822 8 118298994.22708      1292.815 8        48.247                                                                    22718036.956 8  96127709.59308      1050.500 8        48.038
C26        56.000                                                                                                                                    25275310.720 7 131615240.86007     -3832.270 7        43.378                                                                    25275313.329 7 106948202.18507     -3114.199 7        42.946
C02        57.000                                                                                                                                    40715376.323 5 212015659.57405      -387.456 5        34.133    40715371.335 6 163943941.55606      -299.373 6        39.378    40715374.196 5 172280086.26205      -314.688 5        34.662
I03        58.000    86055166.735 6 261913663.84606      1085.561 6        40.648
E30        59.000    27755880.782 6 145858237.98406      2176.588 6        38.033                                                                    27755889.527 6 108920197.30906      1625.213 6        40.989    27755887.857 6 111761581.14506      1667.598 6        41.304
> 2025 01 02 16 15 20.0000000  0 57
E24         1.000    28375317.930 6 149113419.97506     -3163.712 6        37.316                                                                    28375320.728 6 111350998.36206     -2362.546 6        40.973    28375319.716 6 114255795.92506     -2424.156 6        41.454
E11         2.000    23983707.959 7 126035419.11507     -1094.933 7        43.941                                                                    23983705.454 7  94117479.00407      -817.690 7        45.941    23983705.063 7  96572704.33107      -839.008 7        46.304
G16         3.000    24586930.054 6 129205247.23306      3112.535 6        37.187                                    24586934.822 2 100679460.21802      2425.363 2        15.667
G05         4.000    23312855.499 6 122509952.99106      1325.257 6        41.790                                    23312854.079 6  95462318.27406      1032.667 6        38.105    23312854.389 6  95462317.28706      1032.632 6        39.255
S21         5.000    38370073.047 7 201635723.40907      -480.844 7        42.603
G26         6.000    22018305.694 7 115707169.53507      2232.015 7        44.713                                    22018308.035 7  90161550.99107      1739.229 7        43.086    22018307.801 7  90161538.00807      1739.064 7        42.260
G25         7.000    21334437.346 7 112113400.40507     -3178.213 7        46.863                                    21334437.667 7  87361176.62707     -2476.529 7        45.771    21334437.923 7  87361177.63207     -2476.519 7        42.180
G04         8.000    25057289.436 6 131676916.60206      -503.686 6        37.939                                    25057290.150 3 102605369.88203      -392.484 3        19.910    25057290.393 6 102605378.88806      -392.560 6        38.495
E36         9.000    24404285.892 7 128245547.19007      1683.987 7        46.762                                                                    24404288.871 8  95767912.51808      1257.570 8        49.189    24404288.351 8  98266194.29208      1290.416 8        49.716
R08        10.000    23994484.446 6 128489376.75706     -2020.091 6        38.922                                                                    23994486.124 6  99936177.05006     -1571.217 6        40.377
G20        11.000    23578440.784 6 123905651.82206     -1071.216 6        40.510                                    23578438.194 3  96549917.14803      -834.719 3        23.829
S27        12.000    39164584.813 6 205811328.00706      -471.019 6        36.847
E08        13.000    28320935.183 6 148827595.22506     -3001.667 6        36.397                                                                    28320945.436 6 111137571.86006     -2241.620 6        38.589    28320943.857 6 114036801.92406     -2299.955 6        38.853
S36        14.000    38141255.019 7 200434108.59907      -480.673 7        44.363
C13        15.000                                                                                                                                    38394154.916 7 199928473.07507       823.314 7        43.215    38394158.526 7 154597404.25207       636.543 7        44.020    38394156.649 7 162458278.02107       668.736 7        42.252
G18        16.000    22065424.714 7 115954781.34307      2455.327 7        47.273                                    22065423.593 6  90354462.31806      1913.240 6        36.287    22065423.923 7  90354470.32007      1913.258 7        44.579
G12        17.000    24935361.426 6 131036384.11206     -4049.909 6        38.309                                    24935360.683 5 102106355.35705     -3155.772 5        30.400    24935361.167 5 102106352.35105     -3155.850 5        35.790
R01        18.000    23831696.147 6 127394066.40606      1020.796 6        38.634                                                                    23831696.546 5  99084148.05205       793.889 5        33.964
E02        19.000    23534512.650 7 123674861.40807       670.986 7        47.959                                                                    23534513.498 8  92354706.67608       501.075 8        51.015    23534512.779 8  94763945.82808       514.135 8        51.189
E10        21.000    25667008.808 7 134881250.39507     -2507.165 7        43.289                                                                    25667009.840 7 100723142.66107     -1872.334 7        46.592    25667009.195 7 103350688.21507     -1921.130 7        47.023
I06        22.000    38636236.538 6 151617053.37106      -394.407 6        41.273
S28        23.000    40848696.621 5 214661329.08505      -480.175 5        34.114
S23        25.000    38091581.857 7 200172539.78907      -484.843 7        44.780
S45        26.000    63349024.003 6 332902468.58006      -542.940 6        36.548
R09        27.000    21277214.054 8 113619302.12308      3017.823 8        48.016                                                                    21277215.846 7  88370669.34207      2347.240 7        46.110
R18        28.000    18989048.698 8 101365111.25508      -585.641 8        51.064                                                                    18989049.800 7  78839678.97607      -455.496 7        47.427
C38        29.000                                                                                                                                    38653546.103 7 201279254.12207        62.009 7        43.285                                                                    38653544.780 7 163555921.64807        50.359 7        43.573
C44        30.000                                                                                                                                    21295756.212 8 110892799.87908      -969.882 8        51.660                                                                    21295755.724 8  90109565.54508      -788.215 8        50.215
E12        31.000    27825430.139 5 146223794.62405     -3262.564 5        34.824                                                                    27825428.890 6 109193202.20306     -2436.342 6        38.456    27825428.193 6 112041703.88406     -2499.766 6        38.261
G11        32.000    24988874.550 6 131317626.44406     -3920.012 6        38.438                                    24988871.230 3 102325524.30303     -3054.522 3        20.262    24988872.242 6 102325515.29606     -3054.406 6        38.189
I02        33.000    37933150.101 6 148857852.60206      -816.571 6        41.895
R15        34.000    21654018.228 7 115712643.29807     -4225.513 7        47.280                                                                    21654021.812 7  89998789.48207     -3286.563 7        44.454
E34        35.000    28181397.967 6 148094292.09906      2795.709 6        37.259                                                                    28181410.249 6 110589956.43706      2087.798 6        40.062    28181408.870 6 113474906.17906      2142.222 6        40.503
G29        36.000    20390995.028 8 107155688.30508     -1233.506 8        49.210                                    20390992.152 8  83498046.14708      -961.177 8        51.224    20390992.779 7  83498056.14707      -961.105 7        45.970
G31        37.000    21574492.607 7 113374929.86407      -426.875 7        46.728                                    21574490.423 7  88344194.13607      -332.633 7        45.998    21574490.767 7  88344200.13807      -332.630 7        43.035
C10        38.000                                                                                                                                    40876917.781 5 212856860.28905     -1152.331 5        35.500    40876917.172 6 164594433.71006      -890.832 6        39.384    40876915.210 5 172963628.72705      -936.389 5        35.552
E25        39.000    23912625.531 7 125661899.01307     -1898.144 7        47.792                                                                    23912627.088 8  93838558.32308     -1417.394 8        50.129    23912626.544 8  96286505.29008     -1454.374 8        50.584
C12        40.000                                                                                                                                    21777134.111 7 113399442.86107       546.219 7        47.484    21777133.069 8  87687733.76108       422.424 8        52.663    21777131.931 8  92146405.04608       443.730 8        50.011
E07        41.000    27913180.999 6 146684730.14706     -1381.684 6        37.350                                                                    27913190.042 6 109537309.68906     -1031.786 6        40.591    27913188.265 6 112394801.48706     -1058.517 6        40.689
S44        42.000    40520983.687 6 212939369.56406      -406.557 6        36.582
G28        43.000    21644257.293 7 113741521.78507     -2152.210 7        47.070                                    21644255.833 6  88629845.42206     -1677.049 6        36.715    21644256.426 7  88629845.41807     -1676.994 7        45.451
C05        44.000                                                                                                                                    39333494.433 6 204819817.31106      -424.679 6        38.345    39333492.213 7 158379687.50107      -328.365 7        43.312    39333493.017 6 166432972.98906      -345.315 6        39.592
C11        45.000                                                                                                                                    25117954.759 7 130795811.96107      2586.259 7        42.250    25117957.944 7 101139650.93707      1999.773 7        44.579    25117954.770 7 106282328.17807      2101.453 7        42.667
R16        46.000    19034308.468 8 101678049.31608      -789.654 8        52.053                                                                    19034309.568 7  79083038.89207      -614.191 7        47.558
R17        47.000    21021428.621 8 112490139.96308     -3845.970 8        50.144                                                                    21021428.166 7  87492462.00807     -2991.337 7        45.782
C35        48.000                                                                                                                                    23978227.650 7 124861086.19807     -3181.188 7        45.013                                                                    23978227.955 7 101459924.03107     -2585.065 7        45.485
C24        49.000                                                                                                                                    21761252.387 8 113316617.20708     -1957.494 8        51.216                                                                    21761250.724 8  92079054.17108     -1590.713 8        50.049
R19        50.000    20680260.706 6 110625672.63806      2594.441 6        39.339                                                                    20680261.813 7  86042293.18907      2017.839 7        44.454
S48        51.000    77089130.290 6 405107368.63106      -513.773 6        38.057
C08        52.000                                                                                                                                    38220289.725 6 199023157.24006       684.639 6        41.275    38220285.375 7 153897353.12107       529.438 7        45.272    38220284.087 7 161722630.91007       556.355 7        42.518
C34        53.000                                                                                                                                    22985233.431 8 119690378.53108      1935.430 8        48.122                                                                    22985235.443 7  97258343.91607      1572.610 7        47.396
C60        54.000                                                                                                                                    40520986.073 6 211003576.23006      -402.864 6        39.258                                                                    40520972.217 6 171457651.91906      -327.313 6        40.122
C25        55.000                                                                                                                                    22716796.824 8 118292534.66008      1290.760 8        48.383                                                                    22716796.448 8  96122460.66408      1048.750 8        48.174
C26        56.000                                                                                                                                    25278990.786 7 131634403.91407     -3832.971 7        43.005                                                                    25278993.340 7 106963773.70307     -3114.762 7        43.092
C02        57.000                                                                                                                                    40715748.327 5 212017595.41005      -387.109 5        34.538    40715742.784 6 163945438.47706      -299.302 6        39.565    40715746.057 5 172281659.27905      -314.812 5        34.976
I03        58.000    86053783.447 6 261908235.81506      1085.559 6        40.777
E30        59.000    27753809.674 6 145847356.15206      2176.166 6        38.462                                                                    27753818.610 6 108912071.31106      1625.159 6        40.984    27753817.189 6 111753243.15706      1667.501 6        41.375
> 2025 01 02 16 15 25.0000000  0 57
E24         1.000    28378328.236 6 149129238.97506     -3163.970 6        37.134                                                                    28378331.065 6 111362811.24706     -2362.876 6        41.070    28378329.920 6 114267916.97006     -2424.337 6        41.311
E11         2.000    23984750.698 7 126040898.67607     -1097.117 7        44.244                                                                    23984748.156 7  94121570.88507      -819.280 7        45.950    23984747.799 7  96576902.95207      -840.626 7        46.371
G16         3.000    24583969.067 6 129189684.01306      3112.483 6        37.543                                    24583973.145 2 100667333.11402      2425.315 2        14.905
G05         4.000    23311595.755 6 122503332.73306      1322.755 6        41.921                                    23311594.208 6  95457159.64106      1030.714 6        37.811    23311595.006 6  95457158.65106      1030.693 6        39.718
S21         5.000    38370528.397 7 201638127.05707      -480.927 7        42.618
G26         6.000    22016182.789 7 115696013.13207      2230.521 7        44.605                                    22016185.029 7  90152857.71707      1738.063 7        42.876    22016185.148 7  90152844.71907      1738.078 7        42.713
G25         7.000    21337462.296 7 112129295.33207     -3179.876 7        46.155                                    21337462.357 7  87373562.28607     -2477.826 7        45.515    21337463.074 7  87373563.29807     -2477.880 7        42.682
G04         8.000    25057770.389 6 131679442.10206      -506.548 6        37.766                                    25057770.778 3 102607337.76303      -394.684 3        20.048    25057770.683 6 102607346.70406      -394.804 6        38.330
E36         9.000    24402684.207 7 128237130.72907      1682.413 7        47.015                                                                    24402687.208 8  95761627.51408      1256.333 8        49.208    24402686.663 8  98259745.33308      1289.105 8        49.679
R08        10.000    23996372.232 6 128499485.53806     -2023.660 6        38.688                                                                    23996373.483 6  99944039.43306     -1573.927 6        40.453
G20        11.000    23579461.154 6 123911014.25006     -1073.914 6        40.415                                    23579458.431 3  96554095.67603      -836.812 3        23.371
S27        12.000    39165034.913 6 205813682.61706      -470.824 6        36.491
E08        13.000    28323791.221 6 148842604.75606     -3002.318 6        36.722                                                                    28323801.916 6 111148780.27006     -2241.964 6        38.411    28323799.818 6 114048302.73306     -2300.473 6        38.186
S36        14.000    38141714.031 7 200436511.22607      -480.561 7        44.200
C13        15.000                                                                                                                                    38393365.085 7 199924358.57907       822.298 7        43.318    38393368.410 7 154594222.66107       635.977 7        43.920    38393366.571 7 162454934.65907       668.348 7        42.349
G18        16.000    22063089.207 7 115942508.67807      2453.518 7        46.875                                    22063088.235 6  90344899.22006      1911.828 6        36.091    22063088.501 7  90344907.22007      1911.885 7        44.652
G12        17.000    24939215.277 6 131056634.81206     -4050.355 6        38.159                                    24939214.457 5 102122135.11105     -3156.118 5        30.023    24939215.316 6 102122132.10406     -3156.095 6        36.091
R01        18.000    23830743.123 6 127388971.51106      1017.174 6        38.030                                                                    23830743.752 5  99080185.31305       790.966 5        33.754
E02        19.000    23533874.635 8 123671508.80308       669.850 8        48.001                                                                    23533875.511 8  92352203.12308       500.246 8        51.030    23533874.779 8  94761376.96108       513.299 8        51.201
E10        21.000    25669394.671 7 134893790.17307     -2508.676 7        43.242                                                                    25669396.126 7 100732506.78107     -1873.510 7        46.614    25669395.414 7 103360296.61807     -1922.354 7        47.064
I06        22.000    38636738.990 6 151619024.64106      -394.158 6        41.147
S28        23.000    40849151.394 5 214663729.39705      -480.131 5        34.367
S23        25.000    38092043.332 7 200174963.31807      -484.594 7        44.795
S45        26.000    63349485.846 6 332905182.36106      -542.857 6        36.484
R09        27.000    21274389.316 8 113604216.71808      3016.175 8        48.922                                                                    21274391.082 7  88358936.27607      2345.906 7        45.934
R18        28.000    18989598.951 8 101368048.57608      -589.376 8        51.193                                                                    18989600.279 7  78841963.57607      -458.327 7        47.682
C38        29.000                                                                                                                                    38653486.951 7 201278945.72907        61.088 7        43.291                                                                    38653485.442 7 163555671.08007        49.695 7        43.812
C44        30.000                                                                                                                                    21296688.630 8 110897653.79008      -971.879 8        51.819                                                                    21296687.847 8  90113509.76808      -789.676 8        50.356
E12        31.000    27828534.269 5 146240108.17905     -3263.166 5        34.748                                                                    27828533.075 6 109205384.42606     -2436.660 6        38.471    27828532.535 6 112054203.90006     -2500.197 6        38.405
G11        32.000    24992604.799 6 131337227.55706     -3920.635 6        38.411                                    24992601.386 3 102340797.93303     -3055.054 3        20.238    24992601.699 6 102340788.93006     -3055.138 6        38.093
I02        33.000    37934190.213 6 148861935.25206      -816.696 6        41.785
R15        34.000    21657973.888 8 115733775.30708     -4227.377 8        48.078                                                                    21657976.036 7  90015225.47507     -3287.901 7        44.438
E34        35.000    28178737.836 6 148080312.76406      2795.766 6        37.040                                                                    28178750.087 6 110579517.37506      2087.738 6        39.919    28178748.564 6 113464194.78206      2142.205 6        40.155
G29        36.000    20392169.624 8 107161860.16608     -1235.361 8        49.141                                    20392166.610 8  83502855.39708      -962.622 8        50.988    20392166.961 7  83502865.39907      -962.646 7        46.207
G31        37.000    21574900.513 7 113377072.30107      -430.223 7        47.354                                    21574898.109 7  88345863.57007      -335.241 7        45.722    21574898.877 7  88345869.57107      -335.147 7        43.365
C10        38.000                                                                                                                                    40878025.313 5 212862620.22505     -1151.995 5        35.467    40878022.639 6 164598887.64106      -890.824 6        39.117    40878021.278 5 172968309.17505      -936.234 5        35.790
E25        39.000    23914432.048 7 125671392.32907     -1899.300 7        47.817                                                                    23914433.593 8  93845647.49108     -1418.287 8        50.083    23914433.075 8  96293779.39508     -1455.308 8        50.570
C12        40.000                                                                                                                                    21776610.846 7 113396716.33507       544.221 7        47.518    21776609.375 8  87685625.43908       420.884 8        52.571    21776608.411 8  92144189.54108       442.221 8        50.173
E07        41.000    27914495.868 6 146691642.54306     -1383.487 6        37.497                                                                    27914505.332 6 109542471.52906     -1033.049 6        40.820    27914503.540 6 112400098.00006     -1060.183 6        40.944
S44        42.000    40521372.928 6 212941401.23406      -406.307 6        36.473
G28        43.000    21646306.375 7 113752289.49307     -2155.086 7        47.131                                    21646304.824 6  88638235.84306     -1679.287 6        36.473    21646305.059 7  88638235.83207     -1679.226 7        45.387
C05        44.000                                                                                                                                    39333902.178 6 204821940.11406      -424.482 6        38.471    39333900.002 7 158381329.00807      -328.295 7        43.208    39333900.691 6 166434697.97706      -344.991 6        39.934
C11        45.000                                                                                                                                    25115471.703 6 130782882.24306      2585.561 6        41.707    25115474.807 7 101129652.89307      1999.261 7        44.916    25115471.680 7 106271821.75807      2101.007 7        42.811
R16        46.000    19035048.985 8 101682006.81908      -793.464 8        51.809                                                                    19035050.238 7  79086116.94807      -617.082 7        47.366
R17        47.000    21025022.537 8 112509373.92208     -3847.683 8        49.923                                                                    21025022.247 7  87507421.76607     -2992.660 7        45.011
C35        48.000                                                                                                                                    23981282.567 7 124876993.24107     -3181.828 7        45.192                                                                    23981282.652 7 101472849.83507     -2585.485 7        45.546
C24        49.000                                                                                                                                    21763133.035 8 113326409.96508     -1959.785 8        51.455                                                                    21763131.315 8  92087011.61108     -1592.440 8        50.236
R19        50.000    20677835.674 6 110612706.50606      2591.789 6        39.420                                                                    20677838.002 7  86032208.44907      2015.887 7        44.114
S48        51.000    77089598.683 6 405109936.74406      -513.633 6        38.006
C08        52.000                                                                                                                                    38219632.197 6 199019735.66106       683.837 6        40.989    38219628.230 7 153894707.36407       528.658 7        44.966    38219627.001 7 161719850.63507       555.527 7        42.675
C34        53.000                                                                                                                                    22983375.577 7 119680704.25907      1934.173 7        47.995                                                                    22983377.549 7  97250482.81607      1571.698 7        47.553
C60        54.000                                                                                                                                    40521372.609 6 211005589.43406      -402.688 6        39.360                                                                    40521358.811 6 171459287.84606      -327.219 6        40.181
C25        55.000                                                                                                                                    22715558.089 8 118286085.22208      1288.769 8        48.383                                                                    22715557.935 8  96117219.99608      1047.216 8        48.367
C26        56.000                                                                                                                                    25282671.203 7 131653569.80207     -3833.464 7        42.614                                                                    25282673.982 7 106979347.56707     -3115.080 7        43.196
C02        57.000                                                                                                                                    40716119.869 5 212019530.81005      -387.164 5        34.619    40716114.899 6 163946935.04706      -299.298 6        39.345    40716117.617 5 172283231.97005      -314.493 5        35.095
I03        58.000    86052399.763 6 261902807.33806      1085.648 6        40.777
E30        59.000    27751738.611 6 145836474.16506      2176.338 6        38.336                                                                    27751747.897 6 108903945.21206      1625.219 6        40.963    27751746.359 6 111744905.06106      1667.675 6        41.387
> 2025 01 02 16 15 30.0000000  0 57
E24         1.000    28381339.205 6 149145059.93506     -3164.512 6        37.705                                                                    28381341.670 6 111374625.58906     -2363.084 6        41.161    28381340.527 6 114280039.53106     -2424.952 6        41.447
E11         2.000    23985795.813 7 126046389.81807     -1099.549 7        44.227                                                                    23985793.088 7  94125671.42207      -821.034 7        46.116    23985792.653 7  96581110.46507      -842.510 7        46.395
G16         3.000    24581007.402 6 129174121.88506      3112.010 6        37.244                                    24581011.737 2 100655206.84702      2424.912 2        15.286
G05         4.000    23310339.033 7 122496725.98507      1319.848 7        42.468                                    23310336.998 6  95452011.53006      1028.453 6        38.090    23310337.985 6  95452010.53206      1028.506 6        40.365
S21         5.000    38370985.477 7 201640530.84707      -480.979 7        42.743
G26         6.000    22014061.248 7 115684864.30707      2228.816 7        44.211                                    22014063.468 7  90144170.33707      1736.734 7        42.952    22014063.571 7  90144157.34707      1736.752 7        42.627
G25         7.000    21340488.349 7 112145199.31507     -3181.861 7        46.000                                    21340488.800 7  87385954.99507     -2479.369 7        45.481    21340489.779 7  87385955.99407     -2479.519 7        43.027
G04         8.000    25058253.670 6 131681982.41706      -509.722 6        38.369                                    25058254.071 3 102609317.04503      -397.140 3        19.522    25058254.276 6 102609325.99206      -397.280 6        38.054
E36         9.000    24401084.298 7 128228723.37007      1680.400 7        47.137                                                                    24401087.332 8  95755349.30408      1254.855 8        49.325    24401086.835 8  98253303.34308      1287.587 8        49.733
R08        10.000    23998263.061 6 128509612.71706     -2027.412 6        38.228                                                                    23998264.740 6  99951916.21406     -1576.930 6        40.965
G20        11.000    23580484.648 6 123916392.14106     -1077.222 6        40.527                                    23580481.828 3  96558286.23603      -839.380 3        23.505
S27        12.000    39165480.604 6 205816037.02006      -471.141 6        37.025
E08        13.000    28326648.551 6 148857617.63906     -3002.818 6        36.102                                                                    28326658.683 6 111159991.16906     -2242.451 6        38.204    28326656.629 6 114059806.09906     -2300.984 6        38.027
S36        14.000    38142171.903 7 200438914.41107      -480.846 7        44.542
C13        15.000                                                                                                                                    38392575.979 7 199920248.80007       821.288 7        43.204    38392579.284 7 154591044.72207       635.144 7        43.962    38392577.161 7 162451595.12407       667.391 7        42.246
G18        16.000    22060755.469 7 115930245.85807      2451.419 7        46.504                                    22060754.705 6  90335343.79206      1910.194 6        36.223    22060755.010 7  90335351.80007      1910.148 7        45.381
G12        17.000    24943070.028 6 131076887.85006     -4050.890 6        37.985                                    24943068.665 4 102137916.69204     -3156.529 4        29.981    24943069.180 6 102137913.69106     -3156.741 6        36.393
R01        18.000    23829791.831 6 127383895.16106      1013.333 6        38.243                                                                    23829795.212 5  99076237.08305       787.843 5        33.299
E02        19.000    23533237.842 8 123668162.39008       668.526 8        48.047                                                                    23533238.711 8  92349704.18708       499.169 8        51.147    23533238.015 8  94758812.83508       512.223 8        51.204
E10        21.000    25671782.599 7 134906338.24507     -2510.625 7        43.259                                                                    25671784.010 7 100741877.08907     -1874.837 7        46.843    25671783.348 7 103369911.37407     -1923.757 7        47.036
I06        22.000    38637241.220 6 151620995.70306      -394.205 6        41.199
S28        23.000    40849607.133 5 214666129.42905      -480.320 5        34.233
S23        25.000    38092505.578 7 200177386.81407      -484.905 7        45.049
S45        26.000    63349945.318 6 332906196.08416      -542.926 6        36.715
R09        27.000    21271566.819 8 113589140.27408      3014.280 8        48.589                                                                    21271567.703 7  88347210.16507      2344.456 7        45.472
R18        28.000    18990152.947 8 101371005.00708      -593.345 8        51.217                                                                    18990154.153 7  78844263.03607      -461.554 7        47.653
C38        29.000                                                                                                                                    38653428.685 7 201278642.65107        59.885 7        43.281                                                                    38653427.310 7 163555424.79507        48.670 7        43.763
C44        30.000                                                                                                                                    21297622.742 8 110902518.11608      -974.071 8        51.736                                                                    21297621.998 8  90117462.43108      -791.512 8        50.300
E12        31.000    27831639.837 5 146256426.01305     -3264.285 5        34.619                                                                    27831638.146 6 109217569.85306     -2437.505 6        38.471    27831638.004 6 112066707.20406     -2501.100 6        38.240
G11        32.000    24996335.420 6 131356833.43406     -3921.844 6        38.526                                    24996332.311 3 102356075.25103     -3055.988 3        20.738    24996332.886 6 102356066.25606     -3055.929 6        38.267
I02        33.000    37935230.724 6 148866018.39106      -816.826 6        41.850
R15        34.000    21661930.111 8 115754917.02208     -4229.421 8        48.168                                                                    21661932.464 7  90031669.00607     -3289.552 7        44.492
E34        35.000    28176077.729 6 148066333.96106      2795.634 6        37.524                                                                    28176090.157 6 110569078.69206      2087.605 6        40.060    28176088.606 6 113453483.79106      2141.990 6        40.224
G29        36.000    20393345.989 8 107168042.33908     -1237.633 8        49.142                                    20393343.045 8  83507672.67908      -964.389 8        51.011    20393343.431 7  83507682.68807      -964.399 7        46.158
G31        37.000    21575311.816 7 113379231.99607      -433.797 7        47.433                                    21575309.083 7  88347546.45507      -338.021 7        45.803    21575309.982 7  88347552.46907      -338.073 7        43.596
C10        38.000                                                                                                                                    40879130.766 5 212868380.24205     -1151.903 5        34.957    40879128.638 6 164603341.65506      -890.904 6        38.811    40879126.955 5 172972989.62005      -936.189 5        35.986
E25        39.000    23916239.765 7 125680892.44007     -1900.817 7        47.640                                                                    23916241.437 8  93852741.74108     -1419.530 8        50.161    23916240.847 8  96301058.71008     -1456.518 8        50.591
C12        40.000                                                                                                                                    21776089.253 7 113394000.52907       541.921 7        47.327    21776087.874 8  87683525.42108       419.025 8        52.572    21776086.827 8  92141982.72208       440.375 8        50.085
E07        41.000    27915813.250 6 146698565.75006     -1386.033 6        37.440                                                                    27915822.842 6 109547641.46306     -1034.928 6        40.973    27915821.120 6 112405402.78706     -1061.822 6        40.646
S44        42.000    40521759.169 6 212943432.96006      -406.609 6        36.953
G28        43.000    21648358.241 7 113763072.11607     -2158.145 7        47.426                                    21648356.691 6  88646637.88506     -1681.672 6        36.556    21648356.834 7  88646637.89207     -1681.761 7        44.841
C05        44.000                                                                                                                                    39334309.744 6 204824062.83406      -424.832 6        38.174    39334307.452 7 158382970.43907      -328.389 7        43.363    39334308.176 6 166436422.84806      -345.078 6        39.871
C11        45.000                                                                                                                                    25112987.930 6 130769956.58906      2584.591 6        41.220    25112992.852 7 101119658.00507      1998.479 7        45.707    25112989.244 7 106261318.64107      2100.125 7        42.758
R16        46.000    19035793.597 8 101685983.97008      -797.595 8        52.014                                                                    19035794.526 7  79089210.30107      -620.359 7        47.482
R17        47.000    21028617.855 8 112528616.65808     -3849.573 8        49.723                                                                    21028618.947 7  87522388.33207     -2994.096 7        45.761
C35        48.000                                                                                                                                    23984338.218 7 124892904.36107     -3182.764 7        45.257                                                                    23984338.235 7 101485778.91307     -2586.290 7        45.427
C24        49.000                                                                                                                                    21765016.056 8 113336214.65908     -1962.257 8        51.398                                                                    21765014.144 8  92094978.71908     -1594.486 8        50.140
R19        50.000    20675415.394 6 110599754.16806      2588.994 6        40.019                                                                    20675416.698 7  86022134.40907      2013.649 7        43.841
S48        51.000    77090061.224 6 405112505.18206      -513.765 6        38.360
C08        52.000                                                                                                                                    38218976.135 6 199016319.60106       682.566 6        40.815    38218972.312 7 153892065.84907       527.752 7        45.183    38218971.131 7 161717074.79507       554.631 7        42.700
C34        53.000                                                                                                                                    22981519.118 8 119671037.35808      1932.528 8        48.039                                                                    22981521.142 7  97242627.67407      1570.326 7        47.501
C60        54.000                                                                                                                                    40521758.921 6 211007602.68006      -402.802 6        39.168                                                                    40521745.508 6 171460923.76806      -327.376 6        40.055
C25        55.000                                                                                                                                    22714321.252 8 118279646.34208      1286.527 8        48.185                                                                    22714321.387 8  96111987.87208      1045.451 8        48.338
C26        56.000                                                                                                                                    25286352.092 7 131672738.92307     -3834.356 7        42.110                                                                    25286355.242 7 106994924.00807     -3115.607 7        43.103
C02        57.000                                                                                                                                    40716491.702 5 212021466.12205      -387.615 5        34.319    40716486.419 6 163948431.58506      -299.568 6        39.432    40716489.343 5 172284804.58305      -314.764 5        35.181
I03        58.000    86051016.657 6 261897378.74906      1085.498 6        40.660
E30        59.000    27749668.285 6 145825592.46906      2176.036 6        38.586                                                                    27749677.158 6 108895819.32506      1625.054 6        41.054    27749675.662 6 111736567.17906      1667.472 6        41.580
> 2025 01 02 16 15 35.0000000  0 57
E24         1.000    28384350.177 6 149160882.99306     -3165.027 6        38.225                                                                    28384352.671 6 111386441.52706     -2363.508 6        40.963    28384351.646 6 114292163.68306     -2425.119 6        41.259
E11         2.000    23986842.786 7 126051892.63307     -1101.829 7        44.441                                                                    23986840.204 7  94129780.68207      -822.801 7        46.098    23986839.820 7  96585326.91307      -844.281 7        46.373
G16         3.000    24578045.776 6 129158560.96706      3111.878 6        36.023                                    24578050.445 2 100643081.55402      2424.820 2        15.714
G05         4.000    23309084.562 7 122490132.80507      1317.058 7        42.696                                    23309082.409 6  95446873.99306      1026.279 6        38.498    23309082.856 6  95446873.00606      1026.207 6        40.253
S21         5.000    38371443.895 7 201642934.87607      -480.951 7        42.588
G26         6.000    22011941.129 7 115673723.19307      2227.260 7        44.618                                    22011943.328 7  90135488.97307      1735.524 7        43.079    22011943.478 7  90135475.98207      1735.578 7        42.434
G25         7.000    21343516.835 7 112161112.46207     -3183.664 7        46.876                                    21343517.001 7  87398354.84807     -2480.780 7        45.636    21343517.478 7  87398355.85407     -2480.781 7        42.686
G04         8.000    25058739.991 6 131684537.78506      -512.699 6        39.003                                    25058740.284 3 102611308.06703      -399.463 3        20.167    25058740.342 6 102611317.01806      -399.515 6        38.168
E36         9.000    24399486.210 7 128220325.21807      1678.499 7        47.377                                                                    24399489.215 8  95749077.97208      1253.416 8        49.128    24399488.730 8  98246868.41108      1286.095 8        49.701
R08        10.000    24000159.212 6 128519758.24406     -2031.294 6        38.150                                                                    24000159.904 6  99959807.12206     -1579.618 6        40.219
G20        11.000    23581511.597 6 123921785.59106     -1080.386 6        40.563                                    23581508.088 3  96562488.93003      -841.866 3        23.371
S27        12.000    39165929.520 6 205818391.35506      -470.931 6        36.824
E08        13.000    28329506.238 6 148872633.96206     -3003.807 6        36.363                                                                    28329516.171 6 111171204.66206     -2243.180 6        38.345    28329514.530 6 114071312.09406     -2301.469 6        38.357
S36        14.000    38142625.687 7 200441317.64907      -480.976 7        44.302
C13        15.000                                                                                                                                    38391787.534 7 199916143.86207       820.273 7        43.009    38391790.799 7 154587870.53307       634.388 7        44.033    38391788.736 7 162448259.53007       666.718 7        42.224
G18        16.000    22058424.397 7 115917993.00907      2449.433 7        46.734                                    22058423.085 6  90325796.13306      1908.645 6        36.321    22058423.567 7  90325804.14907      1908.546 7        45.723
G12        17.000    24946924.321 6 131097143.35506     -4051.564 6        37.974                                    24946923.297 5 102153700.20005     -3157.063 5        30.098    24946923.086 6 102153697.21006     -3157.096 6        36.314
R01        18.000    23828846.224 6 127378837.42906      1009.551 6        37.890                                                                    23828848.475 5  99072303.28805       784.742 5        32.713
E02        19.000    23532602.320 8 123664822.26008       667.195 8        48.465                                                                    23532603.102 8  92347209.94608       498.246 8        51.061    23532602.400 8  94756253.53008       511.215 8        51.206
E10        21.000    25674172.187 7 134918894.68207     -2512.190 7        43.704                                                                    25674173.362 7 100751253.65307     -1876.080 7        46.678    25674172.788 7 103379532.54507     -1925.058 7        47.021
I06        22.000    38637743.485 6 151622966.63006      -394.250 6        41.242
S28        23.000    40850066.060 5 214668529.79005      -480.295 5        34.214
S23        25.000    38092964.840 7 200179810.54507      -484.870 7        44.784
S45        26.000    63350408.874 6 332908909.94906      -542.867 6        36.223
R09        27.000    21268744.432 8 113574072.72408      3012.395 8        48.420                                                                    21268745.976 7  88335490.97707      2342.947 7        46.185
R18        28.000    18990710.372 8 101373980.60008      -597.152 8        51.418                                                                    18990711.655 7  78846577.39607      -464.492 7        47.804
C38        29.000                                                                                                                                    38653371.735 7 201278344.97607        58.821 7        43.416                                                                    38653370.142 7 163555182.92407        47.854 7        43.664
C44        30.000                                                                                                                                    21298558.901 8 110907392.97308      -976.135 8        51.638                                                                    21298558.177 8  90121423.66608      -793.222 8        50.206
E12        31.000    27834745.937 5 146272748.27705     -3265.066 5        34.667                                                                    27834744.215 6 109229758.56606     -2438.280 6        38.351    27834744.003 6 112079213.88806     -2501.825 6        38.201
G11        32.000    25000066.898 6 131376444.16006     -3922.777 6        38.640                                    25000064.211 3 102371356.37203     -3056.714 3        21.571    25000064.573 6 102371347.39106     -3056.850 6        38.324
I02        33.000    37936271.430 6 148870102.25606      -816.905 6        41.733
R15        34.000    21665888.034 7 115776068.54107     -4231.426 7        47.766                                                                    21665890.558 7  90048120.18207     -3291.119 7        43.884
E34        35.000    28173417.857 6 148052355.82406      2795.499 6        37.592                                                                    28173430.110 6 110558640.50306      2087.566 6        40.164    28173428.570 6 113442773.30306      2141.860 6        40.272
G29        36.000    20394524.357 8 107174234.83208     -1239.719 8        49.130                                    20394521.434 8  83512498.00608      -966.017 8        51.114    20394521.895 7  83512508.01007      -966.050 7        46.243
G31        37.000    21575725.654 7 113381409.08107      -437.321 7        47.727                                    21575723.374 7  88349242.89507      -340.768 7        45.964    21575723.918 7  88349248.90307      -340.769 7        43.562
C10        38.000                                                                                                                                    40880236.604 5 212874140.43405     -1152.246 5        35.295    40880235.014 6 164607795.81506      -891.017 6        38.865    40880233.326 5 172977670.25805      -936.174 5        35.886
E25        39.000    23918048.980 7 125690399.44707     -1902.243 7        47.914                                                                    23918050.534 8  93859841.12908     -1420.530 8        50.148    23918049.967 8  96308343.30208     -1457.558 8        50.577
C12        40.000                                                                                                                                    21775569.776 7 113391295.60907       539.761 7        47.198    21775568.220 8  87681433.81508       417.325 8        52.383    21775567.403 8  92139784.76608       438.575 8        50.040
E07        41.000    27917132.878 6 146705499.87606     -1387.950 6        37.096                                                                    27917142.353 6 109552819.56006     -1036.676 6        40.865    27917140.767 6 112410715.95706     -1063.565 6        40.644
S44        42.000    40522142.418 6 212945464.82806      -406.466 6        36.518
G28        43.000    21650412.928 7 113773869.78407     -2161.186 7        47.562                                    21650411.459 6  88655051.65406     -1684.039 6        36.654    21650411.900 7  88655051.65007     -1684.018 7        45.291
C05        44.000                                                                                                                                    39334717.261 6 204826185.53806      -424.552 6        38.231    39334715.358 7 158384611.87207      -328.477 7        43.348    39334715.867 6 166438147.74006      -345.067 6        39.652
C11        45.000                                                                                                                                    25110507.868 6 130757035.11606      2583.751 6        41.881    25110511.792 7 101109666.34707      1997.888 7        45.600    25110507.726 7 106250818.91907      2099.460 7        42.646
R16        46.000    19036541.832 8 101689980.89108      -801.532 8        51.943                                                                    19036542.870 7  79092319.02407      -623.430 7        47.665
R17        47.000    21032215.448 8 112547868.30608     -3851.363 8        49.716                                                                    21032216.851 7  87537361.83607     -2995.504 7        45.765
C35        48.000                                                                                                                                    23987394.699 7 124908819.63407     -3183.625 7        45.043                                                                    23987394.654 7 101498711.38907     -2586.990 7        45.539
C24        49.000                                                                                                                                    21766901.266 8 113346031.40408     -1964.735 8        51.594                                                                    21766899.316 8  92102955.63608     -1596.469 8        50.117
R19        50.000    20672996.528 6 110586815.59306      2586.281 6        39.426                                                                    20672997.590 7  86012071.07807      2011.497 7        43.225
S48        51.000    77090524.873 6 405113474.35316      -513.934 6        38.165
C08        52.000                                                                                                                                    38218321.490 6 199012909.03006       681.302 6        41.008    38218317.548 7 153889428.58307       526.969 7        45.102    38218316.025 7 161714303.42907       553.767 7        42.472
C34        53.000                                                                                                                                    22979664.027 7 119661377.92407      1931.035 7        47.876                                                                    22979666.127 7  97234778.61407      1569.100 7        47.362
C60        54.000                                                                                                                                    40522145.895 6 211009616.07806      -402.783 6        38.895                                                                    40522132.008 6 171462559.82606      -327.348 6        40.136
C25        55.000                                                                                                                                    22713086.845 8 118273218.10708      1284.419 8        48.229                                                                    22713086.891 8  96106764.42108      1043.700 8        48.228
C26        56.000                                                                                                                                    25290034.059 7 131691911.36707     -3834.998 7        42.032                                                                    25290037.118 7 107010503.20007     -3116.235 7        43.173
C02        57.000                                                                                                                                    40716862.521 5 212023401.51105      -387.222 5        34.457    40716858.073 6 163949928.16106      -299.347 6        39.405    40716860.877 5 172286377.25905      -314.764 5        35.086
I03        58.000    86049633.670 6 261891950.11906      1085.551 6        40.749
E30        59.000    27747597.526 6 145814711.17006      2176.070 6        39.177                                                                    27747606.397 6 108887693.74306      1624.893 6        40.951    27747605.021 6 111728229.62106      1667.375 6        41.354
> 2025 01 02 16 15 40.0000000  0 57
E24         1.000    28387361.988 6 149176708.14006     -3165.365 6        38.237                                                                    28387364.252 6 111398258.99506     -2363.651 6        41.106    28387363.064 6 114304289.44306     -2425.384 6        41.232
E11         2.000    23987892.096 7 126057407.13207     -1104.086 7        44.454                                                                    23987889.590 7  94133898.65207      -824.452 7        46.103    23987889.149 7  96589552.31307      -845.968 7        46.218
G16         3.000    24575085.112 6 129143001.26206      3111.697 6        36.873                                    24575089.511 2 100630957.18802      2424.695 2        15.190
G05         4.000    23307832.026 7 122483553.15007      1314.638 7        43.594                                    23307830.435 6  95441747.00206      1024.391 6        38.622    23307830.831 6  95441745.99606      1024.432 6        40.062
S21         5.000    38371903.680 7 201645339.12407      -480.909 7        42.679
G26         6.000    22009822.633 7 115662589.77507      2225.851 7        44.789                                    22009824.696 7  90126813.60407      1734.424 7        42.967    22009824.772 7  90126800.61507      1734.458 7        42.495
G25         7.000    21346547.070 7 112177034.78407     -3185.414 7        46.690                                    21346546.923 7  87410761.85307     -2482.141 7        45.558    21346547.453 7  87410762.85407     -2482.131 7        42.726
G04         8.000    25059228.665 6 131687108.11306      -515.689 6        38.165                                    25059229.569 3 102613310.70503      -401.804 3        20.143    25059229.983 6 102613319.61206      -401.844 6        38.309
E36         9.000    24397889.868 7 128211936.25707      1676.814 7        47.585                                                                    24397892.884 8  95742813.50508      1252.117 8        49.269    24397892.375 8  98240440.51808      1284.813 8        49.576
R08        10.000    24002058.061 6 128529922.17906     -2034.775 6        38.559                                                                    24002057.454 6  99967712.48406     -1582.628 6        40.033
G20        11.000    23582540.546 6 123927194.65106     -1083.399 6        40.451                                    23582537.451 3  96566703.77203      -844.207 3        23.562
S27        12.000    39166380.205 6 205820745.88006      -470.764 6        36.628
E08        13.000    28332364.649 6 148887653.69806     -3004.271 6        36.699                                                                    28332374.186 6 111182420.66506     -2243.536 6        38.207    28332372.785 6 114082820.72606     -2302.102 6        38.399
S36        14.000    38143085.299 7 200443722.01907      -481.026 7        44.396
C13        15.000                                                                                                                                    38391000.070 7 199912043.71207       819.478 7        42.927    38391003.876 7 154584700.04407       633.657 7        44.156    38391001.450 7 162444927.81607       665.785 7        42.385
G18        16.000    22056094.632 7 115905750.11607      2447.539 7        47.279                                    22056093.329 6  90316256.23106      1907.172 6        36.261    22056093.305 7  90316264.23307      1907.153 7        45.502
G12        17.000    24950779.248 6 131117401.26106     -4051.925 6        38.114                                    24950778.283 5 102169485.57205     -3157.342 5        30.068    24950778.172 6 102169482.58006     -3157.519 6        36.439
R01        18.000    23827903.118 6 127373798.26906      1006.018 6        39.243                                                                    23827904.531 5  99068383.92705       782.205 5        33.042
E02        19.000    23531967.791 8 123661488.42308       666.140 8        48.466                                                                    23531968.669 8  92344720.40508       497.385 8        51.092    23531967.970 8  94753699.03908       510.334 8        51.101
E10        21.000    25676563.159 7 134931459.48707     -2513.841 7        43.826                                                                    25676564.340 7 100760636.46307     -1877.216 7        46.702    25676563.927 7 103389160.11807     -1926.130 7        46.903
I06        22.000    38638245.235 6 151624937.37706      -394.165 6        41.025
S28        23.000    40850523.654 5 214670930.01105      -480.122 5        34.148
S23        25.000    38093426.870 7 200182234.23807      -484.763 7        44.889
S45        26.000    63350869.406 6 332911623.84306      -542.621 6        36.544
R09        27.000    21265923.822 7 113559014.15207      3010.764 7        47.579                                                                    21265926.294 7  88323778.78507      2341.701 7        46.173
R18        28.000    18991271.564 8 101376975.42608      -600.955 8        51.237                                                                    18991272.359 7  78848906.71107      -467.473 7        47.543
C38        29.000                                                                                                                                    38653315.467 7 201278052.70307        57.893 7        43.649                                                                    38653314.040 7 163554945.43407        46.871 7        43.970
C44        30.000                                                                                                                                    21299496.903 8 110912278.34008      -978.181 8        51.584                                                                    21299496.319 8  90125393.41308      -794.935 8        50.358
E12        31.000    27837852.748 5 146289074.95505     -3265.894 5        34.790                                                                    27837851.148 6 109241950.57006     -2438.827 6        38.577    27837850.796 6 112091723.95606     -2502.568 6        38.204
G11        32.000    25003799.535 6 131396059.70406     -3923.723 6        38.781                                    25003796.849 3 102386641.22503     -3057.479 3        21.452    25003797.508 6 102386632.22706     -3057.465 6        38.622
I02        33.000    37937312.080 6 148874186.68706      -816.981 6        41.490
R15        34.000    21669847.981 8 115797229.78408     -4233.309 8        48.197                                                                    21669850.298 7  90064578.91807     -3292.582 7        43.492
E34        35.000    28170758.434 6 148038378.34306      2795.452 6        37.682                                                                    28170770.119 6 110548202.81406      2087.352 6        40.117    28170768.697 6 113432063.30006      2141.894 6        40.138
G29        36.000    20395704.772 8 107180437.60408     -1241.657 8        49.336                                    20395701.772 8  83517331.34208      -967.524 8        50.986    20395702.279 7  83517341.34207      -967.549 7        46.179
G31        37.000    21576143.088 7 113383603.54207      -440.682 7        47.530                                    21576140.966 7  88350952.86707      -343.391 7        45.862    21576141.400 7  88350958.86807      -343.377 7        43.496
C10        38.000                                                                                                                                    40881342.845 5 212879900.82105     -1152.141 5        35.281    40881341.413 6 164612250.09306      -890.928 6        38.958    40881339.431 5 172982351.00405      -936.082 5        35.729
E25        39.000    23919859.250 7 125699913.33107     -1903.488 7        47.866                                                                    23919860.969 8  93866945.65608     -1421.475 8        50.172    23919860.389 8  96315633.16608     -1458.536 8        50.481
C12        40.000                                                                                                                                    21775052.601 7 113388601.56807       537.640 7        47.295    21775050.834 8  87679350.61008       415.755 8        52.318    21775050.023 8  92137595.62508       436.796 8        50.180
E07        41.000    27918454.627 6 146712444.93206     -1390.294 6        37.618                                                                    27918463.923 6 109558005.77206     -1038.080 6        41.030    27918462.637 6 112416037.47706     -1065.151 6        40.799
S44        42.000    40522530.984 6 212947496.82106      -406.358 6        36.635
G28        43.000    21652470.543 7 113784682.45007     -2164.084 7        47.718                                    21652469.023 6  88663477.10906     -1686.300 6        36.533    21652469.545 7  88663477.11407     -1686.339 7        45.354
C05        44.000                                                                                                                                    39335124.831 6 204828308.26306      -424.590 6        38.291    39335122.790 7 158386253.29807      -328.313 7        43.251    39335123.536 6 166439872.61906      -344.905 6        39.853
C11        45.000                                                                                                                                    25108027.620 6 130744117.86006      2582.876 6        41.626    25108030.490 7 101099677.91007      1997.350 7        44.971    25108027.310 7 106240322.59407      2098.731 7        42.847
R16        46.000    19037293.639 8 101693997.74708      -805.444 8        51.970                                                                    19037294.913 8  79095443.24908      -626.457 8        48.109
R17        47.000    21035815.287 8 112567128.86008     -3853.043 8        49.689                                                                    21035815.897 7  87552342.27107     -2996.814 7        45.493
C35        48.000                                                                                                                                    23990451.792 7 124924739.06907     -3184.329 7        44.980                                                                    23990451.821 7 101511647.21507     -2587.527 7        45.713
C24        49.000                                                                                                                                    21768788.851 8 113355860.17908     -1967.017 8        51.499                                                                    21768786.825 8  92110942.31108     -1598.437 8        50.232
R19        50.000    20670579.727 6 110573890.87406      2583.448 6        40.167                                                                    20670581.435 7  86002018.54107      2009.396 7        42.684
S48        51.000    77090988.674 6 405116043.32306      -513.929 6        38.204
C08        52.000                                                                                                                                    38217668.154 6 199009503.99906       680.309 6        41.261    38217663.448 7 153886795.59807       526.120 7        45.109    38217662.146 7 161711536.56407       552.768 7        42.794
C34        53.000                                                                                                                                    22977810.324 7 119651725.94107      1929.524 7        47.733                                                                    22977812.580 7  97226935.59207      1567.828 7        47.588
C60        54.000                                                                                                                                    40522532.610 6 211011629.59206      -402.606 6        39.111                                                                    40522518.656 6 171464195.96106      -327.270 6        40.250
C25        55.000                                                                                                                                    22711854.513 8 118266800.53408      1282.449 8        48.357                                                                    22711854.469 8  96101549.61408      1041.930 8        48.312
C26        56.000                                                                                                                                    25293716.582 7 131711087.13407     -3835.532 7        42.358                                                                    25293719.690 7 107026085.05207     -3116.759 7        43.537
C02        57.000                                                                                                                                    40717234.439 5 212025336.95405      -386.992 5        34.133    40717229.531 6 163951424.79006      -299.476 6        39.354    40717232.724 5 172287949.98105      -314.649 5        35.038
I03        58.000    86048250.308 6 261886521.45506      1085.711 6        40.651
E30        59.000    27745526.942 6 145803830.25106      2175.956 6        39.039                                                                    27745535.839 6 108879568.41806      1624.958 6        41.106    27745534.265 6 111719892.35006      1667.262 6        41.313
> 2025 01 02 16 15 45.0000000  0 57
E24         1.000    28390373.648 6 149192535.22406     -3165.407 6        38.312                                                                    28390376.117 6 111410077.93306     -2363.838 6        41.013    28390375.026 6 114316416.70206     -2425.464 6        41.442
E11         2.000    23988943.816 7 126062933.17607     -1106.148 7        44.552                                                                    23988941.156 7  94138025.25107      -825.974 7        45.977    23988940.801 7  96593786.56807      -847.539 7        46.329
G16         3.000    24572125.095 6 129127442.63806      3111.994 6        36.752                                    24572128.752 2 100618833.66202      2424.921 2        15.857
G05         4.000    23306582.989 7 122476986.99007      1312.014 7        43.704                                    23306580.987 6  95436630.52306      1022.353 6        38.862    23306581.626 6  95436629.50906      1022.452 6        40.167
S21         5.000    38372359.544 7 201647743.31207      -480.607 7        42.620
G26         6.000    22007705.666 7 115651463.95907      2224.597 7        45.065                                    22007707.517 7  90118144.16207      1733.452 7        43.041    22007707.491 7  90118131.17907      1733.380 7        42.301
G25         7.000    21349578.575 7 112192966.14707     -3186.981 7        46.510                                    21349578.549 7  87423175.89907     -2483.361 7        45.645    21349579.330 7  87423176.90207     -2483.374 7        42.918
G04         8.000    25059721.208 6 131689693.54806      -518.503 6        37.312                                    25059721.890 3 102615325.16003      -403.984 3        20.024    25059721.989 6 102615334.07706      -403.922 6        38.336
E36         9.000    24396295.200 7 128203556.39907      1675.279 7        47.658                                                                    24396298.238 8  95736555.83008      1250.993 8        49.198    24396297.642 8  98234019.59908      1283.663 8        49.682
R08        10.000    24003957.779 6 128540104.35406     -2038.101 6        38.976                                                                    24003959.400 6  99975632.00206     -1585.208 6        40.968
G20        11.000    23583573.169 6 123932619.13906     -1086.251 6        41.104                                    23583569.721 4  96570930.65504      -846.437 4        24.000
S27        12.000    39166826.514 6 205823100.56206      -470.396 6        36.669
E08        13.000    28335222.914 6 148902676.74506     -3004.716 6        36.643                                                                    28335233.106 6 111193639.16006     -2243.755 6        38.267    28335231.930 6 114094331.86106     -2302.226 6        38.649
S36        14.000    38143542.455 7 200446125.93607      -480.547 7        44.427
C13        15.000                                                                                                                                    38390213.654 7 199907948.35307       818.836 7        42.866    38390217.435 7 154581533.27607       633.171 7        44.158    38390214.887 7 162441600.04507       665.303 7        42.343
G18        16.000    22053766.722 7 115893517.07507      2445.838 7        47.039                                    22053765.469 6  90306724.00806      1905.851 6        36.246    22053765.194 7  90306732.02107      1905.768 7        45.220
G12        17.000    24954634.501 6 131137661.50006     -4052.271 6        38.574                                    24954633.667 5 102185272.76905     -3157.611 5        30.181    24954633.273 6 102185269.75506     -3157.386 6        36.310
R01        18.000    23826965.032 6 127368777.64306      1002.412 6        39.435                                                                    23826965.575 5  99064478.96005       779.720 5        33.605
E02        19.000    23531334.433 8 123658160.76808       665.181 8        48.573                                                                    23531335.418 8  92342235.47408       496.706 8        51.060    23531334.715 8  94751149.28108       509.691 8        51.247
E10        21.000    25678955.767 7 134944032.52807     -2515.219 7        44.093                                                                    25678956.919 7 100770025.43007     -1878.203 7        46.556    25678956.522 7 103398794.02007     -1927.318 7        46.946
I06        22.000    38638747.613 6 151626907.92306      -393.890 6        41.058
S28        23.000    40850980.363 5 214673330.35805      -479.824 5        34.495
S23        25.000    38093887.689 7 200184657.83407      -484.616 7        44.843
S45        26.000    63351332.433 6 332914337.64006      -542.683 6        36.646
R09        27.000    21263106.171 8 113543964.52908      3009.222 8        48.380                                                                    21263107.294 7  88312073.54307      2340.489 7        46.421
R18        28.000    18991836.024 8 101379989.29108      -604.505 8        51.202                                                                    18991836.992 7  78851250.83907      -470.182 7        47.145
C38        29.000                                                                                                                                    38653260.246 7 201277765.73407        57.062 7        43.932                                                                    38653258.926 7 163554712.27307        46.327 7        43.964
C44        30.000                                                                                                                                    21300437.076 8 110917174.11408      -979.981 8        51.529                                                                    21300436.489 8  90129371.66408      -796.423 8        50.420
E12        31.000    27840960.339 5 146305405.85905     -3266.357 5        35.186                                                                    27840958.748 6 109254145.76806     -2439.259 6        38.625    27840958.397 6 112104237.27806     -2502.801 6        38.384
G11        32.000    25007532.443 6 131415679.93506     -3924.407 6        38.919                                    25007530.493 3 102401929.72303     -3057.976 3        21.262    25007531.395 6 102401920.72006     -3057.836 6        38.670
I02        33.000    37938353.148 6 148878271.78906      -816.776 6        41.273
R15        34.000    21673809.585 7 115818400.75407     -4235.051 7        47.193                                                                    21673812.431 7  90081045.22007     -3293.932 7        43.869
E34        35.000    28168098.312 6 148024401.39006      2795.476 6        37.826                                                                    28168110.470 6 110537765.50806      2087.676 6        40.129    28168108.882 6 113421353.72006      2142.129 6        40.157
G29        36.000    20396887.161 8 107186650.54808     -1243.394 8        49.284                                    20396884.047 8  83522172.60208      -968.879 8        51.039    20396884.362 7  83522182.60507      -968.895 7        46.090
G31        37.000    21576564.036 7 113385815.23107      -443.898 7        47.415                                    21576561.844 7  88352676.27007      -345.895 7        45.762    21576562.163 7  88352682.27307      -345.911 7        43.683
C10        38.000                                                                                                                                    40882449.548 5 212885661.25005     -1151.979 5        35.424    40882447.863 6 164616704.41706      -890.582 6        38.565    40882445.470 5 172987031.84705      -935.827 5        35.700
E25        39.000    23921671.077 8 125709433.99108     -1904.589 8        48.077                                                                    23921672.726 8  93874055.24208     -1422.253 8        50.094    23921672.116 8  96322928.21708     -1459.388 8        50.588
C12        40.000                                                                                                                                    21774537.779 7 113385918.26107       535.745 7        47.389    21774535.801 8  87677275.71908       414.261 8        52.328    21774534.713 8  92135415.24008       435.254 8        50.225
E07        41.000    27919778.773 6 146719400.77806     -1391.969 6        37.319                                                                    27919787.438 6 109563200.07106     -1039.505 6        40.725    27919786.322 6 112421367.28706     -1066.640 6        40.729
S44        42.000    40522912.154 6 212949528.86206      -406.458 6        36.454
G28        43.000    21654530.813 7 113795510.01207     -2166.817 7        47.161                                    21654529.461 6  88671914.17006     -1688.431 6        36.503    21654529.605 7  88671914.17307     -1688.471 7        45.704
C05        44.000                                                                                                                                    39335532.308 6 204830430.82406      -424.312 6        38.303    39335530.454 7 158387894.61507      -328.081 7        43.151    39335531.098 6 166441597.41706      -344.877 6        39.943
C11        45.000                                                                                                                                    25105547.100 7 130731204.66207      2582.252 7        42.220    25105550.106 7 101089692.64807      1996.860 7        44.644    25105547.550 7 106229829.61207      2098.256 7        42.906
R16        46.000    19038049.332 8 101698034.25508      -809.062 8        51.942                                                                    19038050.535 7  79098582.76107      -629.298 7        47.501
R17        47.000    21039415.965 8 112586398.24008     -3854.596 8        49.412                                                                    21039416.968 7  87567329.56907     -2998.037 7        45.558
C35        48.000                                                                                                                                    23993509.587 7 124940662.54307     -3184.953 7        45.126                                                                    23993509.822 7 101524586.37207     -2588.065 7        45.758
C24        49.000                                                                                                                                    21770678.645 8 113365700.87608     -1969.171 8        51.442                                                                    21770676.579 8  92118938.70308     -1600.103 8        50.267
R19        50.000    20668166.783 6 110560979.98406      2580.935 6        39.622                                                                    20668168.501 7  85991976.75507      2007.468 7        43.619
S48        51.000    77091455.422 6 405118612.64006      -513.648 6        38.018
C08        52.000                                                                                                                                    38217015.203 6 199006104.37806       679.533 6        41.533    38217010.550 7 153884166.81007       525.497 7        45.035    38217009.303 7 161708774.11107       552.164 7        42.709
C34        53.000                                                                                                                                    22975957.909 7 119642081.32707      1928.349 7        47.260                                                                    22975960.385 7  97219098.59107      1566.890 7        47.629
C60        54.000                                                                                                                                    40522919.338 6 211013643.15106      -402.523 6        39.069                                                                    40522905.393 6 171465832.16506      -327.125 6        40.160
C25        55.000                                                                                                                                    22710624.538 8 118260393.51708      1280.527 8        48.588                                                                    22710624.089 8  96096343.41708      1040.461 8        48.489
C26        56.000                                                                                                                                    25297399.983 7 131730266.08707     -3835.862 7        42.639                                                                    25297402.892 7 107041669.54007     -3117.089 7        43.782
C02        57.000                                                                                                                                    40717606.196 5 212027272.35305      -386.951 5        34.748    40717601.373 6 163952921.34906      -299.085 6        39.264    40717604.262 5 172289522.64505      -314.379 5        35.348
I03        58.000    86046866.423 6 261881092.66906      1085.791 6        40.663
E30        59.000    27743456.160 6 145792949.61706      2176.196 6        38.619                                                                    27743465.515 6 108871443.34406      1625.111 6        41.049    27743463.732 6 111711555.29306      1667.458 6        41.404
> 2025 01 02 16 15 50.0000000  0 57
E24         1.000    28393385.363 6 149208364.38906     -3166.232 6        38.156                                                                    28393388.192 6 111421898.40006     -2364.328 6        40.815    28393387.342 6 114328545.51606     -2425.853 6        41.554
E11         2.000    23989997.403 7 126068470.82507     -1108.735 7        44.546                                                                    23989994.871 7  94142160.51407      -827.945 7        45.856    23989994.588 7  96598029.70307      -849.541 7        46.393
G16         3.000    24569164.008 6 129111885.22606      3111.305 6        36.597                                    24569168.046 2 100606711.10702      2424.396 2        15.571
G05         4.000    23305335.693 7 122470434.33207      1309.183 7        43.477                                    23305334.053 6  95431524.55906      1020.142 6        38.871    23305334.666 6  95431523.55506      1020.147 6        40.188
S21         5.000    38372817.130 7 201650147.45507      -480.738 7        42.633
G26         6.000    22005589.767 7 115640345.78907      2222.746 7        44.408                                    22005591.791 7  90109480.67007      1732.003 7        42.923    22005591.798 7  90109467.68607      1732.106 7        42.554
G25         7.000    21352611.788 7 112208906.55407     -3188.950 7        46.652                                    21352611.892 7  87435596.99107     -2484.899 7        45.461    21352612.820 7  87435597.99507     -2484.917 7        42.736
G04         8.000    25060216.343 5 131692293.89105      -521.870 5        35.852                                    25060216.894 3 102617351.20503      -406.607 3        19.821    25060217.157 6 102617360.14906      -406.662 6        38.153
E36         9.000    24394702.298 7 128195185.66607      1673.217 7        47.513                                                                    24394705.346 8  95730304.97808      1249.474 8        49.144    24394704.677 8  98227605.67908      1282.084 8        49.629
R08        10.000    24005862.223 6 128550304.85406     -2041.737 6        39.210                                                                    24005864.019 6  99983565.71406     -1588.279 6        40.157
G20        11.000    23584607.925 6 123938059.12906     -1089.590 6        40.875                                    23584604.964 3  96575169.60603      -849.022 3        23.943
S27        12.000    39167274.494 6 205825454.97606      -470.672 6        36.786
E08        13.000    28338082.370 6 148917703.08406     -3005.769 6        36.499                                                                    28338092.560 6 111204860.12206     -2244.473 6        38.276    28338091.167 6 114105845.55006     -2303.031 6        38.748
S36        14.000    38143999.263 7 200448529.11507      -480.685 7        44.381
C13        15.000                                                                                                                                    38389427.719 7 199903857.72007       817.538 7        42.787    38389431.892 7 154578370.13007       632.204 7        44.301    38389429.290 7 162438276.04907       664.356 7        42.318
G18        16.000    22051440.327 7 115881293.93807      2443.645 7        47.099                                    22051439.483 6  90297199.50206      1904.133 6        36.193    22051439.611 7  90297207.51507      1904.071 7        44.715
G12        17.000    24958490.824 6 131157924.05206     -4052.698 6        38.736                                    24958489.520 5 102201061.76305     -3157.946 5        30.249    24958489.478 5 102201058.75705     -3157.955 5        35.657
R01        18.000    23826029.393 6 127363775.60606       998.637 6        38.706                                                                    23826031.914 5  99060588.50805       776.494 5        33.862
E02        19.000    23530702.589 8 123654839.32408       663.593 8        48.725                                                                    23530703.371 8  92339755.19108       495.546 8        50.899    23530702.658 8  94748604.29508       508.456 8        51.369
E10        21.000    25681349.486 7 134956613.85807     -2517.141 7        43.676                                                                    25681351.034 7 100779420.57807     -1879.639 7        46.507    25681350.666 7 103408434.25307     -1928.698 7        47.155
I06        22.000    38639249.960 6 151628878.26806      -394.093 6        41.004
S28        23.000    40851438.566 5 214675730.52005      -480.136 5        34.267
S23        25.000    38094347.975 7 200187081.58407      -484.761 7        44.853
S45        26.000    63351794.589 6 332917051.52806      -542.718 6        36.476
R09        27.000    21260289.905 8 113528923.80708      3007.231 8        48.632                                                                    21260290.606 7  88300375.22207      2338.890 7        46.493
R18        28.000    18992404.019 8 101383022.28508      -608.525 8        51.012                                                                    18992405.473 7  78853609.84607      -473.307 7        47.207
C38        29.000                                                                                                                                    38653206.079 7 201277484.08607        55.766 7        44.146                                                                    38653204.768 7 163554483.42007        45.278 7        43.951
C44        30.000                                                                                                                                    21301379.267 8 110922080.31408      -982.338 8        51.670                                                                    21301378.684 8  90133358.35508      -798.227 8        50.347
E12        31.000    27844068.707 5 146321741.12805     -3267.652 5        35.033                                                                    27844067.445 6 109266344.17906     -2439.941 6        38.423    27844067.096 6 112116753.91306     -2503.643 6        38.468
G11        32.000    25011267.497 6 131435304.86506     -3925.505 6        38.988                                    25011265.174 3 102417221.88503     -3058.804 3        21.310    25011265.393 6 102417212.89206     -3058.817 6        38.835
I02        33.000    37939394.257 6 148882357.39106      -817.138 6        41.349
R15        34.000    21677773.788 8 115839581.35408     -4237.031 8        48.026                                                                    21677776.880 7  90097519.02107     -3295.548 7        44.740
E34        35.000    28165438.766 6 148010425.01106      2795.186 6        37.815                                                                    28165450.701 6 110527328.64706      2087.325 6        40.212    28165449.050 6 113410644.59606      2141.780 6        40.262
G29        36.000    20398071.309 8 107192873.73208     -1245.711 8        49.227                                    20398068.275 8  83527021.84508      -970.686 8        50.886    20398068.867 7  83527031.84907      -970.723 7        46.171
G31        37.000    21576988.204 7 113388044.21707      -447.502 7        47.163                                    21576986.000 7  88354413.14707      -348.705 7        45.758    21576986.672 7  88354419.15607      -348.738 7        43.625
C10        38.000                                                                                                                                    40883556.876 5 212891421.81005     -1152.128 5        35.729    40883554.666 6 164621158.87406      -891.108 6        38.483    40883551.814 5 172991712.80205      -936.275 5        35.933
E25        39.000    23923484.274 8 125718961.46208     -1906.205 8        48.130                                                                    23923485.781 8  93881169.91208     -1423.401 8        49.990    23923485.144 8  96330228.49308     -1460.591 8        50.650
C12        40.000                                                                                                                                    21774024.277 7 113383245.75707       533.390 7        47.415    21774022.576 8  87675209.18208       412.417 8        52.448    21774021.419 8  92133243.61908       433.451 8        50.235
E07        41.000    27921104.312 6 146726367.46306     -1394.433 6        37.603                                                                    27921113.340 6 109568402.45206     -1041.142 6        40.660    27921111.979 6 112426705.39106     -1068.494 6        40.837
S44        42.000    40523306.091 6 212951560.92106      -406.474 6        36.386
G28        43.000    21656594.201 7 113806352.49407     -2169.985 7        46.858                                    21656592.722 6  88680362.85706     -1690.897 6        36.476    21656592.961 7  88680362.86707     -1690.926 7        45.214
C05        44.000                                                                                                                                    39335939.954 6 204832553.34406      -424.490 6        38.183    39335937.908 7 158389535.89507      -328.243 7        43.198    39335938.740 6 166443322.14506      -345.091 6        40.038
C11        45.000                                                                                                                                    25103069.006 7 130718295.57407      2581.395 7        42.595    25103071.012 7 101079710.56407      1996.111 7        44.710    25103068.493 7 106219339.95307      2097.643 7        43.027
R16        46.000    19038808.789 8 101702090.59308      -813.297 8        51.885                                                                    19038809.511 7  79101737.70007      -632.573 7        47.655
R17        47.000    21043018.944 8 112605676.30108     -3856.564 8        49.820                                                                    21043019.379 7  87582323.62507     -2999.565 7        46.004
C35        48.000                                                                                                                                    23996568.454 7 124956590.05907     -3185.909 7        45.491                                                                    23996568.487 7 101537528.78507     -2588.777 7        45.812
C24        49.000                                                                                                                                    21772570.691 8 113375553.50508     -1971.743 8        51.293                                                                    21772568.676 8  92126944.76408     -1602.161 8        50.347
R19        50.000    20665756.203 6 110548082.83206      2577.974 6        39.405                                                                    20665757.653 7  85981945.65407      2005.145 7        43.382
S48        51.000    77091918.758 6 405121182.13706      -514.047 6        38.081
C08        52.000                                                                                                                                    38216363.252 6 199002710.18206       678.252 6        41.487    38216358.525 7 153881542.20507       524.543 7        44.944    38216357.506 7 161706016.05807       551.064 7        42.652
C34        53.000                                                                                                                                    22974107.623 7 119632444.09207      1926.654 7        47.585                                                                    22974109.677 7  97211267.55907      1565.585 7        47.578
C60        54.000                                                                                                                                    40523306.013 6 211015656.77106      -402.749 6        39.027                                                                    40523292.036 6 171467468.39006      -327.319 6        40.260
C25        55.000                                                                                                                                    22709395.945 8 118253997.08608      1278.197 8        48.510                                                                    22709395.670 8  96091145.80008      1038.622 8        48.399
C26        56.000                                                                                                                                    25301084.092 7 131749448.25507     -3836.787 7        42.753                                                                    25301086.730 7 107057256.60607     -3117.680 7        44.024
C02        57.000                                                                                                                                    40717977.971 5 212029207.71305      -387.049 5        34.400    40717973.046 6 163954417.91206      -299.346 6        39.309    40717976.032 5 172291095.30205      -314.653 5        35.186
I03        58.000    86045483.187 6 261875663.76306      1085.744 6        40.734
E30        59.000    27741385.995 6 145782069.31906      2176.138 6        38.559                                                                    27741394.905 6 108863318.50406      1624.929 6        40.856    27741393.287 6 111703218.49506      1667.376 6        41.414
> 2025 01 02 16 15 55.0000000  0 57
E24         1.000    28396397.791 6 149224195.23206     -3166.548 6        38.192                                                                    28396400.748 6 111433720.13006     -2364.558 6        40.963    28396399.754 6 114340675.64206     -2426.170 6        41.554
E11         2.000    23991053.630 7 126074019.76007     -1110.971 7        44.552                                                                    23991050.898 7  94146304.20507      -829.662 7        46.082    23991050.466 7  96602281.48807      -851.292 7        46.418
G16         3.000    24566203.371 6 129096328.64006      3111.176 6        36.045                                    24566207.568 2 100594589.18002      2424.284 2        16.038
G05         4.000    23304091.206 7 122463894.95307      1306.501 7        43.151                                    23304089.712 6  95426428.94306      1018.046 6        38.829    23304089.971 6  95426427.93506      1018.118 6        39.769
S21         5.000    38373274.023 7 201652551.11407      -480.768 7        42.722
G26         6.000    22003475.227 7 115629234.99407      2221.372 7        44.403                                    22003477.460 7  90100822.92907      1730.934 7        42.874    22003477.477 7  90100809.94607      1730.878 7        42.506
G25         7.000    21355646.801 7 112224855.77607     -3190.834 7        46.525                                    21355646.948 7  87448024.95407     -2486.365 7        45.466    21355647.799 7  87448025.95707     -2486.348 7        42.980
G04         8.000    25060713.478 6 131694909.00606      -524.466 6        36.280                                    25060714.720 3 102619388.81403      -408.645 3        18.985    25060715.027 6 102619397.79406      -408.617 6        37.883
E36         9.000    24393111.120 7 128186823.81407      1671.394 7        47.503                                                                    24393114.175 8  95724060.74708      1248.155 8        49.326    24393113.414 8  98221198.55308      1280.690 8        49.828
R08        10.000    24007771.849 6 128560523.50906     -2045.684 6        39.985                                                                    24007772.416 6  99991513.57006     -1591.084 6        40.498
G20        11.000    23585645.638 6 123943514.32706     -1092.569 6        40.086                                    23585643.203 3  96579420.42403      -851.361 3        23.486
S27        12.000    39167721.665 6 205827809.00206      -470.881 6        36.756
E08        13.000    28340942.623 6 148932732.51006     -3006.318 6        36.522                                                                    28340952.812 6 111216083.35506     -2244.889 6        38.462    28340950.951 6 114117361.57006     -2303.529 6        38.832
S36        14.000    38144456.897 7 200450931.26307      -480.424 7        44.426
C13        15.000                                                                                                                                    38388643.362 7 199899771.59307       816.606 7        42.734    38388647.116 7 154575210.48407       631.470 7        44.396    38388644.703 7 162434955.73507       663.560 7        42.245
G18        16.000    22049116.483 7 115869080.44907      2441.679 7        47.180                                    22049115.304 6  90287682.51206      1902.605 6        36.045    22049115.285 7  90287690.51807      1902.631 7        44.743
G12        17.000    24962346.256 6 131178188.71606     -4053.224 6        38.850                                    24962345.713 5 102216852.40505     -3158.354 5        30.408    24962345.865 5 102216849.40105     -3158.334 5        35.857
R01        18.000    23825096.261 6 127358791.81206       994.831 6        38.844                                                                    23825099.205 5  99056712.21205       773.920 5        33.850
E02        19.000    23530071.714 8 123651523.84208       662.443 8        48.687                                                                    23530072.434 8  92337279.35108       494.645 8        51.113    23530071.719 8  94746063.86708       507.546 8        51.387
E10        21.000    25683745.032 7 134969203.17207     -2518.685 7        44.093                                                                    25683746.697 7 100788821.69607     -1880.861 7        46.634    25683746.303 7 103418080.61907     -1929.916 7        47.176
I06        22.000    38639751.539 6 151630848.18406      -393.985 6        41.349
S28        23.000    40851893.858 5 214678130.10105      -479.880 5        34.257
S23        25.000    38094811.526 7 200189504.75307      -484.733 7        44.783
S45        26.000    63352255.341 6 332919765.10706      -542.701 6        36.431
R09        27.000    21257474.909 8 113513891.88008      3005.374 8        48.572                                                                    21257476.081 7  88288683.73607      2337.494 7        46.307
R18        28.000    18992975.744 8 101386074.05508      -612.321 8        51.090                                                                    18992977.143 7  78855983.44407      -476.282 7        47.414
C38        29.000                                                                                                                                    38653152.984 7 201277207.51107        54.681 7        44.160                                                                    38653151.600 7 163554258.67807        44.317 7        43.975
C44        30.000                                                                                                                                    21302323.558 8 110926996.67208      -984.399 8        51.668                                                                    21302322.840 8  90137353.28908      -800.000 8        50.299
E12        31.000    27847178.005 5 146338080.34805     -3268.303 5        35.105                                                                    27847176.659 6 109278545.57506     -2440.643 6        38.682    27847176.290 6 112129273.59106     -2504.167 6        38.673
G11        32.000    25015002.805 6 131454934.23006     -3926.338 6        39.015                                    25015000.499 3 102432517.48803     -3059.475 3        21.238    25015001.053 6 102432508.49606     -3059.540 6        38.643
I02        33.000    37940435.543 6 148886443.35706      -817.229 6        41.244
R15        34.000    21681739.761 8 115860771.46408     -4238.989 8        48.313                                                                    21681741.961 7  90114000.18207     -3296.953 7        44.704
E34        35.000    28162779.112 6 147996448.95506      2795.198 6        37.928                                                                    28162791.190 6 110516892.02406      2087.273 6        40.369    28162789.608 6 113399935.71006      2141.667 6        40.424
G29        36.000    20399257.242 8 107199106.86408     -1247.702 8        49.099                                    20399254.396 8  83531878.83608      -972.237 8        50.851    20399254.881 7  83531888.83507      -972.224 7        46.378
G31        37.000    21577415.819 7 113390290.22807      -450.932 7        47.095                                    21577413.415 7  88356163.28907      -351.375 7        45.643    21577413.942 7  88356169.29407      -351.471 7        43.647
C10        38.000                                                                                                                                    40884661.849 5 212897182.21005     -1152.051 5        35.467    40884660.335 6 164625613.16406      -890.741 6        38.378    40884657.921 5 172996393.56605      -936.321 5        35.329
E25        39.000    23925298.543 8 125728495.46208     -1907.490 8        48.174                                                                    23925300.037 8  93888289.46608     -1424.473 8        50.161    23925299.325 8  96337533.76808     -1461.627 8        50.737
C12        40.000                                                                                                                                    21773512.949 7 113380583.77707       531.279 7        47.441    21773511.331 8  87673150.78008       410.841 8        52.554    21773510.234 8  92131080.54708       431.668 8        50.158
E07        41.000    27922431.929 6 146733344.69206     -1396.588 6        38.219                                                                    27922441.048 6 109573612.72606     -1042.859 6        40.815    27922439.633 6 112432051.56006     -1070.055 6        41.023
S44        42.000    40523687.046 6 212953592.80806      -406.468 6        36.601
G28        43.000    21658660.487 7 113817209.60907     -2172.954 7        46.915                                    21658658.826 6  88688822.94406     -1693.210 6        36.378    21658659.028 7  88688822.94807     -1693.258 7        45.392
C05        44.000                                                                                                                                    39336347.829 6 204834675.46506      -424.449 6        38.258    39336345.551 7 158391176.87507      -328.298 7        43.274    39336346.221 6 166445046.53506      -344.878 6        39.808
C11        45.000                                                                                                                                    25100590.243 7 130705390.33407      2580.651 7        42.165    25100592.954 7 101069731.46707      1995.415 7        44.429    25100590.129 7 106208853.41907      2096.763 7        42.980
R16        46.000    19039571.909 8 101706166.25708      -817.137 8        51.994                                                                    19039572.943 7  79104907.65807      -635.548 7        47.805
R17        47.000    21046623.155 8 112624962.94308     -3858.237 8        49.503                                                                    21046623.394 7  87597324.34207     -3000.770 7        45.685
C35        48.000                                                                                                                                    23999628.057 7 124972521.37607     -3186.740 7        45.600                                                                    23999627.984 7 101550474.28207     -2589.563 7        45.746
C24        49.000                                                                                                                                    21774464.922 8 113385417.81508     -1974.086 8        51.219                                                                    21774463.031 8  92134960.31608     -1604.194 8        50.199
R19        50.000    20663347.022 6 110535199.32206      2575.283 6        39.291                                                                    20663348.954 7  85971925.17607      2002.946 7        43.592
S48        51.000    77092383.655 6 405123751.40906      -514.000 6        38.210
C08        52.000                                                                                                                                    38215711.933 6 198999321.18506       677.178 6        41.414    38215707.705 7 153878921.63507       523.729 7        45.190    38215706.692 7 161703262.22707       550.144 7        42.614
C34        53.000                                                                                                                                    22972258.564 7 119622813.99007      1925.253 7        47.708                                                                    22972260.290 7  97203442.31507      1564.343 7        47.536
C60        54.000                                                                                                                                    40523692.567 6 211017670.16706      -402.647 6        39.132                                                                    40523678.760 6 171469104.43506      -327.331 6        40.348
C25        55.000                                                                                                                                    22708169.407 8 118247611.01308      1276.137 8        48.405                                                                    22708169.265 8  96085956.58408      1036.871 8        48.376
C26        56.000                                                                                                                                    25304768.442 7 131768633.39307     -3837.380 7        42.718                                                                    25304771.075 7 107072846.07607     -3118.300 7        43.909
C02        57.000                                                                                                                                    40718349.174 5 212031142.74005      -387.087 5        34.548    40718344.445 6 163955914.20206      -299.178 6        39.234    40718347.544 5 172292667.65905      -314.535 5        35.210
I03        58.000    86044099.796 6 261870234.57106      1085.739 6        40.625
E30        59.000    27739315.623 6 145771189.09306      2175.978 6        38.952                                                                    27739324.236 6 108855193.70906      1624.882 6        41.039    27739322.883 6 111694881.73906      1667.260 6        41.504
> 2025 01 02 16 16  0.0000000  0 57
E24         1.000    28399411.012 6 149240027.94006     -3166.668 6        37.652                                                                    28399413.641 6 111445543.26206     -2364.746 6        40.794    28399412.540 6 114352807.21706     -2426.433 6        41.406
E11         2.000    23992111.443 7 126079580.16107     -1113.263 7        44.584                                                                    23992108.998 7  94150456.45407      -831.283 7        46.010    23992108.586 7  96606542.05307      -852.931 7        46.488
G16         3.000    24563243.458 6 129080773.13506      3111.311 6        36.575                                    24563247.354 2 100582468.09202      2424.460 2        14.714
G05         4.000    23302849.329 7 122457369.00107      1303.932 7        43.103                                    23302847.961 6  95421343.79706      1016.048 6        38.607    23302847.982 6  95421342.78906      1015.964 6        40.031
S21         5.000    38373730.294 7 201654954.49107      -480.578 7        42.662
G26         6.000    22001362.679 7 115618131.75107      2219.922 7        44.451                                    22001364.560 7  90092171.07207      1729.804 7        42.823    22001364.760 7  90092158.07607      1729.947 7        42.470
G25         7.000    21358683.486 7 112240813.94507     -3192.569 7        46.129                                    21358683.730 7  87460459.89007     -2487.713 7        45.356    21358684.488 7  87460460.88507     -2487.652 7        42.965
G04         8.000    25061214.868 6 131697538.93006      -527.284 6        36.442                                    25061215.493 3 102621437.99003      -410.861 3        18.537    25061215.506 6 102621446.90206      -410.782 6        37.754
E36         9.000    24391521.584 7 128178470.98207      1669.748 7        47.480                                                                    24391524.731 8  95717823.25608      1246.835 8        49.268    24391523.933 8  98214798.34208      1279.418 8        49.884
R08        10.000    24009683.889 6 128570760.39806     -2049.225 6        38.784                                                                    24009683.765 6  99999475.65606     -1593.593 6        40.558
G20        11.000    23586686.636 6 123948984.82006     -1095.623 6        40.193                                    23586684.322 3  96583683.15103      -853.739 3        23.486
S27        12.000    39168168.188 6 205830162.76506      -470.862 6        36.783
E08        13.000    28343802.830 6 148947765.05706     -3006.612 6        36.631                                                                    28343813.310 6 111227308.95406     -2245.020 6        38.354    28343811.442 6 114128880.02006     -2303.864 6        38.766
S36        14.000    38144913.378 7 200453333.21907      -480.352 7        44.388
C13        15.000                                                                                                                                    38387859.184 7 199895690.08907       815.927 7        42.800    38387863.093 7 154572054.40807       630.839 7        44.441    38387860.907 7 162431639.18607       663.087 7        42.119
G18        16.000    22046793.969 7 115856876.76307      2439.829 7        47.170                                    22046792.949 6  90278173.16006      1901.166 6        36.042    22046793.405 7  90278181.16907      1901.148 7        45.079
G12        17.000    24966203.563 6 131198455.60106     -4053.565 6        39.081                                    24966202.313 5 102232644.77805     -3158.622 5        30.543    24966202.240 5 102232641.77405     -3158.669 5        35.562
R01        18.000    23824166.977 6 127353826.61206       991.100 6        39.327                                                                    23824169.420 5  99052850.34205       771.224 5        32.880
E02        19.000    23529442.003 8 123648214.46108       661.322 8        48.648                                                                    23529442.674 8  92334808.07208       493.875 8        51.021    23529442.005 8  94743528.11408       506.779 8        51.372
E10        21.000    25686142.691 7 134981800.63407     -2520.286 7        44.197                                                                    25686143.918 7 100798228.88707     -1882.009 7        46.519    25686143.493 7 103427733.21907     -1931.095 7        47.140
I06        22.000    38640253.710 6 151632817.81606      -393.907 6        41.211
S28        23.000    40852350.808 5 214680529.95505      -479.790 5        34.333
S23        25.000    38095270.663 7 200191927.77407      -484.504 7        44.922
S45        26.000    63352719.334 6 332920878.31816      -542.624 6        36.624
R09        27.000    21254661.246 8 113498868.71108      3003.745 8        49.152                                                                    21254662.577 7  88276999.06707      2336.335 7        45.791
R18        28.000    18993550.867 8 101389144.76908      -615.975 8        50.999                                                                    18993552.339 7  78858371.79007      -479.120 7        47.160
C38        29.000                                                                                                                                    38653100.386 7 201276936.14107        53.805 7        44.290                                                                    38653099.499 7 163554038.17007        43.857 7        43.790
C44        30.000                                                                                                                                    21303269.586 8 110931923.32408      -986.291 8        51.600                                                                    21303268.928 8  90141356.60108      -801.303 8        50.185
E12        31.000    27850287.638 5 146354423.76405     -3268.836 5        34.886                                                                    27850286.634 6 109290750.05906     -2441.059 6        38.682    27850286.266 6 112141796.47606     -2504.916 6        38.532
G11        32.000    25018739.015 6 131474568.19606     -3927.185 6        39.069                                    25018737.072 3 102447816.69003     -3060.137 3        21.190    25018736.901 6 102447807.71306     -3060.222 6        38.345
I02        33.000    37941476.702 6 148890529.83206      -817.325 6        41.328
R15        34.000    21685706.617 7 115881970.95307     -4240.855 7        47.953                                                                    21685708.765 7  90130488.66207     -3298.416 7        44.649
E34        35.000    28160119.867 6 147982473.37306      2795.343 6        37.425                                                                    28160131.627 6 110506455.77706      2087.186 6        40.253    28160130.071 6 113389227.19606      2141.578 6        40.453
G29        36.000    20400445.425 8 107205350.07908     -1249.626 8        48.919                                    20400442.439 8  83536743.68308      -973.736 8        50.720    20400442.830 7  83536753.68507      -973.726 7        46.163
G31        37.000    21577846.465 7 113392553.39907      -454.265 7        47.270                                    21577844.077 7  88357926.80207      -353.974 7        45.503    21577844.320 7  88357932.80007      -353.948 7        43.141
C10        38.000                                                                                                                                    40885767.712 5 212902942.59905     -1151.949 5        35.662    40885766.434 6 164630067.46906      -890.988 6        38.006    40885764.204 5 173001074.35205      -936.015 5        35.300
E25        39.000    23927114.176 8 125738036.15508     -1908.743 8        48.236                                                                    23927115.580 8  93895414.00608     -1425.352 8        50.099    23927114.933 8  96344844.16508     -1462.501 8        50.684
C12        40.000                                                                                                                                    21773003.793 7 113377932.44807       529.252 7        47.433    21773002.227 8  87671100.61108       409.256 8        52.550    21773001.103 8  92128926.13808       430.197 8        49.986
E07        41.000    27923761.469 6 146740332.63006     -1398.636 6        38.066                                                                    27923770.857 6 109578830.96106     -1044.324 6        40.832    27923769.338 6 112437405.93806     -1071.655 6        40.975
S44        42.000    40524079.869 6 212955624.61106      -406.289 6        36.446
G28        43.000    21660729.387 7 113828081.50707     -2175.833 7        46.591                                    21660727.667 6  88697294.55606     -1695.453 6        36.276    21660727.878 7  88697294.55407     -1695.428 7        45.254
C05        44.000                                                                                                                                    39336754.791 6 204836797.40606      -424.310 6        38.117    39336752.991 7 158392817.69407      -328.072 7        43.234    39336753.805 6 166446770.79506      -344.665 6        39.772
C11        45.000                                                                                                                                    25098111.498 6 130692489.10206      2579.822 6        41.635    25098115.806 7 101059755.43707      1994.919 7        44.123    25098112.460 7 106198370.12407      2096.470 7        42.717
R16        46.000    19040338.750 8 101710261.69408      -820.983 8        52.327                                                                    19040339.368 7  79108093.00107      -638.476 7        47.486
R17        47.000    21050228.708 8 112644258.31908     -3859.857 8        49.598                                                                    21050229.083 7  87612331.85907     -3002.130 7        45.207
C35        48.000                                                                                                                                    24002687.993 7 124988456.60607     -3187.411 7        45.384                                                                    24002688.215 7 101563422.95507     -2589.899 7        45.473
C24        49.000                                                                                                                                    21776361.547 8 113395293.94408     -1976.354 8        51.201                                                                    21776359.625 8  92142985.47908     -1605.822 8        50.040
R19        50.000    20660940.775 6 110522329.59806      2572.591 6        39.402                                                                    20660943.030 7  85961915.40107      2000.976 7        44.260
S48        51.000    77092850.072 6 405126320.93806      -513.731 6        38.141
C08        52.000                                                                                                                                    38215061.949 6 198995937.53806       676.348 6        41.287    38215057.767 7 153876305.18907       522.975 7        45.096    38215056.814 7 161700512.73607       549.735 7        42.497
C34        53.000                                                                                                                                    22970410.550 7 119613191.16407      1923.918 7        47.600                                                                    22970412.279 7  97195623.00007      1563.412 7        47.414
C60        54.000                                                                                                                                    40524079.273 6 211019683.51406      -402.719 6        38.922                                                                    40524065.359 6 171470740.44106      -327.015 6        40.040
C25        55.000                                                                                                                                    22706944.849 8 118241235.42408      1274.051 8        48.247                                                                    22706944.897 8  96080775.89908      1035.388 8        48.230
C26        56.000                                                                                                                                    25308452.828 7 131787821.62307     -3837.888 7        42.404                                                                    25308455.987 7 107088438.05907     -3118.524 7        43.655
C02        57.000                                                                                                                                    40718721.347 5 212033077.66805      -386.921 5        34.200    40718716.167 6 163957410.40606      -299.059 6        39.258    40718719.171 5 172294239.93505      -314.207 5        34.990
I03        58.000    86042715.918 6 261864805.16006      1086.042 6        40.727
E30        59.000    27737245.279 6 145760309.07606      2175.871 6        38.745                                                                    27737253.765 6 108847069.05906      1624.992 6        40.946    27737252.414 6 111686545.13606      1667.391 6        41.816
> 2025 01 02 16 16  5.0000000  0 57
E24         1.000    28402424.128 6 149255862.44906     -3167.184 6        37.323                                                                    28402426.882 6 111457367.73506     -2365.163 6        40.877    28402425.750 6 114364940.14006     -2426.791 6        41.411
E11         2.000    23993171.705 7 126085151.93907     -1115.661 7        44.169                                                                    23993169.233 7  94154617.20607      -833.075 7        46.031    23993168.898 7  96610811.35007      -854.842 7        46.426
G16         3.000    24560283.411 6 129065218.58406      3110.649 6        36.836                                    24560287.265 2 100570347.73602      2423.857 2        15.143
G05         4.000    23301609.999 7 122450856.45607      1301.014 7        43.026                                    23301608.628 6  95416269.09706      1013.776 6        38.285    23301609.019 6  95416268.08306      1013.883 6        39.907
S21         5.000    38374189.999 7 201657357.57507      -480.823 7        42.713
G26         6.000    21999251.348 7 115607035.97507      2218.294 7        44.605                                    21999253.069 7  90083525.03807      1728.537 7        42.783    21999253.297 7  90083512.04807      1728.501 7        42.404
G25         7.000    21361721.902 7 112256780.92907     -3194.368 7        46.510                                    21361722.188 7  87472901.69107     -2489.119 7        45.272    21361722.931 7  87472902.69407     -2489.110 7        43.175
G04         8.000    25061718.770 6 131700183.88806      -530.416 6        36.851                                    25061718.944 3 102623498.88003      -413.311 3        18.537    25061719.822 6 102623507.87306      -413.518 6        38.021
E36         9.000    24389933.890 7 128170127.10607      1667.758 7        47.420                                                                    24389936.828 8  95711592.44708      1245.436 8        49.290    24389936.181 8  98208404.99108      1277.899 8        49.737
R08        10.000    24011597.832 6 128581015.19206     -2052.926 6        38.042                                                                    24011599.168 6 100007451.66506     -1596.776 6        40.329
G20        11.000    23587730.859 6 123954470.61106     -1098.818 6        40.102                                    23587728.406 3  96587957.79003      -856.230 3        23.638
S27        12.000    39168615.784 6 205832516.51206      -470.800 6        36.681
E08        13.000    28346663.826 5 148962800.72105     -3007.514 5        35.438                                                                    28346674.314 6 111238536.88906     -2246.041 6        38.213    28346672.324 6 114140400.84306     -2304.533 6        38.483
S36        14.000    38145370.061 7 200455734.38807      -480.299 7        44.411
C13        15.000                                                                                                                                    38387076.474 7 199891613.16207       814.873 7        42.679    38387080.167 7 154568901.87407       630.066 7        44.211    38387078.046 7 162428326.35107       662.150 7        42.182
G18        16.000    22044473.372 7 115844682.80007      2437.657 7        46.857                                    22044472.441 5  90268671.38805      1899.471 5        35.995    22044472.451 7  90268679.39507      1899.469 7        44.924
G12        17.000    24970060.399 6 131218724.59206     -4054.183 6        39.108                                    24970059.320 5 102248438.80105     -3159.103 5        30.558    24970058.789 6 102248435.79406     -3159.009 6        36.015
R01        18.000    23823243.276 6 127348879.79206       987.434 6        38.742                                                                    23823244.081 5  99049002.80605       767.999 5        33.527
E02        19.000    23528813.355 8 123644911.11508       660.013 8        48.469                                                                    23528814.065 8  92332341.29608       492.865 8        51.049    23528813.368 8  94740996.98908       505.715 8        51.336
E10        21.000    25688541.372 7 134994406.13507     -2521.997 7        43.676                                                                    25688542.760 7 100807642.09407     -1883.412 7        46.569    25688542.100 7 103437391.98107     -1932.461 7        47.007
I06        22.000    38640755.489 6 151634787.08106      -393.902 6        40.887
S28        23.000    40852808.291 5 214682929.47305      -480.237 5        34.233
S23        25.000    38095732.180 7 200194350.75207      -484.669 7        44.801
S45        26.000    63353183.399 6 332923591.33506      -542.682 6        36.526
R09        27.000    21251849.459 8 113483854.35108      3001.988 8        48.582                                                                    21251850.658 7  88265321.26707      2334.810 7        45.646
R18        28.000    18994129.616 8 101392234.37808      -619.956 8        51.053                                                                    18994131.054 7  78860774.82407      -482.177 7        47.601
C38        29.000                                                                                                                                    38653049.137 7 201276669.90107        52.625 7        44.128                                                                    38653048.399 7 163553821.82007        42.686 7        43.822
C44        30.000                                                                                                                                    21304217.644 8 110936860.19508      -988.508 8        51.479                                                                    21304216.985 8  90145368.21508      -803.249 8        50.312
E12        31.000    27853398.359 5 146370771.25105     -3269.956 5        34.548                                                                    27853397.598 6 109302957.61306     -2441.987 6        38.691    27853397.122 6 112154322.48406     -2505.643 6        38.628
G11        32.000    25022476.396 6 131494206.63006     -3928.217 6        39.450                                    25022474.190 3 102463119.37403     -3060.951 3        21.000    25022473.980 6 102463110.38006     -3060.882 6        38.165
I02        33.000    37942517.960 6 148894616.65006      -817.391 6        41.290
R15        34.000    21689675.301 8 115903179.89108     -4242.862 8        48.275                                                                    21689677.576 7  90146984.49407     -3299.955 7        44.257
E34        35.000    28157460.444 6 147968498.19006      2794.951 6        37.119                                                                    28157472.173 6 110496019.79206      2087.278 6        40.195    28157470.694 6 113378518.98006      2141.452 6        40.353
G29        36.000    20401635.302 8 107211603.37008     -1251.765 8        48.800                                    20401632.387 8  83541616.38308      -975.400 8        50.663    20401632.524 7  83541626.38107      -975.414 7        46.114
G31        37.000    21578280.360 7 113394833.66707      -457.839 7        47.419                                    21578277.994 7  88359703.64007      -356.759 7        45.496    21578278.178 7  88359709.64007      -356.760 7        42.893
C10        38.000                                                                                                                                    40886874.025 5 212908702.88805     -1152.022 5        35.933    40886873.097 6 164634521.68506      -891.095 6        37.773    40886870.419 5 173005755.06505      -936.312 5        35.676
E25        39.000    23928930.800 8 125747583.45308     -1910.248 8        48.107                                                                    23928932.369 8  93902543.48308     -1426.500 8        50.122    23928931.760 8  96352159.62808     -1463.718 8        50.634
C12        40.000                                                                                                                                    21772496.793 7 113375291.70907       527.008 7        47.457    21772494.906 8  87669058.62808       407.437 8        52.340    21772493.986 8  92126780.32408       428.155 8        50.056
E07        41.000    27925093.042 6 146747331.17206     -1400.970 6        37.645                                                                    27925102.693 6 109584057.13706     -1046.009 6        41.020    27925101.077 6 112442768.45506     -1073.375 6        41.030
S44        42.000    40524467.796 6 212957656.27306      -406.394 6        36.325
G28        43.000    21662800.963 7 113838968.08607     -2178.888 7        46.699                                    21662799.298 6  88705777.60206     -1697.834 6        36.250    21662799.307 7  88705777.60007     -1697.799 7        45.053
C05        44.000                                                                                                                                    39337162.916 6 204838919.05206      -424.407 6        37.864    39337160.499 7 158394458.30107      -328.173 7        43.170    39337161.107 6 166448494.82506      -344.837 6        39.781
C11        45.000                                                                                                                                    25095634.742 6 130679591.78506      2578.965 6        41.137    25095638.510 7 101049782.43607      1994.216 7        43.755    25095635.593 7 106187890.03407      2095.501 7        42.766
R16        46.000    19041108.918 8 101714376.69008      -825.053 8        52.096                                                                    19041109.660 7  79111293.55607      -641.691 7        47.393
R17        47.000    21053835.729 8 112663562.09408     -3861.755 8        49.689                                                                    21053836.359 7  87627345.91307     -3003.527 7        45.428
C35        48.000                                                                                                                                    24005748.864 7 125004395.67807     -3188.281 7        45.231                                                                    24005749.211 7 101576374.75307     -2590.692 7        45.570
C24        49.000                                                                                                                                    21778260.536 8 113405181.80308     -1978.816 8        51.071                                                                    21778258.555 8  92151020.18008     -1608.057 8        50.125
R19        50.000    20658537.721 6 110509473.45506      2569.804 6        39.402                                                                    20658540.126 7  85951916.18807      1998.715 7        44.223
S48        51.000    77093313.403 6 405128889.79306      -513.961 6        38.060
C08        52.000                                                                                                                                    38214413.262 6 198992559.13706       674.949 6        41.142    38214408.879 7 153873692.79807       522.012 7        45.059    38214407.920 7 161697767.50807       548.512 7        42.512
C34        53.000                                                                                                                                    22968564.117 7 119603575.54707      1922.267 7        47.551                                                                    22968565.675 7  97187809.54007      1561.949 7        47.425
C60        54.000                                                                                                                                    40524466.091 6 211021696.71206      -402.669 6        39.000                                                                    40524452.060 6 171472376.32806      -327.152 6        40.052
C25        55.000                                                                                                                                    22705722.605 8 118234870.24808      1271.800 8        48.061                                                                    22705722.558 8  96075603.68108      1033.467 8        48.251
C26        56.000                                                                                                                                    25312138.178 7 131807012.81607     -3838.578 7        42.542                                                                    25312141.392 7 107104032.47507     -3119.250 7        43.484
C02        57.000                                                                                                                                    40719092.581 5 212035012.30105      -387.028 5        34.219    40719087.490 6 163958906.41006      -299.206 6        39.069    40719090.826 5 172295812.00105      -314.482 5        35.343
I03        58.000    86041332.446 6 261859375.51606      1085.848 6        40.775
E30        59.000    27735175.060 6 145749429.14606      2175.841 6        38.730                                                                    27735183.504 6 108838944.50106      1624.801 6        41.182    27735182.014 6 111678208.62906      1667.158 6        41.597
> 2025 01 02 16 16 10.0000000  0 57
E24         1.000    28405437.518 6 149271699.05006     -3167.368 6        37.331                                                                    28405440.319 6 111469193.77706     -2365.320 6        40.729    28405439.338 6 114377074.70306     -2427.039 6        41.142
E11         2.000    23994234.245 7 126090735.35007     -1117.797 7        43.968                                                                    23994231.787 7  94158786.64007      -834.627 7        45.955    23994231.394 7  96615089.56007      -856.520 7        46.210
G16         3.000    24557324.221 6 129049665.27206      3110.556 6        36.888                                    24557327.462 2 100558228.34902      2423.800 2        15.952
G05         4.000    23300373.271 7 122444357.58307      1298.359 7        42.629                                    23300371.697 6  95411205.04806      1011.706 6        37.955    23300371.721 6  95411204.02306      1011.866 6        38.859
S21         5.000    38374646.694 7 201659760.70107      -480.541 7        42.806
G26         6.000    21997140.859 7 115595947.96607      2216.892 7        44.796                                    21997143.076 7  90074885.05307      1727.443 7        42.849    21997143.171 7  90074872.05007      1727.591 7        42.246
G25         7.000    21364762.225 7 112272757.05807     -3196.088 7        46.215                                    21364762.346 7  87485350.62207     -2490.460 7        45.320    21364762.675 7  87485351.62407     -2490.441 7        43.018
G04         8.000    25062224.391 6 131702843.89406      -533.346 6        38.045                                    25062225.297 3 102625571.60803      -415.598 3        19.403    25062225.255 6 102625580.57706      -415.625 6        37.853
E36         9.000    24388347.822 7 128161792.45507      1666.166 7        47.156                                                                    24388350.723 8  95705368.55008      1244.158 8        49.229    24388350.184 8  98202018.72908      1276.617 8        49.515
R08        10.000    24013515.873 6 128591288.25206     -2056.294 6        37.754                                                                    24013516.867 6 100015441.87606     -1599.421 6        40.274
G20        11.000    23588777.524 6 123959971.95806     -1101.776 6        40.186                                    23588775.387 3  96592244.56503      -858.533 3        23.638
S27        12.000    39169065.088 6 205834870.08906      -470.577 6        36.885
E08        13.000    28349526.234 5 148977839.78105     -3008.201 5        35.595                                                                    28349536.011 6 111249767.32106     -2246.173 6        38.057    28349534.265 6 114151924.23806     -2304.816 6        38.204
S36        14.000    38145827.405 7 200458136.22807      -480.378 7        44.387
C13        15.000                                                                                                                                    38386294.559 7 199887541.07507       814.097 7        42.984    38386298.210 7 154565753.09107       629.471 7        44.023    38386296.214 6 162425017.47406       661.372 6        41.974
G18        16.000    22042154.911 7 115832498.86407      2435.924 7        46.905                                    22042153.878 6  90259177.42506      1898.120 6        36.083    22042154.097 7  90259185.43407      1898.129 7        45.029
G12        17.000    24973917.498 6 131238995.98806     -4054.410 6        39.174                                    24973916.757 5 102264234.69205     -3159.275 5        30.528    24973916.609 5 102264231.69205     -3159.383 5        35.724
R01        18.000    23822320.468 6 127343951.68006       983.872 6        37.989                                                                    23822322.925 5  99045169.84205       765.372 5        33.701
E02        19.000    23528185.715 8 123641614.09108       658.903 8        48.433                                                                    23528186.629 8  92329879.24908       492.014 8        51.008    23528185.956 8  94738470.71208       504.878 8        51.192
E10        21.000    25690941.608 7 135007019.96807     -2523.617 7        43.043                                                                    25690942.992 7 100817061.51807     -1884.508 7        46.538    25690942.377 7 103447057.12707     -1933.625 7        46.870
I06        22.000    38641257.674 6 151636756.23606      -393.759 6        40.961
S28        23.000    40853259.867 5 214685329.24205      -479.907 5        34.662
S23        25.000    38096193.633 7 200196773.66107      -484.469 7        44.962
S45        26.000    63353641.830 6 332926304.43306      -542.439 6        36.431
R09        27.000    21249039.112 8 113468848.98208      3000.225 8        48.790                                                                    21249040.667 7  88253650.45807      2333.525 7        46.237
R18        28.000    18994712.092 8 101395343.11408      -623.547 8        51.236                                                                    18994713.143 7  78863192.73507      -484.967 7        47.229
C38        29.000                                                                                                                                    38652999.208 7 201276409.07607        51.684 7        44.408                                                                    38652998.248 7 163553609.89807        42.038 7        43.666
C44        30.000                                                                                                                                    21305167.855 8 110941807.55708      -990.435 8        51.809                                                                    21305167.060 8  90149388.37808      -804.853 8        50.118
E12        31.000    27856510.002 5 146387123.07605     -3270.914 5        34.552                                                                    27856509.157 6 109315168.39306     -2442.324 6        38.601    27856508.759 6 112166851.81406     -2506.287 6        38.324
G11        32.000    25026213.894 6 131513849.82206     -3928.941 6        39.456                                    25026212.051 3 102478425.77303     -3061.505 3        21.190    25026211.583 6 102478416.79506     -3061.676 6        37.815
I02        33.000    37943559.569 6 148898704.08906      -817.567 6        41.437
R15        34.000    21693646.471 8 115924398.60508     -4244.586 8        48.212                                                                    21693648.981 7  90163487.92107     -3301.349 7        44.217
E34        35.000    28154801.113 6 147954523.70506      2794.932 6        36.711                                                                    28154812.829 6 110485584.36406      2086.980 6        40.272    28154811.182 6 113367811.29106      2141.606 6        40.210
G29        36.000    20402827.303 8 107217866.95808     -1253.674 8        48.841                                    20402824.307 8  83546497.11008      -976.891 8        50.705    20402824.533 7  83546507.10707      -976.903 7        45.979
G31        37.000    21578717.388 7 113397131.32507      -461.144 7        47.567                                    21578715.212 7  88361494.03107      -359.334 7        45.601    21578715.783 7  88361500.03707      -359.421 7        43.407
C10        38.000                                                                                                                                    40887980.143 5 212914463.36505     -1152.101 5        35.976    40887979.415 6 164638976.04206      -890.725 6        37.546    40887976.592 5 173010435.91905      -935.965 5        35.576
E25        39.000    23930748.684 7 125757137.63607     -1911.475 7        47.884                                                                    23930750.462 8  93909678.11108     -1427.380 8        50.021    23930749.878 8  96359480.37308     -1464.567 8        50.444
C12        40.000                                                                                                                                    21771991.706 7 113372661.83007       524.918 7        47.677    21771989.735 8  87667025.04708       405.962 8        52.194    21771988.870 8  92124643.35208       426.554 8        49.903
E07        41.000    27926427.170 6 146754340.60406     -1402.829 6        37.970                                                                    27926436.685 6 109589291.45506     -1047.604 6        40.753    27926435.107 6 112448139.31506     -1074.924 6        40.803
S44        42.000    40524852.123 6 212959688.09106      -406.478 6        36.397
G28        43.000    21664875.703 7 113849869.63807     -2181.742 7        47.011                                    21664873.787 6  88714272.31706     -1700.061 6        36.333    21664874.014 7  88714272.32107     -1700.067 7        45.357
C05        44.000                                                                                                                                    39337570.017 6 204841040.70206      -424.097 6        38.438    39337567.810 7 158396098.90707      -328.036 7        43.046    39337568.660 6 166450218.84806      -344.619 6        39.517
C11        45.000                                                                                                                                    25093159.476 7 130666698.68007      2578.310 7        42.057    25093162.289 7 101039812.72507      1993.770 7        44.625    25093159.595 7 106177413.35807      2095.033 7        42.711
R16        46.000    19041882.906 8 101718511.49508      -828.804 8        52.041                                                                    19041883.852 7  79114509.52807      -644.658 7        47.262
R17        47.000    21057445.038 8 112682874.81208     -3863.341 8        49.676                                                                    21057445.960 7  87642366.91807     -3004.821 7        45.130
C35        48.000                                                                                                                                    24008810.613 7 125020338.86807     -3188.939 7        45.375                                                                    24008810.913 7 101589329.92107     -2591.273 7        45.409
C24        49.000                                                                                                                                    21780161.604 8 113415081.68808     -1981.101 8        51.213                                                                    21780159.686 8  92159064.65408     -1609.769 8        49.894
R19        50.000    20656136.876 6 110496631.30806      2567.113 6        39.757                                                                    20656138.718 7  85941927.89107      1996.572 7        44.286
S48        51.000    77093778.895 6 405131458.86606      -513.784 6        38.126
C08        52.000                                                                                                                                    38213766.028 6 198989186.30206       674.079 6        41.352    38213761.308 7 153871084.72007       521.274 7        45.079    38213760.277 7 161695026.81807       547.817 7        42.279
C34        53.000                                                                                                                                    22966719.119 7 119593967.41207      1920.927 7        47.994                                                                    22966720.541 7  97180002.17107      1560.882 7        47.313
C60        54.000                                                                                                                                    40524852.653 6 211023710.04906      -402.573 6        39.150                                                                    40524838.672 6 171474012.35506      -327.113 6        39.985
C25        55.000                                                                                                                                    22704502.398 8 118228515.77708      1269.938 8        48.244                                                                    22704502.241 8  96070440.17608      1031.896 8        48.126
C26        56.000                                                                                                                                    25315824.431 7 131826207.29707     -3839.143 7        43.160                                                                    25315827.477 7 107119629.56507     -3119.607 7        43.147
C02        57.000                                                                                                                                    40719463.753 5 212036947.01305      -386.823 5        34.752    40719459.185 6 163960402.47406      -299.074 6        39.066    40719462.283 5 172297384.13705      -314.268 5        35.205
I03        58.000    86039949.298 6 261853945.83906      1086.014 6        40.520
E30        59.000    27733104.523 6 145738549.66706      2175.990 6        38.483                                                                    27733112.973 6 108830820.26506      1624.750 6        40.970    27733111.611 6 111669872.45306      1667.194 6        41.433
> 2025 01 02 16 16 15.0000000  0 57
E24         1.000    28408451.617 6 149287537.46706     -3167.850 6        37.229                                                                    28408454.295 6 111481021.15606     -2365.662 6        40.701    28408453.395 6 114389210.62906     -2427.361 6        40.999
E11         2.000    23995299.130 7 126096330.17007     -1120.086 7        43.979                                                                    23995296.442 7  94162964.60007      -836.383 7        46.067    23995296.122 7  96619376.50207      -858.193 7        46.206
G16         3.000    24554363.863 6 129034112.97406      3110.378 6        36.586                                    24554368.120 2 100546109.75102      2423.650 2        15.714
G05         4.000    23299138.772 7 122437872.07507      1295.733 7        42.925                                    23299137.243 6  95406151.40806      1009.662 6        37.539    23299137.284 6  95406150.41106      1009.700 6        38.970
S21         5.000    38375103.797 7 201662163.62707      -480.588 7        42.499
G26         6.000    21995032.206 7 115584867.47107      2215.352 7        44.876                                    21995034.527 7  90066250.92607      1726.244 7        42.821    21995034.643 7  90066237.93307      1726.252 7        42.360
G25         7.000    21367804.129 7 112288742.06007     -3197.806 7        46.709                                    21367804.163 7  87497806.46307     -2491.799 7        45.315    21367804.447 7  87497807.46207     -2491.834 7        42.847
G04         8.000    25062733.710 6 131705518.73006      -536.559 6        37.350                                    25062734.463 3 102627655.85303      -418.106 3        19.642    25062734.172 6 102627664.86406      -418.100 6        38.498
E36         9.000    24386763.542 7 128153466.81107      1664.249 7        47.046                                                                    24386766.363 8  95699151.35108      1242.787 8        49.336    24386765.868 8  98195639.34508      1275.197 8        49.537
R08        10.000    24015439.203 6 128601579.59606     -2060.021 6        39.255                                                                    24015438.915 6 100023446.24206     -1602.126 6        41.220
G20        11.000    23589827.514 6 123965488.63506     -1104.844 6        40.529                                    23589825.092 3  96596543.27003      -860.909 3        23.867
S27        12.000    39169512.787 6 205837223.30606      -470.464 6        36.597
E08        13.000    28352388.263 5 148992881.88105     -3008.703 5        35.938                                                                    28352398.223 6 111261000.08906     -2246.720 6        37.679    28352396.782 6 114163450.02506     -2305.273 6        37.743
S36        14.000    38146284.083 7 200460538.43507      -480.357 7        44.450
C13        15.000                                                                                                                                    38385513.703 7 199883473.48207       813.080 7        43.081    38385517.060 7 154562607.78407       628.710 7        43.865    38385514.984 7 162421712.21907       660.731 7        42.118
G18        16.000    22039838.365 7 115820324.71907      2433.875 7        46.684                                    22039837.224 6  90249691.09006      1896.521 6        36.004    22039837.778 7  90249699.09907      1896.550 7        45.282
G12        17.000    24977775.878 6 131259269.56106     -4054.930 6        39.018                                    24977774.555 5 102280032.27405     -3159.685 5        30.362    24977775.409 5 102280029.26305     -3159.490 5        35.257
R01        18.000    23821400.876 6 127339042.01906       980.226 6        38.760                                                                    23821403.381 5  99041351.23005       762.252 5        32.329
E02        19.000    23527559.291 8 123638323.13008       657.671 8        48.346                                                                    23527560.391 8  92327421.72908       491.086 8        51.117    23527559.726 8  94735949.08108       503.925 8        51.100
E10        21.000    25693343.507 7 135019641.85107     -2525.247 7        43.240                                                                    25693344.887 7 100826486.95007     -1885.696 7        46.579    25693344.276 7 103456728.44407     -1934.850 7        46.732
I06        22.000    38641758.835 6 151638725.02806      -393.777 6        41.077
S28        23.000    40853718.459 5 214687728.75205      -479.826 5        34.333
S23        25.000    38096654.416 7 200199196.40207      -484.593 7        44.846
S45        26.000    63354103.561 6 332929017.45906      -542.283 6        36.567
R09        27.000    21246230.666 8 113453852.38808      2998.540 8        49.167                                                                    21246232.271 7  88241986.47107      2332.147 7        46.099
R18        28.000    18995298.273 8 101398470.74608      -627.379 8        51.206                                                                    18995299.180 7  78865625.35507      -487.917 7        46.996
C38        29.000                                                                                                                                    38652949.941 7 201276153.40107        50.600 7        44.372                                                                    38652949.101 7 163553402.14607        41.187 7        43.661
C44        30.000                                                                                                                                    21306119.931 8 110946765.15708      -992.539 8        51.889                                                                    21306119.135 8  90153416.83008      -806.480 8        50.100
E12        31.000    27859622.369 5 146403478.97805     -3271.845 5        34.833                                                                    27859621.627 6 109327382.21106     -2443.037 6        38.508    27859620.948 6 112179384.23806     -2506.727 6        38.312
G11        32.000    25029953.119 6 131533497.52806     -3929.993 6        39.387                                    25029950.891 3 102493735.68503     -3062.339 3        20.905    25029950.368 6 102493726.68606     -3062.143 6        37.474
I02        33.000    37944601.168 6 148902791.87406      -817.588 6        41.209
R15        34.000    21697618.729 7 115945626.78607     -4246.525 7        47.707                                                                    21697621.884 7  90179998.72407     -3302.861 7        44.838
E34        35.000    28152141.806 6 147940549.67006      2794.689 6        37.017                                                                    28152153.683 6 110475149.25206      2086.975 6        40.455    28152152.085 6 113357103.96406      2141.447 6        40.391
G29        36.000    20404021.250 8 107224140.56208     -1255.700 8        48.886                                    20404018.123 8  83551385.63808      -978.467 8        50.694    20404018.598 7  83551395.63607      -978.425 7        46.130
G31        37.000    21579157.968 7 113399446.11207      -464.621 7        47.516                                    21579155.693 7  88363297.76607      -362.044 7        45.553    21579156.421 7  88363303.76707      -362.072 7        43.714
C10        38.000                                                                                                                                    40889086.458 6 212920223.75006     -1152.116 6        36.197    40889085.749 6 164643430.34406      -890.822 6        37.905    40889083.001 5 173015116.70605      -936.014 5        35.500
E25        39.000    23932568.104 7 125766698.45407     -1912.774 7        47.931                                                                    23932569.801 8  93916817.69008     -1428.384 8        50.127    23932569.207 8  96366806.20308     -1465.659 8        50.427
C12        40.000                                                                                                                                    21771488.765 7 113370042.56807       522.728 7        47.686    21771486.856 8  87664999.68008       404.287 8        52.135    21771485.902 8  92122514.98808       424.804 8        49.922
E07        41.000    27927763.132 6 146761360.67106     -1405.024 6        37.887                                                                    27927772.377 6 109594533.71106     -1049.230 6        40.863    27927770.901 6 112453518.33006     -1076.661 6        41.037
S44        42.000    40525236.115 6 212961719.80406      -406.432 6        36.526
G28        43.000    21666952.757 7 113860785.88807     -2184.697 7        47.101                                    21666951.079 6  88722778.48606     -1702.363 6        36.299    21666951.356 7  88722778.48707     -1702.356 7        45.413
C05        44.000                                                                                                                                    39337976.868 6 204843162.11706      -424.470 6        38.489    39337975.269 7 158397739.31907      -327.956 7        43.009    39337976.002 6 166451942.66306      -344.562 6        39.643
C11        45.000                                                                                                                                    25090684.768 7 130653809.57307      2577.391 7        42.248    25090687.524 7 101029846.09007      1993.088 7        44.962    25090684.240 7 106166939.93607      2094.362 7        42.656
R16        46.000    19042660.369 8 101722665.87608      -832.823 8        51.955                                                                    19042661.456 7  79117740.72207      -647.761 7        47.014
R17        47.000    21061055.310 8 112702195.97208     -3865.053 8        49.783                                                                    21061056.263 7  87657394.49207     -3006.171 7        44.834
C35        48.000                                                                                                                                    24011873.073 7 125036285.90507     -3189.859 7        45.837                                                                    24011873.247 7 101602288.19207     -2591.956 7        45.362
C24        49.000                                                                                                                                    21782065.064 8 113424993.32608     -1983.496 8        51.381                                                                    21782063.112 8  92167118.66908     -1611.675 8        49.958
R19        50.000    20653739.251 6 110483802.93206      2564.308 6        39.724                                                                    20653740.369 7  85931950.25407      1994.546 7        43.820
S48        51.000    77094242.025 6 405134027.62906      -513.735 6        38.156
C08        52.000                                                                                                                                    38213119.377 6 198985818.71706       672.948 6        41.518    38213114.756 7 153868480.69907       520.449 7        45.195    38213113.633 7 161692290.37707       546.912 7        42.404
C34        53.000                                                                                                                                    22964875.099 7 119584366.52007      1919.457 7        47.940                                                                    22964876.847 7  97172200.66607      1559.775 7        47.253
C60        54.000                                                                                                                                    40525239.082 6 211025723.28606      -402.649 6        39.093                                                                    40525225.222 6 171475648.27006      -327.173 6        40.014
C25        55.000                                                                                                                                    22703284.372 8 118222171.78008      1267.733 8        48.340                                                                    22703283.909 8  96065285.16408      1030.134 8        48.119
C26        56.000                                                                                                                                    25319511.475 7 131845404.80807     -3839.775 7        43.403                                                                    25319514.028 7 107135229.09707     -3120.091 7        42.993
C02        57.000                                                                                                                                    40719836.083 5 212038881.54805      -387.106 5        34.700    40719830.884 6 163961898.36406      -299.175 6        38.949    40719833.813 5 172298956.10205      -314.366 5        34.895
I03        58.000    86038565.365 6 261848515.91006      1086.053 6        40.622
E30        59.000    27731034.126 6 145727670.35706      2175.920 6        38.339                                                                    27731042.644 6 108822696.15106      1624.828 6        41.135    27731041.415 6 111661536.39006      1667.241 6        41.347
> 2025 01 02 16 16 20.0000000  0 57
E24         1.000    28411466.216 6 149303377.62006     -3168.541 6        37.066                                                                    28411468.561 6 111492849.83306     -2365.956 6        40.620    28411467.591 6 114401347.88106     -2427.790 6        40.961
E11         2.000    23996365.853 7 126101936.29407     -1122.605 7        44.163                                                                    23996363.242 7  94167151.00107      -838.281 7        46.043    23996362.899 7  96623672.11007      -860.162 7        46.099
G16         3.000    24551404.338 6 129018561.62306      3109.801 6        36.567                                    24551408.652 2 100533991.88202      2423.191 2        15.857
G05         4.000    23297907.410 7 122431399.89007      1292.696 7        42.633                                    23297905.374 6  95401108.15006      1007.295 6        37.172    23297905.672 6  95401107.15206      1007.386 6        38.799
S21         5.000    38375560.936 7 201664566.47307      -480.771 7        42.779
G26         6.000    21992925.237 7 115573794.41807      2213.576 7        44.600                                    21992927.351 7  90057622.59507      1724.861 7        42.690    21992927.279 7  90057609.60007      1724.920 7        42.093
G25         7.000    21370847.943 7 112304735.83907     -3199.976 7        46.393                                    21370847.652 7  87510269.15107     -2493.488 7        45.129    21370848.196 7  87510270.14807     -2493.416 7        42.336
G04         8.000    25063245.168 6 131708208.56906      -539.814 6        36.454                                    25063246.437 3 102629751.90303      -420.650 3        19.403    25063246.172 6 102629760.93506      -420.377 6        37.781
E36         9.000    24385180.923 7 128145150.07207      1662.128 7        46.710                                                                    24385183.762 8  95692940.81508      1241.214 8        49.311    24385183.187 8  98189266.79108      1273.617 8        49.538
R08        10.000    24017363.191 6 128611888.75406     -2063.831 6        39.120                                                                    24017364.370 6 100031464.49206     -1605.207 6        40.160
G20        11.000    23590880.709 6 123971020.51206     -1108.178 6        40.601                                    23590877.877 3  96600853.82803      -863.515 3        23.429
S27        12.000    39169963.142 6 205839576.35406      -471.004 6        37.108
E08        13.000    28355251.557 5 149007927.02405     -3009.591 5        35.995                                                                    28355261.188 6 111272235.07306     -2247.227 6        37.864    28355259.517 6 114174978.12906     -2306.261 6        37.743
S36        14.000    38146741.838 7 200462939.99807      -480.531 7        44.566
C13        15.000                                                                                                                                    38384733.310 7 199879410.45807       811.898 7        42.952    38384736.748 7 154559465.99407       627.804 7        43.947    38384734.667 7 162418410.69207       659.673 7        42.203
G18        16.000    22037523.607 7 115808160.27907      2431.608 7        47.050                                    22037522.417 5  90240212.32605      1894.758 5        35.938    22037522.812 7  90240220.33407      1894.785 7        45.330
G12        17.000    24981634.193 6 131279545.18006     -4055.568 6        39.054                                    24981632.738 5 102295831.45805     -3160.177 5        30.053    24981633.539 5 102295828.43305     -3159.959 5        35.557
R01        18.000    23820487.489 6 127334150.79206       976.145 6        38.742                                                                    23820488.435 5  99037546.90105       759.382 5        32.790
E02        19.000    23526934.222 8 123635038.16708       656.158 8        48.219                                                                    23526935.280 8  92324968.68308       489.947 8        51.049    23526934.597 8  94733432.04308       502.728 8        50.992
E10        21.000    25695746.554 7 135032271.71307     -2527.024 7        43.354                                                                    25695748.240 7 100835918.34007     -1887.069 7        46.527    25695747.776 7 103466405.86807     -1936.285 7        46.752
I06        22.000    38642260.633 6 151640693.43306      -393.835 6        40.882
S28        23.000    40854170.853 5 214690127.96205      -479.990 5        34.543
S23        25.000    38097114.756 7 200201619.07907      -484.759 7        44.915
S45        26.000    63354565.354 6 332931730.23206      -542.887 6        36.646
R09        27.000    21243424.886 8 113438864.74808      2996.352 8        49.359                                                                    21243425.460 7  88230329.42307      2330.492 7        45.430
R18        28.000    18995887.538 8 101401617.19108      -631.428 8        51.176                                                                    18995888.810 7  78868072.59507      -491.180 7        47.175
C38        29.000                                                                                                                                    38652901.671 7 201275902.81307        49.323 7        44.140                                                                    38652900.935 7 163553198.52507        40.087 7        43.714
C44        30.000                                                                                                                                    21307073.856 8 110951732.90208      -994.831 8        51.710                                                                    21307073.109 8  90157453.53808      -808.398 8        50.104
E12        31.000    27862735.643 5 146419838.88405     -3272.686 5        35.071                                                                    27862734.601 6 109339599.04106     -2443.896 6        38.357    27862734.382 6 112191919.76506     -2507.609 6        38.099
G11        32.000    25033692.789 6 131553149.62006     -3931.097 6        39.252                                    25033690.415 3 102509049.01903     -3063.206 3        20.167    25033689.571 6 102509040.05206     -3063.432 6        36.752
I02        33.000    37945643.419 6 148906880.00006      -817.868 6        41.492
R15        34.000    21701592.713 7 115966864.25807     -4248.754 7        47.094                                                                    21701595.728 7  90196516.75307     -3304.575 7        44.968
E34        35.000    28149482.888 6 147926575.99406      2794.383 6        36.616                                                                    28149494.698 6 110464714.41506      2086.784 6        40.255    28149492.997 6 113346396.91906      2141.166 6        40.329
G29        36.000    20405216.923 8 107230424.11408     -1257.955 8        48.915                                    20405213.830 8  83556281.91808      -980.224 8        50.555    20405214.022 7  83556291.92407      -980.265 7        45.938
G31        37.000    21579601.311 7 113401777.95007      -468.332 7        47.537                                    21579599.422 7  88365114.78907      -364.935 7        45.433    21579599.993 7  88365120.79207      -364.923 7        42.952
C10        38.000                                                                                                                                    40890193.058 6 212925983.99306     -1152.409 6        36.064    40890191.828 6 164647884.52606      -891.127 6        37.815    40890189.349 5 173019797.37805      -936.404 5        35.467
E25        39.000    23934388.944 7 125776265.83307     -1914.413 7        47.858                                                                    23934390.432 8  93923962.16508     -1429.649 8        50.082    23934389.822 8  96374137.05708     -1466.874 8        50.290
C12        40.000                                                                                                                                    21770987.675 7 113367433.83107       520.416 7        47.487    21770985.975 8  87662982.45508       402.423 8        52.303    21770984.935 8  92120395.18608       422.872 8        49.854
E07        41.000    27929101.220 6 146768391.28506     -1407.434 6        37.611                                                                    27929110.027 6 109599783.83806     -1051.029 6        40.822    27929108.680 6 112458905.40906     -1078.347 6        40.892
S44        42.000    40525627.355 6 212963751.31906      -406.707 6        36.681
G28        43.000    21669032.828 7 113871716.74107     -2187.902 7        47.289                                    21669031.095 6  88731296.03406     -1704.859 6        36.174    21669031.374 7  88731296.03807     -1704.882 7        45.369
C05        44.000                                                                                                                                    39338384.658 6 204845283.12906      -424.406 6        38.144    39338382.665 7 158399379.45807      -328.332 7        42.999    39338383.380 6 166453666.20106      -344.930 6        39.664
C11        45.000                                                                                                                                    25088209.854 6 130640924.33106      2576.401 6        41.642    25088213.164 7 101019882.44507      1992.254 7        44.557    25088209.617 7 106156469.67207      2093.282 7        42.635
R16        46.000    19043441.963 8 101726839.78908      -837.036 8        51.970                                                                    19043442.523 7  79120987.09507      -651.030 7        46.916
R17        47.000    21064667.968 8 112721525.69108     -3867.126 8        49.482                                                                    21064668.818 7  87672428.71607     -3007.745 7        45.090
C35        48.000                                                                                                                                    24014936.435 7 125052236.71107     -3190.855 7        45.877                                                                    24014936.321 7 101615249.54007     -2592.860 7        45.252
C24        49.000                                                                                                                                    21783970.804 8 113434916.62908     -1986.107 8        51.369                                                                    21783968.808 8  92175182.16608     -1613.839 8        49.871
R19        50.000    20651343.490 6 110470988.14806      2561.273 6        39.354                                                                    20651344.854 7  85921983.21607      1992.200 7        44.012
S48        51.000    77094709.551 6 405136595.93906      -513.896 6        38.039
C08        52.000                                                                                                                                    38212473.583 6 198982456.36106       671.637 6        41.497    38212469.249 7 153865880.71507       519.402 7        45.499    38212467.907 7 161689558.19207       545.659 7        42.332
C34        53.000                                                                                                                                    22963032.915 7 119574772.78507      1917.756 7        47.984                                                                    22963034.335 7  97164404.98707      1558.354 7        47.258
C60        54.000                                                                                                                                    40525625.466 6 211027736.32606      -402.792 6        39.102                                                                    40525611.878 6 171477284.02506      -327.304 6        40.119
C25        55.000                                                                                                                                    22702068.080 8 118215838.18108      1265.357 8        48.147                                                                    22702067.548 8  96060138.59308      1028.289 8        48.079
C26        56.000                                                                                                                                    25323198.919 7 131864605.23807     -3840.588 7        43.403                                                                    25323201.242 7 107150831.01107     -3120.899 7        42.965
C02        57.000                                                                                                                                    40720206.794 5 212040815.79205      -387.318 5        34.629    40720201.966 6 163963394.05506      -299.243 6        39.276    40720205.002 5 172300527.82215      -314.312 5        35.062
I03        58.000    86037181.086 6 261843085.70306      1085.882 6        40.429
E30        59.000    27728963.643 6 145716791.12206      2175.577 6        37.637                                                                    27728972.399 6 108814572.09206      1624.631 6        41.032    27728970.982 6 111653200.40506      1666.934 6        41.518
> 2025 01 02 16 16 25.0000000  0 57
E24         1.000    28414480.553 6 149319219.53006     -3168.294 6        36.979                                                                    28414483.338 6 111504679.84106     -2366.045 6        40.601    28414482.305 6 114413486.49206     -2427.807 6        40.934
E11         2.000    23997434.687 7 126107553.74707     -1124.464 7        44.056                                                                    23997432.176 7  94171345.86007      -839.700 7        46.024    23997431.866 7  96627976.39307      -861.545 7        46.160
G16         3.000    24548445.503 6 129003011.21506      3110.045 6        36.609                                    24548449.561 2 100521874.75902      2423.404 2        16.189
G05         4.000    23296678.055 7 122424941.10307      1290.567 7        42.404                                    23296676.178 6  95396075.33206      1005.634 6        37.176    23296677.127 6  95396074.32006      1005.807 6        39.360
S21         5.000    38376018.096 7 201666969.14607      -480.377 7        42.686
G26         6.000    21990819.375 7 115562728.87007      2212.457 7        44.331                                    21990821.610 7  90049000.10607      1723.988 7        42.849    21990821.676 7  90048987.12507      1724.041 7        42.051
G25         7.000    21373892.776 7 112320738.42607     -3201.165 7        45.940                                    21373892.823 7  87522738.69407     -2494.411 7        45.213    21373893.565 7  87522739.69407     -2494.499 7        42.358
G04         8.000    25063759.602 6 131710913.03006      -542.092 6        36.631                                    25063761.138 3 102631859.36903      -422.428 3        19.373    25063760.590 6 102631868.40406      -422.482 6        37.766
E36         9.000    24383600.051 7 128136842.28107      1660.846 7        46.876                                                                    24383602.818 8  95686736.95908      1240.166 8        49.289    24383602.274 8  98182901.09208      1272.565 8        49.517
R08        10.000    24019291.991 6 128622216.08906     -2067.102 6        39.577                                                                    24019292.474 6 100039496.90006     -1607.584 6        39.697
G20        11.000    23591935.848 6 123976567.66206     -1110.865 6        40.903                                    23591933.506 4  96605176.30104      -865.617 4        24.105
S27        12.000    39170408.131 6 205841929.27306      -470.382 6        36.858
E08        13.000    28358115.492 5 149022975.20305     -3009.681 5        35.910                                                                    28358125.310 6 111283472.33506     -2247.557 6        38.282    28358123.651 6 114186508.51606     -2306.231 6        38.297
S36        14.000    38147199.066 7 200465340.85007      -480.107 7        44.361
C13        15.000                                                                                                                                    38383954.078 7 199875351.96507       811.322 7        43.143    38383957.395 7 154556327.70207       627.416 7        44.027    38383955.270 7 162415112.81607       659.261 7        42.218
G18        16.000    22035210.564 7 115796005.59707      2430.068 7        46.748                                    22035209.470 6  90230741.15706      1893.556 6        36.098    22035209.684 7  90230749.16507      1893.576 7        45.117
G12        17.000    24985492.835 6 131299822.91006     -4055.570 6        39.003                                    24985491.422 5 102311632.27305     -3160.184 5        30.234    24985491.567 5 102311629.28105     -3160.144 5        34.890
R01        18.000    23819576.509 6 127329278.07806       972.730 6        38.526                                                                    23819577.617 5  99033757.01405       756.581 5        32.473
E02        19.000    23526310.332 8 123631759.23608       655.296 8        48.204                                                                    23526311.311 8  92322520.13608       489.317 8        51.015    23526310.631 8  94730919.61808       502.102 8        51.092
E10        21.000    25698151.693 7 135044909.58407     -2528.269 7        43.064                                                                    25698153.101 7 100845355.70707     -1888.017 7        46.500    25698152.813 7 103476089.42607     -1937.181 7        46.702
I06        22.000    38642761.958 6 151642661.46806      -393.533 6        41.030
S28        23.000    40854635.316 5 214692526.63105      -479.445 5        34.738
S23        25.000    38097576.357 7 200204041.33407      -484.262 7        44.972
S45        26.000    63355026.521 6 332934442.74606      -542.321 6        36.673
R09        27.000    21240619.531 8 113423885.95008      2994.989 8        49.254                                                                    21240620.714 7  88218679.28307      2329.450 7        46.081
R18        28.000    18996480.564 8 101404782.43508      -634.787 8        51.015                                                                    18996481.941 7  78870534.45707      -493.677 7        47.493
C38        29.000                                                                                                                                    38652854.739 7 201275657.33207        48.682 7        44.212                                                                    38652853.876 7 163552999.05207        39.548 7        43.536
C44        30.000                                                                                                                                    21308029.809 8 110956710.82708      -996.442 8        51.624                                                                    21308029.118 8  90161498.51508      -809.733 8        50.087
E12        31.000    27865850.081 5 146436202.84005     -3273.109 5        34.948                                                                    27865848.545 6 109351818.88106     -2444.221 6        38.045    27865848.313 6 112204458.39206     -2508.014 6        38.180
G11        32.000    25037433.181 6 131572806.13206     -3931.558 6        39.273                                    25037430.905 3 102524365.80903     -3063.558 3        20.286    25037430.864 6 102524356.81806     -3063.605 6        36.839
I02        33.000    37946685.192 6 148910968.69906      -817.597 6        41.554
R15        34.000    21705568.953 7 115988111.13107     -4250.196 7        47.751                                                                    21705571.552 7  90213042.07807     -3305.683 7        44.740
E34        35.000    28146823.605 6 147912602.72506      2794.801 6        36.851                                                                    28146835.477 6 110454279.89906      2086.962 6        40.329    28146833.941 6 113335690.17706      2141.386 6        40.415
G29        36.000    20406414.349 8 107236717.68608     -1259.597 8        49.045                                    20406411.447 8  83561186.00208      -981.506 8        50.664    20406411.719 7  83561196.00107      -981.488 7        45.818
G31        37.000    21580048.645 7 113404126.84907      -471.299 7        47.565                                    21580046.396 7  88366945.10007      -367.249 7        45.579    21580046.744 7  88366951.10907      -367.271 7        42.897
C10        38.000                                                                                                                                    40891299.472 6 212931744.14006     -1151.841 6        36.064    40891298.349 6 164652338.65106      -890.773 6        38.411    40891295.492 5 173024477.93605      -935.928 5        35.352
E25        39.000    23936210.440 7 125785839.80307     -1915.301 7        47.702                                                                    23936212.254 8  93931111.55208     -1430.285 8        50.075    23936211.702 8  96381472.95108     -1467.614 8        50.344
C12        40.000                                                                                                                                    21770488.526 7 113364835.65707       518.746 7        47.387    21770487.143 8  87660973.38808       401.064 8        52.410    21770485.944 8  92118283.96008       421.441 8        49.802
E07        41.000    27930440.441 6 146775432.50306     -1409.434 6        37.690                                                                    27930449.918 6 109605041.86906     -1052.392 6        40.541    27930448.605 6 112464300.60906     -1079.789 6        40.920
S44        42.000    40526013.359 6 212965782.65506      -405.855 6        36.612
G28        43.000    21671115.660 7 113882662.24007     -2190.395 7        47.042                                    21671113.949 6  88739824.99006     -1706.804 6        36.268    21671114.399 7  88739824.98907     -1706.855 7        45.707
C05        44.000                                                                                                                                    39338792.143 6 204847403.87306      -423.927 6        38.174    39338789.659 7 158401019.35607      -327.937 7        43.154    39338790.580 6 166455389.48706      -344.616 6        39.486
C11        45.000                                                                                                                                    25085735.631 6 130628043.04906      2576.112 6        41.959    25085738.962 7 101009921.85107      1991.963 7        44.518    25085735.897 7 106146002.59007      2093.144 7        42.582
R16        46.000    19044226.828 8 101731033.34508      -840.546 8        51.803                                                                    19044228.085 7  79124248.76407      -653.742 7        46.907
R17        47.000    21068280.978 8 112740863.79908     -3868.311 8        49.038                                                                    21068282.060 7  87687469.47207     -3008.683 7        44.801
C35        48.000                                                                                                                                    24018000.307 7 125068191.31607     -3191.262 7        45.818                                                                    24018000.136 7 101628213.95707     -2593.097 7        45.213
C24        49.000                                                                                                                                    21785878.605 8 113444851.64808     -1988.050 8        51.422                                                                    21785876.697 8  92183255.18408     -1615.469 8        49.868
R19        50.000    20648950.468 6 110458187.03306      2559.073 6        40.002                                                                    20648951.928 7  85912026.81007      1990.435 7        43.680
S48        51.000    77095176.241 6 405139164.43406      -513.529 6        38.541
C08        52.000                                                                                                                                    38211828.915 6 198979099.26006       670.957 6        41.454    38211824.679 7 153863284.80307       518.798 7        45.579    38211823.260 7 161686830.27607       545.215 7        42.499
C34        53.000                                                                                                                                    22961191.620 8 119565186.25908      1916.728 8        48.191                                                                    22961193.266 7  97156615.16807      1557.451 7        47.252
C60        54.000                                                                                                                                    40526012.136 6 211029749.22806      -402.467 6        38.910                                                                    40525998.352 6 171478919.67606      -327.079 6        39.889
C25        55.000                                                                                                                                    22700853.491 8 118209515.01408      1263.724 8        48.003                                                                    22700853.295 8  96055000.51608      1026.828 8        48.113
C26        56.000                                                                                                                                    25326887.089 7 131883808.62507     -3840.780 7        43.405                                                                    25326889.119 7 107166435.32807     -3120.988 7        42.963
C02        57.000                                                                                                                                    40720578.220 5 212042749.79605      -386.829 5        34.581    40720573.406 6 163964889.57706      -299.011 6        39.390    40720576.545 5 172302099.40005      -314.326 5        35.076
I03        58.000    86035797.208 6 261837655.23206      1086.158 6        40.479
E30        59.000    27726893.197 6 145705912.01406      2175.948 6        37.641                                                                    27726902.111 6 108806448.13006      1624.940 6        41.020    27726900.725 6 111644864.50806      1667.244 6        41.323
> 2025 01 02 16 16 30.0000000  0 57
E24         1.000    28417495.320 6 149335063.73106     -3168.922 6        37.618                                                                    28417498.459 6 111516511.52706     -2366.396 6        40.656    28417497.270 6 114425626.84506     -2428.299 6        41.054
E11         2.000    23998505.916 7 126113183.06807     -1126.999 7        44.140                                                                    23998503.356 7  94175549.57807      -841.650 7        45.824    23998503.086 7  96632289.77907      -863.595 7        46.132
G16         3.000    24545486.479 6 128987462.32506      3109.628 6        36.480                                    24545490.661 2 100509758.78502      2423.083 2        15.810
G05         4.000    23295451.903 7 122418496.22407      1287.533 7        42.186                                    23295449.719 6  95391053.35806      1003.270 6        37.255    23295450.469 6  95391052.36106      1003.378 6        39.504
S21         5.000    38376476.102 7 201669372.16607      -480.686 7        42.677
G26         6.000    21988715.007 7 115551671.32907      2210.669 7        44.540                                    21988717.412 7  90040383.86007      1722.598 7        42.936    21988717.944 7  90040370.87107      1722.593 7        42.155
G25         7.000    21376939.727 7 112336750.33707     -3203.427 7        46.192                                    21376939.800 7  87535215.50207     -2496.173 7        45.297    21376940.668 7  87535216.49807     -2496.139 7        42.311
G04         8.000    25064277.583 6 131713632.71706      -545.494 6        37.096                                    25064278.653 3 102633978.67403      -425.067 3        19.642    25064277.941 6 102633987.67506      -425.123 6        37.372
E36         9.000    24382020.800 7 128128543.97207      1658.667 7        47.271                                                                    24382023.776 8  95680540.18008      1238.611 8        49.120    24382023.170 8  98176542.65908      1270.912 8        49.536
R08        10.000    24021223.451 6 128632561.92006     -2070.920 6        38.766                                                                    24021224.294 6 100047543.71906     -1610.891 6        39.580
G20        11.000    23592994.486 6 123982130.56506     -1114.203 6        40.894                                    23592992.154 3  96609511.02703      -868.212 3        23.848
S27        12.000    39170857.386 6 205844281.98206      -470.461 6        36.786
E08        13.000    28360979.258 5 149038026.93905     -3010.705 5        35.871                                                                    28360989.815 6 111294712.22806     -2248.149 6        38.225    28360988.397 6 114198041.63606     -2306.996 6        38.456
S36        14.000    38147655.708 7 200467742.33707      -480.353 7        44.384
C13        15.000                                                                                                                                    38383175.861 7 199871298.52607       810.090 7        43.244    38383178.977 7 154553193.33507       626.500 7        44.143    38383176.804 7 162411819.06307       658.527 7        42.106
G18        16.000    22032899.514 7 115783861.18407      2427.861 7        46.863                                    22032898.482 6  90221277.99306      1891.835 6        36.242    22032898.475 7  90221286.00207      1891.827 7        44.909
G12        17.000    24989351.664 6 131320103.22706     -4056.302 6        38.498                                    24989350.571 5 102327435.11205     -3160.748 5        30.121    24989351.185 5 102327432.13005     -3160.871 5        35.529
R01        18.000    23818667.073 6 127324424.14206       968.740 6        38.000                                                                    23818669.241 5  99029981.75105       753.737 5        32.455
E02        19.000    23525687.766 8 123628486.85608       653.733 8        48.163                                                                    23525688.579 8  92320076.48408       488.214 8        50.856    23525687.879 8  94728412.21708       500.963 8        51.083
E10        21.000    25700558.405 7 135057555.96407     -2530.242 7        43.050                                                                    25700559.727 7 100854799.42307     -1889.395 7        46.378    25700559.256 7 103485779.50607     -1938.699 7        46.741
I06        22.000    38643263.573 6 151644629.52406      -393.674 6        40.899
S28        23.000    40855096.013 5 214694925.71205      -479.904 5        34.133
S23        25.000    38098038.513 7 200206463.89007      -484.570 7        44.864
S45        26.000    63355488.069 6 332935555.48616      -542.623 6        36.382
R09        27.000    21237815.795 8 113408916.49308      2992.969 8        49.025                                                                    21237817.794 7  88207036.41107      2327.805 7        47.145
R18        28.000    18997076.777 8 101407966.99308      -638.846 8        50.705                                                                    18997078.265 7  78873011.34707      -496.899 7        47.210
C38        29.000                                                                                                                                    38652808.513 7 201275417.47707        47.379 7        44.000                                                                    38652807.779 7 163552804.15407        38.714 7        43.617
C44        30.000                                                                                                                                    21308987.673 8 110961699.43808      -998.809 8        51.516                                                                    21308987.061 8  90165552.16808      -811.448 8        50.075
E12        31.000    27868964.949 5 146452571.29305     -3274.280 5        34.943                                                                    27868963.256 6 109364042.08406     -2444.932 6        37.913    27868963.196 6 112217000.46606     -2508.897 6        38.198
G11        32.000    25041174.140 6 131592467.58006     -3932.845 6        38.694                                    25041172.285 3 102539686.43203     -3064.547 3        20.190    25041172.482 6 102539677.45406     -3064.691 6        37.478
I02        33.000    37947727.515 6 148915058.08206      -818.037 6        41.442
R15        34.000    21709547.564 8 116009367.96808     -4252.414 8        48.080                                                                    21709549.307 7  90229575.14707     -3307.389 7        44.432
E34        35.000    28144164.870 6 147898630.40406      2794.207 6        36.968                                                                    28144176.695 6 110443846.06606      2086.669 6        40.038    28144175.217 6 113324984.16206      2141.077 6        40.758
G29        36.000    20407613.922 8 107243021.69808     -1261.901 8        48.999                                    20407611.062 8  83566098.22508      -983.301 8        50.766    20407611.552 7  83566108.23707      -983.340 7        46.022
G31        37.000    21580498.785 7 113406493.33607      -475.121 7        47.411                                    21580496.711 7  88368789.12207      -370.226 7        45.643    21580497.258 7  88368795.11807      -370.168 7        43.259
C10        38.000                                                                                                                                    40892404.718 5 212937504.69505     -1152.344 5        35.819    40892404.070 6 164656793.05506      -890.950 6        38.486    40892401.745 5 173029158.86905      -935.977 5        35.376
E25        39.000    23938033.776 7 125795420.86807     -1916.966 7        47.812                                                                    23938035.514 8  93938266.24508     -1431.448 8        50.000    23938034.913 8  96388814.28408     -1468.804 8        50.415
C12        40.000                                                                                                                                    21769991.861 7 113362248.58207       516.194 7        47.326    21769990.147 8  87658972.89908       399.238 8        52.490    21769989.046 8  92116181.74308       419.701 8        49.931
E07        41.000    27931782.291 6 146782484.77506     -1411.700 6        37.875                                                                    27931791.877 6 109610308.17406     -1054.110 6        40.589    27931790.473 6 112469704.30906     -1081.605 6        40.789
S44        42.000    40526399.890 6 212967814.34906      -406.306 6        36.378
G28        43.000    21673201.285 7 113893622.88407     -2193.693 7        46.808                                    21673199.680 6  88748365.74806     -1709.370 6        36.382    21673199.866 7  88748365.74707     -1709.401 7        45.684
C05        44.000                                                                                                                                    39339199.414 6 204849524.82606      -424.225 6        38.213    39339197.225 7 158402659.42307      -328.113 7        43.168    39339198.003 6 166457112.93206      -344.431 6        39.559
C11        45.000                                                                                                                                    25083263.315 7 130615166.21307      2574.750 7        42.656    25083266.150 7 100999964.70507      1991.024 7        45.445    25083263.004 7 106135539.12207      2092.520 7        42.591
R16        46.000    19045015.584 8 101735246.93808      -844.720 8        51.599                                                                    19045017.003 7  79127526.00707      -657.003 7        47.384
R17        47.000    21071897.168 8 112760210.73008     -3870.327 8        49.332                                                                    21071897.537 7  87702517.09207     -3010.265 7        44.767
C35        48.000                                                                                                                                    24021064.995 7 125084150.21207     -3192.311 7        45.672                                                                    24021064.997 7 101641181.86007     -2593.750 7        45.297
C24        49.000                                                                                                                                    21787789.023 8 113454798.87508     -1990.661 8        51.343                                                                    21787786.893 8  92191338.11108     -1617.374 8        49.942
R19        50.000    20646559.994 6 110445400.18106      2555.888 6        39.616                                                                    20646561.839 7  85902081.50607      1987.870 7        44.135
S48        51.000    77095638.374 6 405141732.74006      -513.951 6        38.102
C08        52.000                                                                                                                                    38211185.160 6 198975747.88506       669.702 6        41.237    38211180.990 7 153860693.31607       517.913 7        45.851    38211179.848 7 161684107.01507       544.383 7        42.510
C34        53.000                                                                                                                                    22959352.095 8 119555607.42808      1914.973 8        48.081                                                                    22959353.847 7  97148831.59207      1556.240 7        47.248
C60        54.000                                                                                                                                    40526398.797 6 211031762.45906      -402.758 6        39.039                                                                    40526385.031 6 171480555.58906      -327.037 6        40.122
C25        55.000                                                                                                                                    22699641.222 8 118203202.80008      1261.290 8        48.040                                                                    22699641.075 8  96049871.31808      1025.087 8        48.136
C26        56.000                                                                                                                                    25330575.679 7 131903015.46607     -3841.742 7        43.225                                                                    25330577.709 7 107182042.43607     -3121.593 7        43.007
C02        57.000                                                                                                                                    40720949.888 5 212044684.03005      -387.120 5        34.581    40720945.110 6 163966385.24406      -299.274 6        39.213    40720948.065 5 172303671.09205      -313.903 5        34.976
I03        58.000    86034413.742 6 261832224.87606      1086.018 6        40.546
E30        59.000    27724823.283 6 145695033.56606      2175.328 6        37.728                                                                    27724831.956 6 108798324.64906      1624.625 6        40.899    27724830.600 6 111636529.10006      1667.033 6        41.321
> 2025 01 02 16 16 35.0000000  0 57
E24         1.000    28420511.169 6 149350910.13606     -3169.573 6        37.187                                                                    28420513.815 6 111528344.88306     -2366.851 6        40.338    28420512.985 6 114437768.90806     -2428.625 6        41.216
E11         2.000    23999579.267 7 126118824.14007     -1129.373 7        44.095                                                                    23999576.868 7  94179762.07107      -843.381 7        45.698    23999576.521 7  96636612.15807      -865.340 7        46.282
G16         3.000    24542528.130 5 128971914.84105      3109.217 5        35.671                                    24542531.976 2 100497643.95702      2422.725 2        15.238
G05         4.000    23294228.328 6 122412065.17306      1284.882 6        41.781                                    23294225.930 6  95386042.15306      1001.203 6        37.297    23294226.605 6  95386041.16906      1001.098 6        39.093
S21         5.000    38376932.758 7 201671775.50807      -480.546 7        42.868
G26         6.000    21986612.624 7 115540621.72907      2209.107 7        44.494                                    21986614.726 7  90031773.81107      1721.378 7        42.940    21986615.079 6  90031760.81506      1721.448 6        41.979
G25         7.000    21379988.249 7 112352771.47007     -3205.219 7        46.188                                    21379988.467 7  87547699.49907     -2497.573 7        45.255    21379989.549 7  87547700.50207     -2497.420 7        42.030
G04         8.000    25064798.316 6 131716367.64106      -548.521 6        37.062                                    25064798.993 3 102636109.86603      -427.434 3        19.164    25064798.521 6 102636118.91106      -427.498 6        37.611
E36         9.000    24380443.469 7 128120255.05007      1656.891 7        47.500                                                                    24380446.431 8  95674350.41608      1237.295 8        48.949    24380445.813 8  98170191.41708      1269.567 8        49.664
R08        10.000    24023158.734 6 128642926.19306     -2074.618 6        38.835                                                                    24023159.790 6 100055604.87206     -1613.620 6        40.172
G20        11.000    23594055.789 6 123987709.17206     -1117.190 6        40.112                                    23594053.570 3  96613857.99503      -870.548 3        23.886
S27        12.000    39171304.857 6 205846635.39606      -470.779 6        36.707
E08        13.000    28363843.468 6 149053082.08306     -3011.288 6        36.469                                                                    28363854.762 6 111305954.70106     -2248.594 6        38.003    28363853.123 6 114209577.39406     -2307.323 6        38.429
S36        14.000    38148111.939 7 200470143.91407      -480.407 7        44.226
C13        15.000                                                                                                                                    38382398.406 7 199867250.05107       809.196 7        43.391    38382401.686 7 154550062.81007       625.722 7        44.039    38382399.262 6 162408529.36406       657.409 6        41.917
G18        16.000    22030590.722 7 115771726.98807      2425.808 7        47.089                                    22030589.425 6  90211822.79206      1890.237 6        36.299    22030589.438 7  90211830.80407      1890.271 7        45.317
G12        17.000    24993211.346 6 131340386.02806     -4056.809 6        38.369                                    24993210.270 5 102343239.89405     -3161.150 5        30.023    24993211.152 5 102343236.88805     -3161.181 5        35.605
R01        18.000    23817762.611 6 127319589.17806       965.182 6        37.792                                                                    23817765.522 5  99026221.25005       750.672 5        33.305
E02        19.000    23525066.296 8 123625220.94308       652.605 8        48.217                                                                    23525067.088 8  92317637.66408       487.286 8        50.677    23525066.430 8  94725909.77508       500.053 8        51.178
E10        21.000    25702966.708 7 135070210.74607     -2531.792 7        42.847                                                                    25702967.783 7 100864249.42307     -1890.568 7        46.153    25702967.266 7 103495476.03207     -1939.895 7        46.809
I06        22.000    38643765.132 6 151646597.54406      -393.542 6        40.923
S28        23.000    40855546.771 5 214697325.10205      -479.992 5        34.271
S23        25.000    38098499.899 7 200208886.89507      -484.615 7        44.862
S45        26.000    63355948.239 6 332938268.50306      -542.814 6        36.730
R09        27.000    21235014.042 8 113393956.31908      2991.111 8        48.834                                                                    21235015.830 7  88195400.74107      2326.383 7        46.693
R18        28.000    18997677.111 8 101411170.82108      -642.666 8        50.718                                                                    18997678.526 7  78875503.21907      -499.897 7        47.088
C38        29.000                                                                                                                                    38652763.469 7 201275183.17107        46.290 7        43.642                                                                    38652762.714 7 163552613.75507        37.663 7        43.515
C44        30.000                                                                                                                                    21309947.723 8 110966698.65108     -1000.889 8        51.445                                                                    21309947.111 8  90169614.44808      -813.368 8        50.020
E12        31.000    27872080.133 5 146468944.20205     -3274.970 5        35.529                                                                    27872079.064 6 109376268.62506     -2445.664 6        37.629    27872078.954 6 112229545.93806     -2509.594 6        38.574
G11        32.000    25044916.861 6 131612133.85806     -3933.724 6        38.420                                    25044914.621 3 102555010.82403     -3065.242 3        20.619    25044914.953 6 102555001.83406     -3065.386 6        37.346
I02        33.000    37948769.709 6 148919148.26106      -818.194 6        41.423
R15        34.000    21713527.966 8 116030634.47308     -4254.245 8        49.106                                                                    21713529.031 7  90246115.76107     -3308.906 7        44.957
E34        35.000    28141505.813 6 147884658.93306      2794.267 6        37.429                                                                    28141517.773 6 110433412.88506      2086.630 6        40.052    28141516.344 6 113314278.80406      2141.034 6        40.953
G29        36.000    20408815.572 8 107249336.13508     -1263.872 8        48.755                                    20408812.650 8  83571018.57208      -984.834 8        50.731    20408813.131 7  83571028.57407      -984.823 7        45.872
G31        37.000    21580952.367 7 113408877.31507      -478.538 7        47.668                                    21580950.357 7  88370646.77507      -372.886 7        45.669    21580951.225 7  88370652.77107      -372.859 7        43.380
C10        38.000                                                                                                                                    40893510.989 5 212943265.52605     -1152.224 5        35.533    40893510.135 6 164661247.70706      -891.011 6        38.712    40893508.175 5 173033840.03305      -936.451 5        35.081
E25        39.000    23939858.310 7 125805008.95807     -1918.307 7        47.780                                                                    23939860.094 8  93945426.18708     -1432.506 8        49.715    23939859.466 8  96396161.00808     -1469.846 8        50.468
C12        40.000                                                                                                                                    21769496.823 7 113359672.48907       514.134 7        47.096    21769495.506 8  87656980.90908       397.565 8        52.504    21769494.382 8  92114088.46708       417.707 8        49.735
E07        41.000    27933126.490 6 146789548.05506     -1413.901 6        38.108                                                                    27933136.166 6 109615582.69906     -1055.678 6        40.274    27933134.487 6 112475116.42406     -1083.252 6        41.027
S44        42.000    40526786.332 6 212969846.35306      -406.543 6        36.461
G28        43.000    21675289.698 7 113904598.55607     -2196.525 7        46.608                                    21675288.308 6  88756918.22506     -1711.579 6        36.401    21675288.176 7  88756918.22707     -1711.655 7        45.383
C05        44.000                                                                                                                                    39339606.381 6 204851645.90806      -424.330 6        38.090    39339604.322 7 158404299.58707      -327.981 7        43.196    39339605.153 6 166458836.49406      -344.769 6        39.510
C11        45.000                                                                                                                                    25080791.620 7 130602293.73307      2574.007 7        42.284    25080794.600 7 100990010.92207      1990.558 7        45.666    25080791.234 7 106125079.20707      2091.553 7        42.483
R16        46.000    19045808.078 8 101739480.61108      -848.684 8        51.728                                                                    19045809.667 7  79130818.86707      -660.125 7        47.518
R17        47.000    21075514.002 8 112779566.65808     -3872.029 8        49.097                                                                    21075515.176 7  87717571.71607     -3011.656 7        44.674
C35        48.000                                                                                                                                    24024130.549 7 125100113.33407     -3192.994 7        45.392                                                                    24024130.646 7 101654153.20507     -2594.592 7        45.151
C24        49.000                                                                                                                                    21789701.413 8 113464758.23108     -1993.120 8        51.247                                                                    21789699.608 8  92199430.90708     -1619.553 8        49.724
R19        50.000    20644172.581 6 110432627.51106      2553.114 6        39.387                                                                    20644173.418 7  85892147.21607      1985.768 7        43.793
S48        51.000    77096104.331 6 405144300.97206      -513.632 6        38.174
C08        52.000                                                                                                                                    38210542.089 6 198972402.17806       668.676 6        40.984    38210538.451 7 153858106.20307       517.037 7        45.661    38210537.267 7 161681388.36007       543.222 7        42.360
C34        53.000                                                                                                                                    22957513.737 7 119546036.24607      1913.485 7        47.951                                                                    22957515.811 7  97141054.24207      1554.806 7        47.228
C60        54.000                                                                                                                                    40526785.740 6 211033775.96806      -402.830 6        38.811                                                                    40526771.737 6 171482191.73106      -327.243 6        40.014
C25        55.000                                                                                                                                    22698431.310 7 118196901.45707      1259.187 7        47.898                                                                    22698430.977 8  96044750.97108      1023.124 8        48.025
C26        56.000                                                                                                                                    25334264.570 7 131922225.67807     -3842.222 7        42.391                                                                    25334266.800 7 107197652.29407     -3122.215 7        42.808
C02        57.000                                                                                                                                    40721321.122 5 212046618.44305      -386.736 5        34.438    40721316.675 6 163967881.08806      -299.346 6        39.234    40721319.411 5 172305242.99405      -314.448 5        35.014
I03        58.000    86033029.855 6 261826794.57706      1086.097 6        40.489
E30        59.000    27722753.534 6 145684155.66606      2175.638 6        38.643                                                                    27722761.957 6 108790201.60506      1624.592 6        40.663    27722760.466 6 111628194.13706      1666.931 6        41.468
> 2025 01 02 16 16 40.0000000  0 57
E24         1.000    28423526.920 6 149366757.85106     -3169.679 6        37.622                                                                    28423529.422 6 111540179.22706     -2367.102 6        40.310    28423529.000 6 114449911.95706     -2428.714 6        41.375
E11         2.000    24000654.838 7 126124476.10707     -1131.445 7        44.147                                                                    24000652.468 7  94183982.69107      -844.955 7        45.825    24000652.007 7  96640942.89407      -867.013 7        46.216
G16         3.000    24539569.669 5 128956367.92205      3109.330 5        35.976                                    24539573.457 2 100485529.54602      2422.814 2        14.810
G05         4.000    23293006.889 6 122405647.12806      1282.325 6        41.840                                    23293004.645 6  95381041.09406       999.210 6        37.259    23293004.888 6  95381040.10906       999.150 6        39.486
S21         5.000    38377390.545 7 201674177.99307      -480.413 7        42.756
G26         6.000    21984511.348 7 115529579.21107      2207.714 7        44.238                                    21984513.385 7  90023169.27007      1720.292 7        42.908    21984513.580 6  90023156.28106      1720.307 6        41.905
G25         7.000    21383038.658 7 112368800.96407     -3206.773 7        46.158                                    21383038.722 7  87560190.01107     -2498.784 7        45.237    21383039.896 7  87560191.01607     -2498.831 7        42.212
G04         8.000    25065320.679 6 131719116.90606      -550.988 6        37.735                                    25065321.989 3 102638252.27003      -429.354 3        19.254    25065321.580 6 102638261.30806      -429.440 6        37.338
E36         9.000    24378867.682 7 128111974.66507      1655.199 7        47.542                                                                    24378870.701 8  95668167.02108      1236.051 8        49.115    24378870.118 8  98163846.71708      1268.302 8        49.583
R08        10.000    24025097.302 6 128653307.98806     -2077.845 6        39.267                                                                    24025098.636 6 100063679.66206     -1616.391 6        40.198
G20        11.000    23595120.315 6 123993302.61406     -1120.254 6        40.427                                    23595117.767 3  96618216.52303      -872.927 3        23.638
S27        12.000    39171752.614 6 205848987.55706      -470.395 6        36.839
E08        13.000    28366709.328 6 149068139.80706     -3011.948 6        36.079                                                                    28366719.787 6 111317199.11606     -2249.096 6        38.096    28366718.262 6 114221115.13606     -2307.728 6        38.544
S36        14.000    38148568.738 7 200472544.65507      -480.050 7        44.403
C13        15.000                                                                                                                                    38381621.509 7 199863205.73607       808.436 7        43.348    38381624.994 7 154546935.48507       625.149 7        44.003    38381622.634 7 162405243.04707       656.794 7        42.083
G18        16.000    22028283.138 7 115759602.12807      2424.000 7        46.874                                    22028282.184 6  90202374.86406      1888.827 6        36.219    22028282.488 7  90202382.86907      1888.920 7        45.568
G12        17.000    24997071.780 6 131360670.47306     -4057.139 6        37.849                                    24997070.291 4 102359045.94704     -3161.406 4        29.754    24997071.334 5 102359042.94105     -3161.325 5        35.824
R01        18.000    23816863.126 6 127314772.35006       961.572 6        37.735                                                                    23816862.552 5  99022474.80205       747.741 5        33.006
E02        19.000    23524445.718 8 123621960.63308       651.528 8        48.512                                                                    23524446.625 8  92315203.02708       486.472 8        50.832    23524445.976 8  94723411.62508       499.167 8        51.165
E10        21.000    25705376.301 7 135082873.07307     -2533.198 7        43.056                                                                    25705377.279 7 100873705.06107     -1891.683 7        46.334    25705376.670 7 103505178.33707     -1941.085 7        46.720
I06        22.000    38644266.342 6 151648564.84406      -393.362 6        40.987
S28        23.000    40856004.678 5 214699723.62305      -479.583 5        34.381
S23        25.000    38098960.002 7 200211309.00507      -484.356 7        45.013
S45        26.000    63356415.497 6 332940980.86306      -542.542 6        36.658
R09        27.000    21232214.732 8 113379004.64508      2989.492 8        49.046                                                                    21232215.394 7  88183771.67207      2325.206 7        46.482
R18        28.000    18998280.796 8 101414393.00408      -646.319 8        50.785                                                                    18998282.208 7  78878009.37107      -502.657 7        47.280
C38        29.000                                                                                                                                    38652719.598 7 201274953.52907        45.459 7        43.314                                                                    38652718.642 7 163552427.18207        36.822 7        43.405
C44        30.000                                                                                                                                    21310909.784 8 110971707.58708     -1002.780 8        51.470                                                                    21310909.028 8  90173684.65008      -814.980 8        50.027
E12        31.000    27875196.578 5 146485320.67405     -3275.521 5        35.695                                                                    27875195.303 6 109388497.82106     -2446.155 6        37.871    27875195.306 6 112242094.15706     -2509.928 6        38.450
G11        32.000    25048660.169 6 131631804.07406     -3934.345 6        38.171                                    25048657.508 3 102570338.28003     -3065.732 3        20.571    25048657.887 6 102570329.28806     -3065.808 6        37.524
I02        33.000    37949811.972 6 148923238.51206      -817.969 6        41.542
R15        34.000    21717508.629 8 116051909.89308     -4256.021 8        48.064                                                                    21717510.284 7  90262663.28307     -3310.107 7        44.494
E34        35.000    28138847.346 6 147870687.44506      2794.363 6        37.550                                                                    28138859.072 6 110422979.70406      2086.577 6        40.365    28138857.571 6 113303573.44006      2141.079 6        41.087
G29        36.000    20410019.035 8 107255660.09708     -1265.782 8        48.608                                    20410016.062 8  83575946.33908      -986.325 8        50.678    20410016.760 7  83575956.33707      -986.344 7        46.215
G31        37.000    21581409.267 7 113411277.82907      -481.859 7        47.427                                    21581407.133 7  88372517.30707      -375.477 7        45.562    21581407.530 7  88372523.30907      -375.360 7        43.473
C10        38.000                                                                                                                                    40894617.996 5 212949025.83705     -1151.979 5        35.552    40894615.890 6 164665701.93306      -890.825 6        38.411    40894614.071 5 173038520.76105      -936.185 5        35.186
E25        39.000    23941683.911 7 125814603.20207     -1919.555 7        47.782                                                                    23941685.822 8  93952590.71708     -1433.399 8        49.828    23941685.152 8  96403512.43908     -1470.783 8        50.471
C12        40.000                                                                                                                                    21769004.128 7 113357106.53407       512.100 7        47.120    21769002.666 8  87654996.75708       396.026 8        52.448    21769001.582 8  92112003.44908       416.036 8        49.848
E07        41.000    27934473.093 6 146796621.46006     -1415.748 6        38.550                                                                    27934482.091 6 109620864.77606     -1057.146 6        40.527    27934480.679 6 112480536.29606     -1084.816 6        40.918
S44        42.000    40527174.013 6 212971877.72106      -406.126 6        36.397
G28        43.000    21677381.085 7 113915588.42207     -2199.417 7        46.736                                    21677379.632 6  88765481.75406     -1713.832 6        36.310    21677379.698 7  88765481.74407     -1713.803 7        45.321
C05        44.000                                                                                                                                    39340013.540 6 204853766.24706      -423.814 6        37.905    39340011.561 7 158405939.18207      -327.809 7        43.043    39340012.500 6 166460559.47306      -344.682 6        39.513
C11        45.000                                                                                                                                    25078318.936 6 130589424.74706      2573.481 6        41.509    25078323.344 7 100980059.85607      1989.937 7        45.094    25078319.974 7 106114622.16307      2090.941 7        42.605
R16        46.000    19046604.574 8 101743733.36808      -852.532 8        51.954                                                                    19046605.573 7  79134126.56707      -663.013 7        47.545
R17        47.000    21079133.004 8 112798930.49908     -3873.528 8        49.863                                                                    21079133.826 7  87732632.46507     -3012.746 7        44.597
C35        48.000                                                                                                                                    24027196.710 7 125116079.76807     -3193.583 7        45.252                                                                    24027196.885 7 101667127.27007     -2595.176 7        45.202
C24        49.000                                                                                                                                    21791616.237 8 113474728.83508     -1995.261 8        51.116                                                                    21791614.293 8  92207532.86708     -1621.395 8        49.840
R19        50.000    20641786.778 6 110419868.09906      2550.442 6        39.153                                                                    20641788.639 7  85882223.22607      1983.868 7        43.611
S48        51.000    77096568.333 6 405145268.36116      -513.456 6        38.171
C08        52.000                                                                                                                                    38209900.044 6 198969061.33406       667.775 6        40.863    38209896.694 7 153855522.86607       516.344 7        45.511    38209895.522 7 161678673.67707       542.473 7        42.360
C34        53.000                                                                                                                                    22955677.196 7 119536471.83807      1912.149 7        47.904                                                                    22955679.071 7  97133282.40807      1553.724 7        47.297
C60        54.000                                                                                                                                    40527172.218 6 211035788.87306      -402.545 6        38.700                                                                    40527158.139 6 171483827.42406      -327.206 6        39.940
C25        55.000                                                                                                                                    22697223.177 7 118190610.12907      1257.211 7        47.894                                                                    22697222.789 8  96039638.78608      1021.520 8        48.069
C26        56.000                                                                                                                                    25337954.078 6 131941438.37806     -3842.834 6        41.347                                                                    25337956.301 7 107213264.19507     -3122.750 7        42.762
C02        57.000                                                                                                                                    40721692.486 5 212048552.18505      -386.779 5        34.605    40721687.953 6 163969376.38706      -299.106 6        39.327    40721690.815 5 172306814.35805      -314.432 5        35.090
I03        58.000    86031646.000 6 261821363.69106      1086.235 6        40.636
E30        59.000    27720683.547 6 145673277.48206      2175.603 6        38.988                                                                    27720691.818 6 108782078.31406      1624.596 6        40.744    27720690.355 6 111619858.93906      1667.131 6        41.411
