     3.04           OBSERVATION DATA    M                   RINEX VERSION / TYPE
ssrcrin-15.6.1x                         20250102 024500 UTC PGM / RUN BY / DATE 
(00000000023479385599111004) Septentrio proprietary         COMMENT             
rref                                                        MARKER NAME         
01                                                          MARKER NUMBER       
geodetic                                                    MARKER TYPE         
NFB                 CLIMERS@TUW                             OBSERVER / AGENCY   
3297213             SEPT ASTERX SB3 PROB4.14.4              REC # / TYPE / VERS 
Unknown             Unknown                                 ANT # / TYPE        
  4127832.0140  1207193.1577  4695247.3648                  APPROX POSITION XYZ 
        0.0000        0.0000        0.0000                  ANTENNA: DELTA H/E/N
G   23 X1  C1C L1C D1C S1C C1W S1W C2W L2W D2W S2W C2L L2L  SYS / # / OBS TYPES 
       D2L S2L C5Q L5Q D5Q S5Q C1L L1L D1L S1L              SYS / # / OBS TYPES 
E   21 X1  C1C L1C D1C S1C C6C L6C D6C S6C C5Q L5Q D5Q S5Q  SYS / # / OBS TYPES 
       C7Q L7Q D7Q S7Q C8Q L8Q D8Q S8Q                      SYS / # / OBS TYPES 
S    9 X1  C1C L1C D1C S1C C5I L5I D5I S5I                  SYS / # / OBS TYPES 
R   17 X1  C1C L1C D1C S1C C2P L2P D2P S2P C2C L2C D2C S2C  SYS / # / OBS TYPES 
       C3Q L3Q D3Q S3Q                                      SYS / # / OBS TYPES 
C   25 X1  C1P L1P D1P S1P C5P L5P D5P S5P C2I L2I D2I S2I  SYS / # / OBS TYPES 
       C7I L7I D7I S7I C6I L6I D6I S6I C7D L7D D7D S7D      SYS / # / OBS TYPES 
J   17 X1  C1C L1C D1C S1C C2L L2L D2L S2L C5Q L5Q D5Q S5Q  SYS / # / OBS TYPES 
       C1L L1L D1L S1L                                      SYS / # / OBS TYPES 
I    5 X1  C5A L5A D5A S5A                                  SYS / # / OBS TYPES 
SEPTENTRIO RECEIVERS OUTPUT ALIGNED CARRIER PHASES.         COMMENT             
NO FURTHER PHASE SHIFT APPLIED IN THE RINEX ENCODER.        COMMENT             
G L1C                                                       SYS / PHASE SHIFT   
G L2W                                                       SYS / PHASE SHIFT   
G L2L  0.00000                                              SYS / PHASE SHIFT   
G L5Q  0.00000                                              SYS / PHASE SHIFT   
G L1L  0.00000                                              SYS / PHASE SHIFT   
E L1C  0.00000                                              SYS / PHASE SHIFT   
E L6C  0.00000                                              SYS / PHASE SHIFT   
E L5Q  0.00000                                              SYS / PHASE SHIFT   
E L7Q  0.00000                                              SYS / PHASE SHIFT   
E L8Q  0.00000                                              SYS / PHASE SHIFT   
S L1C                                                       SYS / PHASE SHIFT   
S L5I                                                       SYS / PHASE SHIFT   
R L1C                                                       SYS / PHASE SHIFT   
R L2P  0.00000                                              SYS / PHASE SHIFT   
R L2C                                                       SYS / PHASE SHIFT   
R L3Q  0.00000                                              SYS / PHASE SHIFT   
C L1P  0.00000                                              SYS / PHASE SHIFT   
C L5P  0.00000                                              SYS / PHASE SHIFT   
C L2I                                                       SYS / PHASE SHIFT   
C L7I                                                       SYS / PHASE SHIFT   
C L6I                                                       SYS / PHASE SHIFT   
C L7D                                                       SYS / PHASE SHIFT   
J L1C                                                       SYS / PHASE SHIFT   
J L2L  0.00000                                              SYS / PHASE SHIFT   
J L5Q  0.00000                                              SYS / PHASE SHIFT   
J L1L  0.00000                                              SYS / PHASE SHIFT   
I L5A                                                       SYS / PHASE SHIFT   
  2025     1     2     2    45    0.0000000     GPS         TIME OF FIRST OBS   
 C1C    0.000 C2C    0.000 C2P    0.000                     GLONASS COD/PHS/BIS 
DBHZ                                                        SIGNAL STRENGTH UNIT
    18                                                      LEAP SECONDS        
 24 R01  1 R02 -4 R03  5 R04  6 R05  1 R06 -4 R07  5 R08  6 GLONASS SLOT / FRQ #
    R09 -2 R10 -7 R11  0 R12 -1 R13 -2 R14 -7 R15  0 R16 -1 GLONASS SLOT / FRQ #
    R17  4 R18 -3 R19  3 R20  2 R21  4 R22 -3 R23  3 R24  2 GLONASS SLOT / FRQ #
                                                            END OF HEADER       
> 2025 01 02 02 45  0.0000000  0 55
G09         1.000    20872561.705 8 109686086.51708      1432.331 8        49.278                                    20872558.826 8  85469683.66608      1116.103 8        50.818    20872559.482 7  85469683.67207      1116.048 7        44.424
G06         2.000    22137881.302 7 116335369.30407      1746.263 7        45.857                                    22137879.399 7  90650941.79707      1360.728 7        45.422    22137880.148 7  90650949.79207      1360.737 7        43.082
E11         3.000    26680585.415 6 140207435.37306      2137.387 6        37.119                                                                    26680581.011 6 104700347.40406      1596.071 6        40.641    26680580.669 6 107431657.09406      1637.687 6        41.673
R15         4.000    24261457.728 7 129645875.87507     -3165.694 7        42.605                                                                    24261457.222 6 100835667.03406     -2462.157 6        39.258
S21         5.000    38586184.558 7 202771486.33807      -475.393 7        42.377
E10         6.000    24819166.758 7 130425611.41807      1086.839 7        46.258                                                                    24819165.305 8  97395745.62108       811.608 8        48.901    24819165.214 8  99936503.65908       832.769 8        50.463
G28         7.000    25182112.994 6 132332908.18606     -3606.554 6        38.237                                    25182109.164 3 103116533.43503     -2810.304 3        19.552    25182109.712 6 103116541.43406     -2810.117 6        36.828
G03         8.000    20898405.520 8 109821962.27508     -2295.187 8        48.669                                    20898403.227 8  85575596.90508     -1788.455 8        49.541    20898403.729 7  85575594.90607     -1788.515 7        44.150
G02         9.000    24476264.966 6 128623687.97606     -3966.187 6        40.498                                    24476258.407 4 100226243.67704     -3090.517 4        25.218
G31        10.000    22977606.949 7 120748150.65107     -2562.820 7        44.474                                    22977602.121 6  94089452.43506     -1997.001 6        39.327    22977602.205 6  94089457.44306     -1996.953 6        40.305
C30        11.000                                                                                                                                    25105111.151 7 130728912.58707     -3755.018 7        44.050                                                                    25105111.712 7 106227951.75307     -3051.344 7        43.145
S27        12.000    39214967.908 6 206076091.50006      -471.652 6        36.042
G26        13.000    24973617.564 6 131237245.71506      1443.835 6        37.463                                    24973616.692 4 102262794.43704      1125.065 4        28.389    24973616.676 5 102262794.43505      1124.925 5        34.943
S36        14.000    38353589.395 7 201549982.60107      -475.750 7        44.608
I09        15.000    37552000.765 7 147362119.52407      -608.651 7        42.963
G19        16.000    22940032.302 7 120550706.10307     -2308.222 7        43.566                                    22940025.779 5  93935599.47805     -1798.615 5        30.015
S45        17.000    63546090.949 6 333937272.75606      -515.597 6        37.921
E12        19.000    24090950.623 7 126598810.42907      -245.528 7        44.832                                                                    24090946.394 7  94538062.18107      -183.418 7        47.791    24090946.489 8  97004271.86608      -188.195 8        49.200
G17        20.000    24110438.408 7 126701230.46707     -3184.995 7        42.478                                    24110434.134 5  98728220.60105     -2481.812 5        34.648    24110434.394 6  98728219.60206     -2481.864 6        36.654
G11        21.000    25371933.178 6 133330411.98806      3080.164 6        38.913                                    25371929.258 3 103893806.88203      2400.128 3        20.786    25371929.880 6 103893819.89006      2400.031 6        37.047
I06        22.000    38200393.291 7 149906790.09807      -285.371 7        43.500
S28        23.000    41019185.253 5 215557288.51805      -471.021 5        34.938
R08        24.000    20944517.413 8 112156975.63808      1769.327 8        50.402                                                                    20944514.431 7  87233207.46007      1376.139 7        46.160
S23        25.000    38298697.151 7 201261016.03507      -471.639 7        44.906
C25        26.000                                                                                                                                    25891991.319 6 134826389.13606     -1858.420 6        41.147                                                                    25891989.313 6 109557480.83506     -1510.133 6        40.799
R16        27.000    22365729.150 7 119473724.33907        21.878 7        47.401                                                                    22365728.383 7  92924009.99707        16.971 7        42.610
E19        30.000    23068033.091 7 121223365.64307        54.831 7        43.225                                                                    23068030.289 7  90523944.62907        40.923 7        45.397    23068030.383 7  92885435.55107        41.941 7        47.356
C23        31.000                                                                                                                                    24920527.344 7 129767736.35407       752.568 7        44.476                                                                    24920519.075 7 105446882.84307       611.487 7        45.541
R23        32.000    20229656.326 8 108215035.86708       408.987 8        49.677
E29        33.000    24558446.827 7 129055593.08807     -2235.525 7        45.719                                                                    24558444.554 8  96372698.43908     -1669.376 8        48.615    24558444.614 8  98886763.29108     -1713.012 8        50.511
E04        34.000    26908516.156 6 141405233.70106      2186.346 6        40.744                                                                    26908514.338 7 105594826.31107      1632.635 7        42.681    26908513.929 7 108349469.71307      1675.216 7        44.408
C16        35.000                                                                                                                                    39056152.085 7 203375662.22907      -996.440 7        42.332    39056150.840 7 157262975.19107      -770.485 7        43.481    39056148.712 6 165259385.13706      -809.680 6        39.721
C32        36.000                                                                                                                                    22858108.888 8 119028228.09608     -2100.810 8        50.215                                                                    22858108.456 8  96720206.84408     -1707.120 8        50.460
I01        37.000   379628536.397 7 186603112.25307     -2718.010 7        42.514
E27        38.000    29126363.987 5 153060069.37805      1880.676 5        32.006                                                                    29126364.570 6 114298111.58506      1404.190 6        36.938    29126364.397 6 117279798.18606      1440.694 6        39.417
C41        39.000                                                                                                                                    27239192.147 6 141841639.66806     -3276.358 6        38.613                                                                    27239198.020 6 115257977.28306     -2662.101 6        39.300
C39        40.000                                                                                                                                    39593177.601 6 206172095.28906     -1364.286 6        41.235                                                                    39593173.728 6 167531711.12106     -1108.649 6        41.971
E33        41.000    25163070.015 7 132232912.33407     -3032.710 7        45.094                                                                    25163067.991 7  98745389.33107     -2264.713 7        47.913    25163067.608 8 101321351.96308     -2323.758 8        49.063
S44        42.000    40831969.171 6 214573639.42306      -554.257 6        37.603
R06        43.000    22149166.496 6 118192257.05106     -3630.338 6        37.535
C05        44.000                                                                                                                                    39284695.129 6 204565758.17506      -499.232 6        39.069    39284688.661 7 158183247.22507      -386.106 7        43.513    39284690.681 6 166226540.54006      -405.724 6        39.883
C29        45.000                                                                                                                                    23264652.677 8 121145174.79308     -1558.741 8        48.029                                                                    23264649.723 7  98440376.56107     -1266.688 7        47.156
G04        46.000    20197850.517 8 106140455.95508      -401.048 8        49.840                                    20197846.600 7  82706835.54607      -312.507 7        43.154    20197846.736 8  82706837.54908      -312.519 8        49.633
E30        47.000    28935353.560 5 152056327.42105       331.458 5        35.443                                                                    28935353.553 6 113548547.69206       247.464 6        39.168    28935353.479 6 116510682.30806       254.003 6        41.483
R22        48.000    20522840.672 8 109552346.59008     -3388.446 8        51.169                                                                    20522838.325 7  85207378.45507     -2635.428 7        47.319
C20        49.000                                                                                                                                    22515848.532 8 117245959.05508       748.411 8        51.296                                                                    22515842.640 8  95271929.97308       608.136 8        49.386
C06        50.000                                                                                                                                    38533168.908 6 200652353.92306      -916.978 6        40.911    38533162.948 7 155157111.57507      -708.927 7        44.534    38533162.606 6 163046454.62006      -745.021 6        41.313
S48        51.000    77333496.812 6 406389270.78406      -466.931 6        37.905
C09        53.000                                                                                                                                    38610485.584 7 201054948.97907      -413.721 7        42.525    38610481.280 7 155468430.84807      -319.934 7        46.631    38610479.257 7 163373594.84907      -336.172 7        42.512
C60        54.000                                                                                                                                    40831968.235 6 212622989.50506      -549.042 6        40.100                                                                    40831952.532 6 172773567.59806      -446.179 6        40.074
R09        55.000    22943605.414 7 122517590.38807      2974.625 7        44.205                                                                    22943604.538 7  95291451.85007      2313.525 7        43.367
G07        56.000    24975672.345 6 131248045.95606      2958.482 6        39.003                                    24975667.607 5 102271184.14905      2305.312 5        30.453    24975667.875 5 102271193.13805      2305.398 5        35.186
C02        57.000                                                                                                                                    40780253.133 5 212353544.22605      -542.642 5        34.152    40780246.298 6 164205227.61706      -419.674 6        39.970    40780250.501 6 172554655.05106      -441.123 6        36.541
I03        58.000   102194651.837 6 325248539.47906       877.676 6        40.322
R07        59.000    19617366.473 8 105013363.84808     -1286.210 8        51.215                                                                    19617364.937 7  81677114.52407     -1000.319 7        47.751
> 2025 01 02 02 45  5.0000000  0 55
G09         1.000    20871200.210 8 109678930.91108      1430.143 8        49.012                                    20871197.163 8  85464107.86908      1114.397 8        50.790    20871197.323 7  85464107.86607      1114.399 7        44.476
G06         2.000    22136221.064 7 116326644.75307      1743.770 7        45.464                                    22136219.184 7  90644143.44207      1358.781 7        45.442    22136219.952 7  90644151.43907      1358.828 7        43.346
E11         3.000    26678552.537 6 140196751.91206      2136.439 6        37.520                                                                    26678547.898 6 104692369.49506      1595.234 6        40.517    26678547.576 6 107423471.06806      1636.995 6        41.485
R15         4.000    24264420.643 7 129661712.71107     -3168.682 7        42.510                                                                    24264420.308 6 100847984.58306     -2464.691 6        39.174
S21         5.000    38586637.359 7 202773864.08007      -475.415 7        42.282
E10         6.000    24818133.663 7 130420182.32507      1085.023 7        46.104                                                                    24818132.199 8  97391691.42808       810.266 8        48.922    24818132.084 8  99932343.70408       831.401 8        50.378
G28         7.000    25185545.339 6 132350944.07906     -3607.910 6        38.099                                    25185541.421 3 103130587.36603     -2811.366 3        19.672    25185541.284 6 103130595.37906     -2811.424 6        37.323
G03         8.000    20900590.220 8 109833443.11508     -2296.947 8        48.525                                    20900587.972 8  85584543.01508     -1789.827 8        49.546    20900588.919 7  85584541.01407     -1789.842 7        44.501
G02         9.000    24480039.162 6 128643520.80106     -3966.750 6        40.296                                    24480032.470 4 100241697.81804     -3090.979 4        25.113
G31        10.000    22980046.866 7 120760972.68807     -2565.781 7        44.479                                    22980042.013 6  94099443.63306     -1999.310 6        39.276    22980042.317 6  94099448.62906     -1999.325 6        40.303
C30        11.000                                                                                                                                    25108717.264 7 130747689.94307     -3755.759 7        44.054                                                                    25108717.676 7 106243209.88007     -3051.949 7        43.001
S27        12.000    39215418.692 5 206078450.35505      -471.800 5        35.833
G26        13.000    24972244.967 6 131230032.12206      1441.658 6        37.527                                    24972243.908 4 102257173.45804      1123.364 4        28.294    24972244.128 5 102257173.47105      1123.389 5        34.871
S36        14.000    38354042.280 7 201552362.41207      -475.901 7        44.784
I09        15.000    37552776.276 7 147365163.33607      -608.724 7        42.965
G19        16.000    22942230.290 7 120562254.68507     -2311.036 7        43.166                                    22942223.353 4  93944598.38004     -1800.816 4        29.953
S45        17.000    63546537.906 6 333939851.21306      -515.410 6        37.841
E12        19.000    24091185.258 7 126600044.23707      -247.767 7        44.754                                                                    24091181.165 7  94538983.53007      -185.058 7        47.847    24091181.256 8  97005217.24908      -189.887 8        49.099
G17        20.000    24113469.738 7 126717158.40507     -3185.979 7        42.152                                    24113465.045 5  98740631.97805     -2482.580 5        34.567    24113465.435 6  98740630.97606     -2482.558 6        36.590
G11        21.000    25369002.851 6 133315013.59306      3079.514 6        39.108                                    25368998.959 3 103881808.15103      2399.622 3        21.452    25368999.861 6 103881821.15806      2399.551 6        37.490
I06        22.000    38200756.882 7 149908217.05307      -285.375 7        43.479
S28        23.000    41019634.257 5 215559643.75205      -470.901 5        34.719
R08        24.000    20942865.978 8 112148134.25108      1767.486 8        50.374                                                                    20942863.432 7  87226330.82307      1374.736 7        46.472
S23        25.000    38299145.534 7 201263374.61407      -471.596 7        44.810
C25        26.000                                                                                                                                    25893776.420 6 134835688.21106     -1860.840 6        41.120                                                                    25893774.915 6 109565037.08806     -1512.129 6        40.570
R16        27.000    22365710.994 7 119473626.51307        17.451 7        47.170                                                                    22365709.946 7  92923933.90707        13.580 7        43.312
E19        30.000    23067981.724 7 121223096.40807        53.019 7        43.082                                                                    23067979.052 7  90523743.57507        39.673 7        45.467    23067979.118 7  92885229.24707        40.667 7        47.272
C23        31.000                                                                                                                                    24919806.781 7 129763980.24707       750.183 7        44.662                                                                    24919797.815 7 105443830.68907       609.504 7        45.606
R23        32.000    20229276.102 8 108213002.68708       404.400 8        49.515
E29        33.000    24560574.256 7 129066774.15107     -2236.653 7        45.490                                                                    24560572.305 8  96381047.93208     -1670.269 8        48.650    24560572.279 8  98895330.58808     -1713.800 8        50.416
E04        34.000    26906436.324 6 141394304.05206      2185.678 6        40.565                                                                    26906434.368 7 105586664.55607      1632.123 7        42.724    26906434.018 7 108341095.03907      1674.733 7        44.301
C16        35.000                                                                                                                                    39057109.060 7 203380646.03507      -997.090 7        42.366    39057108.060 7 157266828.98407      -770.851 7        43.390    39057105.768 6 165263434.87106      -810.252 6        39.820
C32        36.000                                                                                                                                    22860126.388 8 119038735.40608     -2101.887 8        50.111                                                                    22860126.275 8  96728744.88108     -1708.010 8        50.524
I01        37.000   379631999.869 7 186616702.73907     -2717.985 7        42.489
E27        38.000    29124575.988 5 153050669.44805      1879.790 5        32.228                                                                    29124576.133 6 114291092.14106      1403.919 6        36.726    29124576.077 6 117272595.62006      1440.273 6        38.826
C41        39.000                                                                                                                                    27242338.200 6 141858020.76006     -3276.154 6        38.501                                                                    27242344.003 6 115271288.24906     -2662.073 6        39.438
C39        40.000                                                                                                                                    39594487.921 6 206178918.51906     -1364.782 6        41.473                                                                    39594484.132 7 167537255.55007     -1109.069 7        42.038
E33        41.000    25165956.540 7 132248080.00807     -3034.142 7        45.096                                                                    25165954.263 7  98756715.84107     -2265.795 7        47.940    25165954.010 8 101332973.95508     -2324.868 8        48.946
S44        42.000    40832496.755 6 214576409.89206      -553.899 6        37.629
R06        43.000    22152568.282 6 118210410.34606     -3630.932 6        37.263
C05        44.000                                                                                                                                    39285174.787 6 204568255.42306      -499.290 6        39.213    39285168.108 7 158185178.25007      -386.108 7        43.431    39285170.326 6 166228569.76506      -405.960 6        40.040
C29        45.000                                                                                                                                    23266150.805 8 121152975.76608     -1561.426 8        48.060                                                                    23266147.781 7  98446715.48307     -1268.794 7        47.293
G04        46.000    20198233.328 8 106142468.15108      -403.604 8        49.677                                    20198229.518 7  82708403.49007      -314.496 7        43.194    20198229.597 8  82708405.48908      -314.491 8        49.818
E30        47.000    28935039.067 5 152054675.31305       329.378 5        35.214                                                                    28935039.244 6 113547313.96206       246.184 6        39.120    28935039.139 6 116509416.41406       252.327 6        41.025
R22        48.000    20526016.473 8 109569297.80408     -3391.797 8        51.081                                                                    20526014.342 7  85220562.73107     -2638.148 7        47.407
C20        49.000                                                                                                                                    22515130.768 8 117242220.94208       747.033 8        51.334                                                                    22515124.752 8  95268892.44408       606.952 8        49.508
C06        50.000                                                                                                                                    38534049.140 6 200656940.17706      -917.446 6        41.049    38534043.747 7 155160657.96107      -709.417 7        44.545    38534043.359 6 163050181.32406      -745.659 6        41.571
S48        51.000    77333943.898 6 406391606.06906      -466.813 6        37.996
C09        53.000                                                                                                                                    38610882.752 7 201057019.95107      -414.302 7        42.449    38610878.882 7 155470032.25907      -320.512 7        46.562    38610877.087 7 163375277.67107      -336.736 7        42.591
C60        54.000                                                                                                                                    40832495.457 6 212625734.80306      -548.930 6        40.138                                                                    40832479.727 6 172775798.36206      -446.158 6        40.112
R09        55.000    22940821.538 7 122502722.78007      2972.677 7        44.918                                                                    22940820.490 7  95279888.15307      2312.155 7        44.110
G07        56.000    24972857.340 6 131233253.93206      2958.412 6        38.709                                    24972852.707 5 102259657.90905      2305.256 5        30.325    24972853.866 5 102259666.91405      2305.278 5        35.314
C02        57.000                                                                                                                                    40780774.698 5 212356258.89405      -542.741 5        34.243    40780767.479 6 164207326.75406      -419.742 6        39.913    40780771.954 6 172556860.93206      -441.126 6        36.344
I03        58.000   102193533.729 6 325244152.02806       877.517 6        40.393
R07        59.000    19618569.098 8 105019800.64208     -1288.316 8        51.430                                                                    19618567.475 7  81682120.92007     -1002.036 7        47.906
> 2025 01 02 02 45 10.0000000  0 55
G09         1.000    20869840.504 8 109671786.29208      1427.880 8        49.054                                    20869837.580 8  85458540.63708      1112.635 8        51.006    20869837.913 7  85458540.63407      1112.686 7        44.497
G06         2.000    22134562.973 7 116317932.36007      1741.352 7        45.400                                    22134561.271 7  90637354.56907      1356.896 7        45.627    22134561.879 7  90637362.56807      1356.995 7        43.340
E11         3.000    26676519.986 6 140186073.21406      2135.332 6        36.919                                                                    26676515.963 6 104684395.14906      1594.522 6        40.791    26676515.434 6 107415288.69906      1636.083 6        41.454
R15         4.000    24267387.530 7 129677564.86707     -3171.876 7        42.419                                                                    24267387.654 6 100860314.01606     -2467.082 6        39.622
S21         5.000    38587087.991 7 202776241.92907      -475.438 7        42.197
E10         6.000    24817102.129 7 130414762.32807      1083.130 7        46.316                                                                    24817100.826 8  97387644.03008       808.839 8        49.046    24817100.683 8  99928190.72108       829.931 8        50.327
G28         7.000    25188978.827 6 132368987.90306     -3609.351 6        37.429                                    25188975.091 3 103144647.49503     -2812.476 3        19.821    25188975.017 6 103144655.49806     -2812.575 6        37.119
G03         8.000    20902776.672 8 109844932.89108     -2298.722 8        48.610                                    20902774.412 8  85593496.08708     -1791.211 8        49.756    20902775.105 7  85593494.09307     -1791.239 7        44.474
G02         9.000    24483813.917 6 128663356.53906     -3967.238 6        40.079                                    24483807.128 4 100257154.24104     -3091.358 4        25.323
G31        10.000    22982489.601 7 120773809.67007     -2568.766 7        44.600                                    22982484.757 6  94109446.48006     -2001.638 6        39.541    22982485.037 6  94109451.48806     -2001.615 6        40.303
C30        11.000                                                                                                                                    25112324.082 7 130766470.30307     -3756.251 7        43.894                                                                    25112324.301 7 106258470.45307     -3052.195 7        42.929
S27        12.000    39215868.994 5 206080809.03005      -471.521 5        35.943
G26        13.000    24970874.111 6 131222828.71906      1439.796 6        37.006                                    24970873.029 4 102251560.43004      1121.910 4        28.464    24970873.139 5 102251560.43705      1121.876 5        34.600
S36        14.000    38354495.408 7 201554742.45607      -476.052 7        44.609
I09        15.000    37553552.327 7 147368207.76707      -608.811 7        42.908
G19        16.000    22944430.134 7 120573817.11407     -2313.750 7        43.613                                    22944423.678 5  93953608.06405     -1802.921 5        30.136
S45        17.000    63546983.861 6 333942429.68506      -515.672 6        37.614
E12        19.000    24091422.098 7 126601289.20207      -250.068 7        44.898                                                                    24091418.093 8  94539913.21708      -186.699 8        48.003    24091418.189 8  97006171.18508      -191.595 8        49.063
G17        20.000    24116501.841 7 126733091.60407     -3187.102 7        42.216                                    24116497.020 5  98753047.45505     -2483.456 5        34.724    24116497.297 6  98753046.45206     -2483.349 6        37.093
G11        21.000    25366073.061 6 133299618.66106      3078.659 6        39.405                                    25366069.648 3 103869812.09003      2398.962 3        21.286    25366069.911 6 103869825.09506      2399.062 6        37.395
I06        22.000    38201120.685 7 149909644.16707      -285.321 7        43.367
S28        23.000    41020082.605 5 215561998.61205      -470.724 5        34.567
R08        24.000    20941216.601 8 112139301.89408      1765.681 8        50.032                                                                    20941213.794 7  87219461.21707      1373.264 7        45.985
S23        25.000    38299594.297 7 201265733.21707      -471.645 7        44.634
C25        26.000                                                                                                                                    25895564.971 6 134844999.65106     -1863.375 6        41.151                                                                    25895562.832 6 109572603.37406     -1513.929 6        40.434
R16        27.000    22365696.393 7 119473550.52607        13.167 7        47.322                                                                    22365696.395 7  92923874.82507        10.240 7        44.027
E19        30.000    23067932.150 7 121222835.82607        51.410 7        43.344                                                                    23067929.505 7  90523548.99907        38.302 7        45.552    23067929.544 7  92885029.58907        39.353 7        47.184
C23        31.000                                                                                                                                    24919087.322 7 129760236.33707       747.706 7        44.299                                                                    24919078.868 7 105440788.45907       607.599 7        45.570
R23        32.000    20228900.134 8 108210992.44908       399.859 8        49.236
E29        33.000    24562702.988 7 129077960.86607     -2237.840 7        45.630                                                                    24562701.067 8  96389401.65108     -1671.122 8        48.747    24562701.047 8  98903902.22908     -1714.684 8        50.385
E04        34.000    26904357.258 6 141383378.11806      2185.021 6        40.539                                                                    26904355.346 7 105578505.59607      1631.638 7        42.908    26904354.878 7 108332723.24207      1674.137 7        44.266
C16        35.000                                                                                                                                    39058066.662 7 203385633.07607      -997.600 7        42.398    39058065.686 7 157270685.29307      -771.487 7        43.363    39058063.513 6 165267487.25106      -810.543 6        39.868
C32        36.000                                                                                                                                    22862145.306 8 119049248.21108     -2103.045 8        49.958                                                                    22862145.067 8  96737287.39808     -1708.811 8        50.397
I01        37.000   379635463.116 7 186630293.76707     -2718.161 7        42.449
E27        38.000    29122787.781 5 153041273.65005      1878.890 5        33.054                                                                    29122787.993 6 114284075.81106      1403.095 6        37.535    29122787.920 6 117265396.24606      1439.616 6        39.360
C41        39.000                                                                                                                                    27245483.954 6 141874401.51106     -3276.035 6        38.267                                                                    27245489.819 6 115284598.96206     -2662.002 6        39.504
C39        40.000                                                                                                                                    39595798.668 6 206185744.33506     -1365.331 6        41.330                                                                    39595794.977 7 167542802.07607     -1109.353 7        42.015
E33        41.000    25168844.070 7 132263254.76607     -3035.569 7        45.257                                                                    25168841.909 8  98768047.64208     -2266.804 8        48.013    25168841.802 8 101344601.36308     -2325.958 8        49.041
S44        42.000    40833024.702 6 214579180.38306      -554.126 6        37.369
R06        43.000    22155970.808 6 118228566.83506     -3631.581 6        36.699
C05        44.000                                                                                                                                    39285654.122 6 204570752.77106      -499.382 6        39.072    39285647.622 7 158187109.36207      -386.185 7        43.520    39285649.764 6 166230599.06806      -405.813 6        39.955
C29        45.000                                                                                                                                    23267651.532 7 121160790.18407     -1564.140 7        47.870                                                                    23267648.484 7  98453065.33707     -1270.942 7        47.211
G04        46.000    20198618.501 8 106144493.17808      -406.184 8        49.788                                    20198614.860 7  82709981.43307      -316.508 7        43.410    20198614.798 8  82709983.43908      -316.523 8        49.649
E30        47.000    28934727.122 5 152053034.19205       327.298 5        35.438                                                                    28934727.000 6 113546088.44306       244.375 6        39.363    28934726.672 6 116508158.92706       250.661 6        40.744
R22        48.000    20529195.008 8 109586266.25208     -3395.279 8        51.369                                                                    20529192.766 7  85233760.42007     -2640.807 7        47.021
C20        49.000                                                                                                                                    22514414.466 8 117238489.65408       745.696 8        51.393                                                                    22514408.205 8  95265860.47408       605.973 8        49.441
C06        50.000                                                                                                                                    38534930.464 6 200661529.95706      -918.137 6        40.815    38534925.206 7 155164207.08407      -709.959 7        44.474    38534924.824 6 163053910.90006      -746.053 6        41.499
S48        51.000    77334388.131 6 406393941.49206      -467.059 6        37.924
C09        53.000                                                                                                                                    38611281.089 7 201059094.69607      -415.236 7        42.567    38611277.493 7 155471636.58207      -321.074 7        46.409    38611275.533 7 163376963.56607      -337.262 7        42.491
C60        54.000                                                                                                                                    40833023.032 6 212628480.10406      -548.934 6        40.036                                                                    40833006.914 6 172778029.15006      -445.974 6        40.036
R09        55.000    22938039.499 7 122487864.36507      2970.862 7        45.154                                                                    22938037.825 7  95268331.61007      2310.697 7        44.027
G07        56.000    24970042.191 6 131218462.15006      2958.427 6        38.985                                    24970037.870 5 102248131.85505      2305.268 5        30.558    24970038.216 5 102248140.86405      2305.293 5        35.424
C02        57.000                                                                                                                                    40781295.857 5 212358973.63005      -542.734 5        34.248    40781289.232 6 164209425.97006      -419.625 6        39.832    40781293.323 6 172559066.88806      -441.146 6        36.348
I03        58.000   102192415.692 6 325239764.72206       877.486 6        40.276
R07        59.000    19619773.128 8 105026248.42608     -1290.600 8        51.207                                                                    19619771.582 7  81687135.87007     -1003.829 7        47.426
> 2025 01 02 02 45 15.0000000  0 55
G09         1.000    20868483.287 8 109664652.79208      1425.410 8        48.966                                    20868480.120 8  85452982.06508      1110.708 8        51.109    20868480.378 7  85452982.07407      1110.594 7        44.388
G06         2.000    22132907.607 7 116309232.25807      1738.624 7        45.478                                    22132905.702 7  90630575.27307      1354.773 7        45.770    22132906.659 7  90630583.27407      1354.764 7        43.312
E11         3.000    26674488.448 6 140175399.43806      2134.182 6        37.342                                                                    26674484.671 6 104676424.46806      1593.641 6        40.703    26674484.477 6 107407110.09506      1635.070 6        41.437
R15         4.000    24270357.510 7 129693432.56807     -3175.271 7        42.002                                                                    24270357.292 6 100872655.55806     -2469.637 6        39.228
S21         5.000    38587542.777 7 202778620.17307      -475.913 7        42.245
E10         6.000    24816072.410 7 130409351.54107      1081.008 7        46.312                                                                    24816071.132 8  97383603.50208       807.246 8        49.076    24816071.048 8  99924044.78708       828.342 8        50.325
G28         7.000    25192413.945 6 132387039.78506     -3611.318 6        37.323                                    25192410.187 3 103158713.89103     -2814.014 3        19.343    25192410.079 6 103158721.89206     -2813.937 6        37.626
G03         8.000    20904965.182 8 109856431.75708     -2300.904 8        48.622                                    20904962.569 8  85602456.24408     -1792.911 8        49.804    20904963.286 7  85602454.24407     -1792.942 7        44.521
G02         9.000    24487588.955 6 128683195.32206     -3968.268 6        40.074                                    24487582.461 4 100272613.02904     -3092.153 4        25.353
G31        10.000    22984935.129 7 120786661.75507     -2572.113 7        44.465                                    22984930.413 6  94119461.09006     -2004.244 6        39.721    22984930.330 6  94119466.09206     -2004.261 6        40.069
C30        11.000                                                                                                                                    25115931.321 7 130785253.80007     -3757.271 7        43.490                                                                    25115931.666 7 106273733.58207     -3052.974 7        42.933
S27        12.000    39216317.811 5 206083168.13105      -471.914 5        35.967
G26        13.000    24969505.363 6 131215635.64506      1437.228 6        37.255                                    24969504.199 4 102245955.45804      1119.922 4        28.379    24969504.535 5 102245955.45805      1119.835 5        34.024
S36        14.000    38354947.788 7 201557123.09107      -476.288 7        44.606
I09        15.000    37554328.421 7 147371252.92007      -609.257 7        42.825
G19        16.000    22946632.958 7 120585393.46507     -2316.796 7        42.798                                    22946626.547 5  93962628.59705     -1805.309 5        30.234
S45        17.000    63547433.804 6 333945008.41206      -515.952 6        37.716
E12        19.000    24091661.365 7 126602545.55507      -252.622 7        44.996                                                                    24091657.178 7  94540851.40207      -188.635 7        47.976    24091657.245 8  97007133.85108      -193.552 8        49.040
G17        20.000    24119534.971 6 126749030.20406     -3188.478 6        41.220                                    24119530.108 5  98765467.14405     -2484.526 5        34.762    24119530.631 6  98765466.14306     -2484.436 6        37.206
G11        21.000    25363143.639 6 133284227.29806      3077.759 6        38.928                                    25363140.610 3 103857818.83303      2398.253 3        21.071    25363141.159 6 103857831.81906      2398.241 6        36.805
I06        22.000    38201483.878 7 149911071.52607      -285.564 7        43.238
S28        23.000    41020530.585 5 215564353.44905      -471.142 5        34.938
R08        24.000    20939568.361 8 112130478.72608      1763.495 8        49.773                                                                    20939565.943 7  87212598.74607      1371.581 7        45.950
S23        25.000    38300044.044 7 201268092.11807      -471.944 7        44.790
C25        26.000                                                                                                                                    25897356.172 6 134854323.47306     -1866.148 6        41.313                                                                    25897353.501 6 109580179.76406     -1516.341 6        39.883
R16        27.000    22365686.403 7 119473496.46307         8.451 7        47.175                                                                    22365685.874 7  92923832.77807         6.571 7        43.697
E19        30.000    23067884.163 7 121222584.01307        49.294 7        43.549                                                                    23067881.606 7  90523360.95307        36.751 7        45.630    23067881.654 7  92884836.64207        37.779 7        47.192
C23        31.000                                                                                                                                    24918370.997 7 129756504.73707       744.910 7        44.176                                                                    24918362.186 7 105437756.23707       605.384 7        45.327
R23        32.000    20228528.840 8 108209005.26208       394.910 8        49.340
E29        33.000    24564833.009 7 129089153.35507     -2239.281 7        45.874                                                                    24564830.892 8  96397759.67808     -1672.213 8        48.737    24564830.862 8  98912478.29408     -1715.779 8        50.359
E04        34.000    26902278.529 6 141372456.04506      2183.975 6        40.830                                                                    26902277.034 7 105570349.50007      1630.840 7        43.107    26902276.490 7 108324354.38107      1673.388 7        44.176
C16        35.000                                                                                                                                    39059025.051 7 203390623.46807      -998.591 7        42.404    39059023.943 7 157274544.17107      -772.143 7        43.289    39059021.859 6 165271542.36406      -811.333 6        39.640
C32        36.000                                                                                                                                    22864165.314 8 119059766.63108     -2104.376 8        50.069                                                                    22864165.040 8  96745834.49308     -1709.905 8        50.253
I01        37.000   379638926.631 7 186643885.40507     -2718.546 7        42.260
E27        38.000    29121000.733 5 153031882.09305      1877.515 5        32.892                                                                    29121000.862 6 114277062.63506      1402.267 6        37.686    29121000.734 6 117258200.13406      1438.622 6        39.547
C41        39.000                                                                                                                                    27248629.716 6 141890782.06306     -3276.317 6        38.213                                                                    27248635.426 6 115297909.49006     -2662.051 6        39.532
C39        40.000                                                                                                                                    39597109.816 6 206192572.82906     -1366.120 6        41.728                                                                    39597106.312 6 167548350.79706     -1109.977 6        41.795
E33        41.000    25171732.957 7 132278436.70207     -3037.235 7        45.375                                                                    25171730.892 7  98779384.79707     -2268.093 7        47.976    25171730.882 8 101356234.26808     -2327.269 8        48.998
S44        42.000    40833549.823 6 214581951.01306      -554.440 6        37.645
R06        43.000    22159374.332 6 118246726.65706     -3632.496 6        37.248
C05        44.000                                                                                                                                    39286133.847 6 204573250.37206      -499.707 6        39.264    39286127.481 7 158189040.67007      -386.427 7        43.410    39286129.565 6 166232628.57706      -406.014 6        39.673
C29        45.000                                                                                                                                    23269154.339 7 121168618.14307     -1567.155 7        47.912                                                                    23269151.799 7  98459426.19807     -1273.295 7        47.058
G04        46.000    20199006.433 8 106146531.16008      -409.091 8        49.425                                    20199002.671 7  82711569.47307      -318.773 7        43.462    20199002.721 8  82711571.47508      -318.786 8        49.576
E30        47.000    28934417.346 5 152051404.12305       325.050 5        35.638                                                                    28934417.013 6 113544871.21006       242.538 6        39.529    28934416.520 6 116506909.92306       248.771 6        40.777
R22        48.000    20532377.058 8 109603252.04608     -3399.077 8        50.952                                                                    20532375.113 7  85246971.57107     -2643.716 7        47.242
C20        49.000                                                                                                                                    22513699.428 8 117234765.32808       743.968 8        51.537                                                                    22513692.971 8  95262834.16008       604.677 8        49.369
C06        50.000                                                                                                                                    38535812.728 6 200666123.37806      -919.309 6        40.899    38535807.514 7 155167759.00007      -710.903 7        44.516    38535806.937 6 163057643.43206      -746.913 6        41.304
S48        51.000    77334835.866 6 406396276.88906      -467.147 6        38.024
C09        53.000                                                                                                                                    38611680.445 7 201061173.32907      -416.213 7        42.692    38611676.476 7 155473243.91307      -321.893 7        46.397    38611674.759 7 163378652.64307      -338.231 7        42.351
C60        54.000                                                                                                                                    40833550.098 6 212631225.53506      -549.250 6        40.095                                                                    40833534.055 6 172780260.04006      -446.206 6        39.967
R09        55.000    22935258.172 7 122473015.32007      2968.630 7        44.513                                                                    22935256.691 7  95256782.36307      2308.896 7        43.900
G07        56.000    24967227.167 6 131203670.69606      2958.172 6        38.601                                    24967223.203 5 102236606.07105      2305.066 5        30.513    24967223.961 5 102236615.08305      2305.032 5        35.571
C02        57.000                                                                                                                                    40781817.490 5 212361688.61005      -543.062 5        34.148    40781810.543 6 164211525.36306      -420.009 6        39.658    40781814.643 6 172561273.03806      -441.350 6        36.431
I03        58.000   102191298.030 6 325235377.64906       877.153 6        40.133
R07        59.000    19620980.029 8 105032707.14308     -1293.024 8        51.329                                                                    19620978.457 7  81692159.30707     -1005.706 7        47.732
> 2025 01 02 02 45 20.0000000  0 55
G09         1.000    20867127.943 8 109657530.83008      1423.114 8        48.843                                    20867124.856 8  85447432.48408      1108.917 8        50.997    20867125.231 7  85447432.48607      1108.915 7        44.396
G06         2.000    22131254.216 7 116300544.88307      1736.201 7        45.682                                    22131252.552 7  90623805.89007      1352.883 7        45.667    22131253.228 7  90623813.89907      1352.836 7        43.805
E11         3.000    26672458.268 6 140164731.00506      2133.092 6        37.380                                                                    26672454.520 6 104668457.78006      1592.938 6        40.710    26672454.313 6 107398935.56906      1634.474 6        41.576
R15         4.000    24273328.556 6 129709316.10606     -3178.327 6        41.244                                                                    24273329.209 6 100885009.42606     -2471.997 6        39.495
S21         5.000    38587994.291 7 202780999.19407      -476.005 7        42.375
E10         6.000    24815044.895 7 130403950.38107      1079.170 7        46.251                                                                    24815043.366 8  97379570.17308       805.922 8        49.124    24815043.279 8  99919906.24308       826.932 8        50.486
G28         7.000    25195850.592 6 132405100.08706     -3612.668 6        37.289                                    25195847.067 3 103172786.85703     -2815.045 3        18.925    25195847.015 6 103172794.89706     -2815.333 6        37.195
G03         8.000    20907154.754 8 109867940.10008     -2302.555 8        48.322                                    20907152.529 8  85611423.78308     -1794.201 8        49.726    20907153.180 7  85611421.78807     -1794.244 7        44.501
G02         9.000    24491365.240 6 128703037.52306     -3968.857 6        40.443                                    24491358.388 4 100288074.48704     -3092.624 4        25.669
G31        10.000    22987383.875 7 120799529.33807     -2574.947 7        43.634                                    22987379.060 6  94129487.77506     -2006.452 6        39.574    22987379.303 6  94129492.79006     -2006.608 6        40.505
C30        11.000                                                                                                                                    25119538.893 7 130804040.81207     -3757.807 7        43.308                                                                    25119539.705 7 106288999.54707     -3053.483 7        42.961
S27        12.000    39216767.486 5 206085528.00405      -472.322 5        35.971
G26        13.000    24968138.768 6 131208453.36406      1435.140 6        37.474                                    24968137.420 4 102240358.87404      1118.288 4        28.218    24968137.161 5 102240358.86105      1118.380 5        34.457
S36        14.000    38355401.698 7 201559504.06807      -476.399 7        44.795
I09        15.000    37555104.775 7 147374299.07907      -609.361 7        42.808
G19        16.000    22948838.919 7 120596984.19207     -2319.725 7        42.332                                    22948832.134 5  93971660.33305     -1807.579 5        30.060
S45        17.000    63547881.691 6 333947587.57106      -515.937 6        37.860
E12        19.000    24091902.610 7 126603813.62807      -254.921 7        45.160                                                                    24091898.494 8  94541798.33908      -190.325 8        48.017    24091898.633 8  97008105.48608      -195.263 8        49.066
G17        20.000    24122568.557 6 126764974.62406     -3189.578 6        41.271                                    24122564.332 5  98777891.36005     -2485.383 5        34.595    24122564.728 6  98777890.36606     -2485.382 6        36.491
G11        21.000    25360215.797 6 133268839.94306      3076.966 6        38.793                                    25360212.395 3 103845828.68303      2397.631 3        20.524    25360213.357 6 103845841.67206      2397.657 6        36.836
I06        22.000    38201848.096 7 149912499.41507      -285.604 7        43.443
S28        23.000    41020979.737 5 215566709.31905      -470.930 5        34.752
R08        24.000    20937922.497 8 112121665.12308      1761.725 8        49.877                                                                    20937920.252 7  87205743.74107      1370.204 7        46.048
S23        25.000    38300491.296 7 201270451.53607      -472.054 7        44.737
C25        26.000                                                                                                                                    25899149.041 6 134863660.14506     -1868.782 6        41.161                                                                    25899146.491 6 109587766.54606     -1518.477 6        39.793
R16        27.000    22365680.559 7 119473464.75107         4.046 7        47.250                                                                    22365680.213 7  92923808.10907         3.194 7        43.881
E19        30.000    23067838.052 7 121222341.37107        47.645 7        43.342                                                                    23067835.394 7  90523179.76207        35.481 7        45.609    23067835.465 7  92884650.72107        36.492 7        47.296
C23        31.000                                                                                                                                    24917657.566 7 129752785.89107       742.315 7        44.456                                                                    24917648.029 7 105434734.34507       603.358 7        45.333
R23        32.000    20228162.168 8 108207041.68108       390.223 8        49.636
E29        33.000    24566963.969 7 129100352.03107     -2240.413 7        45.916                                                                    24566961.967 8  96406122.32408     -1673.059 8        48.757    24566961.875 8  98921059.09708     -1716.669 8        50.442
E04        34.000    26900200.829 6 141361538.24806      2183.012 6        40.911                                                                    26900199.483 7 105562196.60607      1630.205 7        43.149    26900199.006 7 108315988.79507      1672.714 7        44.370
C16        35.000                                                                                                                                    39059983.554 7 203395617.63307      -999.265 7        42.612    39059983.338 7 157278405.97607      -772.789 7        43.194    39059980.811 6 165275600.52706      -812.157 6        39.498
C32        36.000                                                                                                                                    22866186.533 8 119070291.09208     -2105.550 8        50.085                                                                    22866186.169 8  96754386.46008     -1710.955 8        50.191
I01        37.000   379642390.570 7 186657478.01507     -2718.656 7        42.565
E27        38.000    29119214.552 5 153022495.19505      1877.298 5        33.635                                                                    29119214.635 6 114270052.94206      1401.497 6        37.369    29119214.491 6 117251007.56606      1438.180 6        39.300
C41        39.000                                                                                                                                    27251775.075 6 141907162.79406     -3276.198 6        38.132                                                                    27251781.196 6 115311220.16906     -2662.332 6        39.643
C39        40.000                                                                                                                                    39598421.972 6 206199404.41906     -1366.712 6        41.881                                                                    39598418.209 6 167553902.02406     -1110.542 6        41.747
E33        41.000    25174623.480 7 132293626.23507     -3038.725 7        45.267                                                                    25174621.394 7  98790727.62807     -2269.146 7        47.935    25174621.265 8 101367873.00008     -2328.314 8        49.100
S44        42.000    40834079.884 6 214584722.16506      -554.539 6        37.830
R06        43.000    22162777.512 6 118264890.24106     -3633.138 6        37.036
C05        44.000                                                                                                                                    39286613.697 6 204575748.58506      -499.696 6        39.354    39286607.081 7 158190972.44107      -386.392 7        43.342    39286609.276 6 166234658.56706      -406.147 6        39.736
C29        45.000                                                                                                                                    23270660.551 8 121176460.05808     -1569.799 8        48.243                                                                    23270657.794 7  98465798.39307     -1275.624 7        46.934
G04        46.000    20199396.783 8 106148582.50608      -411.637 8        49.556                                    20199393.030 7  82713167.92507      -320.755 7        43.338    20199393.046 8  82713169.92708      -320.767 8        49.579
E30        47.000    28934108.897 5 152049785.60605       322.388 5        35.871                                                                    28934109.077 6 113543662.56306       240.959 6        39.616    28934108.408 6 116505669.75606       247.087 6        40.589
R22        48.000    20535562.412 8 109620255.56408     -3402.581 8        50.717                                                                    20535560.382 7  85260196.54007     -2646.458 7        47.158
C20        49.000                                                                                                                                    22512985.377 8 117231048.35808       742.552 8        51.836                                                                    22512979.186 8  95259813.80908       603.410 8        49.232
C06        50.000                                                                                                                                    38536696.111 6 200670720.80306      -919.951 6        41.182    38536690.368 7 155171314.02607      -711.427 7        44.615    38536689.847 6 163061379.20306      -747.531 6        41.230
S48        51.000    77335280.846 6 406398612.78406      -467.031 6        37.837
C09        53.000                                                                                                                                    38612081.167 7 201063256.27007      -417.141 7        42.974    38612076.439 7 155474854.56907      -322.504 7        46.347    38612074.703 7 163380345.18807      -338.959 7        42.307
C60        54.000                                                                                                                                    40834077.419 6 212633971.49706      -549.255 6        40.350                                                                    40834061.483 6 172782491.35706      -446.441 6        39.781
R09        55.000    22932479.136 7 122458176.00707      2966.896 7        44.998                                                                    22932478.064 7  95245240.67607      2307.475 7        43.644
G07        56.000    24964412.814 6 131188880.06506      2958.088 6        38.658                                    24964408.688 5 102225080.91505      2304.998 5        30.604    24964409.739 5 102225089.92105      2304.871 5        35.924
C02        57.000                                                                                                                                    40782339.306 5 212364404.18305      -543.319 5        34.376    40782331.755 6 164213625.21306      -420.007 6        39.868    40782336.115 6 172563479.64606      -441.545 6        36.242
I03        58.000   102190179.976 6 325230991.11306       877.155 6        40.198
R07        59.000    19622188.498 8 105039177.35808     -1295.262 8        50.973                                                                    19622186.940 7  81697191.69707     -1007.475 7        47.591
> 2025 01 02 02 45 25.0000000  0 55
G09         1.000    20865774.689 8 109650419.56808      1421.060 8        48.967                                    20865771.627 8  85441891.24508      1107.319 8        50.853    20865772.169 7  85441891.25207      1107.309 7        44.406
G06         2.000    22129603.696 7 116291869.42807      1733.750 7        45.562                                    22129601.670 7  90617045.79607      1350.974 7        45.585    22129602.510 7  90617053.79707      1351.052 7        43.704
E11         3.000    26670429.706 6 140154067.07606      2132.224 6        37.293                                                                    26670425.267 6 104660494.47706      1592.191 6        40.768    26670424.918 6 107390764.52206      1633.760 6        41.695
R15         4.000    24276303.517 6 129725214.71406     -3181.394 6        40.820                                                                    24276304.899 6 100897375.03006     -2474.381 6        39.991
S21         5.000    38588447.123 7 202783378.13007      -475.967 7        42.237
E10         6.000    24814018.658 7 130398558.05707      1077.430 7        46.390                                                                    24814017.230 8  97375543.44308       804.600 8        49.160    24814017.072 8  99915774.46308       825.569 8        50.493
G28         7.000    25199289.017 6 132423168.05606     -3614.456 6        37.195                                    25199285.163 3 103186865.77703     -2816.464 3        18.716    25199285.006 6 103186873.77706     -2816.355 6        37.323
G03         8.000    20909346.439 7 109879457.11907     -2304.334 7        47.996                                    20909344.147 8  85620398.08408     -1795.586 8        49.569    20909344.842 7  85620396.08707     -1795.614 7        44.533
G02         9.000    24495141.637 6 128722882.33806     -3969.359 6        40.923                                    24495134.861 4 100303537.96804     -3093.009 4        26.072
G31        10.000    22989835.421 7 120812411.61307     -2578.162 7        43.587                                    22989830.462 6  94139525.90906     -2008.958 6        39.387    22989830.936 6  94139530.90806     -2008.858 6        40.360
C30        11.000                                                                                                                                    25123147.324 7 130822830.52607     -3758.260 7        43.742                                                                    25123148.045 7 106304267.75107     -3053.996 7        43.103
S27        12.000    39217213.177 6 206087887.45406      -471.958 6        36.038
G26        13.000    24966773.680 6 131201280.98806      1433.653 6        36.601                                    24966772.556 4 102234770.02004      1117.122 4        27.868    24966772.679 5 102234770.02905      1116.747 5        34.690
S36        14.000    38355855.309 7 201561884.98407      -476.265 7        44.492
I09        15.000    37555880.902 7 147377345.65107      -609.382 7        42.844
G19        16.000    22951047.139 7 120608588.40207     -2322.339 7        42.722                                    22951040.244 4  93980702.57604     -1809.617 4        29.820
S45        17.000    63548330.749 6 333950166.45106      -515.842 6        37.902
E12        19.000    24092145.860 7 126605092.65007      -257.109 7        45.082                                                                    24092141.835 8  94542753.45908      -191.979 8        48.080    24092141.979 8  97009085.51808      -196.943 8        49.115
G17        20.000    24125604.298 6 126780924.00806     -3190.379 6        41.044                                    24125599.468 5  98790319.44005     -2486.006 5        34.529    24125599.403 5  98790318.46905     -2486.118 5        35.948
G11        21.000    25357288.304 6 133253455.76706      3076.270 6        38.372                                    25357284.824 3 103833841.01403      2397.067 3        20.952    25357285.714 6 103833854.02706      2397.307 6        37.890
I06        22.000    38202212.198 7 149913927.25107      -285.650 7        43.384
S28        23.000    41021430.159 5 215569064.86205      -471.135 5        34.738
R08        24.000    20936278.530 8 112112860.36308      1759.875 8        50.393                                                                    20936275.790 7  87198895.57507      1368.771 7        45.734
S23        25.000    38300939.884 7 201272810.52707      -471.983 7        44.646
C25        26.000                                                                                                                                    25900944.305 6 134873008.85106     -1871.208 6        41.249                                                                    25900942.004 6 109595363.15106     -1520.477 6        39.760
R16        27.000    22365679.589 7 119473454.55207        -0.288 7        46.911                                                                    22365677.928 7  92923800.17607        -0.253 7        43.215
E19        30.000    23067793.493 7 121222107.09407        45.925 7        43.407                                                                    23067790.758 7  90523004.81707        34.249 7        45.621    23067790.912 7  92884471.21607        35.107 7        47.274
C23        31.000                                                                                                                                    24916945.808 7 129749078.95007       740.055 7        44.834                                                                    24916936.204 7 105431722.18007       601.377 7        45.240
R23        32.000    20227799.027 8 108205100.92008       385.765 8        49.177
E29        33.000    24569096.095 7 129111556.06707     -2241.496 7        45.887                                                                    24569094.011 8  96414488.97608     -1673.858 8        48.825    24569093.912 8  98929644.00708     -1717.466 8        50.449
E04        34.000    26898124.306 6 141350623.90006      2182.392 6        41.006                                                                    26898122.302 7 105554046.28507      1629.692 7        43.230    26898122.038 7 108307625.86607      1672.240 7        44.563
C16        35.000                                                                                                                                    39060943.332 7 203400614.74407      -999.897 7        42.554    39060942.836 7 157282270.06507      -773.167 7        43.098    39060940.588 6 165279661.10506      -812.531 6        39.619
C32        36.000                                                                                                                                    22868208.370 8 119080820.76808     -2106.594 8        50.108                                                                    22868208.298 8  96762942.69408     -1711.742 8        50.231
I01        37.000   379645854.038 7 186671070.94207     -2718.619 7        42.531
E27        38.000    29117428.715 5 153013112.20405      1875.961 5        33.425                                                                    29117428.864 6 114263046.16006      1400.868 6        37.671    29117428.873 6 117243817.98806      1437.681 6        39.742
C41        39.000                                                                                                                                    27254921.499 6 141923542.90206     -3276.120 6        38.006                                                                    27254926.728 6 115324530.35606     -2662.080 6        39.634
C39        40.000                                                                                                                                    39599734.155 6 206206238.31206     -1367.336 6        41.878                                                                    39599730.552 6 167559455.11806     -1110.998 6        41.800
E33        41.000    25177515.379 7 132308822.54207     -3040.078 7        45.615                                                                    25177513.197 8  98802075.52008     -2270.233 8        48.029    25177512.804 8 101379516.92408     -2329.417 8        49.132
S44        42.000    40834606.163 6 214587493.03906      -554.126 6        37.629
R06        43.000    22166181.816 6 118283056.57306     -3633.749 6        37.720
C05        44.000                                                                                                                                    39287093.341 6 204578246.62906      -499.625 6        39.532    39287086.787 7 158192904.10807      -386.438 7        43.323    39287088.893 6 166236688.44406      -406.020 6        39.529
C29        45.000                                                                                                                                    23272169.143 8 121184315.15408     -1572.474 8        48.126                                                                    23272166.203 7  98472181.30907     -1277.769 7        46.913
G04        46.000    20199789.453 8 106150646.40008      -414.211 8        49.599                                    20199785.782 7  82714776.15507      -322.764 7        43.202    20199785.864 8  82714778.15608      -322.753 8        49.675
E30        47.000    28933803.053 5 152048177.82105       320.248 5        35.948                                                                    28933803.077 6 113542461.96206       239.203 6        39.637    28933802.439 6 116504437.81806       245.408 6        40.691
R22        48.000    20538750.758 8 109637275.98108     -3405.999 8        50.939                                                                    20538748.519 7  85273434.65107     -2649.064 7        47.270
C20        49.000                                                                                                                                    22512272.618 8 117227337.95108       741.286 8        51.773                                                                    22512266.672 8  95256798.80708       602.363 8        49.282
C06        50.000                                                                                                                                    38537579.694 6 200675321.43906      -920.512 6        41.299    38537573.822 7 155174871.53607      -711.931 7        44.509    38537573.301 6 163065117.62006      -748.117 6        41.185
S48        51.000    77335726.792 6 406400948.32906      -467.325 6        37.834
C09        53.000                                                                                                                                    38612481.724 7 201065342.66507      -417.778 7        43.143    38612477.017 7 155476467.89607      -322.994 7        46.483    38612475.378 7 163382040.58007      -339.598 7        42.392
C60        54.000                                                                                                                                    40834604.448 6 212636717.20106      -549.312 6        40.288                                                                    40834588.643 6 172784722.45606      -446.181 6        39.856
R09        55.000    22929702.459 7 122443345.53107      2965.066 7        45.077                                                                    22929700.566 7  95233705.86607      2306.174 7        43.166
G07        56.000    24961598.645 6 131174089.40806      2958.035 6        38.832                                    24961594.271 5 102213555.74305      2304.960 5        30.687    24961595.181 6 102213564.74306      2304.855 6        36.359
C02        57.000                                                                                                                                    40782860.594 5 212367119.60905      -543.168 5        34.314    40782853.526 6 164215724.95206      -419.903 6        39.667    40782857.528 6 172565686.16606      -441.613 6        36.193
I03        58.000   102189062.238 6 325226604.51806       877.268 6        40.205
R07        59.000    19623398.740 8 105045658.23408     -1297.391 8        50.975                                                                    19623397.450 7  81702232.38307     -1009.080 7        47.843
> 2025 01 02 02 45 30.0000000  0 55
G09         1.000    20864423.375 8 109643319.08708      1418.879 8        48.841                                    20864420.455 8  85436358.40508      1105.619 8        50.949    20864420.857 7  85436358.40707      1105.562 7        44.614
G06         2.000    22127954.579 7 116283205.93307      1731.419 7        45.639                                    22127953.050 7  90610295.02207      1349.154 7        45.652    22127953.398 7  90610303.02107      1349.155 7        43.431
E11         3.000    26668401.295 6 140143407.72606      2131.471 6        37.319                                                                    26668396.796 6 104652534.57106      1591.524 6        40.753    26668396.474 6 107382596.96706      1633.070 6        41.714
R15         4.000    24279282.374 6 129741128.44106     -3184.348 6        41.681                                                                    24279282.593 6 100909752.35206     -2476.672 6        39.153
S21         5.000    38588899.884 7 202785757.01007      -475.842 7        42.205
E10         6.000    24812994.188 7 130393174.59607      1075.662 7        46.424                                                                    24812992.771 8  97371523.32608       803.256 8        49.162    24812992.668 8  99911649.47708       824.248 8        50.519
G28         7.000    25202729.092 6 132441243.61306     -3616.101 6        37.361                                    25202724.744 3 103200950.63303     -2817.717 3        18.806    25202724.877 6 103200958.63706     -2817.570 6        37.293
G03         8.000    20911539.819 8 109890982.84808     -2306.102 8        48.304                                    20911537.411 8  85629379.16908     -1796.962 8        49.622    20911538.075 7  85629377.17107     -1796.938 7        44.567
G02         9.000    24498918.227 6 128742729.79106     -3969.814 6        41.356                                    24498911.839 4 100319003.52204     -3093.361 4        26.754
G31        10.000    22992289.546 7 120825308.54907     -2581.065 7        43.329                                    22992284.613 6  94149575.47306     -2011.221 6        39.330    22992284.753 6  94149580.47706     -2011.154 6        39.787
C30        11.000                                                                                                                                    25126756.449 7 130841622.94907     -3758.898 7        44.348                                                                    25126756.743 7 106319538.15107     -3054.241 7        42.863
S27        12.000    39217663.903 6 206090246.13806      -471.636 6        36.355
G26        13.000    24965409.507 6 131194118.66806      1431.124 6        36.140                                    24965409.534 4 102229189.00004      1115.147 4        27.820    24965409.669 5 102229188.97305      1115.407 5        34.648
S36        14.000    38356306.522 7 201564265.46007      -476.373 7        44.707
I09        15.000    37556657.495 7 147380392.65207      -609.528 7        42.849
G19        16.000    22953258.052 7 120620206.15907     -2324.950 7        42.811                                    22953251.018 4  93989755.36804     -1811.648 4        29.905
S45        17.000    63548779.034 6 333951145.03916      -515.648 6        37.701
E12        19.000    24092391.617 7 126606382.62007      -259.240 7        45.106                                                                    24092387.352 7  94543716.74907      -193.562 7        47.973    24092387.455 8  97010073.94508      -198.606 8        49.187
G17        20.000    24128640.220 7 126796878.38507     -3191.477 7        42.339                                    24128635.472 5  98802751.42105     -2486.862 5        34.557    24128635.880 6  98802750.44006     -2486.943 6        36.635
G11        21.000    25354361.539 6 133238074.84406      3075.832 6        38.057                                    25354358.147 3 103821855.89703      2396.743 3        21.333    25354358.596 6 103821868.92006      2396.478 6        38.222
I06        22.000    38202576.026 7 149915355.05107      -285.631 7        43.336
S28        23.000    41021874.728 5 215571420.07505      -471.361 5        34.686
R08        24.000    20934636.718 8 112104064.37708      1758.156 8        50.545                                                                    20934634.034 7  87192054.25707      1367.501 7        46.488
S23        25.000    38301388.402 7 201275169.25907      -471.891 7        44.676
C25        26.000                                                                                                                                    25902742.031 6 134882369.56706     -1873.387 6        41.411                                                                    25902739.686 6 109602969.51806     -1522.145 6        40.091
R16        27.000    22365680.586 7 119473465.98907        -4.608 7        47.060                                                                    22365679.243 7  92923809.05307        -3.490 7        42.864
E19        30.000    23067750.628 7 121221881.20407        44.288 7        43.494                                                                    23067747.799 7  90522836.13007        33.024 7        45.576    23067747.958 7  92884298.12507        33.939 7        47.353
C23        31.000                                                                                                                                    24916236.000 7 129745384.01207       737.714 7        45.141                                                                    24916226.518 7 105428719.74907       599.645 7        45.353
R23        32.000    20227440.420 8 108203182.96608       381.251 8        49.459
E29        33.000    24571229.144 7 129122765.48907     -2242.559 7        45.726                                                                    24571227.071 8  96422859.64208     -1674.632 8        48.751    24571226.992 8  98938233.04708     -1718.318 8        50.534
E04        34.000    26896048.129 6 141339713.05506      2181.751 6        41.187                                                                    26896045.958 7 105545898.59407      1629.129 7        43.342    26896045.793 7 108299265.61607      1671.728 7        44.588
C16        35.000                                                                                                                                    39061903.595 7 203405614.82307     -1000.352 7        42.580    39061903.038 7 157286136.45507      -773.566 7        43.228    39061900.757 6 165283724.10306      -812.757 6        39.727
C32        36.000                                                                                                                                    22870231.668 8 119091355.67708     -2107.636 8        50.467                                                                    22870231.428 8  96771503.18808     -1712.474 8        50.337
I01        37.000   379649318.377 7 186684664.23907     -2718.855 7        42.550
E27        38.000    29115644.097 5 153003733.08505      1875.245 5        33.299                                                                    29115644.120 6 114256042.27906      1400.345 6        37.327    29115643.877 6 117236631.41106      1436.938 6        39.441
C41        39.000                                                                                                                                    27258066.922 6 141939922.43906     -3276.001 6        37.603                                                                    27258072.329 6 115337840.06906     -2661.778 6        39.724
C39        40.000                                                                                                                                    39601046.858 7 206213074.48707     -1367.609 7        42.028                                                                    39601043.395 6 167565010.10406     -1111.223 6        41.876
E33        41.000    25180408.503 7 132324025.63807     -3041.384 7        45.612                                                                    25180406.352 7  98813428.48407     -2271.150 7        47.902    25180405.723 8 101391166.05408     -2330.442 8        49.180
S44        42.000    40835131.574 6 214590263.68306      -554.122 6        37.864
R06        43.000    22169587.980 6 118301225.87906     -3634.316 6        37.996
C05        44.000                                                                                                                                    39287573.097 6 204580744.57506      -499.679 6        39.378    39287566.311 7 158194835.67507      -386.467 7        43.295    39287568.627 6 166238718.23806      -405.884 6        39.907
C29        45.000                                                                                                                                    23273679.872 8 121192183.38908     -1575.103 8        48.268                                                                    23273677.241 7  98478574.91107     -1279.703 7        47.100
G04        46.000    20200184.506 8 106152722.86408      -416.688 8        49.539                                    20200180.908 7  82716394.17907      -324.693 7        43.302    20200180.850 8  82716396.17808      -324.691 8        49.594
E30        47.000    28933498.648 5 152046580.74905       318.127 5        35.924                                                                    28933498.950 6 113541269.34906       237.698 6        39.610    28933498.430 6 116503214.10106       243.782 6        40.677
R22        48.000    20541942.688 8 109654313.35008     -3409.333 8        50.809                                                                    20541940.330 7  85286685.91807     -2651.591 7        46.974
C20        49.000                                                                                                                                    22511561.290 8 117223634.15308       739.995 8        51.868                                                                    22511555.367 8  95253789.18208       601.481 8        49.391
C06        50.000                                                                                                                                    38538463.912 6 200679925.31406      -921.192 6        41.395    38538457.915 7 155178431.53907      -712.371 7        44.534    38538457.593 6 163068858.64806      -748.431 6        41.452
S48        51.000    77336173.990 6 406403283.60606      -466.980 6        38.021
C09        53.000                                                                                                                                    38612883.167 7 201067432.57207      -418.463 7        43.346    38612878.592 7 155478083.96607      -323.547 7        46.574    38612876.729 7 163383738.80607      -339.815 7        42.398
C60        54.000                                                                                                                                    40835132.060 6 212639462.66106      -549.284 6        40.448                                                                    40835115.856 6 172786953.39106      -446.183 6        39.958
R09        55.000    22926926.631 7 122428524.16207      2963.314 7        44.602                                                                    22926924.919 7  95222178.14007      2304.653 7        42.840
G07        56.000    24958783.819 6 131159298.75106      2958.010 6        38.907                                    24958779.863 5 102202030.57105      2304.937 5        31.004    24958781.047 6 102202039.58006      2305.019 6        36.518
C02        57.000                                                                                                                                    40783382.303 5 212369834.80005      -543.111 5        34.300    40783374.788 6 164217824.51006      -419.979 6        39.586    40783378.799 6 172567892.50906      -441.150 6        36.378
I03        58.000   102187944.687 6 325222217.86906       877.298 6        40.162
R07        59.000    19624611.834 8 105052149.65308     -1299.461 8        51.028                                                                    19624610.541 8  81707281.25808     -1010.622 8        48.188
> 2025 01 02 02 45 35.0000000  0 55
G09         1.000    20863074.421 8 109636229.99708      1416.771 8        48.965                                    20863071.451 8  85430834.43908      1103.977 8        51.067    20863072.102 7  85430834.43907      1104.074 7        44.405
G06         2.000    22126308.569 7 116274555.08207      1728.991 7        45.415                                    22126306.857 7  90603554.09807      1347.266 7        45.789    22126307.596 7  90603562.10307      1347.314 7        43.681
E11         3.000    26666374.029 6 140132753.60906      2130.365 6        37.021                                                                    26666369.749 6 104644578.57106      1590.960 6        40.770    26666369.087 6 107374433.41406      1632.458 6        41.561
R15         4.000    24282263.748 6 129757057.83506     -3187.369 6        41.585                                                                    24282263.410 6 100922141.88006     -2479.213 6        38.664
S21         5.000    38589353.297 7 202788136.67407      -475.927 7        42.108
E10         6.000    24811971.749 7 130387800.66507      1073.864 7        46.310                                                                    24811970.191 8  97367510.33308       801.919 8        49.228    24811970.091 8  99907531.79208       822.829 8        50.467
G28         7.000    25206169.640 6 132459327.46506     -3617.494 6        37.516                                    25206165.890 3 103215041.95703     -2818.821 3        19.343    25206166.298 6 103215049.96506     -2818.850 6        36.885
G03         8.000    20913735.082 8 109902517.91708     -2307.823 8        48.491                                    20913732.454 8  85638367.53508     -1798.304 8        49.748    20913733.035 7  85638365.54107     -1798.284 7        44.363
G02         9.000    24502695.760 6 128762580.57206     -3970.414 6        41.714                                    24502689.471 4 100334471.65504     -3093.831 4        27.006
G31        10.000    22994747.019 7 120838220.83807     -2583.848 7        43.162                                    22994741.654 6  94159636.99306     -2013.386 6        39.330    22994742.151 6  94159641.99606     -2013.402 6        39.667
C30        11.000                                                                                                                                    25130366.238 7 130860418.76707     -3759.415 7        43.907                                                                    25130365.836 7 106334811.27307     -3054.977 7        42.510
S27        12.000    39218112.774 6 206092605.72906      -471.664 6        36.144
G26        13.000    24964049.472 6 131186966.98606      1429.280 6        37.240                                    24964048.511 4 102223616.26904      1113.726 4        27.629    24964048.769 5 102223616.28305      1113.624 5        34.286
S36        14.000    38356761.282 7 201566646.99707      -476.158 7        44.612
I09        15.000    37557434.072 7 147383440.58107      -609.686 7        43.058
G19        16.000    22955471.409 7 120631838.11807     -2327.650 7        43.245                                    22955464.565 4  93998819.23204     -1813.755 4        29.953
S45        17.000    63549225.892 6 333953724.02906      -515.740 6        37.754
E12        19.000    24092639.272 7 126607684.22707      -261.463 7        44.901                                                                    24092635.054 8  94544688.72308      -195.170 8        48.121    24092635.151 8  97011071.27308      -200.348 8        49.069
G17        20.000    24131677.405 7 126812838.38207     -3192.574 7        42.110                                    24131672.571 5  98815187.78005     -2487.723 5        34.757    24131672.947 6  98815186.77006     -2487.665 6        36.779
G11        21.000    25351435.182 6 133222697.83306      3075.124 6        38.267                                    25351432.136 3 103809873.82103      2396.205 3        21.262    25351432.461 6 103809886.83106      2396.047 6        37.939
I06        22.000    38202939.910 7 149916783.31707      -285.621 7        43.518
S28        23.000    41022322.798 5 215573775.61005      -471.178 5        34.662
R08        24.000    20932995.814 8 112095277.94808      1756.358 8        50.487                                                                    20932992.471 7  87185220.35807      1366.078 7        45.926
S23        25.000    38301838.810 7 201277528.63707      -471.867 7        44.772
C25        26.000                                                                                                                                    25904542.159 6 134891742.99106     -1875.742 6        41.137                                                                    25904539.693 6 109610586.17006     -1524.312 6        40.064
R16        27.000    22365687.454 7 119473499.63607        -8.919 7        47.253                                                                    22365686.120 7  92923835.23407        -6.869 7        43.126
E19        30.000    23067709.277 7 121221664.33707        42.517 7        43.393                                                                    23067706.533 7  90522674.17707        31.807 7        45.747    23067706.585 7  92884131.95207        32.569 7        47.270
C23        31.000                                                                                                                                    24915528.440 7 129741701.70507       735.253 7        45.281                                                                    24915519.242 7 105425727.56407       597.385 7        45.248
R23        32.000    20227086.662 8 108201288.48308       376.607 8        50.015
E29        33.000    24573363.269 7 129133980.96107     -2243.678 7        45.303                                                                    24573361.248 8  96431234.82708     -1675.389 8        48.863    24573361.229 8  98946826.70908     -1719.115 8        50.435
E04        34.000    26893972.402 6 141328806.36206      2181.034 6        40.496                                                                    26893970.738 7 105537753.98507      1628.652 7        43.410    26893970.215 7 108290908.54907      1671.125 7        44.599
C16        35.000                                                                                                                                    39062864.580 7 203410618.56307     -1001.149 7        42.400    39062863.703 7 157290005.65907      -774.202 7        43.316    39062861.671 6 165287790.01306      -813.397 6        39.766
C32        36.000                                                                                                                                    22872256.068 8 119101896.49508     -2108.665 8        50.252                                                                    22872255.697 8  96780068.45108     -1713.578 8        50.244
I01        37.000   379652782.432 7 186698258.35907     -2718.808 7        42.747
E27        38.000    29113860.456 5 152994358.54705      1874.366 5        33.174                                                                    29113860.334 6 114249041.82206      1399.574 6        37.282    29113859.867 6 117229448.31606      1436.236 6        39.030
C41        39.000                                                                                                                                    27261212.244 6 141956302.00406     -3275.781 6        37.278                                                                    27261217.773 6 115351149.80606     -2662.029 6        39.601
C39        40.000                                                                                                                                    39602360.397 6 206219913.65606     -1367.976 6        41.695                                                                    39602356.663 6 167570567.46106     -1111.798 6        41.669
E33        41.000    25183302.817 7 132339236.18907     -3042.761 7        45.403                                                                    25183300.923 8  98824787.00608     -2272.156 8        48.014    25183300.235 8 101402820.89608     -2331.518 8        49.083
S44        42.000    40835660.236 6 214593034.76506      -554.310 6        38.033
R06        43.000    22172993.733 6 118319398.77906     -3634.822 6        37.335
C05        44.000                                                                                                                                    39288052.996 6 204583243.04606      -499.660 6        39.267    39288046.447 7 158196767.64407      -386.353 7        43.318    39288048.275 6 166240748.43306      -406.158 6        39.742
C29        45.000                                                                                                                                    23275193.723 8 121200065.46108     -1577.680 8        48.198                                                                    23275190.892 7  98484979.72807     -1282.062 7        47.089
G04        46.000    20200582.113 8 106154812.56208      -419.176 8        49.756                                    20200578.578 7  82718022.51307      -326.630 7        43.384    20200578.678 8  82718024.51308      -326.620 8        49.565
E30        47.000    28933197.095 5 152044995.08805       316.221 5        35.671                                                                    28933197.192 6 113540085.27506       236.020 6        39.538    28933196.633 6 116501999.12006       242.178 6        40.501
R22        48.000    20545137.446 8 109671368.29408     -3412.657 8        50.850                                                                    20545135.326 7  85299950.87807     -2654.284 7        46.842
C20        49.000                                                                                                                                    22510851.565 8 117219937.60108       738.637 8        51.769                                                                    22510845.511 8  95250785.41908       600.103 8        49.275
C06        50.000                                                                                                                                    38539348.797 6 200684533.11606      -921.891 6        41.323    38539342.574 7 155181994.57307      -712.882 7        44.549    38539342.406 6 163072602.84106      -749.116 6        41.316
S48        51.000    77336621.586 6 406405619.17506      -467.076 6        38.147
C09        53.000                                                                                                                                    38613285.240 7 201069526.66207      -419.051 7        43.075    38613280.877 7 155479703.25007      -323.996 7        46.734    38613278.929 7 163385440.42107      -340.654 7        42.375
C60        54.000                                                                                                                                    40835659.161 6 212642208.52506      -549.072 6        40.276                                                                    40835643.275 6 172789184.61606      -446.167 6        39.898
R09        55.000    22924152.012 7 122413712.67307      2961.373 7        43.543                                                                    22924150.953 7  95210658.09607      2303.255 7        42.400
G07        56.000    24955969.321 6 131144508.79706      2958.004 6        39.048                                    24955965.611 5 102190505.94005      2304.935 5        31.343    24955965.955 6 102190514.96106      2304.905 6        36.529
C02        57.000                                                                                                                                    40783903.309 5 212372550.50705      -543.003 5        34.276    40783896.398 6 164219924.48006      -420.107 6        39.682    40783900.543 6 172570099.21706      -441.390 6        36.420
I03        58.000   102186826.650 6 325217831.68506       877.266 6        40.310
R07        59.000    19625826.540 8 105058652.35208     -1301.609 8        50.757                                                                    19625824.853 8  81712338.92408     -1012.376 8        48.000
> 2025 01 02 02 45 40.0000000  0 55
G09         1.000    20861727.734 8 109629152.23708      1414.483 8        49.021                                    20861724.590 8  85425319.29908      1102.195 8        50.960    20861725.095 7  85425319.29807      1102.205 7        44.296
G06         2.000    22124664.996 7 116265916.76307      1726.562 7        45.550                                    22124663.058 7  90596822.94607      1345.375 7        45.685    22124663.736 7  90596830.95107      1345.280 7        43.081
E11         3.000    26664347.286 6 140122104.61406      2129.406 6        37.331                                                                    26664343.122 6 104636626.40906      1590.199 6        40.923    26664342.641 6 107366273.80506      1631.706 6        41.771
R15         4.000    24285248.091 7 129773002.78907     -3190.454 7        42.345                                                                    24285246.929 6 100934543.51206     -2481.586 6        39.535
S21         5.000    38589810.297 7 202790516.85307      -476.005 7        42.057
E10         6.000    24810950.629 7 130382436.16907      1072.086 7        46.198                                                                    24810949.356 8  97363504.37708       800.547 8        49.251    24810949.227 8  99903421.34008       821.443 8        50.458
G28         7.000    25209612.829 6 132477419.51206     -3619.061 6        37.301                                    25209608.646 3 103229139.65103     -2820.079 3        19.403    25209609.132 6 103229147.63906     -2819.998 6        36.922
G03         8.000    20915931.696 8 109914062.25508     -2309.632 8        48.666                                    20915929.264 8  85647363.12008     -1799.714 8        49.622    20915929.915 7  85647361.12607     -1799.730 7        44.206
G02         9.000    24506473.648 6 128782434.52106     -3970.968 6        41.507                                    24506467.576 4 100349942.26904     -3094.257 4        26.958
G31        10.000    22997206.867 7 120851148.35207     -2586.854 7        43.378                                    22997201.632 6  94169710.37706     -2015.729 6        39.105    22997202.171 6  94169715.38306     -2015.788 6        39.694
C30        11.000                                                                                                                                    25133976.013 7 130879217.84207     -3760.093 7        43.644                                                                    25133975.908 7 106350087.05107     -3055.236 7        42.737
S27        12.000    39218566.903 6 206094966.07206      -471.841 6        36.140
G26        13.000    24962690.587 6 131179825.88506      1427.123 6        36.832                                    24962689.473 4 102218051.78604      1112.041 4        27.533    24962690.209 5 102218051.78405      1112.202 5        33.174
S36        14.000    38357211.105 7 201569027.89507      -476.023 7        44.647
I09        15.000    37558211.028 7 147386489.36907      -609.721 7        42.823
G19        16.000    22957687.557 7 120643484.18407     -2330.415 7        43.179                                    22957680.751 4  94007894.08904     -1815.907 4        29.962
S45        17.000    63549673.877 6 333956303.31306      -515.759 6        37.758
E12        19.000    24092888.932 7 126608997.33707      -263.775 7        44.837                                                                    24092884.929 8  94545669.29708      -196.839 8        48.113    24092884.984 8  97012077.42708      -202.112 8        49.119
G17        20.000    24134714.919 6 126828803.84506     -3193.549 6        41.919                                    24134710.824 5  98827628.39405     -2488.477 5        34.662    24134711.081 6  98827627.40306     -2488.512 6        37.229
G11        21.000    25348510.300 6 133207324.63606      3074.397 6        38.874                                    25348506.921 3 103797894.71703      2395.622 3        21.167    25348506.679 6 103797907.72806      2395.529 6        37.353
I06        22.000    38203303.866 7 149918211.95907      -285.671 7        43.359
S28        23.000    41022772.120 5 215576131.48405      -471.265 5        34.695
R08        24.000    20931356.412 8 112086500.86808      1754.606 8        50.005                                                                    20931353.279 7  87178393.74607      1364.698 7        46.182
S23        25.000    38302285.910 7 201279888.38207      -471.853 7        44.697
C25        26.000                                                                                                                                    25906344.236 6 134901129.01606     -1878.401 6        41.080                                                                    25906342.239 6 109618213.08206     -1526.377 6        40.281
R16        27.000    22365696.515 7 119473555.48307       -13.270 7        46.088                                                                    22365696.814 7  92923878.68307       -10.329 7        43.532
E19        30.000    23067669.645 7 121221456.47807        40.752 7        43.382                                                                    23067666.970 7  90522518.96207        30.473 7        45.716    23067667.081 7  92883972.68607        31.225 7        47.313
C23        31.000                                                                                                                                    24914823.632 7 129738031.91607       732.798 7        45.515                                                                    24914814.431 7 105422745.56207       595.514 7        45.138
R23        32.000    20226736.923 8 108199417.48608       372.011 8        49.799
E29        33.000    24575498.864 7 129145202.35307     -2244.788 7        45.249                                                                    24575496.560 8  96439614.45008     -1676.300 8        48.915    24575496.606 8  98955424.93208     -1720.037 8        50.393
E04        34.000    26891897.540 6 141317903.74506      2180.200 6        40.491                                                                    26891895.971 7 105529612.42907      1628.044 7        43.424    26891895.597 7 108282554.60007      1670.490 7        44.671
C16        35.000                                                                                                                                    39063825.936 7 203415625.82507     -1001.752 7        42.580    39063825.624 7 157293877.58807      -774.596 7        43.304    39063823.350 6 165291858.83306      -813.971 6        39.841
C32        36.000                                                                                                                                    22874281.256 8 119112443.10008     -2109.843 8        50.389                                                                    22874281.066 8  96788638.42708     -1714.323 8        50.353
I01        37.000   379656246.619 7 186711853.25807     -2718.955 7        42.612
E27        38.000    29112077.297 5 152984988.51505      1873.871 5        33.407                                                                    29112077.238 6 114242044.70706      1399.268 6        37.728    29112077.019 6 117222268.67206      1435.624 6        38.739
C41        39.000                                                                                                                                    27264357.650 6 141972681.55506     -3275.731 6        37.240                                                                    27264363.331 6 115364459.52506     -2661.839 6        39.574
C39        40.000                                                                                                                                    39603674.231 7 206226755.68007     -1368.616 7        42.076                                                                    39603670.681 6 167576127.16006     -1112.047 6        41.719
E33        41.000    25186198.675 7 132354454.10107     -3044.198 7        45.044                                                                    25186196.678 8  98836151.03208     -2273.236 8        48.127    25186196.281 8 101414481.36308     -2332.591 8        49.114
S44        42.000    40836189.515 6 214595806.13006      -554.072 6        37.837
R06        43.000    22176398.825 6 118337575.09406     -3635.420 6        36.745
C05        44.000                                                                                                                                    39288532.327 6 204585741.91306      -499.697 6        39.252    39288526.095 7 158198699.92607      -386.344 7        43.380    39288528.228 6 166242778.97806      -406.081 6        39.934
C29        45.000                                                                                                                                    23276709.974 8 121207961.25608     -1580.384 8        48.038                                                                    23276707.233 7  98491395.70007     -1284.121 7        47.040
G04        46.000    20200982.309 8 106156915.38308      -421.771 8        49.682                                    20200978.739 7  82719661.07607      -328.652 7        43.283    20200978.705 8  82719663.08008      -328.647 8        49.360
E30        47.000    28932897.522 5 152043420.68905       313.869 5        35.743                                                                    28932897.634 6 113538909.60006       234.245 6        39.336    28932897.123 6 116500792.79206       240.437 6        40.439
R22        48.000    20548335.807 8 109688440.66808     -3416.143 8        50.785                                                                    20548333.649 7  85313229.38707     -2657.025 7        47.527
C20        49.000                                                                                                                                    22510142.918 8 117216248.18808       737.277 8        51.789                                                                    22510136.951 8  95247787.46808       599.151 8        49.459
C06        50.000                                                                                                                                    38540234.760 6 200689144.68806      -922.579 6        41.328    38540228.085 7 155185560.54607      -713.388 7        44.537    38540227.775 6 163076350.14506      -749.710 6        41.392
S48        51.000    77337064.540 6 406407954.94906      -467.168 6        38.165
C09        53.000                                                                                                                                    38613687.966 7 201071624.84307      -419.850 7        43.230    38613683.860 7 155481325.70507      -324.750 7        46.881    38613681.793 7 163387145.36307      -341.176 7        42.500
C60        54.000                                                                                                                                    40836186.602 6 212644954.73206      -549.216 6        40.341                                                                    40836170.627 6 172791416.12806      -446.291 6        39.958
R09        55.000    22921380.428 7 122398910.82707      2959.513 7        44.250                                                                    22921379.470 7  95199145.55107      2301.833 7        43.357
G07        56.000    24953155.352 6 131129719.44006      2957.847 6        39.087                                    24953151.396 5 102178981.78305      2304.814 5        31.396    24953151.465 6 102178990.78306      2304.867 6        36.567
C02        57.000                                                                                                                                    40784424.106 5 212375266.60005      -543.122 5        34.429    40784417.977 6 164222024.73806      -420.025 6        39.760    40784422.037 6 172572306.26806      -441.270 6        36.665
I03        58.000   102185709.096 6 325213445.89306       877.206 6        40.200
R07        59.000    19627043.150 8 105065166.45708     -1303.775 8        50.554                                                                    19627041.765 8  81717405.44708     -1014.089 8        48.135
> 2025 01 02 02 45 45.0000000  0 55
G09         1.000    20860382.737 8 109622085.23508      1412.163 8        49.095                                    20860379.785 8  85419812.54908      1100.385 8        50.844    20860380.032 7  85419812.55307      1100.327 7        44.525
G06         2.000    22123023.433 7 116257290.44207      1723.965 7        45.669                                    22123021.525 7  90590101.13707      1343.348 7        45.527    22123022.215 7  90590109.14907      1343.315 7        43.266
E11         3.000    26662321.472 6 140111460.19606      2128.305 6        37.198                                                                    26662317.552 6 104628677.67406      1589.303 6        40.937    26662317.112 6 107358117.71506      1630.686 6        41.600
R15         4.000    24288234.273 7 129788962.83607     -3193.686 7        42.212                                                                    24288234.274 6 100946956.88506     -2483.822 6        39.300
S21         5.000    38590258.380 7 202792897.11707      -476.095 7        42.404
E10         6.000    24809931.683 7 130377080.56407      1070.088 7        46.169                                                                    24809930.166 8  97359505.06208       799.110 8        49.277    24809930.109 8  99899317.69508       819.940 8        50.514
G28         7.000    25213057.271 6 132495519.13406     -3620.889 6        37.308                                    25213052.972 3 103243243.25403     -2821.474 3        19.104    25213053.389 6 103243251.25906     -2821.454 6        36.960
G03         8.000    20918130.285 8 109925615.28208     -2311.582 8        48.498                                    20918127.737 8  85656365.48008     -1801.234 8        49.500    20918128.300 7  85656363.48707     -1801.233 7        44.301
G02         9.000    24510252.304 6 128802291.07006     -3971.697 6        41.447                                    24510246.182 4 100365414.89604     -3094.827 4        26.623
G31        10.000    22999670.209 7 120864090.55307     -2590.101 7        43.634                                    22999664.463 6  94179795.21006     -2018.260 6        39.030    22999664.769 6  94179800.22006     -2018.204 6        39.456
C30        11.000                                                                                                                                    25137586.635 7 130898019.60307     -3760.814 7        43.310                                                                    25137587.055 7 106365365.03607     -3055.860 7        42.828
S27        12.000    39219007.684 5 206097326.60305      -471.904 5        35.986
G26        13.000    24961333.068 6 131172694.83806      1425.108 6        37.384                                    24961332.376 4 102212495.12904      1110.468 4        27.653    24961333.118 5 102212495.11005      1110.444 5        33.856
S36        14.000    38357667.116 7 201571408.95307      -476.308 7        44.697
I09        15.000    37558988.153 7 147389538.57307      -610.043 7        42.868
G19        16.000    22959906.557 7 120655143.77507     -2333.495 7        43.300                                    22959899.472 5  94016979.48605     -1818.309 5        30.068
S45        17.000    63550121.383 6 333958882.37906      -515.915 6        37.762
E12        19.000    24093140.912 7 126610321.42307      -266.040 7        45.070                                                                    24093136.878 8  94546658.06708      -198.669 8        48.131    24093136.949 8  97013091.99308      -203.868 8        49.100
G17        20.000    24137753.977 7 126844774.24507     -3194.800 7        42.529                                    24137749.890 5  98840072.85905     -2489.454 5        34.529    24137749.417 6  98840071.86606     -2489.281 6        36.359
G11        21.000    25345585.448 6 133191954.74106      3073.524 6        38.697                                    25345582.221 3 103785918.18003      2394.936 3        21.214    25345582.401 6 103785931.18406      2394.851 6        37.308
I06        22.000    38203668.002 7 149919640.56307      -285.828 7        43.327
S28        23.000    41023218.733 5 215578487.15205      -471.489 5        34.557
R08        24.000    20929718.414 8 112077732.54308      1752.631 8        49.676                                                                    20929715.785 7  87171573.95807      1363.113 7        45.514
S23        25.000    38302737.267 7 201282247.94507      -471.988 7        44.844
C25        26.000                                                                                                                                    25908149.254 6 134910527.07706     -1881.084 6        41.211                                                                    25908147.108 6 109625849.78506     -1528.417 6        40.129
R16        27.000    22365711.793 7 119473632.90407       -17.762 7        47.174                                                                    22365710.371 7  92923938.88707       -13.845 7        42.762
E19        30.000    23067631.893 7 121221256.99507        38.928 7        43.414                                                                    23067629.022 7  90522369.99707        29.089 7        45.791    23067629.141 7  92883819.84307        29.816 7        47.259
C23        31.000                                                                                                                                    24914120.818 7 129734374.14007       730.202 7        45.419                                                                    24914111.995 7 105419773.34507       593.325 7        44.974
R23        32.000    20226391.121 8 108197569.22508       367.220 8        49.401
E29        33.000    24577635.456 7 129156429.12207     -2246.042 7        45.630                                                                    24577632.964 8  96447998.08208     -1677.273 8        48.960    24577633.012 8  98964027.26308     -1721.008 8        50.389
E04        34.000    26889823.893 6 141307004.61406      2179.426 6        40.868                                                                    26889821.856 7 105521473.46407      1627.415 7        43.378    26889821.475 7 108274203.31307      1669.911 7        44.621
C16        35.000                                                                                                                                    39064788.035 7 203420636.06907     -1002.450 7        42.641    39064787.684 7 157297751.83107      -775.245 7        43.209    39064785.606 6 165295930.08506      -814.565 6        39.598
C32        36.000                                                                                                                                    22876307.631 8 119122994.93208     -2111.024 8        50.455                                                                    22876307.413 8  96797212.68108     -1715.448 8        50.180
I01        37.000   379659711.215 7 186725448.49607     -2719.200 7        42.506
E27        38.000    29110294.910 5 152975622.41005      1872.514 5        33.341                                                                    29110295.073 6 114235050.54406      1398.556 6        37.648    29110294.718 6 117215092.06106      1434.908 6        38.523
C41        39.000                                                                                                                                    27267503.424 6 141989060.52406     -3275.880 6        37.066                                                                    27267508.704 6 115377768.77906     -2661.865 6        39.330
C39        40.000                                                                                                                                    39604988.843 7 206233600.00807     -1369.204 7        42.044                                                                    39604985.148 6 167581688.76706     -1112.731 6        41.452
E33        41.000    25189095.912 7 132369678.78507     -3045.788 7        45.273                                                                    25189093.849 8  98847520.11108     -2274.483 8        48.099    25189093.586 8 101426147.02708     -2333.770 8        49.144
S44        42.000    40836713.929 6 214598577.27606      -554.178 6        37.890
R06        43.000    22179805.556 6 118355754.34406     -3636.184 6        37.395
C05        44.000                                                                                                                                    39289012.436 6 204588240.64606      -499.881 6        39.348    39289005.941 7 158200632.10707      -386.503 7        43.118    39289008.011 6 166244809.42906      -406.327 6        39.655
C29        45.000                                                                                                                                    23278228.657 7 121215870.20907     -1583.226 7        47.803                                                                    23278226.064 7  98497822.39107     -1286.526 7        46.887
G04        46.000    20201384.802 8 106159030.77608      -424.482 8        49.586                                    20201381.283 7  82721309.43607      -330.766 7        43.162    20201381.305 8  82721311.43608      -330.783 8        49.333
E30        47.000    28932599.750 5 152041857.05305       311.432 5        35.995                                                                    28932600.087 6 113537741.94106       232.591 6        39.342    28932599.484 6 116499594.65606       238.655 6        40.310
R22        48.000    20551537.128 8 109705529.92508     -3419.693 8        50.824                                                                    20551535.224 7  85326521.03307     -2659.805 7        47.218
C20        49.000                                                                                                                                    22509435.543 8 117212565.38108       735.746 8        51.750                                                                    22509429.751 8  95244794.90708       597.860 8        49.253
C06        50.000                                                                                                                                    38541121.214 6 200693759.49506      -923.327 6        41.430    38541114.114 7 155189129.00607      -714.056 7        44.313    38541114.148 6 163080100.07206      -750.510 6        41.313
S48        51.000    77337508.148 6 406410290.60306      -467.240 6        38.198
C09        53.000                                                                                                                                    38614091.697 7 201073726.53007      -420.732 7        43.270    38614087.467 7 155482950.87907      -325.455 7        46.814    38614085.450 7 163388853.18407      -342.016 7        42.209
C60        54.000                                                                                                                                    40836713.954 6 212647700.66606      -549.265 6        40.329                                                                    40836698.001 6 172793647.44706      -446.374 6        39.685
R09        55.000    22918611.024 7 122384118.08507      2957.426 7        44.319                                                                    22918609.385 7  95187640.09007      2300.208 7        43.526
G07        56.000    24950340.844 6 131114930.14406      2957.550 6        39.363                                    24950337.162 5 102167457.67405      2304.584 5        31.608    24950337.500 6 102167466.66706      2304.777 6        36.454
C02        57.000                                                                                                                                    40784946.593 5 212377982.57405      -543.757 5        34.143    40784939.565 6 164224124.87806      -420.109 6        39.456    40784943.813 6 172574513.23606      -441.452 6        36.405
I03        58.000   102184591.691 6 325209060.03906       876.985 6        40.181
R07        59.000    19628261.781 8 105071690.94908     -1306.168 8        50.352                                                                    19628260.321 7  81722480.06407     -1015.934 7        47.745
> 2025 01 02 02 45 50.0000000  0 55
G09         1.000    20859040.090 8 109615029.11008      1410.085 8        49.071                                    20859037.037 8  85414314.26908      1098.766 8        50.859    20859037.511 7  85414314.26907      1098.810 7        44.527
G06         2.000    22121384.061 7 116248676.22807      1721.609 7        45.809                                    22121382.291 7  90583388.76607      1341.511 7        45.553    22121383.038 7  90583396.76407      1341.503 7        43.206
E11         3.000    26660296.794 6 140100820.53106      2127.269 6        37.565                                                                    26660292.811 6 104620732.45106      1588.764 6        40.973    26660292.393 6 107349965.24906      1629.986 6        41.671
R15         4.000    24291223.355 7 129804937.91507     -3196.501 7        42.354                                                                    24291224.185 6 100959381.96206     -2486.099 6        39.345
S21         5.000    38590711.396 7 202795277.25507      -475.974 7        42.085
E10         6.000    24808914.335 7 130371733.95107      1068.482 7        46.587                                                                    24808912.749 8  97355512.47108       797.800 8        49.144    24808912.682 8  99895220.94808       818.624 8        50.568
G28         7.000    25216503.933 6 132513626.44406     -3622.472 6        37.493                                    25216498.750 3 103257352.83903     -2822.703 3        19.254    25216498.745 6 103257360.85006     -2822.708 6        37.112
G03         8.000    20920330.243 8 109937177.10808     -2313.239 8        48.292                                    20920327.887 8  85665374.69608     -1802.523 8        49.511    20920328.622 7  85665372.70207     -1802.655 7        44.462
G02         9.000    24514031.528 6 128822150.30606     -3972.089 6        41.128                                    24514025.199 4 100380889.63004     -3095.142 4        26.467
G31        10.000    23002135.699 7 120877047.47807     -2592.898 7        43.342                                    23002130.120 6  94189891.51806     -2020.440 6        39.057    23002130.276 6  94189896.51006     -2020.391 6        39.700
C30        11.000                                                                                                                                    25141197.771 7 130916824.14407     -3761.115 7        43.503                                                                    25141198.712 7 106380645.25807     -3056.332 7        43.238
S27        12.000    39219460.230 5 206099686.39105      -471.917 5        35.752
G26        13.000    24959978.573 6 131165573.93606      1423.199 6        37.267                                    24959977.250 4 102206946.38004      1108.991 4        27.904    24959977.867 5 102206946.36605      1109.254 5        34.695
S36        14.000    38358119.439 7 201573789.67507      -476.243 7        44.543
I09        15.000    37559765.297 7 147392588.29807      -609.970 7        42.773
G19        16.000    22962127.389 7 120666816.96707     -2335.904 7        42.828                                    22962120.929 5  94026075.48305     -1820.185 5        30.053
S45        17.000    63550572.177 6 333961461.33606      -515.798 6        37.486
E12        19.000    24093395.279 7 126611656.58507      -268.076 7        45.195                                                                    24093390.948 8  94547655.10908      -200.240 8        48.083    24093391.012 8  97014115.03908      -205.447 8        49.217
G17        20.000    24140794.236 7 126860749.68307     -3195.501 7        42.188                                    24140789.744 5  98852521.24905     -2490.004 5        34.276    24140789.339 6  98852520.26906     -2490.145 6        36.129
G11        21.000    25342660.672 6 133176588.22206      3073.014 6        38.255                                    25342657.856 3 103773944.27603      2394.550 3        20.976    25342657.874 6 103773957.28406      2394.485 6        36.439
I06        22.000    38204031.688 7 149921069.22207      -285.665 7        43.325
S28        23.000    41023667.786 5 215580842.63005      -471.136 5        34.552
R08        24.000    20928082.798 8 112068973.11808      1750.991 8        50.312                                                                    20928080.352 7  87164761.06207      1361.818 7        45.576
S23        25.000    38303185.073 7 201284607.21707      -471.854 7        44.590
C25        26.000                                                                                                                                    25909956.676 6 134919937.25106     -1883.307 6        41.056                                                                    25909954.036 6 109633496.30406     -1530.148 6        40.372
R16        27.000    22365731.060 7 119473732.01807       -22.018 7        47.078                                                                    22365729.296 7  92924015.97007       -17.094 7        42.904
E19        30.000    23067595.521 7 121221065.90707        37.374 7        43.431                                                                    23067592.624 7  90522227.30707        27.889 7        45.657    23067592.692 7  92883673.42007        28.641 7        47.378
C23        31.000                                                                                                                                    24913420.802 7 129730728.48007       727.902 7        45.226                                                                    24913411.895 7 105416810.92807       591.490 7        45.016
R23        32.000    20226049.555 8 108195743.97008       362.716 8        49.294
E29        33.000    24579772.740 7 129167661.36407     -2246.954 7        45.833                                                                    24579770.403 8  96456385.79308     -1677.957 8        48.839    24579770.429 8  98972633.78808     -1721.736 8        50.468
E04        34.000    26887750.463 6 141296109.10006      2178.733 6        40.837                                                                    26887748.268 7 105513337.22507      1626.878 7        43.264    26887748.135 7 108265854.81507      1669.406 7        44.606
C16        35.000                                                                                                                                    39065751.164 7 203425649.37507     -1002.942 7        42.726    39065750.699 7 157301628.43307      -775.544 7        43.276    39065748.239 6 165300003.79106      -814.895 6        39.598
C32        36.000                                                                                                                                    22878335.206 8 119133552.10908     -2111.935 8        50.298                                                                    22878334.808 8  96805791.23308     -1716.107 8        50.267
I01        37.000   379663175.857 7 186739044.17707     -2719.241 7        42.571
E27        38.000    29108513.873 5 152966260.37205      1871.861 5        34.467                                                                    29108513.775 6 114228059.42406      1398.009 6        37.890    29108513.131 6 117207918.56706      1434.279 6        38.841
C41        39.000                                                                                                                                    27270648.157 6 142005438.98606     -3275.714 6        37.694                                                                    27270653.986 6 115391077.60706     -2661.595 6        39.495
C39        40.000                                                                                                                                    39606303.513 7 206240446.75107     -1369.549 7        42.070                                                                    39606299.849 6 167587252.29306     -1112.873 6        41.528
E33        41.000    25191994.423 7 132384910.35507     -3046.924 7        45.368                                                                    25191992.366 8  98858894.33708     -2275.319 8        48.084    25191992.017 8 101437817.97208     -2334.656 8        49.192
S44        42.000    40837241.921 6 214601348.29006      -554.121 6        37.955
R06        43.000    22183214.309 6 118373936.55006     -3636.779 6        37.316
C05        44.000                                                                                                                                    39289492.259 6 204590739.34706      -499.667 6        39.234    39289485.951 7 158202564.27507      -386.433 7        43.143    39289488.084 6 166246839.81006      -405.967 6        39.805
C29        45.000                                                                                                                                    23279750.349 7 121223792.40807     -1585.756 7        47.730                                                                    23279747.435 7  98504259.81007     -1288.512 7        46.996
G04        46.000    20201789.886 8 106161158.83208      -426.886 8        49.618                                    20201786.242 7  82722967.66307      -332.640 7        43.196    20201786.346 8  82722969.66508      -332.637 8        49.441
E30        47.000    28932304.897 6 152040304.29106       309.601 6        36.284                                                                    28932304.536 6 113536582.40706       231.258 6        38.961    28932304.025 6 116498404.87106       237.133 6        40.269
R22        48.000    20554741.457 8 109722636.13608     -3422.987 8        50.616                                                                    20554739.709 7  85339825.87007     -2662.260 7        47.283
C20        49.000                                                                                                                                    22508729.747 8 117208889.26108       734.589 8        51.582                                                                    22508723.755 8  95241807.73808       596.992 8        49.322
C06        50.000                                                                                                                                    38542008.082 6 200698377.67806      -923.948 6        41.449    38542001.170 7 155192700.08307      -714.479 7        44.456    38542001.026 6 163083852.70206      -750.886 6        41.230
S48        51.000    77337955.516 6 406412626.17806      -467.170 6        37.773
C09        53.000                                                                                                                                    38614496.207 7 201075831.82607      -421.479 7        43.228    38614491.628 7 155484578.81907      -325.897 7        46.909    38614489.736 7 163390563.88507      -342.371 7        42.299
C60        54.000                                                                                                                                    40837241.163 6 212650446.48706      -549.120 6        40.307                                                                    40837225.259 6 172795878.64406      -446.269 6        39.886
R09        55.000    22915841.630 7 122369334.51207      2955.810 7        44.060                                                                    22915841.107 7  95176141.77207      2298.998 7        43.213
G07        56.000    24947526.618 6 131100141.03106      2957.747 6        39.354                                    24947523.022 5 102155933.70105      2304.736 5        31.796    24947522.544 6 102155942.68806      2304.844 6        36.900
C02        57.000                                                                                                                                    40785468.628 5 212380698.45505      -543.264 5        34.352    40785460.925 6 164226224.97606      -420.034 6        39.435    40785465.352 6 172576720.07006      -441.290 6        36.435
I03        58.000   102183473.706 6 325204674.23006       877.214 6        40.133
R07        59.000    19629482.962 8 105078226.33408     -1308.098 8        50.606                                                                    19629481.479 7  81727563.13707     -1017.399 7        47.956
> 2025 01 02 02 45 55.0000000  0 56
G09         1.000    20857699.606 8 109607984.32208      1407.844 8        48.884                                    20857696.463 8  85408824.82308      1097.023 8        50.900    20857696.902 7  85408824.82907      1096.965 7        44.205
G06         2.000    22119747.204 7 116240074.62807      1719.001 7        45.950                                    22119745.440 7  90576686.22107      1339.484 7        45.652    22119746.195 7  90576694.21207      1339.559 7        43.257
E11         3.000    26658273.165 6 140090186.05106      2126.438 6        37.928                                                                    26658269.098 6 104612791.12806      1587.735 6        40.937    26658268.649 6 107341816.74706      1629.103 6        41.521
R15         4.000    24294216.276 7 129820928.53007     -3199.739 7        42.438                                                                    24294215.969 6 100971819.10506     -2488.628 6        39.198
S21         5.000    38591162.154 7 202797657.67707      -476.121 7        42.203
E10         6.000    24807898.707 7 130366396.81707      1066.513 7        46.355                                                                    24807897.143 8  97351526.95108       796.399 8        49.229    24807897.082 8  99891131.45908       817.166 8        50.443
G28         7.000    25219950.472 6 132531741.90406     -3623.800 6        38.195                                    25219946.224 3 103271468.78503     -2823.744 3        19.552    25219945.909 6 103271476.78206     -2823.904 6        37.085
G03         8.000    20922532.144 8 109948748.19108     -2315.168 8        48.669                                    20922529.808 8  85674391.12508     -1804.026 8        49.554    20922530.313 7  85674389.13007     -1804.052 7        44.343
G02         9.000    24517811.426 6 128842012.72906     -3972.844 6        40.989                                    24517804.865 4 100396366.84704     -3095.721 4        26.144
G31        10.000    23004603.926 7 120890019.60807     -2595.986 7        43.547                                    23004598.662 6  94199999.67306     -2022.844 6        39.093    23004598.932 6  94200004.67706     -2022.933 6        39.877
C30        11.000                                                                                                                                    25144809.437 7 130935631.93107     -3761.887 7        43.740                                                                    25144810.590 7 106395928.11207     -3056.743 7        43.380
S27        12.000    39219910.182 5 206102046.07805      -471.849 5        35.857
G26        13.000    24958625.680 6 131158463.69906      1421.166 6        37.388                                    24958624.334 4 102201405.93104      1107.397 4        28.246    24958624.802 5 102201405.92605      1107.510 5        34.581
S36        14.000    38358571.547 7 201576171.16907      -476.350 7        44.578
I09        15.000    37560542.463 7 147395638.87807      -610.223 7        42.645
G19        16.000    22964351.372 7 120678504.23607     -2338.856 7        43.240                                    22964345.025 4  94035182.44404     -1822.489 4        29.953
S45        17.000    63551020.430 6 333964040.52906      -515.821 6        37.508
E12        19.000    24093651.457 7 126613003.31707      -270.521 7        45.103                                                                    24093647.185 8  94548660.77608      -201.976 8        48.126    24093647.255 8  97015146.94708      -207.321 8        49.085
G17        20.000    24143835.439 7 126876730.61307     -3196.812 7        42.279                                    24143830.649 5  98864973.92605     -2491.018 5        34.243    24143830.297 6  98864972.92006     -2490.981 6        36.151
G11        21.000    25339737.508 6 133161225.57806      3072.216 6        37.981                                    25339734.197 3 103761973.39203      2393.974 3        20.476    25339734.613 6 103761986.38806      2394.194 6        36.325
I06        22.000    38204396.070 7 149922498.27807      -285.904 7        43.348
S28        23.000    41024117.055 5 215583198.53105      -471.331 5        34.552
R08        24.000    20926449.238 8 112060223.17608      1749.033 8        50.523                                                                    20926446.262 7  87157955.55107      1360.374 7        45.326
S23        25.000    38303635.334 7 201286966.81007      -471.949 7        44.632
C25        26.000                                                                                                                                    25911766.310 6 134929359.99206     -1885.753 6        41.149                                                                    25911763.625 6 109641153.06406     -1532.350 6        40.517
R16        27.000    22365753.243 7 119473853.41607       -26.447 7        46.858                                                                    22365752.907 7  92924110.40207       -20.497 7        42.868
R21        29.000                                                                                                                                    24568140.303 3                     -4024.103 3        19.373
E19        30.000    23067560.826 7 121220883.85807        35.520 7        43.473                                                                    23067558.006 7  90522091.36207        26.504 7        45.711    23067558.134 7  92883533.92907        27.202 7        47.187
C23        31.000                                                                                                                                    24912723.032 7 129727095.39607       725.280 7        44.796                                                                    24912714.294 7 105413858.74307       589.501 7        45.154
R23        32.000    20225712.834 8 108193942.19508       358.021 8        49.494
E29        33.000    24581911.242 7 129178899.55507     -2248.248 7        45.824                                                                    24581908.924 8  96464777.94608     -1678.867 8        48.877    24581909.026 8  98981244.86608     -1722.704 8        50.324
E04        34.000    26885678.022 6 141285217.66606      2177.985 6        41.297                                                                    26885675.671 7 105505203.99807      1626.338 7        43.124    26885675.521 7 108257509.43107      1668.708 7        44.331
C16        35.000                                                                                                                                    39066714.893 7 203430666.24107     -1003.667 7        42.717    39066713.882 7 157305507.79007      -776.200 7        43.367    39066711.584 6 165304080.39706      -815.519 6        39.913
C32        36.000                                                                                                                                    22880363.779 8 119144115.09308     -2113.155 8        49.908                                                                    22880363.359 8  96814374.51108     -1717.123 8        50.302
I01        37.000   379666640.564 7 186752640.63207     -2719.331 7        42.665
E27        38.000    29106732.826 5 152956902.86405      1871.203 5        34.462                                                                    29106733.201 6 114221071.68306      1397.154 6        38.483    29106732.512 6 117200748.52706      1433.590 6        39.036
C41        39.000                                                                                                                                    27273794.308 6 142021817.42306     -3275.589 6        38.159                                                                    27273799.400 6 115404386.42106     -2661.704 6        39.991
C39        40.000                                                                                                                                    39607618.922 7 206247296.38707     -1370.202 7        42.222                                                                    39607615.297 6 167592818.17006     -1113.357 6        41.712
E33        41.000    25194894.258 7 132400149.28507     -3048.542 7        45.564                                                                    25194892.189 8  98870274.05308     -2276.506 8        48.089    25194891.762 8 101449494.55308     -2335.952 8        49.018
S44        42.000    40837770.811 6 214604119.65706      -554.416 6        37.875
R06        43.000    22186621.563 6 118392122.18206     -3637.542 6        36.877
C05        44.000                                                                                                                                    39289972.471 6 204593238.50506      -499.934 6        39.321    39289965.774 7 158204496.77607      -386.550 7        43.321    39289967.979 6 166248870.56006      -406.072 6        39.808
C29        45.000                                                                                                                                    23281274.390 7 121231728.33007     -1588.575 7        47.733                                                                    23281271.419 7  98510708.39307     -1290.793 7        47.126
G04        46.000    20202197.403 8 106163300.02708      -429.543 8        49.861                                    20202193.706 7  82724636.12807      -334.710 7        43.223    20202193.598 8  82724638.12208      -334.684 8        49.290
E30        47.000    28932011.556 6 152038762.83606       307.136 6        36.329                                                                    28932011.145 6 113535431.32606       229.400 6        38.913    28932010.817 6 116497223.77006       235.215 6        40.234
R22        48.000    20557949.518 8 109739759.77408     -3426.484 8        50.957                                                                    20557947.629 7  85353144.26207     -2665.046 7        47.482
C20        49.000                                                                                                                                    22508025.307 8 117205220.33208       733.068 8        51.540                                                                    22508019.131 8  95238826.42908       595.722 8        49.370
C06        50.000                                                                                                                                    38542895.373 6 200702999.65006      -924.823 6        41.299    38542888.964 7 155196274.08807      -715.140 7        44.588    38542888.707 6 163087608.43506      -751.551 6        41.533
S48        51.000    77338400.939 6 406414961.84506      -467.132 6        37.939
C09        53.000                                                                                                                                    38614900.758 7 201077941.23107      -422.352 7        42.936    38614896.528 7 155486209.93807      -326.476 7        47.124    38614894.772 7 163392277.93607      -343.096 7        42.394
C60        54.000                                                                                                                                    40837768.797 6 212653192.64306      -549.328 6        40.267                                                                    40837752.584 6 172798110.10406      -446.279 6        39.922
R09        55.000    22913074.518 7 122354560.62007      2953.819 7        44.197                                                                    22913073.936 7  95164650.97507      2297.412 7        43.376
G07        56.000    24944712.234 6 131085352.61206      2957.661 6        39.267                                    24944708.959 5 102144410.26905      2304.668 5        31.947    24944709.071 6 102144419.28406      2304.440 6        36.915
C02        57.000                                                                                                                                    40785989.715 5 212383414.74305      -543.085 5        34.195    40785982.553 6 164228325.40006      -420.195 6        39.489    40785986.841 6 172578927.31006      -441.519 6        36.442
I03        58.000   102182356.394 6 325200288.80206       877.055 6        40.157
R07        59.000    19630706.062 8 105084772.85408     -1310.446 8        50.448                                                                    19630704.731 8  81732654.87408     -1019.236 8        48.315
> 2025 01 02 02 46  0.0000000  0 56
G09         1.000    20856360.905 8 109600950.87308      1405.633 8        48.762                                    20856358.039 8  85403344.21108      1095.299 8        50.804    20856358.225 7  85403344.22007      1095.243 7        44.289
G06         2.000    22118112.847 7 116231485.58907      1716.583 7        45.609                                    22118111.008 7  90569993.46207      1337.597 7        45.535    22118111.810 7  90570001.47107      1337.661 7        43.354
E11         3.000    26656250.462 6 140079556.72406      2125.397 6        37.981                                                                    26656246.314 6 104604853.65006      1587.115 6        40.996    26656246.075 6 107333672.18206      1628.713 6        41.576
R15         4.000    24297211.263 7 129836934.69107     -3202.666 7        42.906                                                                    24297211.238 6 100984268.32806     -2490.934 6        39.126
S21         5.000    38591619.247 7 202800038.42007      -475.992 7        42.004
E10         6.000    24806884.822 7 130361069.16007      1064.662 7        46.487                                                                    24806883.327 8  97347548.50108       795.058 8        49.236    24806883.168 8  99887049.22108       815.813 8        50.354
G28         7.000    25223399.473 6 132549865.46506     -3625.330 6        38.144                                    25223394.927 3 103285591.03503     -2824.916 3        19.851    25223395.200 6 103285599.03006     -2824.797 6        37.002
G03         8.000    20924735.970 8 109960328.51808     -2316.835 8        48.673                                    20924733.482 8  85683414.75508     -1805.324 8        49.424    20924734.162 7  85683412.75707     -1805.331 7        44.519
G02         9.000    24521591.833 6 128861878.28606     -3973.271 6        41.032                                    24521585.112 4 100411846.50604     -3096.046 4        26.072
G31        10.000    23007075.409 7 120903006.91507     -2598.856 7        43.827                                    23007070.056 6  94210119.64606     -2025.085 6        39.006    23007070.600 6  94210124.64806     -2025.138 6        40.417
C30        11.000                                                                                                                                    25148422.335 7 130954442.92907     -3762.426 7        43.805                                                                    25148422.783 7 106411213.61407     -3057.387 7        42.940
S27        12.000    39220359.464 6 206104406.88406      -472.442 6        36.026
G26        13.000    24957274.753 6 131151364.08006      1419.038 6        37.282                                    24957273.502 4 102195873.76604      1105.742 4        28.578    24957273.526 5 102195873.77705      1105.726 5        34.590
S36        14.000    38359023.610 7 201578552.35307      -476.068 7        44.593
I09        15.000    37561320.089 7 147398690.30907      -610.292 7        42.565
G19        16.000    22966578.278 7 120690205.52507     -2341.495 7        43.293                                    22966571.772 5  94044300.33305     -1824.543 5        30.008
S45        17.000    63551468.200 6 333966619.91106      -515.613 6        37.561
E12        19.000    24093909.673 7 126614361.59707      -272.662 7        45.174                                                                    24093905.646 8  94549675.08008      -203.655 8        48.067    24093905.781 8  97016187.70408      -208.934 8        49.014
G17        20.000    24146877.601 7 126892716.93707     -3197.724 7        42.790                                    24146872.528 5  98877430.79405     -2491.737 5        34.076    24146873.271 5  98877429.81005     -2491.589 5        35.695
G11        21.000    25336815.405 6 133145866.78406      3071.559 6        37.943                                    25336810.985 3 103750005.50003      2393.424 3        20.381    25336811.821 6 103750018.49106      2393.648 6        36.911
I06        22.000    38204760.359 7 149923927.71207      -285.852 7        43.407
S28        23.000    41024563.287 5 215585554.83205      -471.262 5        34.457
R08        24.000    20924817.686 8 112051482.65108      1747.339 8        50.760                                                                    20924814.330 7  87151157.35707      1358.987 7        45.720
S23        25.000    38304084.289 7 201289326.90607      -472.000 7        44.780
C25        26.000                                                                                                                                    25913578.494 6 134938795.33006     -1888.248 6        41.042                                                                    25913575.705 6 109648820.06406     -1534.528 6        40.551
R16        27.000    22365779.370 7 119473996.92407       -30.748 7        46.888                                                                    22365780.028 7  92924222.02707       -24.017 7        43.141
R21        29.000                                                                                                                                    24572990.739 3                     -4034.299 3        19.582
E19        30.000    23067527.600 7 121220710.75507        33.882 7        43.583                                                                    23067525.067 7  90521962.09207        25.335 7        45.678    23067525.131 7  92883401.28807        25.933 7        47.185
C23        31.000                                                                                                                                    24912028.087 7 129723474.88007       722.946 7        45.044                                                                    24912019.082 7 105410916.80007       587.192 7        44.977
R23        32.000    20225380.896 8 108192163.63108       353.535 8        49.477
E29        33.000    24584050.925 7 129190143.64707     -2249.263 7        45.729                                                                    24584048.671 8  96473174.50708     -1679.599 8        48.889    24584048.654 8  98989860.47108     -1723.467 8        50.296
E04        34.000    26883606.392 6 141274330.30206      2177.248 6        40.658                                                                    26883603.814 7 105497073.82907      1625.870 7        43.149    26883603.594 7 108249167.16507      1668.289 7        44.348
C16        35.000                                                                                                                                    39067679.073 7 203435686.64207     -1004.425 7        42.944    39067678.122 7 157309389.87207      -776.549 7        43.367    39067675.641 6 165308159.89506      -816.209 6        39.661
C32        36.000                                                                                                                                    22882393.195 8 119154683.84808     -2114.183 8        49.766                                                                    22882392.972 8  96822962.50608     -1718.126 8        50.209
I01        37.000   379670105.509 7 186766237.89607     -2719.327 7        42.753
E27        38.000    29104952.924 5 152947549.87605      1870.409 5        34.305                                                                    29104953.412 6 114214087.30306      1396.701 6        38.655    29104952.650 6 117193581.95506      1433.077 6        39.096
C41        39.000                                                                                                                                    27276939.127 6 142038195.79406     -3275.462 6        38.138                                                                    27276944.831 6 115417695.21506     -2661.871 6        39.952
C39        40.000                                                                                                                                    39608934.644 7 206254148.87007     -1370.608 7        42.226                                                                    39608931.214 6 167598386.40106     -1114.021 6        41.323
E33        41.000    25197795.557 7 132415395.52907     -3049.903 7        45.762                                                                    25197793.516 8  98881659.23408     -2277.476 8        48.099    25197792.997 8 101461176.73608     -2336.903 8        48.877
S44        42.000    40838298.355 6 214606891.30406      -554.204 6        38.090
R06        43.000    22190029.339 5 118410311.28805     -3638.111 5        35.886
C05        44.000                                                                                                                                    39290452.298 6 204595738.04506      -499.692 6        39.267    39290445.812 7 158206429.58907      -386.548 7        43.300    39290448.021 6 166250901.67306      -406.131 6        39.745
C29        45.000                                                                                                                                    23282800.775 7 121239677.94007     -1591.171 7        47.772                                                                    23282798.122 7  98517168.12007     -1293.109 7        46.898
G04        46.000    20202607.245 8 106165454.33708      -432.072 8        49.793                                    20202603.651 7  82726314.81207      -336.678 7        43.105    20202603.694 8  82726316.81008      -336.602 8        49.429
E30        47.000    28931720.251 6 152037232.71506       305.080 6        36.355                                                                    28931719.992 6 113534288.70406       227.817 6        38.916    28931719.681 6 116496051.32906       233.721 6        40.353
R22        48.000    20561161.057 8 109756900.80308     -3429.775 8        50.816                                                                    20561158.136 7  85366476.16407     -2667.615 7        46.975
C20        49.000                                                                                                                                    22507322.099 8 117201558.54708       731.745 8        51.525                                                                    22507315.955 8  95235850.94908       594.403 8        49.203
C06        50.000                                                                                                                                    38543783.485 6 200707625.44906      -925.374 6        41.201    38543777.135 7 155199851.03707      -715.615 7        44.602    38543777.048 6 163091367.28806      -752.321 6        41.268
S48        51.000    77338848.754 6 406417297.53406      -467.056 6        37.921
C09        53.000                                                                                                                                    38615306.473 7 201080054.70607      -422.879 7        42.984    38615302.454 7 155487844.20807      -327.099 7        47.020    38615300.694 7 163393995.33807      -344.000 7        42.186
C60        54.000                                                                                                                                    40838296.095 6 212655939.11406      -549.256 6        40.477                                                                    40838279.981 6 172800341.85406      -446.364 6        39.700
R09        55.000    22910309.810 7 122339796.47307      2951.992 7        43.530                                                                    22910309.284 7  95153167.74807      2295.954 7        43.397
G07        56.000    24941898.559 6 131070564.84406      2957.652 6        39.354                                    24941895.016 5 102132887.34305      2304.662 5        31.917    24941895.554 6 102132896.33406      2304.642 6        37.036
C02        57.000                                                                                                                                    40786510.856 5 212386131.42505      -543.315 5        34.062    40786503.783 6 164230426.10806      -420.269 6        39.369    40786508.568 6 172581134.84406      -441.511 6        36.129
I03        58.000   102181238.981 6 325195903.76206       877.122 6        40.281
R07        59.000    19631931.023 8 105091330.55208     -1312.545 8        50.523                                                                    19631929.416 7  81737755.30407     -1020.873 7        47.787
> 2025 01 02 02 46  5.0000000  0 56
G09         1.000    20855024.636 8 109593927.91508      1403.772 8        48.712                                    20855021.618 8  85397871.77908      1093.848 8        50.924    20855022.271 7  85397871.78007      1093.886 7        44.328
G06         2.000    22116480.629 7 116222908.29407      1714.565 7        45.553                                    22116478.804 7  90563309.85707      1336.026 7        45.657    22116479.404 7  90563317.86007      1335.962 7        43.198
E11         3.000    26654228.763 6 140068931.72706      2124.771 6        37.977                                                                    26654224.453 6 104596919.39906      1586.696 6        40.841    26654224.232 6 107325530.97206      1627.983 6        41.733
R15         4.000    24300210.439 7 129852955.65207     -3205.340 7        42.857                                                                    24300209.543 6 100996729.06706     -2493.225 6        39.090
S21         5.000    38592069.786 7 202802418.77207      -475.721 7        42.093
E10         6.000    24805872.789 7 130355750.10707      1063.212 7        46.509                                                                    24805871.122 8  97343576.49708       793.880 8        49.287    24805871.038 8  99882973.59408       814.623 8        50.428
G28         7.000    25226849.047 6 132567996.32406     -3626.477 6        38.018                                    25226845.106 3 103299718.97603     -2825.829 3        20.476    25226845.639 6 103299726.97106     -2825.947 6        37.312
G03         8.000    20926940.941 8 109971917.24508     -2318.319 8        48.466                                    20926938.752 8  85692444.93008     -1806.481 8        49.527    20926939.531 7  85692442.93307     -1806.567 7        44.758
G02         9.000    24525372.507 6 128881746.14306     -3973.458 6        40.996                                    24525365.985 4 100427327.93804     -3096.197 4        26.323
G31        10.000    23009549.591 7 120916008.49707     -2601.612 7        43.537                                    23009544.209 6  94220250.75206     -2027.231 6        39.111    23009544.758 6  94220255.72906     -2027.035 6        40.262
C30        11.000                                                                                                                                    25152035.060 7 130973256.29707     -3762.654 7        43.477                                                                    25152035.086 7 106426500.98507     -3057.383 7        42.597
S27        12.000    39220805.871 6 206106767.37206      -471.841 6        36.072
G26        13.000    24955926.241 6 131144274.27906      1417.299 6        38.240                                    24955924.355 4 102190349.25304      1104.393 4        29.137    24955924.521 5 102190349.25605      1104.310 5        34.905
S36        14.000    38359477.802 7 201580932.52807      -475.671 7        44.653
I09        15.000    37562097.830 7 147401741.96507      -610.107 7        42.734
G19        16.000    22968807.442 7 120701920.00807     -2343.981 7        42.946                                    22968800.974 5  94053428.50505     -1826.485 5        30.030
S45        17.000    63551918.023 6 333969198.72506      -515.447 6        37.452
E12        19.000    24094170.352 7 126615730.54807      -274.575 7        45.011                                                                    24094166.150 8  94550697.36008      -205.066 8        48.076    24094166.273 8  97017236.65208      -210.430 8        49.007
G17        20.000    24149920.205 6 126908707.88706     -3198.441 6        41.385                                    24149915.463 5  98889891.27605     -2492.290 5        34.214    24149916.454 6  98889890.25606     -2492.123 6        36.174
G11        21.000    25333893.347 6 133130511.03006      3071.137 6        38.826                                    25333888.856 3 103738039.98303      2393.121 3        21.048    25333889.425 6 103738053.00006      2392.872 6        37.554
I06        22.000    38205124.651 7 149925356.91007      -285.684 7        43.537
S28        23.000    41025014.348 5 215587910.67405      -471.219 5        34.357
R08        24.000    20923186.791 8 112042750.70908      1745.789 8        51.018                                                                    20923183.153 7  87144365.83607      1357.802 7        45.591
S23        25.000    38304531.849 7 201291686.40007      -471.588 7        44.540
C25        26.000                                                                                                                                    25915392.415 6 134948242.38506     -1890.295 6        41.273                                                                    25915389.979 6 109656496.54406     -1536.108 6        40.484
R16        27.000    22365811.076 7 119474161.73407       -34.812 7        47.298                                                                    22365810.695 7  92924350.19807       -27.046 7        43.820
R21        29.000                                                                                                                                    24577836.108 3                     -4027.355 3        19.940
E19        30.000    23067496.258 7 121220545.74707        32.477 7        43.420                                                                    23067493.682 7  90521838.87807        24.147 7        45.708    23067493.718 7  92883274.85607        24.856 7        47.076
C23        31.000                                                                                                                                    24911335.519 7 129719866.09507       720.876 7        45.076                                                                    24911326.124 7 105407984.35607       585.619 7        45.023
R23        32.000    20225052.250 8 108190407.73908       349.133 8        49.426
E29        33.000    24586191.656 7 129201392.80807     -2250.061 7        45.837                                                                    24586189.258 8  96481574.85808     -1680.312 8        48.901    24586189.277 8  98998479.95608     -1724.103 8        50.253
E04        34.000    26881534.643 6 141263446.17806      2176.682 6        40.510                                                                    26881532.770 7 105488946.08207      1625.508 7        43.073    26881532.454 7 108240827.38207      1667.913 7        44.163
C16        35.000                                                                                                                                    39068643.943 7 203440709.71007     -1004.639 7        42.783    39068642.724 7 157313274.02607      -776.839 7        43.323    39068640.402 6 165312241.53706      -816.338 6        39.691
C32        36.000                                                                                                                                    22884423.839 8 119165257.54008     -2115.033 8        49.638                                                                    22884423.500 8  96831554.48008     -1718.649 8        50.149
I01        37.000   379673570.501 7 186779835.31307     -2719.230 7        42.969
E27        38.000    29103173.861 5 152938200.59905      1869.728 5        33.497                                                                    29103174.171 6 114207105.69306      1396.101 6        38.751    29103173.765 6 117186418.22306      1432.601 6        38.847
C41        39.000                                                                                                                                    27280084.617 6 142054573.31106     -3275.154 6        37.505                                                                    27280090.025 6 115431003.24306     -2661.385 6        40.148
C39        40.000                                                                                                                                    39610251.268 7 206261003.35807     -1370.846 7        42.169                                                                    39610247.582 6 167603956.20906     -1113.918 6        41.297
E33        41.000    25200698.072 7 132430648.26007     -3050.971 7        45.684                                                                    25200696.055 8  98893049.26208     -2278.323 8        48.095    25200695.598 8 101472863.89208     -2337.696 8        48.854
S44        42.000    40838824.428 6 214609662.44306      -553.930 6        37.815
R06        43.000    22193438.746 6 118428502.90106     -3638.158 6        37.100
C05        44.000                                                                                                                                    39290932.032 6 204598237.21406      -499.659 6        39.180    39290925.823 7 158208362.09407      -386.320 7        43.376    39290927.951 6 166252932.41806      -405.863 6        39.492
C29        45.000                                                                                                                                    23284329.794 7 121247640.41107     -1593.544 7        47.811                                                                    23284327.210 7  98523638.25907     -1294.892 7        46.910
G04        46.000    20203019.429 8 106167620.90808      -434.282 8        49.675                                    20203015.925 7  82728003.04907      -338.401 7        43.234    20203016.065 8  82728005.05308      -338.395 8        49.451
E30        47.000    28931430.698 6 152035713.08306       302.978 6        36.181                                                                    28931430.779 6 113533153.91906       226.393 6        38.670    28931430.652 6 116494886.94106       232.319 6        40.384
R22        48.000    20564374.910 8 109774058.34208     -3432.909 8        51.466                                                                    20564372.645 7  85379820.91507     -2670.074 7        47.081
C20        49.000                                                                                                                                    22506619.996 8 117197903.07608       730.677 8        51.395                                                                    22506613.930 8  95232880.55608       593.753 8        49.181
C06        50.000                                                                                                                                    38544672.510 6 200712254.16406      -925.828 6        41.116    38544665.893 7 155203430.26407      -715.906 7        44.635    38544665.780 6 163095128.47106      -752.328 6        41.123
S48        51.000    77339295.026 6 406419632.60806      -466.875 6        38.015
C09        53.000                                                                                                                                    38615713.448 7 201082171.41007      -423.399 7        42.940    38615709.216 7 155489480.98107      -327.495 7        47.066    38615707.098 7 163395715.29707      -343.966 7        42.178
C60        54.000                                                                                                                                    40838823.411 6 212658685.05906      -548.853 6        40.391                                                                    40838807.507 6 172802573.14406      -446.147 6        39.652
R09        55.000    22907546.796 7 122325041.31307      2950.298 7        43.623                                                                    22907545.910 7  95141691.50407      2294.724 7        44.137
G07        56.000    24939085.037 6 131055776.89006      2957.890 6        39.447                                    24939081.113 5 102121364.28005      2304.849 5        32.263    24939080.745 6 102121373.28606      2304.765 6        36.790
C02        57.000                                                                                                                                    40787032.810 5 212388847.71405      -543.112 5        34.243    40787025.787 6 164232526.49006      -419.897 6        39.342    40787030.455 6 172583342.03506      -441.366 6        36.348
I03        58.000   102180121.093 6 325191518.48506       877.226 6        40.410
R07        59.000    19633158.113 8 105097898.63908     -1314.400 8        50.556                                                                    19633156.601 7  81742863.81207     -1022.319 7        47.438
> 2025 01 02 02 46 10.0000000  0 55
G09         1.000    20853690.417 8 109586916.00308      1401.270 8        48.924                                    20853687.309 8  85392407.95508      1091.898 8        50.920    20853687.754 7  85392407.96007      1091.898 7        44.337
G06         2.000    22114850.727 7 116214343.33007      1711.846 7        45.269                                    22114848.937 7  90556635.86307      1333.906 7        45.649    22114849.859 7  90556643.86607      1333.870 7        43.446
E11         3.000    26652207.957 6 140058311.62806      2123.667 6        37.856                                                                    26652203.522 6 104588988.82006      1585.738 6        40.937    26652203.332 6 107317393.49806      1627.080 6        41.623
R15         4.000    24303209.711 6 129868991.72606     -3208.628 6        41.712                                                                    24303211.026 6 101009201.58006     -2495.686 6        39.856
S21         5.000    38592523.919 7 202804798.98407      -476.075 7        42.021
E10         6.000    24804862.299 7 130350440.26007      1061.168 7        46.512                                                                    24804860.664 8  97339611.35708       792.318 8        49.211    24804860.590 8  99878905.01108       813.100 8        50.375
G28         7.000    25230301.029 6 132586134.97306     -3628.514 6        38.042                                    25230296.849 3 103313852.98103     -2827.421 3        20.452    25230296.787 6 103313860.97606     -2827.309 6        37.490
G03         8.000    20929148.050 8 109983514.91708     -2320.314 8        48.565                                    20929145.717 8  85701482.07708     -1808.039 8        49.519    20929146.667 7  85701480.08207     -1808.072 7        44.754
G02         9.000    24529153.448 6 128901616.83206     -3974.388 6        40.953                                    24529147.216 4 100442811.59204     -3096.935 4        26.407
G31        10.000    23012026.218 7 120929025.00007     -2604.670 7        43.005                                    23012021.157 6  94230393.48306     -2029.613 6        39.051    23012020.925 6  94230398.48806     -2029.793 6        39.625
C30        11.000                                                                                                                                    25155648.245 7 130992072.58407     -3763.609 7        43.714                                                                    25155648.378 7 106441790.77007     -3058.220 7        42.336
S27        12.000    39221256.745 5 206109127.94405      -472.002 5        35.914
G26        13.000    24954579.062 6 131137194.84506      1414.833 6        38.042                                    24954577.319 4 102184832.81704      1102.462 4        29.412    24954577.235 5 102184832.81505      1102.345 5        35.081
S36        14.000    38359933.017 7 201583312.69407      -475.937 7        44.495
I09        15.000    37562875.788 7 147404794.25707      -610.549 7        42.569
G19        16.000    22971038.992 7 120713648.20607     -2346.906 7        43.663                                    22971032.721 4  94062567.36004     -1828.757 4        29.915
S45        17.000    63552366.572 6 333970177.76116      -515.663 6        37.546
E12        19.000    24094433.110 7 126617110.77307      -277.089 7        45.118                                                                    24094428.834 7  94551728.05007      -206.985 7        47.931    24094428.955 8  97018294.22808      -212.309 8        48.978
G17        20.000    24152963.913 6 126924703.93506     -3199.626 6        41.642                                    24152959.515 5  98902355.72705     -2493.214 5        34.214    24152960.040 6  98902354.72806     -2493.363 6        36.212
G11        21.000    25330971.922 6 133115158.89406      3070.119 6        38.342                                    25330967.818 3 103726077.28903      2392.301 3        21.619    25330968.328 6 103726090.27906      2392.263 6        37.652
I06        22.000    38205488.791 7 149926786.28007      -285.873 7        43.454
S28        23.000    41025461.032 5 215590266.55505      -471.091 5        34.162
R08        24.000    20921557.950 8 112034027.84108      1743.722 8        50.729                                                                    20921554.796 7  87137581.39207      1356.188 7        45.926
S23        25.000    38304982.137 7 201294045.88007      -471.870 7        44.698
C25        26.000                                                                                                                                    25917208.884 6 134957701.72106     -1893.077 6        41.473                                                                    25917206.567 6 109664183.03406     -1538.271 6        40.405
R16        27.000    22365846.247 7 119474348.43107       -39.555 7        46.898                                                                    22365845.467 7  92924495.40307       -30.673 7        43.441
E19        30.000    23067466.531 7 121220389.40307        30.327 7        43.401                                                                    23067463.863 7  90521722.12207        22.752 7        45.633    23067463.935 7  92883155.05707        23.311 7        47.194
C23        31.000                                                                                                                                    24910644.540 7 129716269.60407       718.172 7        45.294                                                                    24910635.376 7 105405061.91507       583.509 7        44.980
R23        32.000    20224728.692 8 108188674.94508       344.271 8        49.779
E29        33.000    24588333.226 7 129212647.59107     -2251.438 7        46.007                                                                    24588331.014 8  96489979.40908     -1681.338 8        48.792    24588330.970 8  99007103.75408     -1725.148 8        50.234
E04        34.000    26879464.152 6 141252565.84606      2175.725 6        40.360                                                                    26879462.392 7 105480821.15507      1624.804 7        43.128    26879462.129 7 108232490.51607      1667.081 7        44.197
C16        35.000                                                                                                                                    39069609.222 7 203445736.03007     -1005.623 7        42.736    39069607.733 7 157317160.69307      -777.528 7        43.045    39069605.721 6 165316325.82806      -817.034 6        39.510
C32        36.000                                                                                                                                    22886455.387 8 119175836.72108     -2116.346 8        49.672                                                                    22886455.080 8  96840150.93608     -1719.769 8        50.087
I01        37.000   379677035.648 7 186793433.24507     -2719.690 7        42.880
E27        38.000    29101395.419 5 152928855.56905      1868.524 5        33.617                                                                    29101395.820 6 114200127.27106      1395.142 6        38.216    29101395.337 6 117179257.73406      1431.897 6        38.661
C41        39.000                                                                                                                                    27283229.629 6 142070950.49106     -3275.380 6        37.312                                                                    27283235.153 6 115444311.03806     -2661.547 6        40.100
C39        40.000                                                                                                                                    39611568.171 7 206267860.41007     -1371.568 7        42.224                                                                    39611564.326 6 167609528.14706     -1114.625 6        41.323
E33        41.000    25203601.799 7 132445908.01907     -3052.611 7        45.744                                                                    25203599.855 8  98904444.54408     -2279.598 8        48.143    25203599.342 8 101484556.44208     -2339.007 8        48.869
S44        42.000    40839351.301 6 214612433.62106      -554.367 6        37.909
R06        43.000    22196849.311 6 118446697.68506     -3639.111 6        37.913
C05        44.000                                                                                                                                    39291411.913 6 204600736.47706      -499.695 6        39.156    39291405.793 7 158210294.69607      -386.473 7        43.295    39291407.890 6 166254963.29906      -406.125 6        39.571
C29        45.000                                                                                                                                    23285861.606 7 121255616.25307     -1596.483 7        47.992                                                                    23285858.849 7  98530119.30507     -1297.360 7        46.785
G04        46.000    20203434.236 8 106169800.30908      -437.174 8        49.716                                    20203430.664 7  82729701.28207      -340.655 7        43.196    20203430.644 8  82729703.28208      -340.617 8        49.318
E30        47.000    28931143.625 6 152034204.49906       300.767 6        36.284                                                                    28931143.698 6 113532027.37206       224.497 6        38.796    28931143.692 6 116493731.00506       230.478 6        40.536
R22        48.000    20567592.440 8 109791232.96508     -3436.614 8        51.215                                                                    20567590.310 7  85393178.95307     -2672.866 7        47.437
C20        49.000                                                                                                                                    22505919.218 8 117194254.47608       729.093 8        51.449                                                                    22505913.287 8  95229915.78108       592.359 8        49.101
C06        50.000                                                                                                                                    38545561.874 6 200716886.40206      -926.629 6        41.106    38545555.628 7 155207012.21207      -716.608 7        44.722    38545555.457 6 163098892.55806      -753.013 6        41.092
S48        51.000    77339742.935 6 406421967.72406      -467.048 6        37.924
C09        53.000                                                                                                                                    38616120.585 7 201084291.86907      -424.427 7        42.999    38616116.349 7 155491120.64207      -328.134 7        47.042    38616114.385 7 163397438.35907      -344.917 7        42.045
C60        54.000                                                                                                                                    40839350.723 6 212661431.03506      -549.257 6        40.210                                                                    40839334.559 6 172804804.47906      -446.232 6        39.589
R09        55.000    22904785.297 7 122310295.58707      2948.256 7        43.989                                                                    22904785.187 7  95130222.63107      2293.056 7        44.268
G07        56.000    24936270.747 6 131040989.33706      2957.500 6        39.706                                    24936267.224 5 102109841.52305      2304.540 5        32.245    24936266.477 6 102109850.52606      2304.450 6        37.085
C02        57.000                                                                                                                                    40787554.783 5 212391564.04505      -543.301 5        33.796    40787547.406 6 164234626.94206      -420.042 6        39.363    40787551.990 6 172585549.27306      -441.613 6        36.291
I03        58.000   102179003.912 6 325187133.35306       876.966 6        40.362
R07        59.000    19634387.414 8 105104477.47508     -1316.745 8        51.077                                                                    19634385.474 7  81747980.68407     -1024.194 7        47.158
> 2025 01 02 02 46 15.0000000  0 56
G09         1.000    20852358.210 8 109579914.74308      1399.132 8        48.732                                    20852355.016 8  85386952.42408      1090.231 8        50.797    20852355.580 7  85386952.43207      1090.173 7        44.360
G06         2.000    22113223.238 7 116205790.31407      1709.367 7        45.387                                    22113221.338 7  90549971.17507      1331.973 7        45.553    22113222.121 7  90549979.17607      1331.934 7        43.071
E11         3.000    26650187.474 6 140047696.06806      2122.699 6        37.614                                                                    26650183.540 6 104581061.61806      1585.021 6        40.865    26650183.281 6 107309259.50506      1626.456 6        41.545
R15         4.000    24306213.506 6 129885042.59406     -3211.648 6        41.421                                                                    24306214.160 6 101021685.58506     -2498.022 6        39.745
S21         5.000    38592975.110 7 202807178.52507      -475.930 7        42.263
E10         6.000    24803853.574 7 130345139.21907      1059.319 7        46.387                                                                    24803851.909 8  97335652.78408       791.036 8        49.130    24803851.857 8  99874843.17608       811.681 8        50.374
G28         7.000    25233753.907 6 132604281.03106     -3629.879 6        37.811                                    25233750.100 3 103327992.76603     -2828.477 3        20.024    25233750.327 6 103328000.75406     -2828.464 6        37.868
G03         8.000    20931356.744 8 109995121.16908     -2322.096 8        48.387                                    20931354.305 8  85710525.90908     -1809.425 8        49.420    20931354.718 7  85710523.91007     -1809.466 7        44.552
G02         9.000    24532934.893 6 128921489.95006     -3974.938 6        40.865                                    24532929.172 4 100458297.13504     -3097.348 4        26.204
G31        10.000    23014506.140 7 120942056.02207     -2607.720 7        43.067                                    23014500.788 6  94240547.51606     -2031.987 6        38.817    23014500.861 6  94240552.51406     -2031.975 6        39.225
C30        11.000                                                                                                                                    25159262.358 7 131010891.36307     -3764.141 7        44.217                                                                    25159262.597 7 106457082.57007     -3058.712 7        42.610
S27        12.000    39221705.324 5 206111487.29705      -471.920 5        35.619
G26        13.000    24953233.089 6 131130125.40106      1412.743 6        37.951                                    24953232.045 4 102179324.16204      1100.833 4        29.554    24953232.515 5 102179324.14905      1100.749 5        34.724
S36        14.000    38360384.271 7 201585692.28407      -475.801 7        44.491
I09        15.000    37563653.208 7 147407846.88907      -610.675 7        42.445
G19        16.000    22973273.351 7 120725389.73407     -2349.740 7        42.688                                    22973266.976 4  94071716.60704     -1830.967 4        29.801
S45        17.000    63552815.143 6 333972756.47306      -515.769 6        37.285
E12        19.000    24094697.739 7 126618501.90807      -279.344 7        44.904                                                                    24094693.548 8  94552766.87508      -208.569 8        48.029    24094693.561 8  97019360.15908      -214.048 8        48.951
G17        20.000    24156009.522 6 126940704.71206     -3200.626 6        41.728                                    24156004.413 5  98914823.85605     -2493.992 5        34.090    24156004.796 5  98914822.87505     -2494.141 5        35.857
G11        21.000    25328050.933 6 133099809.98406      3069.346 6        38.168                                    25328047.155 3 103714117.10503      2391.715 3        21.143    25328047.183 6 103714130.09806      2391.662 6        37.698
I06        22.000    38205853.052 7 149928215.52607      -285.889 7        43.450
S28        23.000    41025910.824 5 215592621.91005      -471.174 5        34.662
R08        24.000    20919930.602 8 112025313.65208      1741.963 8        50.299                                                                    20919927.470 7  87130803.69807      1354.880 7        46.088
S23        25.000    38305429.599 7 201296404.99407      -471.938 7        44.643
C25        26.000                                                                                                                                    25919027.769 6 134967172.91506     -1895.370 6        41.497                                                                    25919025.232 6 109671879.15306     -1540.301 6        40.484
R16        27.000    22365884.892 7 119474556.59407       -43.807 7        47.074                                                                    22365884.126 7  92924657.32007       -34.142 7        43.488
R21        29.000                                                                                                                                    24587509.029 3                     -4037.398 3        19.104
E19        30.000    23067438.388 7 121220241.23807        28.860 7        43.181                                                                    23067435.692 7  90521611.49207        21.470 7        45.594    23067435.872 7  92883041.54307        22.054 7        47.158
C23        31.000                                                                                                                                    24909955.971 7 129712685.05207       715.728 7        45.552                                                                    24909947.029 7 105402149.16407       581.499 7        44.963
R23        32.000    20224409.072 8 108186964.95408       339.707 8        49.779
E29        33.000    24590475.910 7 129223907.59307     -2252.575 7        45.771                                                                    24590473.742 8  96498387.84108     -1682.072 8        48.793    24590473.689 8  99015731.54308     -1725.997 8        50.186
E04        34.000    26877394.675 6 141241688.90206      2174.992 6        40.222                                                                    26877392.684 7 105472698.77007      1624.285 7        43.092    26877392.223 7 108224156.24107      1666.465 7        44.302
C16        35.000                                                                                                                                    39070575.181 7 203450765.19907     -1006.106 7        42.696    39070573.437 7 157321049.57207      -777.919 7        43.092    39070571.412 6 165320412.43306      -817.607 6        39.462
C32        36.000                                                                                                                                    22888488.090 8 119186421.00908     -2117.410 8        49.775                                                                    22888487.634 8  96848751.53108     -1720.641 8        50.160
I01        37.000   379680500.685 7 186807031.41807     -2719.702 7        42.940
E27        38.000    29099618.105 5 152919514.37105      1867.575 5        33.395                                                                    29099618.110 6 114193151.72506      1394.882 6        37.788    29099617.604 6 117172100.24506      1431.095 6        38.417
C41        39.000                                                                                                                                    27286374.491 6 142087326.93506     -3275.126 6        37.482                                                                    27286380.008 6 115457618.23506     -2661.427 6        40.157
C39        40.000                                                                                                                                    39612885.458 7 206274719.66507     -1372.144 7        42.210                                                                    39612881.629 6 167615101.84106     -1115.095 6        41.421
E33        41.000    25206507.006 7 132461174.42207     -3053.935 7        45.205                                                                    25206504.862 8  98915844.77908     -2280.538 8        48.034    25206504.406 8 101496254.08108     -2340.110 8        48.783
S44        42.000    40839880.813 6 214615204.41206      -554.039 6        37.675
R06        43.000    22200259.549 6 118464895.18606     -3639.711 6        37.894
C05        44.000                                                                                                                                    39291891.879 6 204603235.51906      -499.894 6        39.057    39291885.675 7 158212227.10907      -386.542 7        43.412    39291887.700 6 166256993.96406      -406.257 6        39.730
C29        45.000                                                                                                                                    23287396.116 7 121263605.12407     -1599.046 7        47.897                                                                    23287393.078 7  98536610.90607     -1299.456 7        46.876
G04        46.000    20203851.100 8 106171992.12708      -439.666 8        49.671                                    20203847.763 7  82731409.19507      -342.597 7        43.126    20203847.695 8  82731411.19108      -342.597 8        49.120
E30        47.000    28930859.094 6 152032706.56406       298.439 6        36.265                                                                    28930858.679 6 113530908.78406       222.928 6        38.886    28930858.529 6 116492583.25506       228.664 6        40.720
R22        48.000    20570812.386 8 109808424.24208     -3439.939 8        50.416                                                                    20570810.869 7  85406549.95007     -2675.538 7        47.357
C20        49.000                                                                                                                                    22505219.934 8 117190612.35108       727.742 8        51.369                                                                    22505213.896 8  95226956.25008       591.299 8        49.228
C06        50.000                                                                                                                                    38546452.368 6 200721521.76006      -927.452 6        41.273    38546445.651 7 155210596.56607      -717.148 7        44.831    38546445.612 6 163102659.15906      -753.634 6        41.213
S48        51.000    77340187.763 6 406424302.65906      -467.038 6        37.898
C09        53.000                                                                                                                                    38616528.433 7 201086415.69907      -425.139 7        42.798    38616524.308 7 155492762.92807      -328.738 7        46.979    38616522.256 7 163399164.13407      -345.504 7        42.254
C60        54.000                                                                                                                                    40839877.869 6 212664176.65106      -549.142 6        40.172                                                                    40839861.898 6 172807035.51406      -446.183 6        39.811
R09        55.000    22902026.089 7 122295559.07307      2946.391 7        44.342                                                                    22902025.498 7  95118760.91507      2291.528 7        43.291
G07        56.000    24933456.188 6 131026201.72806      2957.566 6        39.492                                    24933453.339 5 102098318.72705      2304.591 5        32.180    24933452.663 6 102098327.73506      2304.566 6        36.805
C02        57.000                                                                                                                                    40788076.433 5 212394280.12205      -543.209 5        34.033    40788068.959 6 164236727.18506      -419.866 6        39.547    40788073.461 6 172587756.29706      -441.469 6        36.272
I03        58.000   102177886.186 6 325182748.09606       877.091 6        40.429
R07        59.000    19635618.395 8 105111066.98808     -1319.003 8        50.929                                                                    19635616.774 7  81753105.85607     -1025.913 7        47.198
> 2025 01 02 02 46 20.0000000  0 55
G09         1.000    20851027.732 8 109572924.51108      1397.017 8        48.909                                    20851024.824 8  85381505.49208      1088.584 8        50.868    20851025.031 7  85381505.49307      1088.623 7        44.391
G06         2.000    22111597.833 7 116197249.58807      1707.020 7        45.345                                    22111596.100 7  90543316.07307      1330.145 7        45.558    22111596.472 7  90543324.06907      1330.143 7        43.128
E11         3.000    26648168.102 6 140037085.36506      2121.871 6        37.607                                                                    26648164.398 6 104573138.05106      1584.479 6        40.877    26648164.147 6 107301129.22606      1625.915 6        41.533
R15         4.000    24309221.190 6 129901108.60106     -3214.618 6        41.783                                                                    24309220.436 6 101034181.33406     -2500.222 6        39.682
S21         5.000    38593429.020 7 202809557.67407      -475.948 7        42.146
E10         6.000    24802846.547 7 130339847.34107      1057.582 7        46.259                                                                    24802844.927 8  97331701.06408       789.705 8        49.172    24802844.802 8  99870788.36808       810.326 8        50.392
G28         7.000    25237208.686 6 132622434.84206     -3631.555 6        37.981                                    25237204.473 3 103342138.57903     -2829.788 3        19.701    25237204.538 6 103342146.59006     -2829.810 6        37.815
G03         8.000    20933566.922 8 110006736.32108     -2323.891 8        48.385                                    20933564.601 8  85719576.67908     -1810.825 8        49.448    20933564.817 7  85719574.67607     -1810.753 7        44.290
G02         9.000    24536717.117 6 128941365.84606     -3975.399 6        40.708                                    24536711.297 4 100473784.85504     -3097.717 4        26.036
G31        10.000    23016988.807 7 120955101.88507     -2610.464 7        43.627                                    23016983.218 6  94250713.12506     -2034.127 6        38.856    23016983.893 6  94250718.12006     -2034.097 6        39.213
C30        11.000                                                                                                                                    25162877.498 7 131029712.99007     -3764.599 7        44.364                                                                    25162877.544 7 106472376.70207     -3059.125 7        42.781
S27        12.000    39222153.806 6 206113847.11006      -472.000 6        36.064
G26        13.000    24951889.796 6 131123066.31206      1410.890 6        37.732                                    24951888.787 4 102173823.57904      1099.397 4        29.716    24951889.043 5 102173823.56405      1099.308 5        35.195
S36        14.000    38360836.553 7 201588071.21307      -475.719 7        44.473
I09        15.000    37564431.139 7 147410900.11907      -610.663 7        42.318
G19        16.000    22975509.996 7 120737144.90007     -2352.308 7        42.620                                    22975503.883 4  94080876.47304     -1832.971 4        29.725
S45        17.000    63553261.929 6 333975335.03406      -515.796 6        37.800
E12        19.000    24094964.371 7 126619904.26107      -281.522 7        44.947                                                                    24094960.397 7  94553814.09007      -210.218 7        47.984    24094960.475 8  97020434.69108      -215.696 8        48.960
G17        20.000    24159054.834 6 126956710.55706     -3201.641 6        41.824                                    24159050.321 5  98927295.93905     -2494.783 5        34.224    24159050.445 6  98927294.94206     -2494.747 6        36.268
G11        21.000    25325130.456 6 133084464.62606      3068.731 6        37.974                                    25325127.137 3 103702159.68703      2391.217 3        21.119    25325127.358 6 103702172.69906      2391.349 6        37.754
I06        22.000    38206217.398 7 149929644.90707      -285.811 7        43.384
S28        23.000    41026360.530 5 215594977.40005      -470.978 5        34.600
R08        24.000    20918304.084 8 112016608.52608      1740.180 8        49.877                                                                    20918301.369 7  87124033.04807      1353.499 7        45.819
S23        25.000    38305880.544 7 201298764.26607      -471.702 7        44.628
C25        26.000                                                                                                                                    25920848.311 6 134976656.34206     -1897.922 6        40.989                                                                    25920846.495 6 109679585.22406     -1542.293 6        40.193
R16        27.000    22365927.878 7 119474786.73707       -48.167 7        47.101                                                                    22365927.341 7  92924836.31107       -37.414 7        42.878
E19        30.000    23067411.759 7 121220101.78507        27.065 7        43.255                                                                    23067409.119 7  90521507.35007        20.203 7        45.619    23067409.312 7  92882934.68907        20.693 7        47.205
C23        31.000                                                                                                                                    24909269.538 7 129709112.76207       713.227 7        45.711                                                                    24909260.904 7 105399246.40807       579.521 7        45.162
R23        32.000    20224093.520 8 108185277.98608       335.144 8        49.619
E29        33.000    24592619.646 7 129235173.15307     -2253.581 7        45.694                                                                    24592617.463 8  96506800.44708     -1682.947 8        48.785    24592617.430 8  99024363.60408     -1726.797 8        50.214
E04        34.000    26875325.627 6 141230815.72506      2174.331 6        40.822                                                                    26875323.863 7 105464579.20107      1623.755 7        43.251    26875323.095 7 108215824.85007      1666.033 7        44.441
C16        35.000                                                                                                                                    39071541.274 7 203455797.56607     -1006.876 7        42.734    39071539.908 7 157324940.91407      -778.486 7        43.118    39071537.830 6 165324501.65306      -818.199 6        39.477
C32        36.000                                                                                                                                    22890521.730 8 119197010.73808     -2118.435 8        50.015                                                                    22890521.265 8  96857356.56908     -1721.452 8        50.215
I01        37.000   379683966.529 7 186820630.12207     -2719.743 7        42.900
E27        38.000    29097841.405 5 152910177.45405      1866.952 5        33.401                                                                    29097841.262 6 114186179.35206      1394.202 6        37.705    29097840.940 6 117164945.97606      1430.541 6        38.501
C41        39.000                                                                                                                                    27289519.494 6 142103703.04306     -3275.125 6        37.569                                                                    27289524.785 6 115470925.15706     -2661.317 6        40.129
C39        40.000                                                                                                                                    39614203.410 7 206281581.43607     -1372.560 7        42.099                                                                    39614199.457 6 167620677.60606     -1115.521 6        41.423
E33        41.000    25209413.310 7 132476447.78907     -3055.243 7        44.944                                                                    25209411.185 8  98927250.21008     -2281.485 8        48.023    25209410.933 8 101507957.04408     -2341.020 8        48.845
S44        42.000    40840404.713 6 214617975.22006      -554.010 6        37.841
R06        43.000    22203669.573 6 118483095.81906     -3640.532 6        37.217
C05        44.000                                                                                                                                    39292371.877 6 204605734.63906      -499.860 6        38.991    39292365.547 7 158214159.59307      -386.363 7        43.486    39292367.724 6 166259024.72606      -406.233 6        39.643
C29        45.000                                                                                                                                    23288932.580 7 121271607.37007     -1601.725 7        47.846                                                                    23288929.825 7  98543113.38707     -1301.584 7        46.898
G04        46.000    20204270.717 8 106174196.72608      -442.101 8        49.347                                    20204267.300 7  82733127.06407      -344.495 7        43.101    20204267.574 8  82733129.06408      -344.504 8        49.260
E30        47.000    28930575.782 6 152031219.64206       296.291 6        36.215                                                                    28930575.833 6 113529798.41806       221.441 6        39.045    28930575.497 6 116491443.92306       227.051 6        40.713
R22        48.000    20574036.285 8 109825632.50708     -3443.252 8        50.717                                                                    20574034.424 7  85419934.14607     -2678.073 7        47.451
C20        49.000                                                                                                                                    22504521.815 8 117186977.06308       726.424 8        51.398                                                                    22504515.753 8  95224002.29408       590.227 8        49.244
C06        50.000                                                                                                                                    38547343.525 6 200726160.58006      -928.061 6        41.456    38547336.464 7 155214183.59807      -717.682 7        44.811    38547336.445 6 163106428.59606      -754.304 6        41.199
S48        51.000    77340633.624 6 406426637.73506      -466.837 6        37.887
C09        53.000                                                                                                                                    38616937.458 7 201088543.31607      -425.816 7        42.827    38616932.793 7 155494408.14507      -329.215 7        46.932    38616930.880 7 163400893.00607      -345.919 7        42.212
C60        54.000                                                                                                                                    40840405.279 6 212666922.27306      -549.044 6        40.186                                                                    40840389.142 6 172809266.56606      -446.205 6        39.583
R09        55.000    22899268.118 7 122280832.02207      2944.456 7        44.152                                                                    22899267.124 7  95107306.52207      2290.280 7        43.147
G07        56.000    24930642.258 6 131011414.46806      2957.377 6        39.249                                    24930639.446 5 102086796.20105      2304.448 5        32.024    24930639.089 6 102086805.20306      2304.530 6        36.783
C02        57.000                                                                                                                                    40788598.106 5 212396996.30005      -543.043 5        34.186    40788590.793 6 164238827.51606      -420.034 6        39.613    40788595.058 6 172589963.43206      -441.336 6        36.223
I03        58.000   102176769.054 6 325178362.97706       877.039 6        40.191
R07        59.000    19636851.019 8 105117667.01608     -1321.101 8        50.770                                                                    19636849.841 7  81758239.21707     -1027.524 7        47.451
> 2025 01 02 02 46 25.0000000  0 55
G09         1.000    20849699.563 8 109565944.90808      1394.590 8        49.206                                    20849696.654 8  85376066.84308      1086.694 8        50.856    20849697.020 7  85376066.84207      1086.761 7        44.274
G06         2.000    22109974.849 7 116188720.79507      1704.338 7        45.807                                    22109973.134 7  90536670.25907      1328.055 7        45.562    22109973.615 7  90536678.25707      1328.105 7        42.669
E11         3.000    26646150.085 6 140026479.16106      2120.713 6        37.667                                                                    26646146.119 6 104565217.83006      1583.600 6        40.844    26646145.796 6 107293002.40106      1624.939 6        41.609
R15         4.000    24312230.494 7 129917189.35807     -3217.853 7        42.237                                                                    24312230.435 6 101046688.59706     -2502.765 6        40.319
S21         5.000    38593879.496 7 202811936.27307      -475.872 7        42.282
E10         6.000    24801840.837 7 130334564.25607      1055.438 7        46.531                                                                    24801839.566 8  97327755.89908       788.150 8        49.197    24801839.516 8  99866740.28508       808.721 8        50.423
G28         7.000    25240664.360 6 132640595.96906     -3633.195 6        37.698                                    25240660.577 3 103356290.11703     -2831.053 3        19.254    25240660.418 6 103356298.09406     -2830.879 6        37.577
G03         8.000    20935778.847 8 110018359.98408     -2325.781 8        48.454                                    20935776.503 8  85728634.07708     -1812.297 8        49.411    20935777.033 7  85728632.07207     -1812.323 7        44.032
G02         9.000    24540499.944 6 128961244.14306     -3976.259 6        40.708                                    24540494.093 4 100489274.42204     -3098.380 4        25.774
G31        10.000    23019474.149 7 120968162.27207     -2613.728 7        43.712                                    23019468.497 6  94260890.05606     -2036.672 6        38.832    23019469.810 6  94260895.06006     -2036.675 6        39.279
C30        11.000                                                                                                                                    25166492.525 7 131048537.08707     -3765.330 7        43.247                                                                    25166492.768 7 106487672.79807     -3059.640 7        43.215
S27        12.000    39222603.915 6 206116207.15306      -472.092 6        36.181
G26        13.000    24950548.410 6 131116017.18806      1408.656 6        38.144                                    24950547.484 4 102168330.75604      1097.644 4        29.810    24950547.635 5 102168330.73905      1097.746 5        35.871
S36        14.000    38361289.922 7 201590449.83607      -475.797 7        44.694
I09        15.000    37565209.343 7 147413953.66207      -610.862 7        42.303
G19        16.000    22977749.943 7 120748913.28007     -2355.116 7        43.113                                    22977743.361 4  94090046.63904     -1835.149 4        29.735
S45        17.000    63553711.318 6 333977913.26306      -515.817 6        37.909
E12        19.000    24095233.327 7 126621317.40907      -283.957 7        45.217                                                                    24095229.313 7  94554869.36907      -212.080 7        47.937    24095229.374 8  97021517.49408      -217.572 8        48.978
G17        20.000    24162101.662 7 126972721.02807     -3202.746 7        42.229                                    24162097.106 5  98939771.62505     -2495.650 5        34.267    24162098.310 6  98939770.62106     -2495.636 6        36.586
G11        21.000    25322211.135 6 133069122.47006      3068.010 6        37.716                                    25322207.628 3 103690204.76303      2390.652 3        21.286    25322207.592 6 103690217.79606      2390.550 6        37.724
I06        22.000    38206581.469 7 149931074.12907      -285.976 7        43.424
S28        23.000    41026808.359 5 215597332.70405      -471.180 5        34.671
R08        24.000    20916680.357 8 112007912.08508      1738.184 8        50.108                                                                    20916677.790 7  87117269.15607      1351.937 7        46.307
S23        25.000    38306329.290 7 201301123.25507      -471.978 7        44.743
C25        26.000                                                                                                                                    25922671.644 6 134986151.60606     -1900.450 6        40.846                                                                    25922669.752 6 109687300.88806     -1544.214 6        40.024
R16        27.000    22365975.307 7 119475038.18407       -52.732 7        47.314                                                                    22365974.225 7  92925031.88107       -40.985 7        43.462
E19        30.000    23067386.859 7 121219970.42507        25.218 7        43.350                                                                    23067384.213 7  90521409.26107        18.805 7        45.630    23067384.265 7  92882834.03807        19.280 7        47.149
C23        31.000                                                                                                                                    24908585.298 7 129705552.37307       710.584 7        45.282                                                                    24908577.233 7 105396353.29207       577.467 7        45.342
R23        32.000    20223782.140 8 108183613.77008       330.306 8        49.509
E29        33.000    24594764.554 7 129246443.89407     -2254.921 7        45.783                                                                    24594762.186 8  96515216.89908     -1683.832 8        48.781    24594762.208 8  99032999.61708     -1727.741 8        50.213
E04        34.000    26873257.380 6 141219945.91706      2173.449 6        41.223                                                                    26873255.382 7 105456462.14207      1622.934 7        43.318    26873254.660 7 108207496.03707      1665.290 7        44.424
C16        35.000                                                                                                                                    39072508.028 7 203460832.70907     -1007.598 7        42.618    39072507.114 7 157328834.42107      -779.136 7        43.050    39072504.846 6 165328593.11206      -818.760 6        39.532
C32        36.000                                                                                                                                    22892556.285 8 119207605.51508     -2119.647 8        49.906                                                                    22892555.930 8  96865965.69008     -1722.446 8        50.253
I01        37.000   379687431.795 7 186834229.09007     -2719.964 7        42.933
E27        38.000    29096065.002 5 152900844.33405      1866.619 5        32.323                                                                    29096065.249 6 114179209.84806      1393.529 6        37.501    29096065.088 6 117157794.65006      1429.907 6        38.246
C41        39.000                                                                                                                                    27292664.168 6 142120078.33806     -3275.232 6        37.565                                                                    27292669.303 6 115484231.42106     -2661.447 6        39.997
C39        40.000                                                                                                                                    39615521.303 7 206288445.34407     -1373.291 7        42.030                                                                    39615517.542 6 167626255.07206     -1115.866 6        41.595
E33        41.000    25212321.220 7 132491727.74907     -3056.873 7        45.321                                                                    25212318.973 8  98938660.57708     -2282.787 8        48.013    25212318.595 8 101519665.06908     -2342.348 8        48.803
S44        42.000    40840934.618 6 214620745.61806      -554.277 6        38.069
R06        43.000    22207080.379 6 118501299.01906     -3641.309 6        37.531
C05        44.000                                                                                                                                    39292851.722 6 204608233.47706      -499.899 6        39.018    39292845.423 7 158216091.85207      -386.558 7        43.482    39292847.551 6 166261055.22806      -406.274 6        39.775
C29        45.000                                                                                                                                    23290471.355 8 121279622.54208     -1604.545 8        48.066                                                                    23290468.989 7  98549626.37507     -1303.912 7        47.047
G04        46.000    20204692.715 8 106176413.71308      -444.913 8        49.798                                    20204689.180 7  82734854.58507      -346.687 7        43.079    20204689.224 8  82734856.58108      -346.629 8        49.163
E30        47.000    28930294.919 6 152029743.33306       293.904 6        36.280                                                                    28930295.081 6 113528695.98306       219.578 6        39.306    28930294.561 6 116490312.73006       225.213 6        40.689
R22        48.000    20577263.423 8 109842857.36208     -3446.921 8        50.808                                                                    20577260.958 7  85433331.26107     -2680.931 7        47.371
C20        49.000                                                                                                                                    22503824.848 8 117183348.21308       724.892 8        51.498                                                                    22503818.856 8  95221053.55008       589.029 8        49.372
C06        50.000                                                                                                                                    38548234.796 6 200730802.45906      -928.823 6        41.287    38548228.084 7 155217772.98907      -718.292 7        44.856    38548227.808 6 163110200.49406      -754.915 6        41.251
S48        51.000    77341076.194 6 406428972.36106      -467.499 6        38.003
C09        53.000                                                                                                                                    38617346.100 7 201090674.24807      -426.654 7        42.844    38617341.831 7 155496055.92207      -329.963 7        46.806    38617339.997 7 163402624.56607      -346.763 7        42.445
C60        54.000                                                                                                                                    40840932.590 6 212669667.48306      -549.313 6        40.193                                                                    40840916.396 6 172811497.26206      -446.227 6        39.976
R09        55.000    22896511.766 7 122266114.01207      2942.480 7        43.913                                                                    22896510.956 7  95095859.18807      2288.620 7        42.900
G07        56.000    24927828.465 6 130996627.17506      2957.227 6        38.985                                    24927825.427 5 102075273.64905      2304.323 5        31.698    24927825.426 6 102075282.63206      2304.473 6        36.155
C02        57.000                                                                                                                                    40789119.882 5 212399712.12405      -543.295 5        34.176    40789112.121 6 164240927.57106      -420.168 6        39.399    40789116.888 6 172592170.25806      -441.690 6        36.280
I03        58.000   102175651.396 6 325173977.68306       876.845 6        40.226
R07        59.000    19638086.016 8 105124277.71008     -1323.401 8        50.861                                                                    19638084.877 7  81763380.86307     -1029.272 7        47.717
> 2025 01 02 02 46 30.0000000  0 55
G09         1.000    20848373.560 8 109558976.27108      1392.692 8        49.292                                    20848370.572 8  85370636.73708      1085.213 8        50.872    20848370.881 7  85370636.74007      1085.241 7        44.283
G06         2.000    22108354.456 7 116180204.28007      1702.118 7        45.926                                    22108352.493 7  90530034.01407      1326.326 7        45.559    22108353.397 7  90530042.01707      1326.377 7        43.043
E11         3.000    26644133.087 6 140015877.82506      2119.916 6        38.195                                                                    26644128.769 6 104557301.23806      1582.910 6        40.925    26644128.505 6 107284879.28306      1624.348 6        41.459
R15         4.000    24315241.976 7 129933285.27207     -3220.659 7        42.523                                                                    24315242.052 6 101059207.62706     -2504.829 6        39.568
S21         5.000    38594333.147 7 202814314.81007      -475.609 7        42.250
E10         6.000    24800837.225 7 130329290.28807      1053.918 7        46.340                                                                    24800835.971 8  97323817.54408       786.984 8        49.257    24800835.895 8  99862699.18808       807.577 8        50.354
G28         7.000    25244121.704 6 132658764.79006     -3634.538 6        37.308                                    25244117.982 3 103370447.61903     -2832.128 3        19.463    25244117.718 6 103370455.62206     -2831.967 6        37.792
G03         8.000    20937992.363 8 110029992.51308     -2327.311 8        48.328                                    20937990.099 8  85737698.38508     -1813.489 8        49.401    20937990.947 7  85737696.38007     -1813.417 7        44.257
G02         9.000    24544283.152 6 128981125.12506     -3976.414 6        40.934                                    24544277.403 4 100504766.09304     -3098.508 4        25.940
G31        10.000    23021961.874 7 120981237.38707     -2616.493 7        43.676                                    23021956.687 6  94271078.45306     -2038.824 6        38.889    23021957.637 6  94271083.45206     -2038.718 6        39.646
C30        11.000                                                                                                                                    25170107.322 7 131067363.96507     -3765.482 7        42.652                                                                    25170108.323 7 106502971.16007     -3059.782 7        43.327
S27        12.000    39223055.795 5 206118567.23305      -471.673 5        35.795
G26        13.000    24949209.252 6 131108978.41706      1406.780 6        38.601                                    24949208.179 5 102162845.99905      1096.196 5        30.121    24949209.203 6 102162846.03606      1096.010 6        36.125
S36        14.000    38361743.470 7 201592828.17707      -475.416 7        44.790
I09        15.000    37565987.721 7 147417007.77607      -610.786 7        42.360
G19        16.000    22979991.864 7 120760695.28307     -2357.733 7        42.787                                    22979985.410 4  94099227.42304     -1837.195 4        29.526
S45        17.000    63554158.172 6 333980491.44506      -515.355 6        37.633
E12        19.000    24095504.577 7 126622741.77707      -285.895 7        44.849                                                                    24095500.291 8  94555933.01408      -213.510 8        48.036    24095500.419 8  97022608.89208      -219.100 8        48.933
G17        20.000    24165149.687 6 126988736.50406     -3203.481 6        40.684                                    24165144.830 5  98952251.21905     -2496.219 5        34.148    24165144.854 6  98952250.21806     -2496.276 6        36.280
G11        21.000    25319292.443 6 133053783.89606      3067.375 6        38.261                                    25319288.955 3 103678252.64403      2390.164 3        21.262    25319288.998 6 103678265.65006      2390.109 6        37.902
I06        22.000    38206945.682 7 149932503.46807      -285.926 7        43.443
S28        23.000    41027251.452 5 215599687.90005      -470.605 5        34.800
R08        24.000    20915057.961 8 111999224.65208      1736.672 8        50.420                                                                    20915055.174 7  87110512.25907      1350.766 7        45.958
S23        25.000    38306776.783 7 201303482.24407      -471.656 7        44.764
C25        26.000                                                                                                                                    25924497.426 6 134995659.02106     -1902.765 6        40.746                                                                    25924495.333 6 109695026.43006     -1545.943 6        39.928
R16        27.000    22366025.905 7 119475311.54707       -56.670 7        47.103                                                                    22366025.944 7  92925244.51007       -44.163 7        43.865
E19        30.000    23067363.553 7 121219847.72307        23.770 7        43.340                                                                    23067360.818 7  90521317.62807        17.746 7        45.710    23067360.964 7  92882740.01207        18.268 7        47.103
C23        31.000                                                                                                                                    24907904.087 7 129702004.22807       708.460 7        44.971                                                                    24907895.920 7 105393470.11807       575.741 7        45.359
R23        32.000    20223475.681 8 108181972.67808       326.032 8        49.542
E29        33.000    24596910.390 7 129257720.12907     -2255.709 7        45.895                                                                    24596907.980 8  96523637.46908     -1684.473 8        48.913    24596907.940 8  99041639.85408     -1728.411 8        50.201
E04        34.000    26871189.317 6 141209079.81206      2172.921 6        41.425                                                                    26871187.624 7 105448347.84607      1622.651 7        43.484    26871187.001 7 108199170.06307      1665.003 7        44.411
C16        35.000                                                                                                                                    39073475.386 7 203465871.00207     -1007.853 7        42.605    39073474.380 7 157332730.35007      -779.337 7        42.855    39073472.397 6 165332687.15206      -819.007 6        39.823
C32        36.000                                                                                                                                    22894591.940 8 119218205.69408     -2120.506 8        49.944                                                                    22894591.576 8  96874579.19608     -1722.967 8        50.275
I01        37.000   379690897.430 7 186847828.56307     -2719.933 7        42.999
E27        38.000    29094289.774 5 152891515.52705      1865.484 5        32.377                                                                    29094290.087 6 114172243.48706      1393.011 6        37.108    29094289.666 6 117150646.57006      1429.255 6        37.705
C41        39.000                                                                                                                                    27295808.490 6 142136453.26406     -3274.978 6        37.754                                                                    27295813.773 6 115497537.35406     -2661.032 6        39.778
C39        40.000                                                                                                                                    39616840.175 6 206295311.71606     -1373.407 6        41.797                                                                    39616836.115 6 167631834.54806     -1115.970 6        41.571
E33        41.000    25215230.190 7 132507014.62107     -3058.046 7        45.333                                                                    25215227.952 8  98950076.08608     -2283.526 8        48.014    25215227.569 8 101531378.37508     -2343.121 8        48.720
S44        42.000    40841463.651 6 214623515.96206      -554.020 6        37.747
R06        43.000    22210492.895 6 118519505.33806     -3641.343 6        37.569
C05        44.000                                                                                                                                    39293331.281 6 204610732.36606      -499.775 6        38.901    39293325.461 7 158218024.13707      -386.274 7        43.344    39293327.397 6 166263085.76306      -405.975 6        39.901
C29        45.000                                                                                                                                    23292013.520 7 121287651.00607     -1606.966 7        47.959                                                                    23292010.808 7  98556150.15207     -1305.669 7        47.010
G04        46.000    20205117.114 8 106178643.41908      -447.176 8        49.755                                    20205113.487 7  82736592.01807      -348.449 7        43.082    20205113.614 8  82736594.01908      -348.408 8        49.213
E30        47.000    28930015.926 6 152028278.01106       292.000 6        36.004                                                                    28930016.181 6 113527601.74606       218.158 6        39.405    28930015.652 6 116489189.95006       223.747 6        40.372
R22        48.000    20580493.535 8 109860099.13408     -3449.959 8        51.184                                                                    20580490.780 7  85446741.51307     -2683.246 7        47.191
C20        49.000                                                                                                                                    22503129.331 8 117179726.13808       723.809 8        51.555                                                                    22503123.258 8  95218110.31008       588.285 8        49.386
C06        50.000                                                                                                                                    38549126.835 6 200735447.75006      -929.250 6        41.101    38549120.135 7 155221365.02607      -718.588 7        44.867    38549119.935 6 163113975.16606      -754.995 6        41.325
S48        51.000    77341524.116 6 406431307.01306      -466.772 6        38.045
C09        53.000                                                                                                                                    38617755.974 7 201092808.85807      -427.223 7        42.874    38617751.617 7 155497706.53307      -330.378 7        46.607    38617749.910 7 163404359.10207      -346.953 7        42.375
C60        54.000                                                                                                                                    40841459.598 6 212672412.63606      -548.962 6        40.079                                                                    40841443.658 6 172813727.92406      -445.946 6        39.919
R09        55.000    22893757.533 7 122251405.54007      2940.872 7        44.008                                                                    22893756.838 7  95084419.29007      2287.317 7        43.323
G07        56.000    24925014.659 6 130981840.20906      2957.345 6        38.811                                    24925011.435 5 102063751.34205      2304.423 5        31.283    24925010.241 5 102063760.34105      2304.615 5        35.938
C02        57.000                                                                                                                                    40789641.014 5 212402427.97805      -543.180 5        34.148    40789633.781 6 164243027.64006      -419.936 6        39.321    40789638.091 6 172594377.10306      -441.242 6        36.382
I03        58.000   102174534.252 6 325169592.50406       877.068 6        40.412
R07        59.000    19639323.031 8 105130898.92808     -1325.203 8        51.201                                                                    19639321.332 7  81768530.69807     -1030.749 7        47.739
> 2025 01 02 02 46 35.0000000  0 55
G09         1.000    20847049.376 8 109552018.51508      1390.364 8        49.347                                    20847046.551 8  85365215.10908      1083.399 8        50.939    20847046.874 7  85365215.10607      1083.478 7        44.141
G06         2.000    22106736.016 7 116171699.94107      1699.571 7        45.777                                    22106734.159 7  90523407.25707      1324.340 7        45.667    22106735.078 7  90523415.25707      1324.356 7        43.268
E11         3.000    26642117.082 6 140005281.20806      2118.865 6        37.796                                                                    26642112.278 6 104549388.20106      1582.156 6        41.147    26642111.845 6 107276759.83006      1623.332 6        41.530
R15         4.000    24318257.335 7 129949395.96207     -3223.822 7        42.191                                                                    24318256.846 6 101071738.18506     -2507.428 6        39.240
S21         5.000    38594788.349 7 202816693.06907      -475.738 7        42.243
E10         6.000    24799835.514 7 130324025.35907      1051.941 7        46.328                                                                    24799834.089 8  97319885.94208       785.621 8        49.382    24799833.994 8  99858665.02808       806.070 8        50.409
G28         7.000    25247580.493 6 132676941.14506     -3635.934 6        37.013                                    25247576.818 3 103384611.02303     -2833.199 3        19.254    25247576.238 6 103384619.02906     -2833.395 6        37.168
G03         8.000    20940208.036 8 110041633.80008     -2329.245 8        48.455                                    20940205.381 8  85746769.51708     -1814.995 8        49.485    20940206.029 7  85746767.52207     -1814.972 7        44.178
G02         9.000    24548066.848 6 129001008.70406     -3977.077 6        40.937                                    24548061.057 4 100520259.78404     -3099.029 4        26.192
G31        10.000    23024452.728 7 120994327.08107     -2619.507 7        43.069                                    23024447.586 6  94281278.21606     -2041.175 6        38.946    23024448.132 6  94281283.20406     -2041.178 6        39.706
C30        11.000                                                                                                                                    25173722.923 7 131086193.50007     -3766.362 7        43.577                                                                    25173724.045 7 106518271.71207     -3060.418 7        43.100
S27        12.000    39223498.785 5 206120926.67005      -472.100 5        35.910
G26        13.000    24947871.825 6 131101949.88806      1404.534 6        37.939                                    24947870.820 5 102157369.23605      1094.445 5        30.023    24947871.317 5 102157369.25505      1094.402 5        35.576
S36        14.000    38362192.331 7 201595206.11807      -475.670 7        44.426
I09        15.000    37566766.187 7 147420062.39907      -611.076 7        42.438
G19        16.000    22982236.747 7 120772490.72207     -2360.449 7        42.667                                    22982229.990 4  94108418.67404     -1839.310 4        29.763
S45        17.000    63554608.218 6 333983069.72106      -515.960 6        37.584
E12        19.000    24095777.835 7 126624177.22407      -288.314 7        44.939                                                                    24095773.457 8  94557004.94108      -215.259 8        48.149    24095773.610 8  97023708.78008      -220.880 8        48.891
G17        20.000    24168197.692 6 127004756.74906     -3204.573 6        40.889                                    24168193.332 5  98964734.51905     -2497.064 5        34.076    24168193.283 5  98964733.53405     -2497.095 5        35.900
G11        21.000    25316374.099 6 133038448.78106      3066.539 6        38.988                                    25316370.756 3 103666303.21303      2389.512 3        21.643    25316370.408 6 103666316.19806      2389.550 6        37.611
I06        22.000    38207309.796 7 149933932.84407      -285.951 7        43.528
S28        23.000    41027701.753 5 215602042.74905      -471.161 5        34.552
R08        24.000    20913437.991 8 111990546.23408      1734.697 8        50.927                                                                    20913434.909 7  87103762.35807      1349.304 7        45.603
S23        25.000    38307227.026 7 201305840.85807      -471.723 7        44.578
C25        26.000                                                                                                                                    25926326.097 6 135005178.48606     -1905.070 6        40.346                                                                    25926323.560 6 109702761.79806     -1548.103 6        39.826
R16        27.000    22366081.547 7 119475606.63007       -61.292 7        46.985                                                                    22366080.961 7  92925474.00507       -47.604 7        43.602
E19        30.000    23067341.908 7 121219733.43007        21.980 7        43.247                                                                    23067339.088 7  90521232.28107        16.409 7        45.828    23067339.207 7  92882652.44007        16.817 7        47.112
C23        31.000                                                                                                                                    24907225.246 7 129698468.22607       705.878 7        45.106                                                                    24907216.894 7 105390596.85007       573.602 7        45.473
R23        32.000    20223173.193 8 108180354.55708       321.268 8        49.606
E29        33.000    24599057.144 7 129269001.76807     -2256.918 7        45.782                                                                    24599054.771 8  96532062.07308     -1685.366 8        48.969    24599054.812 8  99050284.23208     -1729.374 8        50.170
E04        34.000    26869122.061 6 141198217.33506      2172.010 6        41.468                                                                    26869120.328 7 105440236.26407      1621.929 7        43.676    26869119.870 7 108190846.87807      1664.222 7        44.430
C16        35.000                                                                                                                                    39074443.624 7 203470912.34707     -1008.684 7        42.459    39074442.344 7 157336628.64707      -779.925 7        42.610    39074440.479 6 165336783.67306      -819.552 6        39.655
C32        36.000                                                                                                                                    22896628.628 8 119228811.16008     -2121.685 8        49.843                                                                    22896628.293 8  96883197.02608     -1724.068 8        50.181
I01        37.000   379694363.051 7 186861428.46207     -2720.119 7        42.986
E27        38.000    29092515.279 5 152882190.76405      1864.570 5        32.096                                                                    29092515.716 6 114165280.19906      1392.171 6        36.979    29092515.193 6 117143501.62106      1428.638 6        37.777
C41        39.000                                                                                                                                    27298953.336 6 142152827.62706     -3275.041 6        38.060                                                                    27298958.231 6 115510842.89606     -2661.190 6        39.793
C39        40.000                                                                                                                                    39618159.156 6 206302180.46606     -1374.049 6        41.578                                                                    39618155.242 6 167637415.98906     -1116.482 6        41.690
E33        41.000    25218140.472 7 132522308.31707     -3059.545 7        45.446                                                                    25218138.227 8  98961496.71008     -2284.687 8        48.159    25218137.875 8 101543096.93008     -2344.349 8        48.748
S44        42.000    40841989.514 6 214626286.16506      -554.280 6        37.750
R06        43.000    22213906.023 6 118537714.47206     -3642.217 6        37.274
C05        44.000                                                                                                                                    39293811.466 6 204613231.20806      -499.784 6        38.946    39293805.266 7 158219956.41507      -386.489 7        43.327    39293807.332 6 166265116.30506      -406.227 6        39.769
C29        45.000                                                                                                                                    23293558.010 7 121295692.67407     -1609.753 7        47.835                                                                    23293555.106 7  98562684.68407     -1308.008 7        46.968
G04        46.000    20205543.575 8 106180885.74808      -449.841 8        49.738                                    20205540.165 7  82738339.29007      -350.525 7        43.137    20205540.239 8  82738341.29208      -350.523 8        49.136
E30        47.000    28929739.392 6 152026823.55006       289.789 6        36.560                                                                    28929739.139 6 113526515.62906       216.420 6        39.583    28929738.908 6 116488075.50606       221.874 6        40.443
R22        48.000    20583726.583 8 109877357.71008     -3453.491 8        51.147                                                                    20583724.100 7  85460164.84807     -2686.011 7        46.733
C20        49.000                                                                                                                                    22502435.009 8 117176110.75608       722.321 8        51.528                                                                    22502428.981 8  95215172.54108       586.948 8        49.263
C06        50.000                                                                                                                                    38550019.322 6 200740096.35206      -930.152 6        41.154    38550012.917 7 155224959.60507      -719.287 7        44.820    38550012.664 6 163117752.55806      -755.736 6        41.323
S48        51.000    77341967.362 6 406433641.35806      -467.094 6        37.894
C09        53.000                                                                                                                                    38618166.430 7 201094947.05207      -428.023 7        42.766    38618162.271 7 155499359.92207      -330.965 7        46.455    38618160.515 7 163406096.59107      -347.924 7        42.140
C60        54.000                                                                                                                                    40841986.842 6 212675157.64306      -549.205 6        40.184                                                                    40841970.648 6 172815958.48006      -446.029 6        39.706
R09        55.000    22891004.661 7 122236706.50007      2938.783 7        43.824                                                                    22891004.421 7  95072986.70007      2285.709 7        43.325
G07        56.000    24922201.038 6 130967053.44406      2957.289 6        39.246                                    24922197.367 5 102052229.20105      2304.376 5        30.951    24922197.064 5 102052238.21105      2304.279 5        35.424
C02        57.000                                                                                                                                    40790162.347 5 212405143.73705      -542.851 5        34.029    40790155.342 6 164245127.63706      -420.026 6        39.492    40790159.759 6 172596583.90506      -441.505 6        36.401
I03        58.000   102173416.664 6 325165207.34806       876.921 6        40.338
R07        59.000    19640561.687 8 105137530.92408     -1327.556 8        50.799                                                                    19640560.304 7  81773688.91807     -1032.547 7        47.643
> 2025 01 02 02 46 40.0000000  0 55
G09         1.000    20845727.904 8 109545072.38008      1388.290 8        49.201                                    20845724.731 8  85359802.53808      1081.784 8        50.932    20845725.342 7  85359802.54407      1081.764 7        44.345
G06         2.000    22105119.993 7 116163208.55007      1697.213 7        45.851                                    22105118.307 7  90516790.58807      1322.502 7        45.640    22105119.075 7  90516798.58907      1322.472 7        43.661
E11         3.000    26640100.721 6 139994690.12506      2117.946 6        37.837                                                                    26640096.782 6 104541479.29006      1581.398 6        40.968    26640096.460 6 107268644.58606      1622.712 6        41.633
R15         4.000    24321275.320 6 129965522.37006     -3226.722 6        41.974                                                                    24321274.505 6 101084280.95006     -2509.681 6        39.117
S21         5.000    38595241.208 7 202819071.87707      -475.673 7        42.127
E10         6.000    24798835.488 7 130318770.21307      1050.283 7        46.475                                                                    24798834.079 8  97315961.65508       784.289 8        49.302    24798833.982 8  99854638.36808       804.740 8        50.435
G28         7.000    25251040.940 6 132695125.81906     -3637.558 6        37.342                                    25251037.286 3 103398780.88403     -2834.461 3        19.075    25251037.306 6 103398788.88306     -2834.509 6        37.399
G03         8.000    20942424.973 8 110053284.56708     -2330.927 8        48.508                                    20942422.461 8  85755848.03708     -1816.309 8        49.462    20942423.314 7  85755846.04507     -1816.376 7        44.561
G02         9.000    24551851.268 6 129020895.61106     -3977.498 6        41.342                                    24551845.383 4 100535756.07204     -3099.349 4        26.251
G31        10.000    23026946.708 7 121007432.15607     -2622.297 7        43.073                                    23026941.307 6  94291489.96406     -2043.349 6        38.820    23026941.925 6  94291494.97506     -2043.454 6        38.796
C30        11.000                                                                                                                                    25177340.216 7 131105026.40407     -3766.717 7        43.721                                                                    25177340.493 7 106533575.01507     -3060.762 7        42.974
S27        12.000    39223952.467 5 206123286.17505      -471.882 5        35.724
G26        13.000    24946535.537 6 131094932.36906      1402.583 6        36.533                                    24946535.419 4 102151901.04104      1092.926 4        29.573    24946535.179 5 102151901.04305      1092.874 5        35.257
S36        14.000    38362647.001 7 201597584.52507      -475.427 7        44.707
I09        15.000    37567544.812 7 147423118.04607      -611.015 7        42.360
G19        16.000    22984483.681 7 120784300.40107     -2363.088 7        43.100                                    22984477.289 4  94117621.01804     -1841.366 4        29.678
S45        17.000    63555054.656 6 333985648.59506      -515.694 6        37.433
E12        19.000    24096053.006 7 126625624.51007      -290.478 7        45.082                                                                    24096048.935 8  94558085.71208      -216.916 8        48.097    24096049.023 8  97024817.74308      -222.520 8        48.991
G17        20.000    24171247.627 6 127020782.60906     -3205.492 6        41.378                                    24171242.925 5  98977222.19305     -2497.788 5        34.024    24171243.236 5  98977221.20405     -2497.897 5        35.748
G11        21.000    25313457.011 6 133023117.87506      3065.939 6        38.177                                    25313453.273 3 103654357.05803      2389.036 3        21.190    25313453.362 6 103654370.03706      2389.174 6        37.599
I06        22.000    38207674.192 7 149935362.80507      -285.932 7        43.541
S28        23.000    41028149.425 5 215604398.48605      -471.006 5        34.657
R08        24.000    20911819.864 8 111981877.43908      1733.010 8        50.982                                                                    20911815.458 7  87097019.95907      1347.984 7        45.211
S23        25.000    38307674.738 7 201308200.15207      -471.671 7        44.664
C25        26.000                                                                                                                                    25928157.051 6 135014710.75506     -1907.556 6        40.532                                                                    25928154.109 6 109710507.54706     -1549.944 6        40.083
R16        27.000    22366140.872 7 119475924.21707       -65.556 7        46.147                                                                    22366140.409 7  92925721.02007       -50.910 7        44.041
E19        30.000    23067322.016 7 121219628.35007        20.253 7        43.564                                                                    23067319.055 7  90521153.82007        15.067 7        45.740    23067319.198 7  92882571.93307        15.502 7        47.185
C23        31.000                                                                                                                                    24906548.617 7 129694945.11107       703.525 7        45.245                                                                    24906540.305 7 105387734.04307       571.754 7        45.592
R23        32.000    20222874.483 8 108178760.13208       316.755 8        49.231
E29        33.000    24601205.162 7 129280289.56007     -2257.957 7        45.774                                                                    24601202.806 8  96540491.26908     -1686.144 8        48.943    24601202.865 8  99058933.31508     -1730.101 8        50.167
E04        34.000    26867056.013 6 141187359.21306      2171.447 6        41.774                                                                    26867054.024 7 105432127.93707      1621.485 7        43.515    26867053.626 7 108182527.03407      1663.729 7        44.655
C16        35.000                                                                                                                                    39075412.321 7 203475957.47807     -1009.200 7        42.440    39075411.475 7 157340529.85607      -780.360 7        42.639    39075409.406 6 165340883.26006      -820.056 6        39.598
C32        36.000                                                                                                                                    22898666.447 8 119239422.64808     -2122.677 8        49.518                                                                    22898666.148 8  96891819.73708     -1724.784 8        50.262
I01        37.000   379697828.502 7 186875029.32107     -2720.184 7        42.847
E27        38.000    29090741.362 5 152872870.91605      1863.521 5        32.521                                                                    29090742.367 6 114158320.56006      1391.642 6        37.425    29090741.668 6 117136360.42206      1428.106 6        38.063
C41        39.000                                                                                                                                    27302097.897 6 142169202.19706     -3274.712 6        38.231                                                                    27302102.885 6 115524148.58506     -2661.010 6        39.432
C39        40.000                                                                                                                                    39619479.143 6 206309052.30406     -1374.477 6        41.452                                                                    39619474.886 6 167642999.93506     -1116.830 6        41.583
E33        41.000    25221052.044 7 132537609.57207     -3060.788 7        45.532                                                                    25221049.942 8  98972922.97108     -2285.665 8        48.063    25221049.623 8 101554821.26608     -2345.289 8        48.864
S44        42.000    40842517.559 6 214629056.94106      -554.076 6        37.796
R06        43.000    22217317.939 6 118555927.30606     -3642.702 6        36.794
C05        44.000                                                                                                                                    39294291.732 6 204615730.71806      -499.752 6        39.063    39294285.442 7 158221889.20607      -386.492 7        43.289    39294287.360 6 166267147.38406      -406.168 6        39.790
C29        45.000                                                                                                                                    23295104.705 7 121303748.26207     -1612.340 7        47.695                                                                    23295102.101 7  98569230.51507     -1310.113 7        46.930
G04        46.000    20205973.018 8 106183141.43708      -452.285 8        49.870                                    20205969.396 7  82740096.97107      -352.429 7        43.149    20205969.409 8  82740098.96608      -352.407 8        49.230
E30        47.000    28929464.819 6 152025380.71806       287.643 6        36.488                                                                    28929464.620 6 113525438.20406       214.703 6        39.586    28929464.270 6 116486969.95906       220.321 6        40.379
R22        48.000    20586962.892 8 109894633.81608     -3456.731 8        51.427                                                                    20586960.821 7  85473601.82607     -2688.598 7        47.097
C20        49.000                                                                                                                                    22501742.023 8 117172502.80608       721.066 8        51.430                                                                    22501736.126 8  95212240.79508       585.989 8        49.311
C06        50.000                                                                                                                                    38550912.636 6 200744748.98206      -930.827 6        40.901    38550906.409 7 155228557.31707      -719.749 7        44.796    38550906.175 6 163121533.18906      -756.193 6        41.268
S48        51.000    77342413.294 6 406435976.56006      -466.845 6        37.879
C09        53.000                                                                                                                                    38618577.945 7 201097089.56207      -428.786 7        42.576    38618573.764 7 155501016.64607      -331.449 7        46.372    38618571.978 7 163407837.56007      -348.331 7        42.351
C60        54.000                                                                                                                                    40842514.159 6 212677903.24606      -549.081 6        39.973                                                                    40842498.053 6 172818189.50606      -446.073 6        39.892
R09        55.000    22888253.521 7 122222017.57007      2936.982 7        43.010                                                                    22888253.581 7  95061561.98407      2284.371 7        43.602
G07        56.000    24919387.713 6 130952267.72306      2957.361 6        39.453                                    24919383.571 5 102040707.86805      2304.434 5        30.777    24919382.851 5 102040716.84405      2304.354 5        35.648
C02        57.000                                                                                                                                    40790684.243 5 212407860.20405      -543.124 5        34.019    40790677.176 6 164247228.15806      -419.801 6        39.477    40790681.450 6 172598791.24106      -441.192 6        36.439
I03        58.000   102172299.120 6 325160822.77806       876.996 6        40.436
R07        59.000    19641802.775 8 105144174.47608     -1329.597 8        50.928                                                                    19641801.647 8  81778856.12508     -1034.107 8        48.064
> 2025 01 02 02 46 45.0000000  0 55
G09         1.000    20844407.779 8 109538137.31308      1385.959 8        49.101                                    20844405.025 8  85354398.59008      1079.968 8        50.997    20844405.486 7  85354398.58607      1079.985 7        44.382
G06         2.000    22103506.486 7 116154729.54507      1694.571 7        45.720                                    22103504.789 7  90510183.57607      1320.447 7        45.666    22103505.408 7  90510191.57507      1320.455 7        43.482
E11         3.000    26638086.512 6 139984104.01406      2116.585 6        38.006                                                                    26638082.414 6 104533574.06306      1580.704 6        41.113    26638082.035 6 107260533.13806      1621.836 6        41.597
R15         4.000    24324295.172 6 129981663.83806     -3229.838 6        41.092                                                                    24324295.133 6 101096835.45706     -2512.214 6        39.147
S21         5.000    38595693.191 7 202821451.05007      -475.783 7        42.305
E10         6.000    24797837.095 7 130313524.31207      1048.273 7        46.421                                                                    24797835.802 8  97312044.25908       782.819 8        49.338    24797835.734 8  99850618.77908       803.205 8        50.400
G28         7.000    25254503.216 6 132713318.19506     -3639.229 6        37.263                                    25254499.059 3 103412956.77903     -2835.769 3        19.373    25254499.106 6 103412964.76906     -2835.544 6        37.641
G03         8.000    20944643.565 8 110064944.27408     -2332.832 8        48.204                                    20944641.231 8  85764933.52308     -1817.793 8        49.496    20944641.995 7  85764931.51907     -1817.755 7        44.665
G02         9.000    24555636.272 6 129040785.27906     -3978.123 6        41.313                                    24555630.365 4 100551254.51404     -3099.841 4        26.587
G31        10.000    23029443.319 7 121020552.05507     -2625.484 7        43.134                                    23029437.778 6  94301713.25806     -2045.833 6        38.865    23029438.869 6  94301718.24406     -2045.727 6        39.312
C30        11.000                                                                                                                                    25180957.369 7 131123862.16007     -3767.443 7        43.420                                                                    25180957.712 7 106548880.60807     -3061.485 7        42.944
S27        12.000    39224399.128 6 206125646.84306      -472.851 6        36.095
G26        13.000    24945202.480 6 131087925.30606      1400.249 6        36.575                                    24945201.945 4 102146440.99304      1091.099 4        29.232    24945201.556 5 102146440.98905      1091.194 5        35.395
S36        14.000    38363101.345 7 201599963.21707      -475.834 7        44.524
I09        15.000    37568323.548 7 147426174.35007      -611.371 7        42.262
G19        16.000    22986733.397 7 120796123.70307     -2365.938 7        42.616                                    22986727.146 4  94126833.98704     -1843.591 4        29.772
S45        17.000    63555503.527 6 333986627.27716      -515.861 6        37.679
E12        19.000    24096330.488 7 126627083.05607      -292.840 7        44.933                                                                    24096326.424 8  94559174.89008      -218.670 8        48.138    24096326.590 8  97025935.33408      -224.355 8        48.946
G17        20.000    24174298.545 6 127036813.53906     -3206.679 6        41.592                                    24174293.448 5  98989713.82905     -2498.707 5        34.071    24174293.518 6  98989712.84106     -2498.722 6        36.408
G11        21.000    25310539.979 6 133007790.64706      3065.059 6        37.788                                    25310536.559 3 103642413.77303      2388.366 3        21.500    25310536.693 6 103642426.77706      2388.374 6        37.977
I06        22.000    38208038.725 7 149936792.89207      -286.043 7        43.412
S28        23.000    41028598.291 5 215606753.87205      -471.014 5        34.514
R08        24.000    20910201.963 8 111973217.77508      1731.039 8        49.913                                                                    20910198.607 7  87090284.68407      1346.331 7        45.263
S23        25.000    38308124.919 7 201310559.46907      -471.823 7        44.671
C25        26.000                                                                                                                                    25929990.061 6 135024255.21606     -1910.032 6        41.256                                                                    25929987.015 6 109718263.20806     -1552.224 6        40.019
R16        27.000    22366203.946 7 119476263.60607       -70.100 7        45.893                                                                    22366203.507 7  92925984.99807       -54.463 7        43.213
E19        30.000    23067303.373 7 121219531.83107        18.373 7        43.513                                                                    23067300.716 7  90521081.73207        13.840 7        45.774    23067300.805 7  92882497.96607        14.131 7        47.132
C23        31.000                                                                                                                                    24905873.911 7 129691434.34207       700.922 7        44.691                                                                    24905866.009 7 105384881.26307       569.431 7        45.561
R23        32.000    20222581.131 8 108177188.85608       311.973 8        49.206
E29        33.000    24603354.050 7 129291582.91507     -2259.180 7        45.658                                                                    24603351.867 8  96548924.61708     -1687.127 8        48.969    24603351.886 8  99067586.66108     -1731.075 8        50.146
E04        34.000    26864990.584 6 141176504.90106      2170.423 6        41.318                                                                    26864988.552 7 105424022.44507      1620.863 7        43.655    26864988.198 7 108174210.08907      1663.049 7        44.608
C16        35.000                                                                                                                                    39076382.020 7 203481005.81907     -1010.027 7        42.574    39076381.052 7 157344433.56107      -781.057 7        42.684    39076378.764 6 165344985.45606      -820.921 6        39.967
C32        36.000                                                                                                                                    22900705.155 8 119250039.60408     -2123.906 8        49.663                                                                    22900705.074 8  96900446.87908     -1725.976 8        50.315
I01        37.000   379701294.939 7 186888630.73007     -2720.229 7        42.658
E27        38.000    29088969.227 5 152863555.31905      1862.553 5        31.351                                                                    29088969.721 6 114151364.11906      1391.121 6        37.002    29088969.158 6 117129222.51906      1427.330 6        37.285
C41        39.000                                                                                                                                    27305242.389 6 142185576.42506     -3274.646 6        38.595                                                                    27305247.486 6 115537453.97406     -2661.191 6        39.501
C39        40.000                                                                                                                                    39620799.106 6 206315926.70306     -1375.089 6        41.456                                                                    39620795.060 6 167648585.95006     -1117.574 6        41.664
E33        41.000    25223965.147 7 132552917.81507     -3062.298 7        45.637                                                                    25223962.985 8  98984354.44908     -2286.757 8        48.063    25223962.830 8 101566550.95608     -2346.425 8        48.846
S44        42.000    40843045.058 6 214631827.74706      -554.311 6        37.898
R06        43.000    22220731.979 6 118574143.22206     -3643.301 6        37.229
C05        44.000                                                                                                                                    39294771.269 6 204618230.38306      -499.989 6        39.114    39294765.171 7 158223822.09607      -386.486 7        43.276    39294767.420 6 166269178.54806      -406.302 6        39.853
C29        45.000                                                                                                                                    23296654.052 7 121311817.20307     -1615.143 7        47.696                                                                    23296651.648 7  98575787.19207     -1312.591 7        47.070
G04        46.000    20206404.620 8 106185409.91508      -454.985 8        49.599                                    20206401.073 7  82741864.61607      -354.534 7        43.185    20206401.079 8  82741866.60908      -354.463 8        49.021
E30        47.000    28929192.644 6 152023948.94806       285.210 6        36.325                                                                    28929192.374 6 113524369.00206       213.146 6        39.976    28929191.892 6 116485872.88306       218.505 6        40.377
R22        48.000    20590202.431 8 109911926.87408     -3460.257 8        51.322                                                                    20590200.274 7  85487051.98007     -2691.340 7        46.520
C20        49.000                                                                                                                                    22501050.547 8 117168901.71908       719.582 8        51.592                                                                    22501044.565 8  95209314.61508       584.602 8        49.436
C06        50.000                                                                                                                                    38551806.768 6 200749405.11206      -931.452 6        40.956    38551800.768 7 155232157.73607      -720.315 7        44.828    38551800.291 6 163125316.69506      -757.119 6        41.256
S48        51.000    77342860.206 6 406438311.80406      -466.871 6        37.713
C09        53.000                                                                                                                                    38618989.962 7 201099235.86907      -429.613 7        42.736    38618986.107 7 155502676.30407      -332.207 7        46.441    38618984.212 7 163409581.61507      -349.285 7        42.478
C60        54.000                                                                                                                                    40843041.148 6 212680648.84806      -549.008 6        40.305                                                                    40843025.302 6 172820420.55006      -446.384 6        39.925
R09        55.000    22885504.662 7 122207338.26307      2934.915 7        43.249                                                                    22885504.532 7  95050144.75807      2282.696 7        44.063
G07        56.000    24916574.022 6 130937482.43706      2957.050 6        39.541                                    24916569.745 5 102029186.87705      2304.196 5        30.679    24916569.816 5 102029195.87705      2304.089 5        35.633
C02        57.000                                                                                                                                    40791205.827 5 212410576.69505      -543.212 5        34.090    40791198.486 6 164249328.72906      -420.215 6        39.390    40791203.136 6 172600998.63406      -441.571 6        36.631
I03        58.000   102171181.729 6 325156438.36806       876.986 6        40.377
R07        59.000    19643045.965 8 105150828.56508     -1331.875 8        51.226                                                                    19643043.929 7  81784031.52507     -1035.922 7        47.762
> 2025 01 02 02 46 50.0000000  0 55
G09         1.000    20843090.348 8 109531213.79108      1383.445 8        48.920                                    20843087.529 8  85349003.64108      1078.009 8        51.037    20843088.156 7  85349003.64807      1077.983 7        44.707
G06         2.000    22101895.261 7 116146263.41807      1691.872 7        45.482                                    22101893.735 7  90503586.59007      1318.342 7        45.729    22101894.102 7  90503594.58507      1318.338 7        43.397
E11         3.000    26636073.339 6 139973523.29806      2115.397 6        37.875                                                                    26636069.045 6 104525672.88106      1579.721 6        41.161    26636068.597 6 107252425.83006      1620.929 6        41.614
R15         4.000    24327318.368 6 129997820.89406     -3233.093 6        40.763                                                                    24327319.525 6 101109402.07106     -2514.757 6        39.333
S21         5.000    38596150.875 7 202823830.85507      -476.228 7        42.152
E10         6.000    24796840.858 7 130308288.12307      1046.073 7        46.323                                                                    24796839.443 8  97308134.11608       781.201 8        49.572    24796839.354 8  99846606.62808       801.574 8        50.441
G28         7.000    25257966.722 6 132731518.73606     -3640.984 6        37.357                                    25257962.434 3 103427138.99303     -2837.122 3        18.746    25257962.556 6 103427147.01406     -2837.125 6        37.444
G03         8.000    20946864.171 8 110076613.39108     -2334.968 8        48.063                                    20946861.803 8  85774026.34008     -1819.454 8        49.536    20946862.161 7  85774024.33507     -1819.415 7        44.647
G02         9.000    24559421.405 6 129060678.18806     -3978.981 6        41.173                                    24559415.893 4 100566755.48104     -3100.510 4        26.587
G31        10.000    23031943.126 7 121033687.17607     -2628.680 7        43.630                                    23031937.304 6  94311948.41806     -2048.324 6        38.982    23031938.489 6  94311953.42106     -2048.453 6        39.291
C30        11.000                                                                                                                                    25184574.985 7 131142701.21007     -3768.304 7        43.319                                                                    25184575.713 7 106564188.84707     -3061.906 7        43.007
S27        12.000    39224851.281 5 206128008.07405      -472.541 5        35.881
G26        13.000    24943871.653 6 131080929.16706      1397.946 6        37.202                                    24943870.551 4 102140989.45904      1089.305 4        29.137    24943871.195 5 102140989.48405      1089.453 5        35.695
S36        14.000    38363552.018 7 201602342.76307      -475.955 7        44.539
I09        15.000    37569102.462 7 147429231.61307      -611.638 7        42.299
G19        16.000    22988986.439 7 120807961.10807     -2369.087 7        42.753                                    22988979.726 4  94136057.93604     -1846.043 4        29.801
S45        17.000    63555952.200 6 333989206.45206      -516.160 6        37.698
E12        19.000    24096610.395 7 126628553.38307      -295.404 7        44.984                                                                    24096606.248 8  94560272.85708      -220.515 8        48.368    24096606.379 8  97027061.94808      -226.318 8        48.973
G17        20.000    24177350.202 7 127052849.99407     -3208.009 7        42.624                                    24177345.035 5  99002209.76205     -2499.750 5        34.062    24177345.882 6  99002208.75806     -2499.734 6        36.163
G11        21.000    25307624.194 6 132992467.59806      3064.234 6        38.345                                    25307620.685 3 103630473.73003      2387.726 3        21.286    25307620.871 6 103630486.73706      2387.583 6        37.493
I06        22.000    38208403.330 7 149938223.53307      -286.278 7        43.469
S28        23.000    41029046.947 5 215609109.79205      -471.581 5        34.938
R08        24.000    20908585.755 8 111964567.64208      1728.927 8        50.365                                                                    20908583.158 7  87083556.80807      1344.690 7        45.524
S23        25.000    38308573.628 7 201312919.28707      -472.101 7        44.780
C25        26.000                                                                                                                                    25931825.658 6 135033812.38206     -1912.786 6        41.442                                                                    25931822.735 6 109726029.18506     -1554.370 6        40.153
R16        27.000    22366271.788 7 119476625.39207       -74.635 7        47.270                                                                    22366271.246 7  92926266.38507       -58.144 7        42.715
E19        30.000    23067286.932 7 121219444.45407        16.415 7        43.471                                                                    23067284.173 7  90521016.49107        12.203 7        46.038    23067284.151 7  92882431.02107        12.571 7        47.161
C23        31.000                                                                                                                                    24905202.527 7 129687936.40807       698.183 7        44.307                                                                    24905194.173 7 105382038.87707       567.469 7        45.564
R23        32.000    20222291.399 8 108175641.37308       306.973 8        49.259
E29        33.000    24605504.313 7 129302882.31807     -2260.601 7        45.851                                                                    24605502.024 8  96557362.47408     -1688.109 8        49.141    24605502.098 8  99076244.64208     -1732.152 8        50.157
E04        34.000    26862925.576 6 141165654.86506      2169.487 6        41.328                                                                    26862923.879 7 105415920.16007      1620.017 7        43.782    26862923.552 7 108165896.43207      1662.315 7        44.665
C16        35.000                                                                                                                                    39077352.188 7 203486057.83707     -1010.821 7        42.599    39077351.102 7 157348340.09807      -781.744 7        42.703    39077348.932 6 165349090.62206      -821.419 6        39.805
C32        36.000                                                                                                                                    22902745.408 8 119260662.48208     -2125.281 8        49.869                                                                    22902745.048 8  96909078.82908     -1726.898 8        50.321
I01        37.000   379704760.782 7 186902233.09607     -2720.684 7        42.722
E27        38.000    29087197.495 5 152854244.55905      1861.485 5        31.645                                                                    29087197.858 6 114144411.29206      1390.159 6        37.403    29087197.265 6 117122088.31606      1426.252 6        37.297
C41        39.000                                                                                                                                    27308386.674 6 142201950.77206     -3274.915 6        38.468                                                                    27308392.123 6 115550759.45606     -2661.168 6        39.420
C39        40.000                                                                                                                                    39622120.095 6 206322804.13206     -1375.819 6        41.302                                                                    39622115.861 6 167654174.40406     -1118.032 6        41.671
E33        41.000    25226879.686 7 132568233.52207     -3064.149 7        45.741                                                                    25226877.580 8  98995791.49808     -2288.044 8        48.197    25226877.321 8 101578286.36308     -2347.716 8        48.860
S44        42.000    40843570.863 6 214634599.05906      -554.562 6        38.054
R06        43.000    22224146.366 6 118592362.72306     -3644.522 6        37.452
C05        44.000                                                                                                                                    39295251.074 6 204620730.63306      -500.307 6        39.030    39295245.594 7 158225755.44507      -386.736 7        43.355    39295247.382 6 166271210.20206      -406.443 6        39.748
C29        45.000                                                                                                                                    23298206.687 8 121319899.96208     -1618.054 8        48.092                                                                    23298203.892 7  98582355.08307     -1314.712 7        47.057
G04        46.000    20206838.793 8 106187691.65708      -457.820 8        49.734                                    20206835.259 7  82743642.59707      -356.741 7        43.245    20206835.611 8  82743644.59808      -356.752 8        49.277
E30        47.000    28928922.036 6 152022528.73106       282.566 6        36.302                                                                    28928922.251 6 113523308.46706       211.163 6        39.940    28928921.637 6 116484784.67506       216.590 6        40.527
R22        48.000    20593444.841 8 109929237.35608     -3463.943 8        50.594                                                                    20593442.914 7  85500515.68707     -2694.257 7        46.691
C20        49.000                                                                                                                                    22500360.381 8 117165307.97408       717.893 8        51.659                                                                    22500354.437 8  95206394.38608       583.427 8        49.452
C06        50.000                                                                                                                                    38552701.907 6 200754065.20006      -932.577 6        41.132    38552695.648 7 155235761.20407      -721.000 7        44.903    38552695.336 6 163129103.38506      -757.813 6        41.287
S48        51.000    77343303.308 6 406440647.36506      -467.198 6        37.788
C09        53.000                                                                                                                                    38619403.026 7 201101386.42907      -430.684 7        42.897    38619399.396 7 155504339.25207      -332.964 7        46.506    38619397.144 7 163411329.09807      -349.883 7        42.402
C60        54.000                                                                                                                                    40843568.424 6 212683394.96806      -549.447 6        40.179                                                                    40843552.610 6 172822651.98206      -446.388 6        39.850
R09        55.000    22882757.462 7 122192669.07707      2932.711 7        43.391                                                                    22882757.743 7  95038735.39507      2280.954 7        43.581
G07        56.000    24913760.477 6 130922698.08306      2956.628 6        39.634                                    24913756.209 5 102017666.60505      2303.864 5        30.634    24913756.590 5 102017675.59805      2303.816 5        35.438
C02        57.000                                                                                                                                    40791727.817 5 212413293.83805      -543.700 5        34.181    40791720.664 6 164251429.79306      -420.398 6        39.535    40791724.908 6 172603206.49706      -441.774 6        36.457
I03        58.000   102170064.601 6 325152054.45906       876.616 6        40.386
R07        59.000    19644290.960 8 105157494.20208     -1334.393 8        50.656                                                                    19644289.749 7  81789215.90707     -1037.866 7        47.955
