     3.04           OBSERVATION DATA    M                   RINEX VERSION / TYPE
ssrcrin-15.6.1x                         20250102 123000 UTC PGM / RUN BY / DATE 
(00000000023479385599111004) Septentrio proprietary         COMMENT             
rref                                                        MARKER NAME         
01                                                          MARKER NUMBER       
geodetic                                                    MARKER TYPE         
NFB                 CLIMERS@TUW                             OBSERVER / AGENCY   
3297213             SEPT ASTERX SB3 PROB4.14.4              REC # / TYPE / VERS 
Unknown             Unknown                                 ANT # / TYPE        
  4127831.3794  1207193.0919  4695248.8886                  APPROX POSITION XYZ 
        0.0000        0.0000        0.0000                  ANTENNA: DELTA H/E/N
G   23 X1  C1C L1C D1C S1C C1W S1W C2W L2W D2W S2W C2L L2L  SYS / # / OBS TYPES 
       D2L S2L C5Q L5Q D5Q S5Q C1L L1L D1L S1L              SYS / # / OBS TYPES 
E   21 X1  C1C L1C D1C S1C C6C L6C D6C S6C C5Q L5Q D5Q S5Q  SYS / # / OBS TYPES 
       C7Q L7Q D7Q S7Q C8Q L8Q D8Q S8Q                      SYS / # / OBS TYPES 
S    9 X1  C1C L1C D1C S1C C5I L5I D5I S5I                  SYS / # / OBS TYPES 
R   17 X1  C1C L1C D1C S1C C2P L2P D2P S2P C2C L2C D2C S2C  SYS / # / OBS TYPES 
       C3Q L3Q D3Q S3Q                                      SYS / # / OBS TYPES 
C   25 X1  C1P L1P D1P S1P C5P L5P D5P S5P C2I L2I D2I S2I  SYS / # / OBS TYPES 
       C7I L7I D7I S7I C6I L6I D6I S6I C7D L7D D7D S7D      SYS / # / OBS TYPES 
J   17 X1  C1C L1C D1C S1C C2L L2L D2L S2L C5Q L5Q D5Q S5Q  SYS / # / OBS TYPES 
       C1L L1L D1L S1L                                      SYS / # / OBS TYPES 
I    5 X1  C5A L5A D5A S5A                                  SYS / # / OBS TYPES 
SEPTENTRIO RECEIVERS OUTPUT ALIGNED CARRIER PHASES.         COMMENT             
NO FURTHER PHASE SHIFT APPLIED IN THE RINEX ENCODER.        COMMENT             
G L1C                                                       SYS / PHASE SHIFT   
G L2W                                                       SYS / PHASE SHIFT   
G L2L  0.00000                                              SYS / PHASE SHIFT   
G L5Q  0.00000                                              SYS / PHASE SHIFT   
G L1L  0.00000                                              SYS / PHASE SHIFT   
E L1C  0.00000                                              SYS / PHASE SHIFT   
E L6C  0.00000                                              SYS / PHASE SHIFT   
E L5Q  0.00000                                              SYS / PHASE SHIFT   
E L7Q  0.00000                                              SYS / PHASE SHIFT   
E L8Q  0.00000                                              SYS / PHASE SHIFT   
S L1C                                                       SYS / PHASE SHIFT   
S L5I                                                       SYS / PHASE SHIFT   
R L1C                                                       SYS / PHASE SHIFT   
R L2P  0.00000                                              SYS / PHASE SHIFT   
R L2C                                                       SYS / PHASE SHIFT   
R L3Q  0.00000                                              SYS / PHASE SHIFT   
C L1P  0.00000                                              SYS / PHASE SHIFT   
C L5P  0.00000                                              SYS / PHASE SHIFT   
C L2I                                                       SYS / PHASE SHIFT   
C L7I                                                       SYS / PHASE SHIFT   
C L6I                                                       SYS / PHASE SHIFT   
C L7D                                                       SYS / PHASE SHIFT   
J L1C                                                       SYS / PHASE SHIFT   
J L2L  0.00000                                              SYS / PHASE SHIFT   
J L5Q  0.00000                                              SYS / PHASE SHIFT   
J L1L  0.00000                                              SYS / PHASE SHIFT   
I L5A                                                       SYS / PHASE SHIFT   
  2025     1     2    12    30    0.0000000     GPS         TIME OF FIRST OBS   
 C1C    0.000 C2C    0.000 C2P    0.000                     GLONASS COD/PHS/BIS 
DBHZ                                                        SIGNAL STRENGTH UNIT
    18                                                      LEAP SECONDS        
 24 R01  1 R02 -4 R03  5 R04  6 R05  1 R06 -4 R07  5 R08  6 GLONASS SLOT / FRQ #
    R09 -2 R10 -7 R11  0 R12 -1 R13 -2 R14 -7 R15  0 R16 -1 GLONASS SLOT / FRQ #
    R17  4 R18 -3 R19  3 R20  2 R21  4 R22 -3 R23  3 R24  2 GLONASS SLOT / FRQ #
                                                            END OF HEADER       
> 2025 01 02 12 30  0.0000000  0 55
E24         1.000    23871054.436 8 125443358.54708     -1225.555 8        48.594                                                                    23871056.609 8  93675304.55608      -915.130 8        50.875    23871055.815 8  96118996.90808      -938.993 8        51.630
G15         2.000    25321548.453 6 133065356.33906     -4356.017 6        39.495                                    25321560.993 5 103687208.83905     -3394.278 5        30.158    25321561.276 5 103687203.82605     -3394.167 5        35.390
E03         3.000    25052654.373 7 131652595.54707       -24.277 7        44.980                                                                    25052660.394 8  98312017.11808       -18.064 8        48.202    25052659.435 8 100876679.20308       -18.535 8        48.804
G19         4.000    22108519.123 7 116181197.75507     -2701.439 7        45.413                                    22108518.542 5  90530832.05905     -2105.017 5        34.648
S21         5.000    38574047.984 7 202707569.84607      -520.579 7        43.200
E05         6.000    23515148.103 7 123572864.67307     -2749.681 7        46.216                                                                    23515154.433 8  92278402.34108     -2053.273 8        48.810    23515153.353 8  94685665.66508     -2106.794 8        49.235
G25         7.000    22136168.946 7 116326463.65207      2323.112 7        44.295                                    22136172.971 6  90644067.22106      1810.219 6        41.733    22136173.690 6  90644068.22506      1810.206 6        41.263
C29         8.000                                                                                                                                    23077826.126 8 120172323.83308      -654.207 8        48.379                                                                    23077827.423 7  97649874.53407      -531.636 7        47.443
R05         9.000    21219815.961 8 113432134.43708     -1180.789 8        49.753                                                                    21219819.914 7  88225046.96907      -918.363 7        45.348
G24        10.000    20711991.156 8 108842247.25108     -2280.595 8        50.090                                    20711992.971 8  84812154.96808     -1777.090 8        52.055    20711993.223 7  84812159.96807     -1777.108 7        46.053
C14        11.000                                                                                                                                    25099023.971 7 130697211.76207     -1503.387 7        42.811    25099027.554 7 101063401.20007     -1162.367 7        46.158    25099024.456 7 106202201.40607     -1221.577 7        43.638
S27        12.000    39350678.000 6 206789092.58906      -542.908 6        36.888
E08        13.000    28347519.017 6 148967231.46306      2078.996 6        38.129                                                                    28347533.578 6 111241827.51406      1552.587 6        40.696    28347531.565 6 114143779.42106      1593.158 6        41.630
S36        14.000    38344969.502 7 201504590.12007      -520.922 7        45.318
G06        15.000    23536171.239 6 123683493.34506      1225.943 6        41.261                                    23536177.298 6  96376811.99906       955.280 6        38.393    23536178.114 6  96376814.00106       955.152 6        40.937
E09        16.000    28517301.659 4 149859172.39604     -3781.709 4        29.052                                                                    28517320.922 5 111907740.86905     -2824.074 5        34.805    28517318.302 5 114827079.02505     -2897.576 5        35.138
G12        17.000    20398414.933 8 107194569.12308       210.674 8        50.632                                    20398413.142 8  83528318.48508       164.162 8        51.342    20398413.944 7  83528315.48007       164.188 7        45.899
G32        18.000    23616105.676 7 124103499.71907      1477.783 7        44.066                                    23616110.577 6  96704073.30506      1151.518 6        40.184    23616111.233 6  96704077.30206      1151.592 6        40.977
R22        19.000    24682220.129 6 131755439.99306     -4335.645 6        37.331                                                                    24682228.746 5 102476446.39205     -3372.205 5        35.467
E10        21.000    28152137.714 6 147940513.76206      2491.368 6        38.501                                                                    28152152.307 6 110475137.00906      1860.446 6        41.206    28152150.855 7 113357088.59107      1908.897 7        42.197
I06        22.000    38567381.153 6 151346773.36306      -497.504 6        41.890
S28        23.000    41041080.835 5 215672146.96805      -529.784 5        35.524
S23        25.000    38283254.403 7 201179729.24207      -525.383 7        45.213
S45        26.000    63535918.008 6 333883789.11806      -582.500 6        36.522
C07        27.000                                                                                                                                    40187818.144 6 209268414.29206     -1442.753 6        37.822    40187820.633 6 161819580.99906     -1115.469 6        41.054    40187817.545 6 170047690.85006     -1172.389 6        38.231
R04        28.000    22187196.683 8 118811360.76608     -4339.831 8        48.086                                                                    22187202.752 6  92408798.58606     -3375.405 6        41.762
C40        29.000                                                                                                                                    40677560.948 6 211818632.29406     -1721.342 6        39.417                                                                    40677567.526 6 172119972.01706     -1398.808 6        38.988
G17        30.000    25010287.545 6 131429988.80706     -3870.168 6        39.844                                    25010293.410 5 102413016.31705     -3015.718 5        30.287    25010293.692 5 102413013.33305     -3015.822 5        35.414
E12        31.000    27534666.583 6 144695705.56606      2059.106 6        36.888                                                                    27534673.886 6 108052062.36606      1537.780 6        40.551    27534672.483 6 110870799.19306      1577.840 6        40.529
G11        32.000    24751455.938 6 130069826.32906      2533.392 6        39.835                                    24751463.633 3 101353172.37303      1974.069 3        23.619    24751464.137 6 101353163.39806      1973.976 6        40.114
I02        33.000    37094155.976 7 145565415.16807      -519.376 7        42.919
R15        34.000    21302710.428 8 113835317.85508      2076.028 8        49.172                                                                    21302715.015 7  88538637.51907      1614.714 7        45.147
R13        35.000    22786933.868 6 121680903.12406     -3649.245 6        39.556
C42        37.000                                                                                                                                    25166934.253 7 131050776.46207     -2710.371 7        43.695                                                                    25166947.710 7 106489524.89907     -2202.508 7        43.812
C10        38.000                                                                                                                                    39251452.620 6 204392565.87206     -1184.791 6        40.024    39251456.390 7 158049285.99907      -916.051 7        42.940    39251452.854 6 166085681.45106      -962.667 6        39.889
E25        39.000    24663945.268 7 129610065.20207      1119.253 7        46.628                                                                    24663950.955 8  96786850.13408       835.823 8        49.229    24663949.897 8  99311710.70908       857.619 8        49.686
C30        40.000                                                                                                                                    26303248.361 6 136967902.23006     -3241.431 6        40.598                                                                    26303257.111 6 111297670.27306     -2634.187 6        39.108
R23        41.000    21575794.523 7 115416034.74407     -2061.021 7        46.301
S44        42.000    40926520.789 6 215070307.92806      -451.695 6        37.501
C36        43.000                                                                                                                                    26904505.712 5 140098621.94905     -3373.733 5        34.819                                                                    26904521.108 6 113841584.03206     -2741.200 6        37.955
C05        44.000                                                                                                                                    39597112.932 6 206192448.39106      -525.471 6        38.547    39597116.395 7 159441067.52307      -406.353 7        42.728    39597116.350 6 167548327.75806      -427.186 6        39.333
R14        45.000    19607100.473 8 104516985.75908      -844.242 8        51.894                                                                    19607104.790 8  81291070.36808      -656.645 8        48.537
E26        46.000    28927627.620 5 152015802.94105     -2323.757 5        30.347                                                                    28927636.067 6 113518376.49206     -1735.586 6        36.363    28927634.676 6 116479712.99706     -1780.819 6        37.648
C35        48.000                                                                                                                                    23960331.129 7 124767815.12907      2432.518 7        47.255                                                                    23960334.729 7 101384117.84207      1976.535 7        46.163
C45        50.000                                                                                                                                    22908544.681 8 119290801.85508     -2327.972 8        48.827                                                                    22908540.130 8  96933530.80708     -1891.751 8        49.116
S48        51.000    77281332.316 6 406116792.89706      -528.076 6        38.360
C33        52.000                                                                                                                                    25757024.774 7 134123589.48907      -142.712 7        42.554                                                                    25757043.309 7 108986486.40207      -116.107 7        42.792
E33        53.000    26986311.389 6 141814131.94306      -177.545 6        40.033                                                                    26986320.072 7 105900239.57907      -132.522 7        43.020    26986318.444 7 108662842.94107      -135.852 7        43.454
C60        54.000                                                                                                                                    40926519.526 6 213115141.02406      -447.726 6        38.874                                                                    40926513.943 6 173173438.45506      -364.039 6        39.462
E31        55.000    26728102.485 6 140457044.50306     -2907.427 6        40.694                                                                    26728112.338 7 104886760.57007     -2170.989 7        44.015    26728111.237 7 107622936.03107     -2227.654 7        44.524
C26        56.000                                                                                                                                    22102002.253 8 115091010.90408       548.532 8        50.622                                                                    22102004.106 8  93520915.81108       445.678 8        49.434
C02        57.000                                                                                                                                    41096106.389 5 213998062.87905      -481.083 5        32.090    41096112.691 6 165476819.34406      -372.107 6        36.102    41096113.617 5 173890917.43505      -391.034 5        32.222
I03        58.000    91082630.180 5 281642283.93505       955.242 5        32.820
C21        59.000                                                                                                                                    26983795.830 6 140511441.60606     -3729.754 6        39.901                                                                    26983803.152 6 114176977.48506     -3030.762 6        40.484
R24        60.000    21118288.559 8 112929097.19408      2291.160 8        49.632                                                                    21118292.868 7  87833804.38007      1782.065 7        45.463
> 2025 01 02 12 30  5.0000000  0 55
E24         1.000    23872221.171 8 125449488.64408     -1226.493 8        48.530                                                                    23872223.121 8  93679882.21808      -915.870 8        50.910    23872222.333 8  96123693.98808      -939.809 8        51.665
G15         2.000    25325692.943 6 133087135.18006     -4355.553 6        39.123                                    25325705.427 4 103704179.25804     -3393.914 4        29.943    25325705.559 5 103704174.23205     -3393.836 5        35.348
E03         3.000    25052678.733 7 131652722.69307       -26.585 7        45.433                                                                    25052684.596 8  98312112.07408       -19.856 8        48.273    25052683.580 8 100876776.63108       -20.294 8        48.828
G19         4.000    22111090.681 7 116194710.64107     -2703.708 7        45.409                                    22111089.926 5  90541361.56905     -2106.782 5        34.724
S21         5.000    38574542.729 7 202710172.51107      -520.406 7        43.371
E05         6.000    23517764.986 7 123586616.78407     -2751.183 7        46.161                                                                    23517771.360 8  92288671.75408     -2054.446 8        48.913    23517770.295 8  94696202.98308     -2108.055 8        49.274
G25         7.000    22133959.202 7 116314851.18507      2321.929 7        44.024                                    22133963.167 6  90635018.55506      1809.295 6        41.807    22133964.043 6  90635019.55906      1809.283 6        41.614
C29         8.000                                                                                                                                    23078455.172 8 120175601.48208      -656.932 8        48.114                                                                    23078456.857 7  97652537.88707      -533.820 7        47.605
R05         9.000    21220922.324 8 113438049.26808     -1185.165 8        49.479                                                                    21220926.078 7  88229647.37407      -921.843 7        45.108
G24        10.000    20714162.214 8 108853656.49908     -2283.045 8        50.036                                    20714164.100 8  84821045.28708     -1778.994 8        52.140    20714164.447 7  84821050.28607     -1779.044 7        46.334
C14        11.000                                                                                                                                    25100468.636 7 130704734.78207     -1505.785 7        42.709    25100472.262 7 101069218.45507     -1164.397 7        46.159    25100469.232 7 106208314.45507     -1223.626 7        43.958
S27        12.000    39351195.309 6 206791807.13306      -542.813 6        36.681
E08        13.000    28345541.118 6 148956838.76906      2077.895 6        37.822                                                                    28345556.046 6 111234066.77806      1551.858 6        40.882    28345553.706 6 114135816.23106      1592.288 6        41.642
S36        14.000    38345462.346 7 201507194.36307      -520.706 7        45.041
G06        15.000    23535005.826 6 123677370.28006      1223.466 6        41.654                                    23535012.212 6  96372040.78006       953.352 6        38.384    23535012.658 6  96372042.77006       953.403 6        41.101
E09        16.000    28520899.223 4 149878080.40304     -3781.656 4        28.427                                                                    28520918.978 5 111921860.37405     -2823.892 5        34.738    28520916.606 5 114841566.85305     -2897.376 5        34.900
G12        17.000    20398215.330 8 107193521.11008       208.598 8        50.454                                    20398213.703 8  83527501.85208       162.544 8        51.454    20398214.514 7  83527498.85407       162.548 7        46.054
G32        18.000    23614700.670 7 124096117.42007      1475.233 7        43.746                                    23614705.781 6  96698320.86906      1149.529 6        40.276    23614706.561 6  96698324.87306      1149.464 6        40.832
R22        19.000    24686283.628 6 131777123.08606     -4337.343 6        37.251                                                                    24686289.693 5 102493311.23305     -3373.508 5        35.348
E10        21.000    28149767.190 6 147928057.27506      2491.373 6        38.264                                                                    28149781.624 6 110465835.21406      1860.289 6        41.008    28149780.347 7 113347544.11907      1908.987 7        42.169
I06        22.000    38568015.037 6 151349260.74506      -497.378 6        41.936
S28        23.000    41041583.991 5 215674794.92205      -529.649 5        34.995
S23        25.000    38283755.770 7 201182355.45207      -525.072 7        45.430
S45        26.000    63536420.372 6 333886702.01706      -582.560 6        36.450
C07        27.000                                                                                                                                    40189202.768 6 209275627.84706     -1442.560 6        38.048    40189205.933 6 161825158.98306     -1115.346 6        41.104    40189202.939 6 170053552.46606     -1172.383 6        38.625
R04        28.000    22191250.177 8 118833064.58608     -4341.676 8        48.319                                                                    22191256.275 7  92425679.30307     -3376.785 7        43.035
C40        29.000                                                                                                                                    40679213.939 6 211827238.58306     -1721.136 6        39.396                                                                    40679220.278 6 172126965.34206     -1398.606 6        38.886
G17        30.000    25013970.400 6 131449340.88606     -3870.655 6        39.682                                    25013976.006 5 102428095.86305     -3016.096 5        30.370    25013976.395 5 102428092.85705     -3016.108 5        35.752
E12        31.000    27532707.840 6 144685412.11206      2058.139 6        36.843                                                                    27532715.058 6 108044375.71806      1536.959 6        40.551    27532713.878 6 110862912.02506      1577.050 6        40.558
G11        32.000    24749045.698 6 130057160.78906      2532.717 6        39.378                                    24749053.420 3 101343303.16003      1973.534 3        23.771    24749053.236 6 101343294.18106      1973.613 6        40.307
I02        33.000    37094817.743 7 145568012.14307      -519.417 7        43.064
R15        34.000    21300768.052 8 113824939.92308      2075.119 8        49.605                                                                    21300773.456 7  88530565.81407      1613.866 7        45.049
R13        35.000    22790350.746 6 121699150.71306     -3649.780 6        39.246
C42        37.000                                                                                                                                    25169537.306 7 131064332.62207     -2712.031 7        43.979                                                                    25169551.050 7 106500540.36507     -2203.765 7        44.101
C10        38.000                                                                                                                                    39252589.847 6 204398489.98306     -1184.811 6        39.997    39252594.061 7 158053866.90207      -916.044 7        42.718    39252590.612 6 166090495.28006      -962.778 6        39.970
E25        39.000    24662880.967 7 129604471.27307      1118.359 7        46.726                                                                    24662886.468 8  96782672.85208       835.125 8        49.373    24662885.442 8  99307424.45608       856.949 8        49.767
C30        40.000                                                                                                                                    26306361.301 6 136984113.04906     -3242.773 6        40.257                                                                    26306369.950 6 111310842.87606     -2634.949 6        39.432
R23        41.000    21577723.365 7 115426350.46107     -2065.231 7        46.575
S44        42.000    40926946.818 6 215072567.30206      -451.815 6        37.183
C36        43.000                                                                                                                                    26907745.606 5 140115490.12305     -3373.481 5        35.462                                                                    26907760.481 6 113855290.81906     -2741.382 6        38.339
C05        44.000                                                                                                                                    39597617.501 6 206195076.04506      -525.454 6        38.498    39597621.062 7 159443099.41707      -406.244 7        42.561    39597620.869 6 167550462.94406      -427.023 6        39.423
R14        45.000    19607893.226 8 104521211.88008      -846.173 8        52.128                                                                    19607897.052 8  81294357.34108      -658.110 8        48.407
E26        46.000    28929840.217 5 152027427.39005     -2325.701 5        30.740                                                                    28929847.921 6 113527057.20306     -1736.926 6        36.276    28929846.679 6 116488620.15006     -1782.073 6        37.202
C35        48.000                                                                                                                                    23957995.924 7 124755655.96007      2431.209 7        47.209                                                                    23957999.626 7 101374237.54007      1975.552 7        46.208
C45        50.000                                                                                                                                    22910780.188 8 119302444.46608     -2329.032 8        48.820                                                                    22910776.038 8  96942991.36608     -1892.579 8        49.235
S48        51.000    77281823.703 6 406119433.29906      -527.958 6        38.255
C33        52.000                                                                                                                                    25757162.864 7 134124309.99807      -145.370 7        42.800                                                                    25757181.795 7 108987071.85307      -118.251 7        42.921
E33        53.000    26986481.645 6 141815025.06006      -179.785 6        40.234                                                                    26986489.905 7 105900906.52607      -134.215 7        43.130    26986488.340 7 108663527.28507      -137.756 7        43.587
C60        54.000                                                                                                                                    40926949.245 6 213117379.84006      -447.631 6        38.985                                                                    40926943.853 6 173175257.67206      -363.730 6        39.865
E31        55.000    26730869.247 6 140471581.62206     -2907.517 6        40.653                                                                    26730878.690 7 104897616.20307     -2171.092 7        43.996    26730877.575 7 107634074.85307     -2227.726 7        44.712
C26        56.000                                                                                                                                    22101476.316 8 115088271.52108       547.223 8        50.620                                                                    22101478.069 8  93518689.83408       444.619 8        49.657
C02        57.000                                                                                                                                    41096567.865 5 214000468.28805      -480.808 5        31.781    41096574.909 5 165478679.36405      -371.782 5        35.976    41096575.262 5 173892872.01005      -390.669 5        32.419
I03        58.000    91081412.370 5 281637508.08305       955.197 5        33.012
C21        59.000                                                                                                                                    26987376.751 6 140530088.60606     -3729.043 6        39.982                                                                    26987384.010 6 114192129.64406     -3030.303 6        40.486
R24        60.000    21116148.080 8 112917649.62308      2287.906 8        49.564                                                                    21116151.688 7  87824900.72507      1779.448 7        45.150
> 2025 01 02 12 30 10.0000000  0 55
E24         1.000    23873388.629 8 125455624.61908     -1227.635 8        48.540                                                                    23873390.777 8  93684464.26508      -916.739 8        50.568    23873389.991 8  96128395.56308      -940.642 8        51.666
G15         2.000    25329837.121 6 133108911.74706     -4354.941 6        39.456                                    25329849.409 4 103721147.90404     -3393.455 4        29.659    25329850.458 5 103721142.86705     -3393.420 5        35.386
E03         3.000    25052705.462 7 131652862.05407       -28.849 7        44.951                                                                    25052711.132 8  98312216.14408       -21.607 8        48.105    25052710.174 8 100876883.42308       -22.176 8        48.859
G19         4.000    22113664.276 7 116208236.45607     -2706.339 7        45.549                                    22113663.729 5  90551901.14905     -2108.833 5        34.571
S21         5.000    38575039.178 7 202712775.29207      -520.513 7        43.109
E05         6.000    23520383.683 7 123600377.64407     -2752.939 7        46.410                                                                    23520389.962 8  92298947.70508     -2055.753 8        48.640    23520388.929 8  94706747.00508     -2109.393 8        49.314
G25         7.000    22131750.590 7 116303245.51107      2320.647 7        44.187                                    22131754.623 6  90625975.17506      1808.295 6        41.611    22131755.484 6  90625976.19106      1808.168 6        41.497
C29         8.000                                                                                                                                    23079087.539 8 120178893.72508      -659.758 8        48.183                                                                    23079089.046 7  97655213.10807      -536.211 7        47.717
R05         9.000    21222032.737 8 113443987.25608     -1189.806 8        49.621                                                                    21222037.208 7  88234265.80207      -925.338 7        45.050
G24        10.000    20716335.911 8 108865078.99108     -2285.666 8        49.917                                    20716337.742 8  84829945.92308     -1781.037 8        51.943    20716338.033 7  84829950.91907     -1781.048 7        46.252
C14        11.000                                                                                                                                    25101915.971 7 130712271.14507     -1508.404 7        42.995    25101920.271 7 101075046.05407     -1166.517 7        46.237    25101916.538 7 106214438.35907     -1225.875 7        44.004
S27        12.000    39351711.911 6 206794521.63106      -542.660 6        36.696
E08        13.000    28343564.815 6 148946451.98206      2076.788 6        38.123                                                                    28343579.602 6 111226310.41806      1550.917 6        40.830    28343577.281 6 114127857.52906      1591.311 6        41.759
S36        14.000    38345960.239 7 201509797.38407      -520.291 7        45.139
G06        15.000    23533843.507 6 123671260.60306      1220.878 6        41.719                                    23533849.586 6  96367279.99506       951.332 6        38.156    23533850.174 6  96367281.99406       951.201 6        40.863
E09        16.000    28524497.415 4 149896987.83804     -3781.143 4        28.929                                                                    28524517.230 5 111935979.46605     -2823.368 5        34.667    28524514.666 5 114856054.28905     -2897.179 5        34.852
G12        17.000    20398017.979 8 107192484.76808       206.217 8        50.949                                    20398016.482 8  83526694.31608       160.688 8        51.246    20398017.118 7  83526691.31907       160.665 7        45.917
G32        18.000    23613298.304 7 124088748.55007      1472.530 7        44.534                                    23613303.534 6  96692578.89806      1147.426 6        40.226    23613303.911 6  96692582.89906      1147.402 6        40.734
R22        19.000    24690349.048 6 131798815.25706     -4339.099 6        37.172                                                                    24690354.180 5 102510183.09005     -3375.260 5        35.662
E10        21.000    28147397.169 6 147915601.76206      2491.201 6        38.459                                                                    28147411.383 6 110456534.10906      1860.315 6        40.722    28147410.014 7 113338000.38007      1908.669 7        42.233
I06        22.000    38568648.967 6 151351748.22506      -497.434 6        41.907
S28        23.000    41042086.391 5 215677442.88605      -529.688 5        35.705
S23        25.000    38284258.139 7 201184981.92007      -525.277 7        45.672
S45        26.000    63536925.724 6 333889615.05506      -582.456 6        36.696
C07        27.000                                                                                                                                    40190588.557 6 209282841.99206     -1442.618 6        38.261    40190590.932 6 161830737.43406     -1115.582 6        41.025    40190588.209 6 170059414.54306     -1172.341 6        38.733
R04        28.000    22195304.632 8 118854778.78408     -4343.792 8        48.175                                                                    22195310.422 7  92442568.09407     -3378.375 7        43.645
C40        29.000                                                                                                                                    40680867.045 6 211835845.32706     -1721.278 6        39.556                                                                    40680873.181 6 172133959.02906     -1398.721 6        39.111
G17        30.000    25017653.571 6 131468696.71406     -3871.394 6        39.556                                    25017659.353 5 102443178.33205     -3016.673 5        30.279    25017659.665 6 102443175.32006     -3016.603 6        36.015
E12        31.000    27530749.515 6 144675124.30906      2057.275 6        36.605                                                                    27530757.249 6 108036693.32506      1536.095 6        40.427    27530756.240 6 110855029.21006      1576.231 6        40.834
G11        32.000    24746636.065 6 130044499.08206      2532.114 6        39.730                                    24746644.034 3 101333436.96703      1973.060 3        23.352    24746644.134 6 101333428.00006      1973.033 6        40.307
I02        33.000    37095479.833 7 145570610.13607      -519.563 7        43.035
R15        34.000    21298827.561 8 113814567.79508      2073.948 8        49.641                                                                    21298832.166 7  88522498.59607      1613.114 7        44.781
R13        35.000    22793769.925 6 121717402.30206     -3650.516 6        39.315
C42        37.000                                                                                                                                    25172142.582 7 131077898.02407     -2713.880 7        44.023                                                                    25172156.277 7 106511563.34707     -2205.368 7        44.242
C10        38.000                                                                                                                                    39253727.649 6 204404415.17106     -1185.144 6        39.898    39253731.980 7 158058448.62607      -916.296 7        42.707    39253728.603 6 166095309.96506      -963.017 6        40.124
E25        39.000    24661817.349 7 129598882.46807      1117.362 7        46.494                                                                    24661822.918 8  96778499.40408       834.314 8        49.068    24661821.938 8  99303142.13508       856.082 8        49.674
C30        40.000                                                                                                                                    26309475.653 6 137000331.49406     -3244.452 6        39.943                                                                    26309484.557 6 111324021.73306     -2636.361 6        39.294
R23        41.000    21579655.649 7 115436688.42807     -2069.715 7        46.415
S44        42.000    40927376.702 6 215074826.74906      -451.859 6        37.493
C36        43.000                                                                                                                                    26910985.683 5 140132359.53405     -3373.784 5        35.348                                                                    26911000.142 6 113868998.55306     -2741.510 6        38.129
C05        44.000                                                                                                                                    39598121.810 6 206197703.78506      -525.679 6        38.556    39598125.805 7 159445131.36407      -406.263 7        42.618    39598125.358 6 167552598.21606      -427.128 6        39.450
R14        45.000    19608688.063 8 104525448.81308      -848.294 8        52.138                                                                    19608691.975 8  81297652.73008      -659.791 8        48.438
E26        46.000    28932054.777 5 152039061.58205     -2327.484 5        31.140                                                                    28932061.803 5 113535745.20105     -1738.307 5        35.795    28932060.542 6 116497534.77806     -1783.703 6        36.934
C35        48.000                                                                                                                                    23955662.340 7 124743503.90907      2429.813 7        47.551                                                                    23955665.933 7 101364363.02907      1974.339 7        46.356
C45        50.000                                                                                                                                    22913017.688 8 119314093.43908     -2330.284 8        49.009                                                                    22913013.105 8  96952457.10308     -1893.600 8        49.424
S48        51.000    77282320.876 6 406122073.82506      -528.107 6        38.670
C33        52.000                                                                                                                                    25757304.013 7 134125044.88107      -148.216 7        42.736                                                                    25757322.969 7 108987669.00107      -120.529 7        43.086
E33        53.000    26986653.951 6 141815930.90906      -182.243 6        39.934                                                                    26986662.365 7 105901582.98407      -136.081 7        42.880    26986660.835 7 108664221.39507      -139.733 7        43.697
C60        54.000                                                                                                                                    40927379.424 6 213119618.75606      -447.732 6        38.817                                                                    40927373.840 6 173177076.98706      -363.822 6        39.739
E31        55.000    26733635.744 6 140486120.04606     -2907.763 6        40.725                                                                    26733645.332 7 104908472.79807     -2171.300 7        43.731    26733644.147 7 107645214.67007     -2228.021 7        44.746
C26        56.000                                                                                                                                    22100951.689 8 115085539.48808       545.833 8        50.606                                                                    22100953.399 8  93516469.82908       443.441 8        49.761
C02        57.000                                                                                                                                    41097030.865 5 214002873.81705      -481.321 5        31.955    41097037.011 5 165480539.45105      -371.940 5        35.862    41097037.056 5 173894826.69905      -390.961 5        32.269
I03        58.000    91080196.754 5 281632732.13205       955.364 5        32.677
C21        59.000                                                                                                                                    26990957.497 6 140548734.15806     -3728.747 6        40.176                                                                    26990964.723 6 114207280.62006     -3029.885 6        40.384
R24        60.000    21114010.898 8 112906219.39508      2284.426 8        48.842                                                                    21114014.606 7  87816010.57507      1776.716 7        45.970
> 2025 01 02 12 30 15.0000000  0 55
E24         1.000    23874557.356 8 125461766.24808     -1228.710 8        48.900                                                                    23874559.498 8  93689050.53508      -917.525 8        50.811    23874558.767 8  96133101.47908      -941.463 8        51.603
G15         2.000    25333980.947 6 133130685.84606     -4354.439 6        39.592                                    25333993.020 4 103738114.63304     -3393.049 4        29.697    25333993.608 5 103738109.57805     -3392.898 5        35.876
E03         3.000    25052734.241 7 131653013.44207       -31.404 7        45.153                                                                    25052739.867 8  98312329.19008       -23.428 8        48.238    25052738.915 8 100876999.41308       -24.011 8        48.747
G19         4.000    22116240.515 7 116221774.96207     -2708.856 7        45.627                                    22116239.970 5  90562450.62205     -2110.792 5        34.410
S21         5.000    38575533.421 7 202715377.64707      -520.300 7        43.293
E05         6.000    23523004.205 7 123614147.04407     -2754.672 7        46.760                                                                    23523010.293 8  92309230.03308     -2057.031 8        48.747    23523009.137 8  94717297.56508     -2110.688 8        49.301
G25         7.000    22129543.243 7 116291646.42207      2319.276 7        43.973                                    22129547.319 6  90616936.92706      1807.227 6        41.690    22129548.268 6  90616937.93606      1807.276 6        41.580
C29         8.000                                                                                                                                    23079722.810 8 120182200.36808      -662.698 8        48.614                                                                    23079724.044 7  97657900.01707      -538.305 7        47.731
R05         9.000    21223147.925 8 113449948.19308     -1194.325 8        49.905                                                                    21223152.799 7  88238902.07007      -928.968 7        45.294
G24        10.000    20718511.821 8 108876514.51508     -2288.279 8        49.749                                    20718513.862 8  84838856.71308     -1783.072 8        51.896    20718513.991 7  84838861.70707     -1783.070 7        46.269
C14        11.000                                                                                                                                    25103366.337 7 130719820.61907     -1511.109 7        42.861    25103369.898 7 101080883.75807     -1168.514 7        46.508    25103366.296 7 106220572.89507     -1227.756 7        43.960
S27        12.000    39352226.295 6 206797236.14206      -542.877 6        36.552
E08        13.000    28341589.096 6 148936070.94306      2075.836 6        38.270                                                                    28341604.209 6 111218558.39806      1550.096 6        41.037    28341601.870 6 114119903.28106      1590.632 6        41.712
S36        14.000    38346456.634 7 201512400.08107      -520.396 7        45.234
G06        15.000    23532683.299 6 123665164.14006      1218.091 6        41.659                                    23532689.383 6  96362529.51306       949.162 6        38.081    23532689.506 6  96362531.51506       949.117 6        40.896
E09        16.000    28528094.843 4 149915894.51004     -3781.775 4        28.019                                                                    28528114.987 5 111950097.99005     -2823.673 5        34.671    28528112.469 5 114870541.14605     -2897.156 5        34.524
G12        17.000    20397823.190 8 107191459.91308       203.928 8        50.980                                    20397821.470 8  83525895.72908       158.903 8        51.233    20397822.218 7  83525892.73007       158.914 7        45.965
G32        18.000    23611899.082 7 124081392.91607      1469.918 7        44.199                                    23611903.867 6  96686847.24306      1145.392 6        40.234    23611904.328 6  96686851.24306      1145.344 6        41.175
R22        19.000    24694412.219 6 131820516.39306     -4340.942 6        37.550                                                                    24694419.046 6 102527061.87206     -3376.297 6        36.140
E10        21.000    28145027.215 6 147903146.98606      2490.889 6        38.577                                                                    28145041.467 6 110447233.57406      1860.045 6        41.130    28145039.863 7 113328457.18607      1908.726 7        42.184
I06        22.000    38569282.770 7 151354235.64207      -497.304 7        42.049
S28        23.000    41042592.248 5 215680090.77605      -529.314 5        35.424
S23        25.000    38284757.709 7 201187608.32907      -525.169 7        45.375
S45        26.000    63537426.818 6 333892528.10506      -582.394 6        36.333
C07        27.000                                                                                                                                    40191973.551 6 209290056.52006     -1442.928 6        38.273    40191976.794 6 161836316.17006     -1115.794 6        40.927    40191973.660 6 170065276.92406     -1172.155 6        38.769
R04        28.000    22199361.147 7 118876503.01307     -4345.787 7        47.210                                                                    22199367.687 7  92459464.68607     -3380.029 7        44.257
C40        29.000                                                                                                                                    40682520.008 6 211844452.30906     -1721.349 6        39.589                                                                    40682525.759 6 172140952.90706     -1398.661 6        39.069
G17        30.000    25021337.841 6 131488056.06506     -3872.104 6        39.547                                    25021343.429 5 102458263.53805     -3017.227 5        30.460    25021344.091 6 102458260.52506     -3017.252 6        36.397
E12        31.000    27528792.782 6 144664842.04006      2056.184 6        36.091                                                                    27528800.633 6 108029015.03706      1535.232 6        40.396    27528799.391 6 110847150.60906      1575.370 6        40.601
G11        32.000    24744227.362 6 130031841.06906      2531.345 6        40.067                                    24744235.193 3 101323573.63703      1972.466 3        23.543    24744235.304 6 101323564.67006      1972.496 6        40.205
I02        33.000    37096142.174 7 145573208.94107      -519.703 7        43.191
R15        34.000    21296887.417 8 113804200.96308      2072.940 8        49.762                                                                    21296892.207 7  88514435.51007      1612.256 7        45.154
R13        35.000    22797188.448 6 121735657.38706     -3651.325 6        39.718
C42        37.000                                                                                                                                    25174749.066 7 131091472.43807     -2715.715 7        44.203                                                                    25174763.119 7 106522593.63807     -2206.664 7        44.220
C10        38.000                                                                                                                                    39254865.992 6 204410341.19406     -1185.150 6        40.217    39254870.333 7 158063030.99707      -916.384 7        42.938    39254866.489 6 166100125.32706      -962.763 6        40.157
E25        39.000    24660754.896 7 129593298.57307      1116.312 7        46.504                                                                    24660760.337 8  96774329.61308       833.620 8        49.254    24660759.327 8  99298863.56308       855.439 8        49.650
C30        40.000                                                                                                                                    26312591.620 6 137016557.37006     -3245.717 6        40.005                                                                    26312600.457 6 111337206.60906     -2637.309 6        38.997
R23        41.000    21581591.899 7 115447048.21407     -2074.028 7        46.293
S44        42.000    40927806.810 6 215077086.09406      -451.734 6        37.422
C36        43.000                                                                                                                                    26914224.563 5 140149229.91705     -3374.150 5        35.310                                                                    26914239.852 6 113882707.09206     -2741.618 6        38.159
C05        44.000                                                                                                                                    39598626.406 6 206200331.37306      -525.560 6        38.562    39598630.258 7 159447163.20307      -406.246 7        42.762    39598629.954 6 167554733.34506      -426.779 6        39.568
R14        45.000    19609484.853 8 104529696.05708      -850.414 8        51.820                                                                    19609488.872 8  81300956.12408      -661.439 8        48.494
E26        46.000    28934270.076 5 152050705.26205     -2329.379 5        31.351                                                                    28934277.692 5 113544440.27005     -1739.660 5        35.614    28934275.894 6 116506456.66006     -1785.130 6        36.272
C35        48.000                                                                                                                                    23953329.544 7 124731358.76907      2428.432 7        47.210                                                                    23953333.506 7 101354494.11807      1973.370 7        46.359
C45        50.000                                                                                                                                    22915255.782 8 119325748.58008     -2331.515 8        48.825                                                                    22915251.315 8  96961927.84208     -1894.424 8        49.421
S48        51.000    77282817.924 6 406124714.55006      -527.893 6        38.024
C33        52.000                                                                                                                                    25757447.364 7 134125793.95407      -151.134 7        42.603                                                                    25757466.736 7 108988277.67407      -122.749 7        42.954
E33        53.000    26986828.428 6 141816849.29806      -184.888 6        40.458                                                                    26986837.026 7 105902268.79807      -137.983 7        42.959    26986835.442 7 108664925.10007      -141.640 7        43.613
C60        54.000                                                                                                                                    40927809.044 6 213121857.56906      -447.730 6        38.871                                                                    40927803.675 6 173178896.21206      -363.649 6        39.895
E31        55.000    26736402.351 6 140500659.53606     -2907.961 6        41.020                                                                    26736412.002 7 104919330.20607     -2171.442 7        43.733    26736410.766 7 107656355.30507     -2228.085 7        44.600
C26        56.000                                                                                                                                    22100428.567 8 115082814.62708       544.385 8        50.729                                                                    22100430.123 8  93514255.64108       442.491 8        49.812
C02        57.000                                                                                                                                    41097492.967 5 214005279.08805      -480.917 5        32.150    41097498.841 5 165482399.39005      -371.960 5        35.881    41097499.278 5 173896781.19905      -390.371 5        32.389
I03        58.000    91078979.463 5 281627955.94905       955.460 5        32.850
C21        59.000                                                                                                                                    26994537.674 6 140567378.04806     -3728.432 6        39.838                                                                    26994545.126 6 114222430.25706     -3029.649 6        40.453
R24        60.000    21111876.136 8 112894806.17808      2281.057 8        49.425                                                                    21111880.476 7  87807133.63807      1774.158 7        45.368
> 2025 01 02 12 30 20.0000000  0 56
E24         1.000    23875727.061 8 125467913.63408     -1229.908 8        48.656                                                                    23875729.346 8  93693641.10808      -918.463 8        50.664    23875728.598 8  96137811.80408      -942.412 8        51.565
G15         2.000    25338123.712 6 133152457.47806     -4353.909 6        39.616                                    25338136.157 4 103755079.43804     -3392.628 4        29.782    25338136.492 5 103755074.39405     -3392.772 5        35.305
E03         3.000    25052765.037 7 131653176.88607       -33.735 7        45.217                                                                    25052770.969 8  98312451.24808       -25.195 8        48.182    25052770.022 8 100877124.66008       -25.897 8        48.769
G19         4.000    22118819.229 7 116235326.22507     -2711.435 7        45.767                                    22118818.701 5  90573010.03205     -2112.806 5        34.505
S21         5.000    38576028.564 7 202717979.61207      -520.415 7        42.967
E05         6.000    23525625.832 7 123627925.02307     -2756.300 7        46.525                                                                    23525632.151 8  92319518.77208     -2058.323 8        48.623    23525631.062 8  94727854.70908     -2112.004 8        49.245
G25         7.000    22127337.432 7 116280053.93607      2318.127 7        44.056                                    22127341.320 6  90607903.83406      1806.331 6        41.754    22127342.133 6  90607904.83606      1806.267 6        41.175
C29         8.000                                                                                                                                    23080360.529 8 120185521.45908      -665.547 8        48.749                                                                    23080361.850 7  97660598.69407      -540.899 7        47.684
R05         9.000    21224267.634 8 113455932.10808     -1198.902 8        49.601                                                                    21224271.927 7  88243556.22307      -932.527 7        45.740
G24        10.000    20720690.659 8 108887963.08608     -2290.865 8        50.170                                    20720692.450 8  84847777.67108     -1785.088 8        52.010    20720692.834 7  84847782.66807     -1785.017 7        46.148
C14        11.000                                                                                                                                    25104818.478 7 130727383.25407     -1513.717 7        43.100    25104822.232 7 101086731.65307     -1170.523 7        46.593    25104818.674 7 106226718.14207     -1230.035 7        43.918
S27        12.000    39352741.998 6 206799950.91906      -542.765 6        36.556
E08        13.000    28339614.446 6 148925695.65806      2074.518 6        38.042                                                                    28339629.880 6 111210810.65006      1549.163 6        40.896    28339627.430 6 114111953.41406      1589.553 6        41.917
S36        14.000    38346947.873 7 201515002.72407      -520.300 7        44.930
G06        15.000    23531525.469 6 123659080.95706      1215.425 6        41.857                                    23531531.711 6  96357789.36806       947.086 6        38.159    23531532.697 6  96357791.37806       947.087 6        40.939
E09        16.000    28531693.463 4 149934800.49704     -3780.961 4        27.329                                                                    28531712.595 5 111964216.03105     -2823.555 5        34.429    28531710.375 5 114885027.47505     -2897.209 5        34.381
G12        17.000    20397630.286 8 107190446.58108       201.631 8        50.843                                    20397628.627 8  83525106.12208       157.116 8        51.326    20397629.509 7  83525103.12307       157.130 7        46.030
G32        18.000    23610501.403 7 124074050.56907      1467.272 7        44.540                                    23610506.659 6  96681125.94506      1143.328 6        40.348    23610507.278 6  96681129.95006      1143.411 6        40.462
R22        19.000    24698479.687 6 131842226.39706     -4342.765 6        36.529                                                                    24698485.905 6 102543947.62706     -3377.935 6        36.616
E10        21.000    28142657.151 6 147890693.02306      2490.852 6        38.405                                                                    28142671.354 6 110437933.63606      1860.074 6        41.039    28142669.831 7 113318914.64807      1908.480 7        42.163
I06        22.000    38569916.756 6 151356723.04506      -497.393 6        41.890
S28        23.000    41043099.942 5 215682738.63005      -529.451 5        35.214
S23        25.000    38285255.221 7 201190234.95607      -525.171 7        45.029
S45        26.000    63537927.689 6 333895441.22006      -582.644 6        36.446
C07        27.000                                                                                                                                    40193359.128 6 209297271.45806     -1442.835 6        38.622    40193362.240 6 161841895.23906     -1115.709 6        40.610    40193359.196 6 170071139.68806     -1172.428 6        38.937
R04        28.000    22203420.746 7 118898237.47307     -4347.802 7        47.714                                                                    22203425.883 7  92476369.23707     -3381.590 7        43.594
C40        29.000                                                                                                                                    40684172.672 6 211853059.55006     -1721.417 6        39.180                                                                    40684178.593 6 172147947.00606     -1398.797 6        39.213
G17        30.000    25025022.657 6 131507418.94506     -3872.729 6        39.294                                    25025028.238 5 102473351.49605     -3017.711 5        30.709    25025028.742 6 102473348.49006     -3017.770 6        36.318
E12        31.000    27526837.401 5 144654565.38005      2054.887 5        35.614                                                                    27526844.873 6 108021340.93306      1534.500 6        40.205    27526843.917 6 110839276.31306      1574.619 6        40.760
G11        32.000    24741819.554 6 130019186.81906      2530.556 6        40.498                                    24741827.086 3 101313713.24803      1971.850 3        23.905    24741827.079 6 101313704.27506      1971.967 6        39.985
I02        33.000    37096804.603 7 145575808.53507      -519.841 7        43.014
R15        34.000    21294948.385 8 113793839.66408      2071.847 8        49.261                                                                    21294953.198 7  88506376.72807      1611.503 7        44.897
R13        35.000    22800607.799 6 121753916.40906     -3652.029 6        39.643
G29        36.000    25936360.026 5 136296489.92615      3335.652 5        33.024
C42        37.000                                                                                                                                    25177357.748 7 131105055.90807     -2717.464 7        44.199                                                                    25177371.725 7 106533631.30807     -2208.163 7        44.206
C10        38.000                                                                                                                                    39256004.534 6 204416268.10206     -1185.447 6        40.343    39256008.460 7 158067614.05607      -916.662 7        42.900    39256004.633 6 166104941.42706      -963.194 6        40.131
E25        39.000    24659693.337 7 129587719.63607      1115.437 7        46.684                                                                    24659698.695 8  96770163.53508       832.904 8        49.135    24659697.700 8  99294588.80408       854.667 8        49.686
C30        40.000                                                                                                                                    26315709.438 6 137032790.69906     -3247.174 6        40.493                                                                    26315717.884 6 111350397.53306     -2638.608 6        39.036
R23        41.000    21583533.031 7 115457429.97407     -2078.421 7        46.805
S44        42.000    40928235.173 6 215079345.43406      -451.895 6        37.267
C36        43.000                                                                                                                                    26917464.646 5 140166101.31605     -3374.241 5        35.195                                                                    26917479.575 6 113896416.48906     -2741.864 6        37.716
C05        44.000                                                                                                                                    39599131.337 6 206202958.87806      -525.657 6        38.769    39599134.863 7 159449194.97907      -406.311 7        42.569    39599134.795 6 167556868.43406      -427.070 6        39.610
R14        45.000    19610283.385 8 104533953.79708      -852.441 8        51.735                                                                    19610287.366 8  81304267.69608      -663.019 8        48.266
E26        46.000    28936487.445 5 152062358.54405     -2331.503 5        31.487                                                                    28936494.962 5 113553142.49105     -1740.965 5        35.862    28936493.449 6 116515385.86806     -1786.464 6        36.110
C35        48.000                                                                                                                                    23950998.469 7 124719220.59407      2427.080 7        47.157                                                                    23951002.345 7 101344630.88507      1972.122 7        46.197
C45        50.000                                                                                                                                    22917495.061 8 119337409.92508     -2332.798 8        49.217                                                                    22917490.724 8  96971403.64408     -1895.671 8        49.287
S48        51.000    77283313.777 6 406127355.23706      -528.087 6        38.351
C33        52.000                                                                                                                                    25757593.912 7 134126557.23407      -153.873 7        43.009                                                                    25757613.240 7 108988897.91307      -125.182 7        43.012
E33        53.000    26987005.791 6 141817780.29306      -187.268 6        40.281                                                                    26987014.167 7 105902964.03907      -139.901 7        42.938    26987012.643 7 108665638.46807      -143.546 7        43.788
C60        54.000                                                                                                                                    40928239.272 6 213124096.35006      -447.557 6        39.042                                                                    40928233.765 6 173180715.41806      -363.718 6        39.634
E31        55.000    26739169.292 6 140515200.15506     -2908.112 6        40.918                                                                    26739178.874 7 104930188.45107     -2171.637 7        43.475    26739177.638 7 107667496.81107     -2228.323 7        44.521
C26        56.000                                                                                                                                    22099906.577 8 115080096.97408       542.948 8        50.825                                                                    22099908.237 8  93512047.33408       441.066 8        49.726
C02        57.000                                                                                                                                    41097954.291 5 214007684.30405      -480.894 5        31.864    41097960.880 6 165484259.23706      -371.877 6        36.110    41097961.050 5 173898735.63405      -391.118 5        32.281
I03        58.000    91077761.161 5 281623179.54805       955.222 5        32.659
C21        59.000                                                                                                                                    26998117.232 6 140586020.34206     -3728.292 6        39.877                                                                    26998125.264 6 114237578.58506     -3029.576 6        40.176
R24        60.000    21109744.824 8 112883410.16908      2277.667 8        49.044                                                                    21109748.957 7  87798270.09007      1771.558 7        45.424
> 2025 01 02 12 30 25.0000000  0 56
E24         1.000    23876897.874 8 125474066.32608     -1231.376 8        48.613                                                                    23876900.171 8  93698235.63508      -919.502 8        50.807    23876899.363 8  96142526.19608      -943.521 8        51.568
G15         2.000    25342266.196 6 133174226.29006     -4353.673 6        39.643                                    25342278.780 4 103772042.04204     -3392.452 4        29.498    25342278.933 5 103772037.00105     -3392.411 5        35.438
E03         3.000    25052798.457 7 131653352.00207       -36.414 7        44.993                                                                    25052804.298 8  98312582.02208       -27.224 8        48.265    25052803.412 8 100877258.84008       -27.869 8        48.745
G19         4.000    22121400.553 7 116248889.81707     -2714.177 7        45.518                                    22121399.739 5  90583579.04605     -2114.942 5        34.410
S21         5.000    38576523.510 7 202720581.35507      -520.680 7        43.084
E05         6.000    23528249.123 7 123641711.17807     -2758.311 7        46.292                                                                    23528255.559 8  92329813.61008     -2059.763 8        48.751    23528254.482 8  94738418.10808     -2113.501 8        49.168
G25         7.000    22125132.676 7 116268467.73307      2316.361 7        44.560                                    22125136.524 6  90598875.62906      1804.954 6        41.640    22125137.259 6  90598876.63706      1804.847 6        41.032
C29         8.000                                                                                                                                    23081001.396 8 120188856.61208      -668.663 8        48.710                                                                    23081002.363 7  97663308.78407      -543.315 7        47.558
R05         9.000    21225390.858 8 113461938.57908     -1203.771 8        48.385                                                                    21225395.676 7  88248227.91807      -936.260 7        45.737
G24        10.000    20722871.679 8 108899424.34108     -2293.762 8        50.349                                    20722873.439 8  84856708.51108     -1787.349 8        51.918    20722873.617 7  84856713.51507     -1787.329 7        45.904
C14        11.000                                                                                                                                    25106273.529 7 130734958.64907     -1516.556 7        42.991    25106276.757 7 101092589.41507     -1172.735 7        46.503    25106273.509 7 106232873.76007     -1232.281 7        43.680
S27        12.000    39353260.559 6 206802664.91206      -543.088 6        36.847
E08        13.000    28337640.818 6 148915325.72506      2073.313 6        38.351                                                                    28337656.253 6 111203066.91406      1548.188 6        40.984    28337654.281 6 114104007.66606      1588.548 6        41.709
S36        14.000    38347444.947 7 201517604.67207      -520.859 7        45.043
G06        15.000    23530370.561 7 123653010.63807      1212.514 7        42.019                                    23530376.517 6  96353059.25306       944.815 6        38.135    23530377.104 6  96353061.27006       944.621 6        40.627
E09        16.000    28535290.412 4 149953705.41604     -3781.580 4        27.665                                                                    28535310.554 5 111978333.21105     -2823.544 5        34.557    28535307.805 5 114899512.98005     -2897.492 5        34.371
G12        17.000    20397439.298 8 107189444.36608       199.133 8        50.666                                    20397437.908 8  83524325.17408       155.168 8        51.235    20397438.534 7  83524322.17807       155.163 7        46.088
G32        18.000    23609106.884 7 124066721.13107      1464.290 7        44.861                                    23609111.933 6  96675414.70006      1141.003 6        40.260    23609112.352 6  96675418.70506      1140.997 6        39.862
R22        19.000    24702547.851 6 131863944.87906     -4344.764 6        36.987                                                                    24702554.284 6 102560839.89806     -3379.353 6        36.900
E10        21.000    28140287.110 6 147878239.47706      2490.422 6        38.586                                                                    28140301.434 6 110428634.02306      1859.735 6        41.349    28140299.909 7 113309372.41907      1908.188 7        42.324
I06        22.000    38570550.340 7 151359210.16007      -497.658 7        42.021
S28        23.000    41043601.131 5 215685386.25805      -529.592 5        35.252
S23        25.000    38285756.329 7 201192861.26607      -525.536 7        45.336
S45        26.000    63538431.073 6 333896753.89716      -582.636 6        36.597
C07        27.000                                                                                                                                    40194745.698 6 209304486.50406     -1443.246 6        38.592    40194747.813 6 161847474.35906     -1115.911 6        40.768    40194744.771 6 170077002.50206     -1172.740 6        38.712
R04        28.000    22207481.586 8 118919981.61008     -4350.023 8        48.155                                                                    22207485.624 7  92493281.31407     -3383.452 7        42.921
C40        29.000                                                                                                                                    40685825.402 6 211861666.69406     -1721.784 6        39.282                                                                    40685831.684 6 172154941.02206     -1398.941 6        38.853
G17        30.000    25028707.602 6 131526785.03406     -3873.751 6        39.126                                    25028713.615 5 102488441.94205     -3018.514 5        30.679    25028713.965 6 102488438.94906     -3018.639 6        36.442
E12        31.000    27524882.825 5 144644293.88805      2053.349 5        35.914                                                                    27524890.160 6 108013670.68206      1533.479 6        40.355    27524889.365 6 110831405.96906      1573.446 6        40.970
G11        32.000    24739412.207 6 130006535.95006      2529.440 6        41.156                                    24739419.671 4 101303855.48104      1970.976 4        24.090    24739419.427 6 101303846.49806      1971.194 6        39.733
I02        33.000    37097467.127 7 145578408.44407      -520.078 7        43.082
R15        34.000    21293009.846 8 113783483.53708      2070.507 8        49.603                                                                    21293014.805 7  88498321.97407      1610.383 7        44.780
R13        35.000    22804027.446 6 121772178.59206     -3652.981 6        39.943
G29        36.000    25933185.416 5 136279811.38705      3335.602 5        33.563
C42        37.000                                                                                                                                    25179968.294 7 131118648.02307     -2719.522 7        44.439                                                                    25179981.878 7 106544676.01107     -2209.864 7        44.149
C10        38.000                                                                                                                                    39257142.754 6 204422195.52706     -1185.707 6        40.396    39257146.811 7 158072197.52207      -916.896 7        43.010    39257143.085 6 166109757.95906      -963.441 6        40.057
E25        39.000    24658632.320 7 129582145.26907      1114.166 7        46.582                                                                    24658637.832 8  96766000.86208       831.978 8        49.286    24658636.897 8  99290317.54108       853.696 8        49.665
C30        40.000                                                                                                                                    26318827.952 6 137049031.10506     -3249.002 6        40.474                                                                    26318836.580 6 111363594.21606     -2639.933 6        39.264
R23        41.000    21585477.927 7 115467833.27307     -2083.154 7        45.791
S44        42.000    40928665.536 6 215081604.31306      -451.904 6        37.180
C36        43.000                                                                                                                                    26920705.037 5 140182973.39405     -3374.765 5        35.252                                                                    26920720.027 6 113910126.41306     -2742.060 6        37.520
C05        44.000                                                                                                                                    39599635.571 6 206205585.88906      -525.597 6        38.904    39599639.320 7 159451226.38807      -406.421 7        42.775    39599639.141 6 167559003.12206      -427.024 6        39.652
R14        45.000    19611084.230 8 104538221.66708      -854.821 8        51.885                                                                    19611088.123 7  81307587.14607      -664.872 7        47.864
E26        46.000    28938706.641 5 152074020.93505     -2333.740 5        31.713                                                                    28938714.083 5 113561851.56405     -1742.349 5        35.552    28938712.527 5 116524322.13205     -1788.181 5        35.533
C35        48.000                                                                                                                                    23948668.948 7 124707089.01507      2425.397 7        47.172                                                                    23948672.608 7 101334773.00907      1970.910 7        46.159
C45        50.000                                                                                                                                    22919735.843 8 119349077.08708     -2334.263 8        49.189                                                                    22919731.283 8  96980884.16608     -1896.745 8        49.226
S48        51.000    77283811.813 6 406129995.55906      -528.188 6        38.225
C33        52.000                                                                                                                                    25757742.864 7 134127334.37107      -157.013 7        42.821                                                                    25757762.414 7 108989529.40207      -127.701 7        42.995
E33        53.000    26987185.160 6 141818723.46606      -190.081 6        40.021                                                                    26987193.686 7 105903668.36907      -141.999 7        42.954    26987192.102 7 108666361.17607      -145.791 7        43.628
C60        54.000                                                                                                                                    40928669.326 6 213126334.69906      -447.805 6        39.024                                                                    40928663.528 6 173182534.29106      -363.940 6        39.628
E31        55.000    26741936.398 6 140529741.50306     -2908.571 6        40.653                                                                    26741946.081 7 104941047.23907     -2172.003 7        43.577    26741944.690 7 107678638.87107     -2228.624 7        44.277
C26        56.000                                                                                                                                    22099385.843 8 115077386.13308       541.273 8        50.703                                                                    22099387.644 8  93509844.55308       439.882 8        49.613
C02        57.000                                                                                                                                    41098416.143 5 214010089.02105      -481.298 5        31.917    41098422.593 6 165486118.71506      -371.958 6        36.231    41098423.102 5 173900689.67805      -391.229 5        32.527
I03        58.000    91076543.730 5 281618402.65905       955.227 5        32.856
C21        59.000                                                                                                                                    27001697.106 6 140604660.59006     -3728.044 6        39.321                                                                    27001705.089 6 114252725.24806     -3029.255 6        39.862
R24        60.000    21107617.002 8 112872030.95208      2273.929 8        49.819                                                                    21107621.406 7  87789419.60307      1768.495 7        45.195
> 2025 01 02 12 30 30.0000000  0 56
E24         1.000    23878069.778 8 125480225.18608     -1232.101 8        48.553                                                                    23878072.133 8  93702834.77508      -920.112 8        50.797    23878071.386 8  96147245.31108      -944.096 8        51.613
G15         2.000    25346408.199 6 133195993.07506     -4352.981 6        39.447                                    25346420.907 4 103789003.06904     -3391.921 4        29.365    25346421.562 5 103788998.01505     -3391.834 5        35.329
E03         3.000    25052834.537 7 131653539.65107       -38.524 7        45.082                                                                    25052839.989 8  98312722.14908       -28.737 8        48.179    25052839.111 8 100877402.62608       -29.545 8        48.772
G19         4.000    22123984.145 7 116262466.59907     -2716.350 7        45.046                                    22123983.353 5  90594158.34205     -2116.635 5        34.429
S21         5.000    38577022.901 7 202723183.68507      -520.349 7        42.838
E05         6.000    23530874.303 7 123655506.35707     -2759.621 7        46.039                                                                    23530880.686 8  92340115.18108     -2060.735 8        48.693    23530879.649 8  94748988.42308     -2114.522 8        49.152
G25         7.000    22122929.106 7 116256888.61307      2315.292 7        44.438                                    22122933.096 6  90589852.94706      1804.122 6        41.702    22122934.268 6  90589853.95406      1804.135 6        41.754
C29         8.000                                                                                                                                    23081644.554 8 120192206.66108      -671.289 8        48.610                                                                    23081645.715 7  97666030.98507      -545.421 7        47.432
R05         9.000    21226519.053 8 113467968.47608     -1208.053 8        48.950                                                                    21226523.478 7  88252917.81307      -939.616 7        45.129
G24        10.000    20725055.065 8 108910899.12708     -2296.000 8        50.287                                    20725057.004 8  84865649.89608     -1789.090 8        51.940    20725057.161 7  84865654.89707     -1789.096 7        46.262
C14        11.000                                                                                                                                    25107730.490 7 130742547.64107     -1518.871 7        43.156    25107733.936 7 101098457.66907     -1174.415 7        46.473    25107730.850 7 106239040.42807     -1234.107 7        43.820
S27        12.000    39353774.813 6 206805379.46306      -542.704 6        36.870
E08        13.000    28335668.749 6 148904962.06706      2072.279 6        38.030                                                                    28335683.962 6 111195327.84106      1547.482 6        40.682    28335681.960 6 114096066.68906      1587.937 6        41.616
S36        14.000    38347940.322 7 201520208.01907      -520.490 7        44.889
G06        15.000    23529218.166 7 123646954.09307      1210.175 7        42.127                                    23529223.983 6  96348339.87506       942.995 6        38.282    23529224.841 6  96348341.87406       942.931 6        40.868
E09        16.000    28538887.765 4 149972610.08704     -3780.959 4        27.150                                                                    28538908.065 5 111992450.20205     -2823.231 5        34.429    28538905.220 5 114913998.24105     -2896.946 5        34.324
G12        17.000    20397250.908 8 107188454.11908       197.073 8        50.693                                    20397249.474 8  83523553.55508       153.563 8        51.255    20397250.103 7  83523550.55007       153.595 7        46.387
G32        18.000    23607714.829 7 124059405.45907      1461.929 7        43.977                                    23607719.797 6  96669714.17506      1139.166 6        40.379    23607720.568 6  96669718.17806      1139.356 6        40.532
R22        19.000    24706618.829 6 131885672.74506     -4346.375 6        36.234                                                                    24706624.143 6 102577739.48206     -3380.596 6        36.038
E10        21.000    28137917.409 6 147865787.21706      2490.697 6        38.399                                                                    28137931.956 6 110419335.36606      1859.698 6        41.280    28137930.306 7 113299831.17707      1908.339 7        42.341
I06        22.000    38571184.228 7 151361697.57107      -497.361 7        42.169
S28        23.000    41044103.580 5 215688034.30605      -529.286 5        35.057
S23        25.000    38286257.196 7 201195488.05307      -525.104 7        45.142
S45        26.000    63538935.432 6 333899667.17606      -582.509 6        36.499
C07        27.000                                                                                                                                    40196131.792 6 209311702.38806     -1442.973 6        38.757    40196133.509 6 161853054.16306     -1115.822 6        41.063    40196130.529 6 170082866.01706     -1172.622 6        38.850
R04        28.000    22211543.906 7 118941736.21207     -4351.718 7        47.975                                                                    22211548.879 7  92510201.53307     -3384.714 7        42.794
C40        29.000                                                                                                                                    40687479.109 6 211870274.52706     -1721.468 6        38.979                                                                    40687484.764 6 172161935.61406     -1398.739 6        38.766
G17        30.000    25032394.184 6 131546155.12206     -3874.156 6        39.243                                    25032399.752 5 102503535.52005     -3018.823 5        30.649    25032399.712 6 102503532.51106     -3018.754 6        36.325
E12        31.000    27522929.377 5 144634028.44205      2052.977 5        35.581                                                                    27522936.808 6 108006004.94406      1532.939 6        40.005    27522935.997 6 110823540.26106      1572.802 6        40.975
G11        32.000    24737005.564 6 129993889.28106      2529.191 6        41.409                                    24737012.914 4 101294000.99104      1970.785 4        24.436    24737013.225 6 101293992.01806      1970.795 6        39.589
I02        33.000    37098130.042 7 145581009.58107      -520.214 7        43.039
R15        34.000    21291073.255 8 113773133.47608      2069.730 8        49.698                                                                    21291078.811 7  88490271.93607      1609.809 7        45.394
R13        35.000    22807449.081 6 121790445.12206     -3653.410 6        39.952
G29        36.000    25930012.019 5 136263132.86205      3336.044 5        33.689
C42        37.000                                                                                                                                    25182580.221 7 131132249.62407     -2720.966 7        44.369                                                                    25182593.834 7 106555728.42207     -2210.996 7        44.105
C10        38.000                                                                                                                                    39258281.378 6 204428124.35506     -1185.799 6        40.727    39258285.182 7 158076782.05707      -916.789 7        43.145    39258281.648 6 166114575.62006      -963.317 6        39.859
E25        39.000    24657572.947 7 129576576.32507      1113.490 7        46.655                                                                    24657578.182 8  96761842.23808       831.533 8        49.262    24657577.154 8  99286050.43208       853.237 8        49.681
C30        40.000                                                                                                                                    26321948.451 6 137065279.36006     -3250.184 6        40.772                                                                    26321956.871 6 111376797.29406     -2640.888 6        38.796
R23        41.000    21587425.911 7 115478258.97007     -2087.103 7        46.226
S44        42.000    40929097.382 6 215083863.61206      -451.722 6        36.960
C36        43.000                                                                                                                                    26923945.460 5 140199846.94605     -3374.689 5        35.410                                                                    26923960.615 6 113923837.56206     -2742.151 6        37.448
C05        44.000                                                                                                                                    39600140.372 6 206208213.29506      -525.378 6        38.799    39600144.314 7 159453258.07207      -406.067 7        42.944    39600143.647 6 167561138.11406      -426.746 6        39.498
R14        45.000    19611886.911 8 104542500.46408      -856.613 8        51.851                                                                    19611890.792 7  81310915.08607      -666.221 7        47.970
E26        46.000    28940927.857 5 152085693.27105     -2335.288 5        31.283                                                                    28940935.024 5 113570568.06005     -1743.981 5        35.724    28940933.727 5 116533266.00105     -1789.332 5        35.405
C35        48.000                                                                                                                                    23946340.763 7 124694964.87307      2424.488 7        47.185                                                                    23946344.278 7 101324921.19107      1969.998 7        46.175
C45        50.000                                                                                                                                    22921977.571 8 119360750.89808     -2335.136 8        48.953                                                                    22921973.176 8  96990370.10108     -1897.534 8        49.119
S48        51.000    77284307.296 6 406132636.46606      -527.970 6        37.580
C33        52.000                                                                                                                                    25757895.593 7 134128126.16307      -159.552 7        43.185                                                                    25757914.610 7 108990172.80707      -129.607 7        42.864
E33        53.000    26987367.518 6 141819679.72006      -192.315 6        39.697                                                                    26987375.630 7 105904382.44707      -143.552 7        42.955    26987374.086 7 108667093.87907      -147.350 7        43.566
C60        54.000                                                                                                                                    40929099.313 6 213128573.45806      -447.515 6        38.814                                                                    40929093.447 6 173184353.50006      -363.747 6        39.577
E31        55.000    26744703.928 6 140544284.42506     -2908.349 6        40.138                                                                    26744713.415 7 104951907.19707     -2171.902 7        43.475    26744712.074 7 107689782.12907     -2228.507 7        44.137
C26        56.000                                                                                                                                    22098866.697 8 115074682.96508       540.124 8        50.812                                                                    22098868.546 8  93507648.01708       438.893 8        49.533
C02        57.000                                                                                                                                    41098877.713 5 214012493.99305      -480.653 5        32.174    41098884.333 6 165487978.40406      -371.778 6        36.095    41098884.757 5 173902643.94005      -390.655 5        31.826
I03        58.000    91075326.867 5 281613625.90305       955.571 5        32.970
C21        59.000                                                                                                                                    27005276.142 6 140623299.65806     -3727.474 6        39.231                                                                    27005284.521 6 114267870.98006     -3028.638 6        39.916
R24        60.000    21105492.717 8 112860669.40608      2270.835 8        49.368                                                                    21105496.433 7  87780582.84007      1766.150 7        45.041
> 2025 01 02 12 30 35.0000000  0 56
E24         1.000    23879242.942 8 125486389.64508     -1233.512 8        48.350                                                                    23879245.211 8  93707438.09208      -921.170 8        50.742    23879244.413 8  96151968.71808      -945.176 8        51.587
G15         2.000    25350549.582 6 133217757.27806     -4352.660 6        39.051                                    25350562.716 4 103805962.08504     -3391.664 4        29.327    25350563.091 5 103805957.04005     -3391.778 5        35.748
E03         3.000    25052872.386 7 131653739.25907       -41.219 7        45.147                                                                    25052878.051 8  98312871.20608       -30.745 8        48.157    25052877.055 8 100877555.57308       -31.583 8        48.765
G19         4.000    22126569.904 7 116276055.99907     -2719.235 7        45.181                                    22126569.279 5  90604747.47505     -2118.880 5        34.490
S21         5.000    38577513.474 7 202725786.15507      -520.620 7        42.889
E05         6.000    23533500.986 7 123669309.98607     -2761.662 7        45.698                                                                    23533507.501 8  92350423.06508     -2062.272 8        48.647    23533506.338 8  94759565.20908     -2116.071 8        49.174
G25         7.000    22120726.794 7 116245316.00207      2313.831 7        44.202                                    22120730.898 6  90580835.33706      1802.982 6        41.752    22120732.065 6  90580836.35006      1802.988 6        41.249
C29         8.000                                                                                                                                    23082290.370 8 120195571.03408      -674.369 8        48.653                                                                    23082291.812 7  97668764.81507      -548.058 7        47.447
R05         9.000    21227651.992 8 113474021.23008     -1212.886 8        49.239                                                                    21227655.745 7  88257625.48307      -943.327 7        45.567
G24        10.000    20727241.092 8 108922386.84508     -2298.947 8        50.296                                    20727243.024 8  84874601.35808     -1791.387 8        51.995    20727243.258 7  84874606.35507     -1791.367 7        46.198
C14        11.000                                                                                                                                    25109190.498 7 130750149.69307     -1521.749 7        42.893    25109194.003 7 101104336.05007     -1176.783 7        46.544    25109190.747 7 106245217.69907     -1236.731 7        43.746
S27        12.000    39354290.762 6 206808093.56606      -542.730 6        36.756
E08        13.000    28333698.313 6 148894604.11106      2070.950 6        37.667                                                                    28333712.825 6 111187593.03806      1546.530 6        40.608    28333710.884 6 114088130.11306      1586.906 6        41.704
S36        14.000    38348436.668 7 201522811.93307      -520.885 7        45.105
G06        15.000    23528067.901 6 123640910.72106      1207.397 6        41.914                                    23528074.052 6  96343630.75606       940.827 6        38.474    23528074.946 6  96343632.76906       940.794 6        40.644
E09        16.000    28542485.210 4 149991513.85204     -3780.737 4        26.060                                                                    28542505.477 5 112006566.57005     -2823.230 5        34.024    28542502.662 5 114928482.89005     -2897.306 5        34.105
G12        17.000    20397065.006 8 107187475.28208       194.561 8        50.710                                    20397063.204 8  83522790.82608       151.607 8        51.322    20397063.927 7  83522787.82607       151.606 7        46.348
G32        18.000    23606324.691 7 124052102.99007      1459.095 7        43.922                                    23606330.186 6  96664023.94606      1136.956 6        40.317    23606331.181 6  96664027.95706      1136.796 6        40.353
R22        19.000    24710689.459 5 131907409.35905     -4348.304 5        35.771                                                                    24710697.011 5 102594645.88305     -3382.180 5        35.819
E10        21.000    28135547.996 6 147853335.71706      2490.036 6        38.219                                                                    28135562.233 6 110410037.24106      1859.554 6        41.204    28135560.738 7 113290290.47807      1908.104 7        42.326
I06        22.000    38571817.912 6 151364184.88006      -497.479 6        41.647
S28        23.000    41044610.009 5 215690682.38105      -529.766 5        35.281
S23        25.000    38286755.156 7 201198114.49307      -525.287 7        45.237
S45        26.000    63539435.476 6 333902580.43606      -582.771 6        36.268
C07        27.000                                                                                                                                    40197517.367 6 209318918.63506     -1443.354 6        38.868    40197519.279 6 161858634.22006     -1115.963 6        41.044    40197516.369 6 170088729.79906     -1172.868 6        38.805
R04        28.000    22215608.594 7 118963500.82407     -4354.031 7        47.735                                                                    22215613.877 7  92527129.53507     -3386.446 7        43.570
C40        29.000                                                                                                                                    40689132.017 6 211878882.51506     -1721.701 6        38.886                                                                    40689137.799 6 172168930.32606     -1399.107 6        38.637
G17        30.000    25036080.580 6 131565528.60306     -3875.052 6        38.826                                    25036086.551 5 102518631.72505     -3019.518 5        30.604    25036086.669 6 102518628.71106     -3019.413 6        36.268
E12        31.000    27520977.285 5 144623768.44805      2051.359 5        35.533                                                                    27520984.367 6 107998343.31306      1531.762 6        40.000    27520983.556 6 110815678.74206      1571.807 6        41.035
G11        32.000    24734599.688 6 129981246.31506      2528.128 6        41.013                                    24734606.895 4 101284149.37704      1969.959 4        24.632    24734606.726 6 101284140.40106      1969.873 6        39.321
I02        33.000    37098792.867 7 145583611.29907      -520.503 7        42.823
R15        34.000    21289138.130 8 113762788.80408      2068.337 8        49.971                                                                    21289142.586 7  88482226.08907      1608.617 7        45.884
R13        35.000    22810870.076 6 121808715.18606     -3654.415 6        39.976
G29        36.000    25926838.020 5 136246453.78905      3335.568 5        33.575
C42        37.000                                                                                                                                    25185193.821 7 131145860.15307     -2723.055 7        44.227                                                                    25185207.690 7 106566788.06507     -2212.784 7        43.951
C10        38.000                                                                                                                                    39259420.846 6 204434053.93106     -1186.066 6        40.803    39259423.927 7 158081367.17007      -917.129 7        43.395    39259420.369 6 166119393.86506      -963.711 6        39.961
E25        39.000    24656513.909 7 129571012.23307      1112.253 7        46.659                                                                    24656519.380 8  96757687.23308       830.538 8        49.206    24656518.379 8  99281787.03508       852.297 8        49.668
C30        40.000                                                                                                                                    26325070.203 6 137081534.94706     -3251.949 6        40.756                                                                    26325078.539 6 111390006.31806     -2642.459 6        39.006
R23        41.000    21589379.669 7 115488706.47507     -2091.707 7        46.143
S44        42.000    40929525.607 6 215086122.76606      -451.984 6        37.221
C36        43.000                                                                                                                                    26927186.216 5 140216721.39305     -3374.992 5        35.838                                                                    26927201.265 6 113937549.42806     -2742.459 6        37.478
C05        44.000                                                                                                                                    39600644.968 6 206210840.48906      -525.523 6        38.661    39600648.570 7 159455289.62107      -406.366 7        42.838    39600648.162 6 167563272.96206      -427.192 6        39.333
R14        45.000    19612691.609 8 104546789.73408      -858.906 8        51.633                                                                    19612695.708 8  81314251.18208      -668.061 8        48.144
E26        46.000    28943149.993 5 152097375.10105     -2337.392 5        30.521                                                                    28943157.927 5 113579291.59805     -1745.470 5        35.290    28943156.195 5 116542217.06705     -1791.037 5        35.710
C35        48.000                                                                                                                                    23944013.661 7 124682847.63607      2422.678 7        47.420                                                                    23944017.328 7 101315074.96307      1968.494 7        46.001
C45        50.000                                                                                                                                    22924220.571 8 119372430.81808     -2336.653 8        48.669                                                                    22924216.191 8  96999860.97508     -1898.783 8        49.125
S48        51.000    77284795.213 6 406135277.44306      -528.335 6        37.966
C33        52.000                                                                                                                                    25758049.890 7 134128932.10307      -162.625 7        42.737                                                                    25758069.308 7 108990827.69507      -132.254 7        42.768
E33        53.000    26987551.761 6 141820648.43506      -195.119 6        39.907                                                                    26987560.035 7 105905105.84507      -145.686 7        42.897    26987558.241 7 108667836.14707      -149.469 7        43.539
C60        54.000                                                                                                                                    40929528.713 6 213130812.08306      -447.854 6        38.760                                                                    40929523.170 6 173186172.54606      -363.765 6        39.544
E31        55.000    26747471.684 6 140558828.36706     -2909.029 6        39.982                                                                    26747481.128 7 104962767.90507     -2172.267 7        43.475    26747479.699 7 107700926.17307     -2228.927 7        44.008
C26        56.000                                                                                                                                    22098349.037 8 115071986.90308       538.416 8        50.831                                                                    22098350.772 8  93505457.24508       437.410 8        49.505
C02        57.000                                                                                                                                    41099339.493 5 214014898.79405      -481.129 5        31.970    41099346.122 6 165489837.95106      -372.037 6        36.212    41099346.667 5 173904598.00205      -391.020 5        32.108
I03        58.000    91074110.630 5 281608848.86405       955.481 5        32.844
C21        59.000                                                                                                                                    27008855.789 6 140641936.95506     -3727.331 6        39.306                                                                    27008863.655 6 114283015.25906     -3028.807 6        39.757
R24        60.000    21103370.228 8 112849324.87408      2267.081 8        49.253                                                                    21103375.298 7  87771759.32707      1763.278 7        44.987
> 2025 01 02 12 30 40.0000000  0 56
E24         1.000    23880417.165 8 125492559.71608     -1234.816 8        48.304                                                                    23880419.352 8  93712045.60308      -922.062 8        50.853    23880418.562 8  96156696.42408      -946.119 8        51.604
G15         2.000    25354691.063 6 133239518.93406     -4352.268 6        38.904                                    25354704.038 4 103822919.11604     -3391.362 4        29.090    25354704.103 5 103822914.07705     -3391.402 5        35.271
E03         3.000    25052912.289 7 131653950.84207       -43.758 7        44.996                                                                    25052918.273 8  98313029.21108       -32.604 8        48.283    25052917.324 8 100877717.69708       -33.457 8        48.793
G19         4.000    22129158.495 7 116289658.00507     -2721.793 7        45.479                                    22129157.665 5  90615346.42305     -2120.872 5        34.405
S21         5.000    38578010.012 7 202728388.80307      -520.691 7        42.773
E05         6.000    23536129.284 7 123683122.05407     -2763.444 7        45.759                                                                    23536135.811 8  92360737.26608     -2063.650 8        48.817    23536134.684 8  94770148.47708     -2117.493 8        49.172
G25         7.000    22118525.984 7 116233749.97407      2312.292 7        44.615                                    22118529.916 6  90571822.85506      1801.782 6        41.764    22118530.665 6  90571823.87106      1801.721 6        41.726
C29         8.000                                                                                                                                    23082939.003 8 120198949.75908      -677.415 8        48.267                                                                    23082940.563 7  97671510.29007      -550.240 7        47.497
R05         9.000    21228787.935 8 113480096.64108     -1217.566 8        49.203                                                                    21228792.605 7  88262350.80907      -947.018 7        45.914
G24        10.000    20729429.780 8 108933887.50008     -2301.587 8        49.842                                    20729431.521 8  84883562.90308     -1793.444 8        51.941    20729431.821 7  84883567.91107     -1793.480 7        46.017
C14        11.000                                                                                                                                    25110652.506 7 130757764.78507     -1524.512 7        42.762    25110656.584 7 101110224.49807     -1178.831 7        46.564    25110653.253 7 106251405.55207     -1238.612 7        43.807
S27        12.000    39354809.417 6 206810808.36706      -543.079 6        36.968
E08        13.000    28331728.363 6 148884251.82606      2069.829 6        37.845                                                                    28331743.022 6 111179862.48106      1545.572 6        40.949    28331740.910 7 114080197.88707      1585.884 7        42.000
S36        14.000    38348932.124 7 201525416.29407      -520.768 7        45.091
G06        15.000    23526920.523 6 123634880.55606      1204.436 6        41.933                                    23526926.589 6  96338931.93506       938.519 6        38.471    23526927.031 6  96338933.93906       938.595 6        40.758
E09        16.000    28546082.134 4 150010416.77704     -3780.749 4        26.383                                                                    28546102.754 5 112020682.30905     -2823.204 5        34.276    28546099.993 5 114942966.86105     -2896.756 5        34.067
G12        17.000    20396880.855 8 107186507.86608       192.152 8        50.693                                    20396879.107 8  83522036.99808       149.730 8        51.286    20396879.424 7  83522033.99507       149.755 7        46.194
G32        18.000    23604937.782 7 124044813.76507      1456.365 7        44.485                                    23604943.071 6  96658344.03606      1134.830 6        40.255    23604943.523 6  96658348.04106      1134.810 6        40.288
R22        19.000    24714764.899 5 131929154.70605     -4350.215 5        35.029                                                                    24714769.881 5 102611559.13305     -3383.636 5        35.467
E10        21.000    28133178.608 6 147840884.93006      2489.900 6        38.147                                                                    28133192.727 6 110400739.69006      1859.371 6        41.333    28133191.435 7 113280750.37507      1907.763 7        42.499
I06        22.000    38572451.659 6 151366672.10706      -497.568 6        41.912
S28        23.000    41045114.958 5 215693330.42105      -530.192 5        35.019
S23        25.000    38287254.377 7 201200740.96507      -525.379 7        45.217
S45        26.000    63539936.758 6 333905493.68706      -582.609 6        36.234
C07        27.000                                                                                                                                    40198904.057 6 209326135.17406     -1443.556 6        38.667    40198905.255 6 161864214.52306     -1116.196 6        41.001    40198902.280 6 170094593.83406     -1172.949 6        38.736
R04        28.000    22219673.774 7 118985275.36907     -4356.110 7        47.109                                                                    22219679.996 7  92544065.26607     -3388.115 7        43.672
C40        29.000                                                                                                                                    40690785.307 6 211887490.68306     -1721.817 6        38.643                                                                    40690790.882 6 172175925.15506     -1398.908 6        38.685
G17        30.000    25039767.560 6 131584905.56306     -3876.069 6        38.730                                    25039773.892 5 102533730.64905     -3020.310 5        30.317    25039774.297 5 102533727.64405     -3020.080 5        35.995
E12        31.000    27519025.905 5 144613513.98205      2050.250 5        35.510                                                                    27519033.255 6 107990685.79706      1530.984 6        40.482    27519032.222 6 110807821.47506      1570.958 6        40.937
G11        32.000    24732194.430 6 129968607.02906      2527.400 6        40.775                                    24732201.569 4 101274300.63404      1969.380 4        24.150    24732201.597 6 101274291.67106      1969.274 6        38.940
I02        33.000    37099456.338 7 145586214.16907      -520.787 7        42.722
R15        34.000    21287203.005 8 113752449.53308      2067.161 8        49.543                                                                    21287207.747 7  88474184.44107      1607.751 7        45.663
R13        35.000    22814291.908 6 121826988.80906     -3655.134 6        39.967
G29        36.000    25923663.675 5 136229774.14805      3335.578 5        33.138
C42        37.000                                                                                                                                    25187809.327 7 131159479.61007     -2725.034 7        43.723                                                                    25187823.154 7 106577854.95407     -2214.151 7        44.054
C10        38.000                                                                                                                                    39260559.599 6 204439984.26706     -1186.254 6        40.620    39260562.813 7 158085952.89307      -917.347 7        43.388    39260559.233 6 166124212.76106      -963.870 6        40.007
E25        39.000    24655456.250 7 129565453.00407      1111.119 7        46.527                                                                    24655461.492 8  96753535.87308       829.741 8        49.321    24655460.428 8  99277527.38108       851.359 8        49.706
C30        40.000                                                                                                                                    26328193.431 6 137097797.82606     -3253.550 6        40.751                                                                    26328201.638 6 111403221.27106     -2643.598 6        39.150
R23        41.000    21591337.975 7 115499175.82407     -2096.271 7        47.229
S44        42.000    40929955.831 6 215088381.75706      -451.879 6        37.191
C36        43.000                                                                                                                                    26930426.851 5 140233596.78705     -3375.214 5        35.262                                                                    26930441.841 6 113951262.05206     -2742.689 6        37.161
C05        44.000                                                                                                                                    39601149.260 6 206213467.50706      -525.536 6        38.459    39601152.665 7 159457321.01007      -406.334 7        42.760    39601152.472 6 167565407.61206      -426.985 6        39.423
R14        45.000    19613497.787 8 104551089.40008      -861.203 8        51.690                                                                    19613502.089 8  81317595.36708      -669.838 8        48.146
E26        46.000    28945375.076 5 152109066.30705     -2339.369 5        30.257                                                                    28945382.585 5 113588022.17405     -1747.026 5        34.952    28945380.689 5 116551175.37805     -1792.614 5        35.248
C35        48.000                                                                                                                                    23941688.079 7 124670737.30007      2421.203 7        47.311                                                                    23941691.721 7 101305234.34507      1967.572 7        46.179
C45        50.000                                                                                                                                    22926464.751 8 119384116.82208     -2338.015 8        48.690                                                                    22926460.414 8  97009356.79908     -1899.703 8        49.187
S48        51.000    77285294.366 6 406137918.33106      -528.488 6        37.928
C33        52.000                                                                                                                                    25758207.584 7 134129752.17807      -165.609 7        42.707                                                                    25758226.673 7 108991494.05707      -134.463 7        42.936
E33        53.000    26987738.257 6 141821629.62706      -197.693 6        40.062                                                                    26987746.777 7 105905838.57007      -147.631 7        43.005    26987744.961 7 108668587.98807      -151.433 7        43.412
C60        54.000                                                                                                                                    40929958.897 6 213133050.54006      -447.894 6        38.880                                                                    40929953.157 6 173187991.49906      -363.869 6        39.721
E31        55.000    26750239.367 6 140573373.31406     -2909.330 6        40.200                                                                    26750249.004 7 104973629.38407     -2172.532 7        43.822    26750247.565 7 107712070.99407     -2229.232 7        44.071
C26        56.000                                                                                                                                    22097832.476 8 115069297.96508       536.889 8        50.635                                                                    22097834.384 8  93503272.25308       436.363 8        49.563
C02        57.000                                                                                                                                    41099803.370 5 214017303.40105      -481.271 5        31.917    41099807.700 6 165491697.32906      -371.880 6        36.113    41099808.308 5 173906551.91805      -390.711 5        32.126
I03        58.000    91072891.873 5 281604071.53605       955.334 5        33.006
C21        59.000                                                                                                                                    27012434.579 6 140660572.49206     -3727.086 6        39.390                                                                    27012442.434 6 114298158.09406     -3028.436 6        39.649
R24        60.000    21101252.381 8 112837997.36008      2263.561 8        49.654                                                                    21101257.055 7  87762949.06407      1760.484 7        45.583
> 2025 01 02 12 30 45.0000000  0 56
E24         1.000    23881592.302 8 125498735.44608     -1235.839 8        48.484                                                                    23881594.565 8  93716657.33608      -922.850 8        50.794    23881593.786 8  96161428.46808      -946.954 8        51.587
G15         2.000    25358831.782 6 133261278.09406     -4351.881 6        38.649                                    25358844.867 4 103839874.20204     -3391.057 4        29.137    25358845.096 5 103839869.15305     -3390.879 5        35.638
E03         3.000    25052954.863 7 131654174.45407       -46.062 7        44.971                                                                    25052960.854 8  98313196.20208       -34.368 8        48.262    25052959.881 8 100877889.04408       -35.237 8        48.693
G19         4.000    22131749.277 7 116303272.67907     -2724.338 7        44.919                                    22131748.487 5  90625955.25205     -2122.856 5        34.348
S21         5.000    38578502.355 7 202730991.53607      -520.645 7        42.718
E05         6.000    23538759.768 7 123696942.64107     -2765.103 7        46.158                                                                    23538765.745 8  92371057.80808     -2064.779 8        48.739    23538764.660 8  94780738.26008     -2118.714 8        49.185
G25         7.000    22116326.376 7 116222190.55607      2311.113 7        44.922                                    22116330.217 6  90562815.52406      1800.865 6        41.845    22116330.954 6  90562816.53006      1800.839 6        41.759
C29         8.000                                                                                                                                    23083590.473 8 120202342.87908      -680.130 8        48.126                                                                    23083592.158 7  97674267.48807      -552.637 7        47.409
R05         9.000    21229929.209 8 113486195.16408     -1222.123 8        49.409                                                                    21229933.244 7  88267094.08507      -950.554 7        45.685
G24        10.000    20731620.482 8 108945401.17908     -2304.118 8        49.767                                    20731622.500 8  84892534.59308     -1795.415 8        51.940    20731622.827 7  84892539.58807     -1795.382 7        45.937
C14        11.000                                                                                                                                    25112118.132 7 130765392.96607     -1527.070 7        43.172    25112121.530 7 101116123.06007     -1180.774 7        46.538    25112118.205 7 106257604.06807     -1240.939 7        43.750
S27        12.000    39355329.096 6 206813522.51106      -543.160 6        36.722
E08        13.000    28329759.166 6 148873905.31606      2068.624 6        37.456                                                                    28329774.405 6 111172136.21306      1544.637 6        41.111    28329771.999 7 114072270.05707      1584.881 7        42.108
S36        14.000    38349432.060 7 201528020.26907      -521.081 7        45.309
G06        15.000    23525775.307 6 123628863.69406      1202.009 6        41.449                                    23525781.585 6  96334243.47906       936.632 6        38.444    23525782.588 6  96334245.47706       936.643 6        40.791
E09        16.000    28549679.826 4 150029318.94304     -3780.552 4        26.539                                                                    28549699.682 5 112034797.48605     -2823.066 5        34.057    28549697.119 5 114957450.26405     -2896.660 5        33.910
G12        17.000    20396698.782 8 107185551.91308       189.898 8        50.714                                    20396697.193 8  83521292.09808       147.973 8        51.289    20396697.794 7  83521289.10307       147.904 7        46.200
G32        18.000    23603553.551 7 124037537.82407      1453.730 7        44.339                                    23603558.545 6  96652674.47906      1132.777 6        40.288    23603559.030 6  96652678.48606      1132.652 6        40.765
R22        19.000    24718838.288 5 131950908.84205     -4351.655 5        35.476                                                                    24718844.893 5 102628479.14805     -3384.716 5        35.986
E10        21.000    28130809.454 6 147828434.97106      2489.875 6        38.559                                                                    28130823.594 6 110391442.74806      1859.266 6        41.247    28130822.196 7 113271210.88407      1907.815 7        42.375
I06        22.000    38573085.638 6 151369159.29606      -497.524 6        41.743
S28        23.000    41045614.997 5 215695978.38605      -529.644 5        35.243
S23        25.000    38287753.539 7 201203367.55307      -525.477 7        45.150
S45        26.000    63540441.917 6 333908406.87906      -582.901 6        36.442
C07        27.000                                                                                                                                    40200288.883 6 209333352.15706     -1443.516 6        38.231    40200291.178 6 161869795.15806     -1116.137 6        41.085    40200288.197 6 170100458.23306     -1172.968 6        38.799
R04        28.000    22223742.976 8 119007059.93708     -4358.009 8        48.509                                                                    22223747.439 7  92561008.77507     -3389.536 7        43.064
C40        29.000                                                                                                                                    40692438.271 6 211896099.09706     -1721.805 6        38.610                                                                    40692444.103 6 172182920.20306     -1399.052 6        38.595
G17        30.000    25043456.098 6 131604285.96106     -3876.412 6        39.291                                    25043461.894 5 102548832.25405     -3020.576 5        30.204    25043461.167 5 102548829.23405     -3020.387 5        35.852
E12        31.000    27517075.549 5 144603265.09105      2049.199 5        35.833                                                                    27517083.058 6 107983032.43006      1530.095 6        40.389    27517081.646 6 110799968.44606      1570.088 6        40.920
G11        32.000    24729790.162 6 129955971.52506      2526.601 6        40.217                                    24729796.936 4 101264454.85204      1968.764 4        24.211    24729797.886 6 101264445.86206      1968.814 6        39.408
I02        33.000    37100120.009 7 145588818.03307      -520.728 7        42.758
R15        34.000    21285268.558 8 113742116.02708      2066.000 8        49.300                                                                    21285274.002 7  88466147.26907      1606.969 7        45.642
R13        35.000    22817714.757 6 121845266.19506     -3655.874 6        39.649
G29        36.000    25920489.738 5 136213094.05005      3336.023 5        33.731                                    25920499.993 3 106140109.09713      2599.472 3        18.836
C42        37.000                                                                                                                                    25190426.156 7 131173107.99107     -2726.705 7        44.382                                                                    25190440.356 7 106588929.12907     -2215.591 7        43.979
C10        38.000                                                                                                                                    39261697.956 6 204445915.49106     -1186.310 6        40.946    39261701.550 7 158090539.28407      -917.388 7        43.426    39261698.257 6 166129032.35906      -963.974 6        39.946
E25        39.000    24654398.959 7 129559898.69707      1110.277 7        46.601                                                                    24654404.552 8  96749388.18208       829.073 8        49.239    24654403.480 8  99273271.48608       850.735 8        49.717
C30        40.000                                                                                                                                    26331317.653 6 137114068.11906     -3254.823 6        40.551                                                                    26331326.165 6 111416442.23706     -2644.946 6        39.135
R23        41.000    21593298.900 7 115509667.03707     -2100.565 7        46.037
S44        42.000    40930385.152 6 215090640.66906      -451.809 6        37.372
C36        43.000                                                                                                                                    26933667.732 5 140250473.20705     -3375.617 5        34.224                                                                    26933682.715 6 113964975.49106     -2742.947 6        36.790
C05        44.000                                                                                                                                    39601653.212 6 206216094.39306      -525.356 6        38.553    39601657.556 7 159459352.31507      -406.342 7        43.082    39601656.965 6 167567542.22006      -426.980 6        39.309
R14        45.000    19614306.743 8 104555399.54108      -863.247 8        52.031                                                                    19614310.658 8  81320947.69308      -671.424 8        48.037
E26        46.000    28947601.576 5 152120767.01305     -2341.721 5        30.325                                                                    28947609.397 5 113596759.78905     -1748.555 5        34.848    28947607.155 5 116560140.89805     -1793.770 5        35.290
C35        48.000                                                                                                                                    23939363.839 7 124658633.95107      2419.854 7        47.812                                                                    23939367.380 7 101295399.40907      1966.325 7        46.136
C45        50.000                                                                                                                                    22928710.107 8 119395808.99208     -2339.159 8        48.713                                                                    22928705.831 8  97018857.64408     -1900.781 8        49.121
S48        51.000    77285787.720 6 406140559.38206      -528.248 6        37.924
C33        52.000                                                                                                                                    25758368.304 7 134130586.44807      -168.276 7        42.851                                                                    25758386.877 7 108992171.97207      -136.793 7        42.737
E33        53.000    26987927.575 6 141822623.41406      -200.213 6        40.522                                                                    26987935.942 7 105906580.68407      -149.481 7        42.929    26987933.998 7 108669349.46007      -153.340 7        43.329
C60        54.000                                                                                                                                    40930388.526 6 213135288.91106      -447.683 6        39.279                                                                    40930383.005 6 173189810.38406      -363.874 6        39.736
E31        55.000    26753007.515 6 140587919.32206     -2909.531 6        40.663                                                                    26753017.011 7 104984491.65507     -2172.520 7        43.886    26753015.709 7 107723216.63007     -2229.330 7        44.132
C26        56.000                                                                                                                                    22097317.524 8 115066616.21008       535.499 8        50.803                                                                    22097319.357 8  93501093.11108       435.131 8        49.523
C02        57.000                                                                                                                                    41100263.486 5 214019707.84905      -480.854 5        31.826    41100269.628 6 165493556.60206      -372.024 6        36.091    41100269.704 5 173908505.74405      -390.844 5        31.781
I03        58.000    91071673.806 5 281599293.96905       955.424 5        32.952
C21        59.000                                                                                                                                    27016012.618 6 140679206.31906     -3726.694 6        39.504                                                                    27016021.016 6 114313299.54906     -3028.155 6        39.772
R24        60.000    21099137.645 8 112826687.22008      2260.149 8        49.380                                                                    21099142.165 7  87754152.30007      1757.865 7        45.735
> 2025 01 02 12 30 50.0000000  0 56
E24         1.000    23882768.537 8 125504916.80908     -1236.723 8        48.254                                                                    23882770.822 8  93721273.28208      -923.578 8        50.871    23882770.028 8  96166164.82908      -947.645 8        51.606
G15         2.000    25362972.309 6 133283034.63906     -4350.882 6        38.871                                    25362985.165 4 103856827.24604     -3390.272 4        29.242    25362985.412 5 103856822.22505     -3390.482 5        35.690
E03         3.000    25052999.725 7 131654410.09607       -48.394 7        44.766                                                                    25053005.697 8  98313372.17408       -36.118 8        48.365    25053004.703 8 100878069.60508       -37.047 8        48.773
G19         4.000    22134342.108 7 116316899.97007     -2726.662 7        45.050                                    22134341.666 5  90636573.89905     -2124.664 5        34.310
S21         5.000    38578997.726 7 202733594.22907      -520.501 7        42.787
E05         6.000    23541391.361 7 123710771.69307     -2766.618 7        46.078                                                                    23541397.383 8  92381384.68608     -2065.976 8        48.868    23541396.335 8  94791334.53208     -2119.846 8        49.208
G25         7.000    22114127.749 7 116210637.71907      2309.943 7        45.034                                    22114131.811 6  90553813.32806      1799.955 6        41.805    22114132.771 6  90553814.33506      1799.896 6        41.664
C29         8.000                                                                                                                                    23084245.020 7 120205750.37107      -682.841 7        47.882                                                                    23084246.532 7  97677036.36807      -555.053 7        47.426
R05         9.000    21231074.120 8 113492316.48908     -1226.461 8        49.807                                                                    21231078.563 7  88271855.11507      -953.983 7        45.679
G24        10.000    20733814.149 8 108956927.82208     -2306.540 8        49.830                                    20733815.956 8  84901516.38708     -1797.302 8        51.933    20733816.296 7  84901521.38507     -1797.241 7        45.631
C14        11.000                                                                                                                                    25113586.891 7 130773034.19307     -1529.575 7        43.289    25113588.728 7 101122031.72507     -1182.683 7        46.381    25113585.553 7 106263813.19107     -1243.035 7        43.750
S27        12.000    39355843.189 6 206816236.76706      -542.895 6        36.847
E08        13.000    28327791.543 6 148863564.62706      2067.418 6        36.794                                                                    28327806.745 6 111164414.34106      1543.969 6        41.473    28327804.311 7 114064346.74207      1584.242 7        42.286
S36        14.000    38349923.791 7 201530624.49507      -520.762 7        45.007
G06        15.000    23524632.810 6 123622860.09806      1199.396 6        41.776                                    23524639.059 6  96329565.35506       934.592 6        38.381    23524639.635 6  96329567.35606       934.709 6        40.448
E09        16.000    28553276.307 4 150048220.27004     -3779.459 4        25.338                                                                    28553296.638 5 112048912.04105     -2822.881 5        34.133    28553294.214 5 114971933.02605     -2896.436 5        33.988
G12        17.000    20396519.111 8 107184607.40408       187.840 8        50.717                                    20396517.456 8  83520556.11708       146.366 8        51.296    20396517.750 7  83520553.12007       146.345 7        45.995
G32        18.000    23602171.345 7 124030275.16307      1451.313 7        44.399                                    23602176.514 6  96647015.26806      1130.894 6        40.276    23602177.208 6  96647019.25706      1130.958 6        40.327
R22        19.000    24722916.353 6 131972671.82106     -4353.448 6        36.238                                                                    24722921.410 6 102645406.08506     -3386.091 6        36.284
E10        21.000    28128440.379 6 147815985.82606      2489.823 6        38.378                                                                    28128454.504 6 110382146.39606      1859.358 6        41.397    28128453.059 7 113261672.01307      1907.824 7        42.830
I06        22.000    38573719.494 6 151371646.41706      -497.419 6        41.974
S28        23.000    41046120.631 5 215698626.38405      -529.480 5        35.238
S23        25.000    38288254.097 7 201205994.06407      -525.268 7        45.053
S45        26.000    63540941.053 6 333911320.13006      -582.871 6        36.299
C07        27.000                                                                                                                                    40201674.161 6 209340569.48906     -1443.576 6        38.135    40201677.379 6 161875376.07706     -1116.254 6        40.920    40201674.117 6 170106322.91706     -1173.026 6        38.667
R04        28.000    22227813.524 8 119028854.45408     -4359.811 8        48.004                                                                    22227817.525 7  92577960.03007     -3391.004 7        42.781
C40        29.000                                                                                                                                    40694091.375 6 211904707.68106     -1721.850 6        38.483                                                                    40694097.228 6 172189915.39606     -1399.118 6        38.649
G17        30.000    25047144.724 6 131623669.79006     -3877.119 6        39.261                                    25047150.553 5 102563936.53705     -3021.132 5        30.355    25047149.589 5 102563933.55405     -3021.018 5        35.729
E12        31.000    27515126.379 6 144593021.77006      2048.233 6        36.159                                                                    27515133.665 6 107975383.24106      1529.468 6        40.682    27515132.245 6 110792119.70106      1569.385 6        40.796
G11        32.000    24727385.910 6 129943339.78706      2526.135 6        40.393                                    24727393.117 4 101254611.98504      1968.404 4        24.241    24727393.918 6 101254603.00706      1968.171 6        39.072
I02        33.000    37100783.504 7 145591422.05307      -520.963 7        42.895
R15        34.000    21283335.945 8 113731787.72008      2065.144 8        49.378                                                                    21283340.808 7  88458114.14607      1606.226 7        45.231
R13        35.000    22821138.184 6 121863547.14506     -3656.562 6        39.649
G29        36.000    25917315.218 5 136196413.49505      3336.188 5        33.126                                    25917327.287 3 106127111.39003      2599.603 3        19.313
C42        37.000                                                                                                                                    25193045.645 7 131186745.30207     -2728.291 7        44.292                                                                    25193059.209 7 106600010.56107     -2217.140 7        44.003
C10        38.000                                                                                                                                    39262837.597 6 204451847.49806     -1186.364 6        40.996    39262841.042 7 158095126.29407      -917.373 7        43.553    39262837.493 6 166133852.59606      -964.080 6        39.940
E25        39.000    24653343.029 7 129554349.28007      1109.465 7        46.516                                                                    24653348.521 8  96745244.14508       828.435 8        49.360    24653347.458 8  99269019.34408       850.017 8        49.742
C30        40.000                                                                                                                                    26334443.650 6 137130345.73606     -3256.266 6        40.529                                                                    26334452.199 6 111429669.15206     -2646.037 6        39.123
R23        41.000    21595262.660 7 115520180.08807     -2104.746 7        46.262
S44        42.000    40930813.547 6 215092899.47606      -451.592 6        36.979
C36        43.000                                                                                                                                    26936908.960 5 140267350.55605     -3375.391 5        34.343                                                                    26936923.756 6 113978689.71406     -2743.100 6        37.153
C05        44.000                                                                                                                                    39602157.807 6 206218721.13406      -525.180 6        38.703    39602161.785 7 159461383.50307      -406.186 7        42.950    39602161.382 6 167569676.67606      -426.960 6        39.201
R14        45.000    19615117.347 8 104559720.14808      -865.079 8        51.887                                                                    19615121.779 8  81324308.15308      -672.802 8        48.634
E26        46.000    28949830.210 4 152132477.10804     -2342.875 4        29.517                                                                    28949837.210 5 113605504.42405     -1749.354 5        34.605    28949835.830 5 116569113.69705     -1795.373 5        35.243
C35        48.000                                                                                                                                    23937040.503 7 124646537.56607      2418.695 7        47.433                                                                    23937044.403 7 101285570.14207      1965.203 7        46.115
C45        50.000                                                                                                                                    22930956.737 8 119407507.29408     -2340.201 8        48.783                                                                    22930952.379 8  97028363.46908     -1901.750 8        49.121
S48        51.000    77286283.579 6 406143200.28406      -527.885 6        37.739
C33        52.000                                                                                                                                    25758530.310 7 134131434.89107      -171.112 7        42.186                                                                    25758549.720 7 108992861.40807      -139.084 7        42.819
E33        53.000    26988119.156 6 141823629.72806      -202.503 6        40.849                                                                    26988127.209 7 105907332.15907      -151.082 7        42.895    26988125.505 7 108670120.53607      -155.071 7        43.458
C60        54.000                                                                                                                                    40930818.396 6 213137527.17806      -447.531 6        38.799                                                                    40930812.773 6 173191629.17506      -363.779 6        39.553
E31        55.000    26755775.847 6 140602466.38006     -2909.524 6        40.598                                                                    26755785.329 7 104995354.71007     -2172.671 7        44.099    26755784.121 7 107734363.06707     -2229.299 7        44.206
C26        56.000                                                                                                                                    22096804.051 8 115063941.62108       534.244 8        50.712                                                                    22096805.759 8  93498919.79108       434.016 8        49.497
C02        57.000                                                                                                                                    41100724.131 5 214022112.11305      -480.679 5        31.955    41100730.961 6 165495415.73606      -371.614 6        36.106    41100731.703 5 173910459.40705      -390.797 5        31.992
I03        58.000    91070457.535 5 281594516.17405       955.641 5        32.713
C21        59.000                                                                                                                                    27019591.353 6 140697838.37806     -3726.216 6        40.064                                                                    27019599.127 6 114328439.57606     -3027.964 6        39.715
R24        60.000    21097025.367 8 112815394.19708      2256.921 8        49.169                                                                    21097029.885 7  87745368.84307      1755.362 7        45.682
> 2025 01 02 12 30 55.0000000  0 56
E24         1.000    23883945.872 8 125511103.91908     -1237.932 8        48.462                                                                    23883948.210 8  93725893.51408      -924.402 8        50.814    23883947.390 8  96170905.59108      -948.552 8        51.718
G15         2.000    25367111.533 6 133304788.72106     -4350.548 6        38.736                                    25367124.984 4 103873778.37304     -3390.017 4        29.365    25367125.011 5 103873773.34905     -3390.065 5        35.376
E03         3.000    25053047.068 7 131654657.86007       -50.739 7        44.879                                                                    25053052.855 8  98313557.19108       -37.878 8        48.183    25053051.866 8 100878259.45108       -38.919 8        48.834
G19         4.000    22136938.243 7 116330539.98607     -2729.276 7        45.094                                    22136937.251 5  90647202.47005     -2126.705 5        34.457
S21         5.000    38579492.936 7 202736196.87007      -520.503 7        42.703
E05         6.000    23544024.299 7 123724609.31107     -2768.281 7        46.165                                                                    23544030.603 8  92391717.96008     -2067.252 8        48.690    23544029.594 8  94801937.36608     -2121.177 8        49.306
G25         7.000    22111930.221 7 116199091.59307      2308.545 7        44.634                                    22111934.666 6  90544816.35706      1798.865 6        41.940    22111935.237 6  90544817.36306      1798.852 6        41.540
C29         8.000                                                                                                                                    23084902.235 8 120209172.34408      -685.845 8        48.141                                                                    23084903.646 7  97679817.01407      -557.377 7        47.562
R05         9.000    21232224.187 8 113498460.72708     -1231.159 8        49.981                                                                    21232228.024 7  88276633.94107      -957.522 7        45.332
G24        10.000    20736010.183 8 108968467.55408     -2309.173 8        49.675                                    20736011.907 8  84910508.38008     -1799.354 8        52.022    20736012.267 7  84910513.38307     -1799.396 7        45.749
C14        11.000                                                                                                                                    25115056.170 7 130780688.58207     -1532.192 7        43.075    25115058.695 7 101127950.56707     -1184.729 7        46.264    25115055.505 7 106270033.00307     -1245.203 7        43.917
S27        12.000    39356362.259 6 206818951.07806      -542.886 6        37.040
E08        13.000    28325825.202 6 148853229.73906      2066.521 6        36.760                                                                    28325839.899 6 111156696.76606      1543.219 6        41.452    28325837.707 7 114056427.84007      1583.444 7        42.334
S36        14.000    38350419.685 7 201533228.94307      -520.987 7        44.980
G06        15.000    23523493.367 7 123616869.89607      1196.704 7        42.140                                    23523499.090 6  96324897.67306       932.494 6        38.559    23523500.003 6  96324899.67006       932.469 6        40.510
E09        16.000    28556873.291 4 150067120.94304     -3779.876 4        26.144                                                                    28556893.213 5 112063026.05605     -2822.576 5        33.946    28556890.509 5 114986415.25105     -2896.306 5        33.964
G12        17.000    20396341.606 8 107183674.45908       185.507 8        50.603                                    20396339.928 8  83519829.15008       144.550 8        51.393    20396340.424 7  83519826.14907       144.558 7        46.233
G32        18.000    23600791.734 7 124023025.90307      1448.604 7        44.798                                    23600797.027 6  96641366.49706      1128.780 6        40.393    23600797.442 6  96641370.50906      1128.813 6        40.975
R22        19.000    24726995.402 5 131994443.49605     -4355.077 5        34.943                                                                    24727000.429 6 102662339.73706     -3387.370 6        36.155
E10        21.000    28126071.387 6 147803537.59606      2489.537 6        38.117                                                                    28126085.655 6 110372850.73206      1859.159 6        41.182    28126084.186 7 113252133.84807      1907.620 7        42.809
I06        22.000    38574353.354 6 151374133.53506      -497.272 6        41.962
S28        23.000    41046621.488 5 215701274.47205      -529.626 5        35.262
S23        25.000    38288752.442 7 201208620.62407      -525.207 7        44.963
S45        26.000    63541441.960 6 333912633.53716      -582.654 6        36.646
C07        27.000                                                                                                                                    40203060.682 6 209347787.24906     -1443.590 6        38.144    40203062.977 6 161880957.30206     -1116.229 6        40.684    40203060.093 6 170112187.95406     -1173.103 6        38.817
R04        28.000    22231884.332 8 119050658.97008     -4361.873 8        48.173                                                                    22231889.934 7  92594919.06807     -3392.546 7        42.671
C40        29.000                                                                                                                                    40695744.918 6 211913316.56106     -1721.710 6        38.504                                                                    40695750.380 6 172196910.84406     -1399.231 6        38.823
G17        30.000    25050833.767 6 131643057.21106     -3877.829 6        39.147                                    25050839.776 5 102579043.61605     -3021.689 5        30.400    25050839.456 5 102579040.63405     -3021.927 5        35.819
E12        31.000    27513177.758 6 144582784.14506      2046.969 6        36.117                                                                    27513185.492 6 107967738.28006      1528.624 6        40.496    27513184.081 6 110784275.31406      1568.470 6        40.744
G11        32.000    24724983.021 6 129930711.94406      2525.272 6        40.574                                    24724990.000 4 101244772.16504      1967.728 4        24.150    24724989.935 6 101244763.19006      1967.692 6        39.348
I02        33.000    37101446.954 7 145594027.02107      -521.125 7        42.925
R15        34.000    21281404.277 8 113721465.19508      2064.003 8        49.554                                                                    21281409.080 7  88450085.52107      1605.310 7        45.029
R13        35.000    22824562.285 6 121881831.79106     -3657.268 6        40.284
G29        36.000    25914140.682 5 136179732.60305      3336.284 5        34.095                                    25914153.866 3 106114113.41603      2599.682 3        19.701
C42        37.000                                                                                                                                    25195666.307 7 131200391.65407     -2730.072 7        43.731                                                                    25195679.929 7 106611099.32107     -2218.602 7        44.218
C10        38.000                                                                                                                                    39263977.078 6 204457780.46006     -1186.692 6        41.285    39263980.602 7 158099714.04207      -917.710 7        43.422    39263976.806 6 166138673.63506      -964.291 6        40.184
E25        39.000    24652287.581 7 129548804.87307      1108.439 7        46.661                                                                    24652293.449 8  96741103.84308       827.677 8        49.261    24652292.354 8  99264771.03108       849.295 8        49.767
C30        40.000                                                                                                                                    26337570.465 6 137146630.77406     -3257.869 6        40.520                                                                    26337579.498 6 111442902.12106     -2647.342 6        39.273
R23        41.000    21597232.933 7 115530715.04507     -2109.102 7        46.612
S44        42.000    40931247.370 6 215095158.28506      -451.852 6        37.104
C36        43.000                                                                                                                                    26940150.011 5 140284228.98305     -3375.975 5        34.024                                                                    26940165.257 6 113992404.81506     -2743.237 6        37.130
C05        44.000                                                                                                                                    39602662.300 6 206221347.83406      -525.120 6        38.595    39602666.228 7 159463414.64607      -406.144 7        43.007    39602665.888 6 167571811.11406      -427.027 6        39.456
R14        45.000    19615929.594 8 104564051.32308      -867.314 8        51.520                                                                    19615933.698 8  81327676.84508      -674.603 8        48.076
E26        46.000    28952059.792 5 152144196.72905     -2344.832 5        30.257                                                                    28952066.991 5 113614256.19405     -1751.022 5        33.934    28952066.046 5 116578093.74705     -1796.676 5        34.581
C35        48.000                                                                                                                                    23934718.360 7 124634448.26807      2417.205 7        47.097                                                                    23934722.589 7 101275746.62907      1964.011 7        46.279
C45        50.000                                                                                                                                    22933204.382 8 119419211.83708     -2341.564 8        48.665                                                                    22933200.049 8  97037874.36808     -1902.783 8        49.377
S48        51.000    77286783.475 6 406145841.35806      -528.393 6        37.826
C33        52.000                                                                                                                                    25758696.609 7 134132297.61207      -174.004 7        42.523                                                                    25758715.525 7 108993562.44907      -141.469 7        42.904
E33        53.000    26988312.692 6 141824648.68806      -204.941 6        40.751                                                                    26988321.005 7 105908093.08607      -153.111 7        42.808    26988319.423 7 108670901.31107      -157.079 7        43.435
C60        54.000                                                                                                                                    40931248.169 6 213139765.45706      -447.518 6        39.150                                                                    40931242.532 6 173193447.98706      -363.911 6        39.544
E31        55.000    26758543.951 6 140617014.59306     -2909.597 6        40.813                                                                    26758553.890 7 105006218.62207     -2172.829 7        44.066    26758552.701 7 107745510.39407     -2229.516 7        44.387
C26        56.000                                                                                                                                    22096291.793 8 115061274.29708       532.792 8        50.759                                                                    22096293.528 8  93496752.38008       432.843 8        49.794
C02        57.000                                                                                                                                    41101186.867 5 214024516.30905      -480.844 5        31.992    41101193.224 5 165497274.81805      -371.847 5        35.900    41101193.639 5 173912413.06405      -390.860 5        32.521
I03        58.000    91069239.572 5 281589738.19905       956.026 5        33.090
C21        59.000                                                                                                                                    27023169.749 6 140716468.78206     -3725.779 6        40.026                                                                    27023176.991 6 114343578.25706     -3027.664 6        39.991
R24        60.000    21094916.793 8 112804118.59108      2253.477 8        49.814                                                                    21094921.126 7  87736598.94607      1752.641 7        45.494
> 2025 01 02 12 31  0.0000000  0 56
E24         1.000    23885124.477 8 125517296.41008     -1239.101 8        48.346                                                                    23885126.628 8  93730517.75808      -925.272 8        50.794    23885125.805 8  96175650.46908      -949.421 8        51.605
G15         2.000    25371250.848 6 133326539.90706     -4349.917 6        38.450                                    25371264.258 4 103890727.24204     -3389.530 4        28.957    25371264.690 5 103890722.20205     -3389.724 5        35.481
E03         3.000    25053096.272 7 131654917.38507       -53.063 7        44.968                                                                    25053102.202 8  98313750.98808       -39.672 8        48.254    25053101.262 8 100878458.30008       -40.687 8        48.768
G19         4.000    22139535.853 7 116344192.33907     -2731.720 7        44.885                                    22139535.254 5  90657840.65005     -2128.610 5        34.205
S21         5.000    38579989.282 7 202738799.07707      -520.429 7        42.663
E05         6.000    23546659.022 7 123738455.14107     -2770.052 7        46.157                                                                    23546665.412 8  92402057.34808     -2068.500 8        48.689    23546664.374 8  94812546.48208     -2122.453 8        49.179
G25         7.000    22109734.174 7 116187551.81707      2307.251 7        44.164                                    22109738.697 6  90535824.32806      1797.853 6        41.745    22109739.000 6  90535825.34806      1797.807 6        41.795
C29         8.000                                                                                                                                    23085562.141 8 120212608.43008      -688.675 8        48.151                                                                    23085563.533 7  97682609.11407      -559.654 7        47.585
R05         9.000    21233377.425 8 113504627.70608     -1235.642 8        50.270                                                                    21233381.360 7  88281430.48007      -961.100 7        45.719
G24        10.000    20738208.329 8 108980019.98408     -2311.767 8        49.441                                    20738210.282 8  84919510.26408     -1801.374 8        51.745    20738210.893 7  84919515.26707     -1801.444 7        45.673
C14        11.000                                                                                                                                    25116528.266 7 130788355.79307     -1534.716 7        43.247    25116531.701 7 101133879.32407     -1186.786 7        46.258    25116527.913 7 106276263.21607     -1247.176 7        43.937
S27        12.000    39356878.155 6 206821665.01806      -543.004 6        37.202
E08        13.000    28323859.960 6 148842900.44006      2065.476 6        37.546                                                                    28323874.133 6 111148983.42306      1542.156 6        41.547    28323871.970 7 114048513.25407      1582.503 7        42.072
S36        14.000    38350914.640 7 201535833.44307      -520.778 7        44.921
G06        15.000    23522355.771 7 123610892.73507      1194.022 7        42.180                                    23522361.625 6  96320240.14806       930.408 6        38.414    23522362.457 6  96320242.15606       930.530 6        40.286
E09        16.000    28560469.529 4 150086020.54204     -3779.515 4        25.323                                                                    28560489.910 5 112077139.27305     -2822.566 5        33.581    28560487.078 5 115000896.67205     -2896.336 5        33.772
G12        17.000    20396166.101 8 107182752.68308       183.213 8        50.592                                    20396164.515 8  83519110.88108       142.764 8        51.185    20396165.116 7  83519107.88207       142.825 7        46.129
G32        18.000    23599414.844 7 124015789.68007      1446.008 7        45.284                                    23599420.023 6  96635727.88406      1126.760 6        40.226    23599420.621 6  96635731.89006      1126.810 6        40.415
R22        19.000    24731074.572 5 132016223.70405     -4357.003 5        32.754                                                                    24731080.883 6 102679280.06506     -3388.899 6        36.185
E10        21.000    28123702.611 6 147791089.92506      2489.400 6        38.141                                                                    28123716.727 6 110363555.49506      1859.009 6        41.285    28123715.429 7 113242596.10407      1907.502 7        42.736
I06        22.000    38574986.987 7 151376620.41807      -497.371 7        42.148
S28        23.000    41047119.774 5 215703922.15105      -529.657 5        35.090
S23        25.000    38289250.205 7 201211246.93307      -525.260 7        44.956
S45        26.000    63541946.565 6 333915546.78006      -582.737 6        36.401
C07        27.000                                                                                                                                    40204447.481 6 209355005.16006     -1443.555 6        38.207    40204448.823 6 161886538.65406     -1116.272 6        41.004    40204446.340 6 170118053.09106     -1173.041 6        38.946
R04        28.000    22235958.280 8 119072473.18408     -4363.837 8        48.076                                                                    22235963.328 7  92611885.64007     -3394.042 7        42.339
C40        29.000                                                                                                                                    40697398.051 6 211921925.39406     -1721.766 6        38.655                                                                    40697403.713 6 172203906.22206     -1398.972 6        38.868
G17        30.000    25054523.312 6 131662447.77306     -3878.531 6        39.754                                    25054529.557 5 102594153.15105     -3022.233 5        30.264    25054529.529 5 102594150.14705     -3022.029 5        35.557
E12        31.000    27511231.071 6 144572551.82506      2045.940 6        36.314                                                                    27511238.145 6 107960097.29006      1527.904 6        40.539    27511237.008 6 110776434.98606      1567.692 6        40.548
G11        32.000    24722580.929 6 129918087.64906      2524.527 6        40.184                                    24722587.617 4 101234935.09904      1967.163 4        24.105    24722588.312 6 101234926.12206      1967.058 6        39.321
I02        33.000    37102110.941 7 145596632.86607      -521.289 7        42.836
R15        34.000    21279473.597 8 113711147.71608      2062.919 8        49.345                                                                    21279478.418 7  88442060.81807      1604.567 7        45.652
R13        35.000    22827986.847 6 121900119.87306     -3657.955 6        39.787
G29        36.000    25910965.720 5 136163051.03005      3336.264 5        34.886                                    25910979.989 3 106101114.88203      2599.674 3        20.714
C42        37.000                                                                                                                                    25198288.101 7 131214046.63107     -2731.795 7        43.932                                                                    25198302.266 7 106622195.08807     -2219.961 7        44.125
C10        38.000                                                                                                                                    39265116.267 6 204463713.98706     -1186.830 6        40.787    39265119.911 7 158104302.20707      -917.736 7        43.547    39265116.449 6 166143495.10006      -964.507 6        40.081
E25        39.000    24651233.461 7 129543265.10507      1107.492 7        46.742                                                                    24651239.250 8  96736967.00608       827.003 8        49.281    24651238.194 8  99260526.28108       848.547 8        49.737
C30        40.000                                                                                                                                    26340699.412 6 137162922.87606     -3259.164 6        40.498                                                                    26340708.236 6 111456140.78806     -2648.464 6        39.279
R23        41.000    21599205.576 7 115541271.50107     -2113.546 7        45.986
S44        42.000    40931675.586 6 215097416.71206      -451.559 6        37.028
C36        43.000                                                                                                                                    26943392.013 5 140301108.09905     -3376.046 5        33.287                                                                    26943406.572 6 114006120.46506     -2743.295 6        36.231
C05        44.000                                                                                                                                    39603166.494 6 206223974.11006      -525.291 6        38.829    39603170.726 7 159465445.46207      -406.054 7        42.967    39603170.175 6 167573945.17406      -426.853 6        39.390
R14        45.000    19616744.101 8 104568392.62008      -869.279 8        51.933                                                                    19616748.352 8  81331053.39608      -676.057 8        48.222
E26        46.000    28954292.179 5 152155925.48405     -2346.342 5        30.143                                                                    28954298.991 5 113623014.78705     -1752.316 5        33.060    28954297.894 5 116587080.82005     -1798.322 5        34.248
C35        48.000                                                                                                                                    23932398.712 7 124622365.70007      2415.781 7        47.142                                                                    23932402.309 7 101265928.56207      1962.962 7        46.366
C45        50.000                                                                                                                                    22935453.212 8 119430922.24908     -2342.748 8        48.834                                                                    22935448.922 8  97047390.01808     -1903.686 8        49.299
S48        51.000    77287277.164 6 406148482.27506      -528.089 6        37.894
C33        52.000                                                                                                                                    25758865.403 7 134133174.23207      -176.770 7        42.857                                                                    25758883.808 7 108994274.77407      -143.736 7        42.967
E33        53.000    26988509.068 6 141825679.94106      -207.594 6        40.346                                                                    26988517.183 7 105908863.17207      -154.936 7        42.690    26988515.627 7 108671691.48907      -158.978 7        43.255
C60        54.000                                                                                                                                    40931678.048 6 213142003.36806      -447.539 6        38.988                                                                    40931672.196 6 173195266.46806      -363.639 6        39.838
E31        55.000    26761312.481 6 140631563.58406     -2909.771 6        40.920                                                                    26761322.495 7 105017083.11207     -2173.000 7        44.248    26761321.275 7 107756658.30907     -2229.727 7        44.567
C26        56.000                                                                                                                                    22095780.834 8 115058613.88708       531.359 8        50.737                                                                    22095782.569 8  93494590.56708       431.746 8        49.791
C02        57.000                                                                                                                                    41101649.434 5 214026920.03505      -480.821 5        32.234    41101654.677 6 165499133.51106      -371.711 6        36.102    41101654.945 5 173914366.25305      -390.865 5        32.563
I03        58.000    91068021.681 5 281584959.78905       955.501 5        33.078
C21        59.000                                                                                                                                    27026747.008 6 140735097.17706     -3725.583 6        39.955                                                                    27026754.371 6 114358715.27606     -3027.375 6        39.931
R24        60.000    21092811.787 8 112792859.86908      2250.008 8        49.704                                                                    21092816.094 7  87727842.14807      1750.040 7        45.517
> 2025 01 02 12 31  5.0000000  0 56
E24         1.000    23886303.726 8 125523494.48408     -1240.453 8        48.312                                                                    23886306.105 8  93735146.17908      -926.292 8        50.727    23886305.322 8  96180399.63508      -950.489 8        51.469
G15         2.000    25375390.195 6 133348288.40506     -4349.697 6        38.357                                    25375403.031 4 103907674.01804     -3389.353 4        28.938    25375402.741 5 103907668.99005     -3389.363 5        35.686
E03         3.000    25053148.282 7 131655188.89907       -55.761 7        44.819                                                                    25053153.911 8  98313953.73708       -41.626 8        48.209    25053152.964 8 100878666.34108       -42.775 8        48.647
G19         4.000    22142136.479 7 116357857.23607     -2734.495 7        45.428                                    22142135.664 5  90668488.60005     -2130.774 5        34.205
S21         5.000    38580482.497 7 202741401.18007      -520.592 7        42.715
E05         6.000    23549295.358 7 123752309.37207     -2771.939 7        46.012                                                                    23549301.799 8  92412403.03008     -2069.966 8        48.657    23549300.867 8  94823162.05208     -2123.987 8        49.033
G25         7.000    22107539.750 7 116176018.61507      2305.733 7        44.167                                    22107544.002 6  90526837.43306      1796.674 6        41.771    22107544.775 6  90526838.43906      1796.635 6        41.678
C29         8.000                                                                                                                                    23086224.861 8 120216058.84408      -691.812 8        48.456                                                                    23086226.205 7  97685412.84707      -562.025 7        47.787
R05         9.000    21234535.654 8 113510817.36308     -1240.520 8        49.592                                                                    21234539.812 7  88286244.62507      -964.739 7        46.069
G24        10.000    20740409.064 8 108991585.35708     -2314.704 8        49.907                                    20740411.125 8  84928522.23608     -1803.664 8        51.774    20740411.635 7  84928527.23407     -1803.588 7        45.780
C14        11.000                                                                                                                                    25118003.106 7 130796036.02107     -1537.797 7        42.836    25118006.138 7 101139818.13307     -1189.066 7        45.857    25118002.938 7 106282503.97507     -1249.275 7        44.032
S27        12.000    39357394.909 6 206824378.85306      -543.085 6        36.718
E08        13.000    28321894.904 6 148832576.80406      2063.875 6        37.875                                                                    28321909.356 6 111141274.23106      1541.230 6        41.304    28321907.235 6 114040602.95106      1581.445 6        41.704
S36        14.000    38351410.981 7 201538438.18407      -521.313 7        44.951
G06        15.000    23521221.188 6 123604928.83006      1191.244 6        41.986                                    23521226.768 6  96315592.95006       928.239 6        38.631    23521227.859 6  96315594.95706       928.197 6        40.701
E09        16.000    28564065.092 4 150104919.19404     -3779.421 4        25.624                                                                    28564086.301 5 112091251.82105     -2822.660 5        33.593    28564083.575 5 115015377.35805     -2896.039 5        33.078
G12        17.000    20395992.922 8 107181842.33308       180.625 8        50.446                                    20395991.275 8  83518401.52008       140.748 8        51.193    20395991.675 7  83518398.51907       140.795 7        46.216
G32        18.000    23598040.456 7 124008566.73507      1442.948 7        44.593                                    23598045.508 6  96630099.62006      1124.373 6        40.222    23598045.854 6  96630103.61906      1124.422 6        40.286
R22        19.000    24735153.127 5 132038012.51005     -4358.741 5        33.473                                                                    24735161.715 6 102696227.08806     -3390.431 6        36.057
E10        21.000    28121333.856 6 147778643.05706      2488.888 6        37.905                                                                    28121347.990 6 110354260.83706      1858.650 6        41.285    28121346.721 7 113233058.97107      1907.185 7        42.675
I06        22.000    38575620.472 6 151379107.19706      -497.624 6        41.883
S28        23.000    41047628.507 5 215706569.71905      -530.035 5        35.333
S23        25.000    38289750.561 7 201213873.13507      -525.612 7        44.927
S45        26.000    63542444.051 6 333918459.76906      -582.804 6        36.170
C07        27.000                                                                                                                                    40205833.865 6 209362223.43806     -1443.986 6        38.168    40205835.448 6 161892120.28506     -1116.561 6        40.832    40205832.474 6 170123918.52106     -1173.133 6        38.925
R04        28.000    22240033.974 8 119094297.13908     -4366.090 8        48.065                                                                    22240038.969 7  92628859.80007     -3395.845 7        43.022
C40        29.000                                                                                                                                    40699051.026 6 211930534.39606     -1722.058 6        38.357                                                                    40699056.819 6 172210901.71206     -1399.159 6        38.829
G17        30.000    25058214.237 6 131681841.73706     -3879.455 6        39.661                                    25058219.974 5 102609265.33105     -3022.954 5        30.513    25058219.822 5 102609262.34005     -3022.823 5        35.529
E12        31.000    27509284.921 6 144562325.05606      2044.583 6        36.223                                                                    27509291.861 6 107952460.46906      1526.728 6        40.467    27509290.866 6 110768598.93506      1566.583 6        40.384
G11        32.000    24720179.061 6 129905467.09406      2523.425 6        40.107                                    24720185.939 4 101225100.96604      1966.290 4        24.195    24720186.572 6 101225091.99406      1966.264 6        39.760
I02        33.000    37102775.256 7 145599239.22807      -521.644 7        42.893
R15        34.000    21277544.051 8 113700835.82808      2061.574 8        49.391                                                                    21277548.792 7  88434040.48807      1603.411 7        45.607
R13        35.000    22831412.450 6 121918411.46406     -3659.038 6        39.186
G29        36.000    25907791.400 5 136146368.93105      3336.074 5        34.081                                    25907805.839 3 106088115.98503      2599.514 3        20.976
C42        37.000                                                                                                                                    25200912.565 7 131227710.47707     -2733.932 7        43.985                                                                    25200926.278 7 106633298.03907     -2221.442 7        44.253
C10        38.000                                                                                                                                    39266256.436 6 204469648.32306     -1187.139 6        40.827    39266259.158 7 158108891.01707      -918.094 7        43.431    39266256.037 6 166148317.22606      -964.570 6        40.281
E25        39.000    24650180.343 7 129537730.19807      1106.180 7        46.576                                                                    24650185.991 8  96732833.80308       826.028 8        49.278    24650184.916 8  99256285.24908       847.607 8        49.545
C30        40.000                                                                                                                                    26343829.784 6 137179222.25106     -3260.841 6        40.782                                                                    26343838.086 6 111469385.38106     -2649.541 6        39.126
R23        41.000    21601183.540 7 115551849.75307     -2118.137 7        46.695
S44        42.000    40932101.213 6 215099674.99306      -451.872 6        36.495
C36        43.000                                                                                                                                    26946633.911 5 140317988.17405     -3376.581 5        32.731                                                                    26946647.891 6 114019836.87906     -2743.402 6        36.219
C05        44.000                                                                                                                                    39603671.076 6 206226600.19306      -525.499 6        38.826    39603675.089 7 159467476.14807      -406.297 7        43.064    39603674.431 6 167576079.10106      -427.065 6        39.772
R14        45.000    19617560.905 8 104572744.45608      -871.669 8        51.989                                                                    19617564.680 8  81334438.14908      -677.906 8        48.201
E26        46.000    28956525.727 4 152167663.73604     -2348.606 4        29.772                                                                    28956532.768 5 113631780.44605     -1753.912 5        33.240    28956531.491 5 116596075.11405     -1799.764 5        34.090
C35        48.000                                                                                                                                    23930080.078 7 124610290.09607      2414.137 7        47.442                                                                    23930083.416 7 101256116.15707      1961.798 7        46.470
C45        50.000                                                                                                                                    22937703.547 8 119442638.75008     -2344.180 8        48.985                                                                    22937698.833 8  97056910.61908     -1904.752 8        49.372
S48        51.000    77287777.405 6 406151123.32306      -528.658 6        37.871
C33        52.000                                                                                                                                    25759036.080 7 134134064.99107      -179.951 7        43.056                                                                    25759054.945 7 108994998.56907      -146.086 7        42.936
E33        53.000    26988707.521 6 141826723.66806      -210.328 6        40.224                                                                    26988715.865 7 105909642.60307      -156.952 7        42.768    26988714.329 7 108672491.24907      -161.156 7        43.266
C60        54.000                                                                                                                                    40932107.865 6 213144241.13406      -447.786 6        39.210                                                                    40932102.000 6 173197084.82806      -363.729 6        39.760
E31        55.000    26764081.315 6 140646113.59606     -2910.461 6        40.732                                                                    26764091.197 7 105027948.35107     -2173.343 7        43.994    26764090.158 7 107767806.99107     -2229.997 7        44.451
C26        56.000                                                                                                                                    22095271.197 8 115055960.61108       529.646 8        50.846                                                                    22095273.070 8  93492434.55308       430.438 8        49.877
C02        57.000                                                                                                                                    41102109.707 5 214029323.56205      -481.013 5        32.425    41102115.992 6 165500992.07106      -371.736 6        36.147    41102116.694 5 173916319.30905      -390.956 5        32.395
I03        58.000    91066803.228 5 281580181.04905       955.693 5        32.874
C21        59.000                                                                                                                                    27030324.168 6 140753723.72806     -3725.372 6        40.138                                                                    27030331.454 6 114373850.79606     -3027.044 6        40.019
R24        60.000    21090709.256 8 112781618.41608      2246.361 8        49.552                                                                    21090713.340 7  87719098.80707      1747.203 7        45.348
> 2025 01 02 12 31 10.0000000  0 56
E24         1.000    23887484.112 8 125529698.42608     -1241.115 8        48.375                                                                    23887486.684 8  93739778.98208      -926.813 8        50.770    23887485.882 8  96185153.29208      -951.027 8        51.666
G15         2.000    25379527.736 6 133370034.56206     -4348.855 6        38.300                                    25379541.433 4 103924618.97004     -3388.694 4        28.976    25379541.055 5 103924613.92905     -3388.797 5        35.681
E03         3.000    25053202.276 7 131655472.68607       -57.897 7        44.900                                                                    25053207.918 8  98314165.66308       -43.258 8        48.210    25053206.932 8 100878883.79008       -44.329 8        48.761
G19         4.000    22144739.354 7 116371534.96207     -2736.678 7        45.112                                    22144738.443 5  90679146.55705     -2132.476 5        34.310
S21         5.000    38580978.565 7 202744003.61207      -520.309 7        42.679
E05         6.000    23551933.204 7 123766172.31107     -2773.339 7        45.950                                                                    23551939.826 8  92422755.20908     -2070.975 8        48.634    23551938.859 8  94833784.29608     -2125.061 8        49.256
G25         7.000    22105346.252 7 116164492.26807      2304.759 7        44.060                                    22105350.618 6  90517855.87706      1795.916 6        41.809    22105351.410 6  90517856.88506      1795.856 6        41.871
C29         8.000                                                                                                                                    23086890.166 8 120219523.88608      -694.269 8        48.580                                                                    23086891.653 7  97688228.49307      -564.164 7        47.831
R05         9.000    21235696.720 8 113517030.24308     -1244.734 8        49.201                                                                    21235701.536 7  88291076.86807      -968.102 7        45.883
G24        10.000    20742612.591 8 109003163.92108     -2316.894 8        50.035                                    20742614.468 8  84937544.48908     -1805.370 8        51.802    20742614.982 7  84937549.49007     -1805.386 7        46.061
C14        11.000                                                                                                                                    25119478.930 7 130803729.52707     -1539.906 7        43.031    25119482.972 7 101145767.22707     -1190.778 7        46.056    25119480.289 7 106288755.60307     -1251.386 7        44.116
S27        12.000    39357908.421 6 206827092.68106      -542.531 6        37.395
E08        13.000    28319931.447 6 148822259.20706      2063.261 6        37.172                                                                    28319945.754 6 111133569.61306      1540.643 6        41.027    28319943.624 6 114032697.33006      1580.873 6        41.425
S36        14.000    38351908.467 7 201541043.02407      -520.957 7        45.099
G06        15.000    23520088.817 7 123598978.48207      1189.028 7        42.544                                    23520094.504 6  96310956.32706       926.516 6        38.835    23520095.412 6  96310958.33306       926.391 6        41.008
E09        16.000    28567661.832 4 150123817.32404     -3779.630 4        25.068                                                                    28567682.599 5 112105363.93805     -2822.324 5        33.449    28567680.137 5 115029857.63505     -2895.660 5        33.365
G12        17.000    20395821.924 8 107180943.71908       178.645 8        50.506                                    20395820.276 8  83517701.30208       139.201 8        51.190    20395820.655 7  83517698.30307       139.225 7        46.198
G32        18.000    23596668.490 7 124001357.36507      1440.596 7        44.772                                    23596673.565 6  96624481.93006      1122.542 6        40.350    23596674.017 6  96624485.93106      1122.603 6        40.033
R22        19.000    24739236.666 5 132059810.26605     -4360.408 5        33.192                                                                    24739245.565 6 102713181.05206     -3391.708 6        36.102
E10        21.000    28118965.587 6 147766197.28206      2489.155 6        37.894                                                                    28118979.716 6 110344967.01806      1858.779 6        41.287    28118978.434 7 113223522.69207      1907.218 7        42.790
I06        22.000    38576254.377 6 151381594.09206      -497.299 6        41.986
S28        23.000    41048131.564 5 215709217.27405      -529.607 5        35.081
S23        25.000    38290250.462 7 201216499.54307      -525.217 7        44.948
S45        26.000    63542950.591 6 333921373.09006      -582.468 6        36.272
C07        27.000                                                                                                                                    40207219.468 6 209369442.26906     -1443.748 6        38.078    40207221.855 6 161897702.35406     -1116.413 6        40.739    40207218.687 6 170129784.43206     -1173.142 6        38.721
R04        28.000    22244111.390 8 119116131.17908     -4367.667 8        48.143                                                                    22244115.644 7  92645841.81307     -3397.181 7        42.273
C40        29.000                                                                                                                                    40700704.461 6 211939143.83906     -1721.819 6        38.553                                                                    40700710.286 6 172217897.63406     -1399.231 6        38.892
G17        30.000    25061905.392 6 131701239.32806     -3879.725 6        40.026                                    25061911.133 5 102624380.34805     -3023.164 5        30.566    25061910.507 5 102624377.35505     -3023.268 5        35.790
E12        31.000    27507339.217 6 144552104.19306      2043.552 6        36.435                                                                    27507346.912 6 107944828.02006      1526.243 6        40.360    27507345.831 6 110760767.38306      1565.960 6        40.796
G11        32.000    24717778.355 6 129892850.64506      2523.159 6        40.110                                    24717784.987 4 101215270.02504      1966.090 4        24.226    24717785.741 6 101215261.05406      1965.907 6        39.877
I02        33.000    37103440.112 7 145601846.60007      -521.482 7        42.874
R15        34.000    21275615.319 8 113690529.64508      2060.812 8        49.738                                                                    21275619.730 7  88426024.57107      1602.814 7        45.530
R13        35.000    22834838.088 6 121936706.98806     -3659.341 6        37.951
G29        36.000    25904616.921 5 136129686.63905      3336.805 5        34.167                                    25904631.577 3 106075116.89003      2600.099 3        20.214
C42        37.000                                                                                                                                    25203538.457 7 131241383.43707     -2735.301 7        44.023                                                                    25203552.145 7 106644408.44707     -2222.802 7        44.283
C10        38.000                                                                                                                                    39267395.978 6 204475583.69606     -1187.047 6        40.889    39267398.901 7 158113480.62407      -917.926 7        43.583    39267395.786 6 166153140.21906      -964.547 6        40.269
E25        39.000    24649128.070 7 129532200.43707      1105.583 7        46.763                                                                    24649133.702 8  96728704.44808       825.606 8        49.236    24649132.656 8  99252048.17608       847.123 8        49.797
C30        40.000                                                                                                                                    26346961.413 6 137195529.15306     -3262.018 6        40.684                                                                    26346969.744 6 111482636.11006     -2650.640 6        39.054
R23        41.000    21603165.427 7 115562450.11507     -2122.086 7        46.557
S44        42.000    40932533.485 6 215101933.44506      -451.458 6        37.130
C36        43.000                                                                                                                                    26949875.274 5 140334869.43805     -3376.160 5        33.551                                                                    26949890.286 6 114033554.28706     -2743.441 6        36.401
C05        44.000                                                                                                                                    39604175.332 6 206229226.38906      -524.886 6        38.631    39604179.273 7 159469506.90907      -406.049 7        43.073    39604178.871 6 167578213.12806      -426.623 6        39.757
R14        45.000    19618379.025 8 104577106.82208      -873.399 8        51.869                                                                    19618383.110 8  81337831.10408      -679.337 8        48.380
E26        46.000    28958761.323 5 152179411.53305     -2350.385 5        30.400                                                                    28958768.352 5 113640553.24405     -1755.438 5        33.210    28958766.991 5 116605076.76505     -1801.086 5        34.233
C35        48.000                                                                                                                                    23927762.036 7 124598221.75107      2413.098 7        47.638                                                                    23927765.687 7 101246309.67207      1960.784 7        46.503
C45        50.000                                                                                                                                    22939954.535 8 119454361.63808     -2345.103 8        48.937                                                                    22939950.125 8  97066436.43208     -1905.582 8        49.373
S48        51.000    77288268.827 6 406153764.61606      -527.803 6        38.258
C33        52.000                                                                                                                                    25759210.033 7 134134970.17307      -182.349 7        42.663                                                                    25759228.910 7 108995734.10807      -148.188 7        43.204
E33        53.000    26988908.390 6 141827780.25406      -212.664 6        40.529                                                                    26988916.992 7 105910431.61407      -158.689 7        42.745    26988915.494 7 108673300.84107      -162.738 7        43.484
C60        54.000                                                                                                                                    40932537.695 6 213146479.04106      -447.454 6        39.291                                                                    40932531.857 6 173198903.35006      -363.580 6        40.024
E31        55.000    26766850.574 6 140660664.86806     -2910.161 6        40.641                                                                    26766860.161 7 105038814.56307     -2173.187 7        43.742    26766859.169 7 107778956.67007     -2229.914 7        44.763
C26        56.000                                                                                                                                    22094763.115 8 115053314.77308       528.542 8        50.868                                                                    22094764.990 8  93490284.60408       429.493 8        49.917
C02        57.000                                                                                                                                    41102572.042 5 214031727.10105      -480.313 5        32.186    41102578.000 6 165502850.69606      -371.817 6        36.212    41102578.183 5 173918272.38505      -390.356 5        32.802
I03        58.000    91065585.169 5 281575402.26105       955.982 5        32.844
C21        59.000                                                                                                                                    27033900.992 6 140772348.76106     -3724.721 6        40.222                                                                    27033908.270 6 114388985.11406     -3026.668 6        40.110
R24        60.000    21088610.302 8 112770394.38708      2243.226 8        49.717                                                                    21088614.751 7  87710369.02507      1744.656 7        45.457
> 2025 01 02 12 31 15.0000000  0 56
E24         1.000    23888665.899 8 125535907.46908     -1242.276 8        48.678                                                                    23888668.253 8  93744415.58608      -927.663 8        50.814    23888667.473 8  96189910.85208      -951.860 8        51.623
G15         2.000    25383665.236 6 133391777.51406     -4348.233 6        38.402                                    25383679.119 4 103941561.42204     -3388.210 4        28.834    25383678.913 5 103941556.39705     -3388.316 5        35.705
E03         3.000    25053258.224 7 131655767.96307       -60.305 7        45.145                                                                    25053264.109 8  98314386.15408       -45.004 8        48.270    25053263.108 8 100879110.03608       -46.183 8        48.827
G19         4.000    22147344.087 7 116385224.72307     -2739.168 7        44.986                                    22147343.544 5  90689813.88905     -2134.412 5        34.281
S21         5.000    38581471.124 7 202746605.45707      -520.249 7        42.389
E05         6.000    23554573.298 7 123780043.13507     -2774.999 7        46.214                                                                    23554579.346 8  92433113.27708     -2072.234 8        48.661    23554578.438 8  94844412.57308     -2126.291 8        49.200
G25         7.000    22103154.549 7 116152971.98607      2303.361 7        43.896                                    22103158.391 6  90508879.04306      1794.824 6        41.905    22103158.812 6  90508880.04906      1794.828 6        41.690
C29         8.000                                                                                                                                    23087558.260 8 120223002.76508      -697.258 8        48.600                                                                    23087559.744 7  97691055.36207      -566.452 7        47.808
R05         9.000    21236863.154 8 113523265.20008     -1249.305 8        49.019                                                                    21236867.688 7  88295926.27707      -971.709 7        46.010
G24        10.000    20744818.341 8 109014754.92108     -2319.572 8        49.866                                    20744820.172 8  84946576.42808     -1807.456 8        51.826    20744820.584 7  84946581.42407     -1807.494 7        46.239
C14        11.000                                                                                                                                    25120959.483 7 130811435.54107     -1542.482 7        43.323    25120963.536 7 101151725.99207     -1192.743 7        46.359    25120960.188 7 106295017.33907     -1253.316 7        44.090
S27        12.000    39358427.076 6 206829805.84306      -542.675 6        36.934
E08        13.000    28317968.860 6 148811946.85706      2061.911 6        37.418                                                                    28317982.971 6 111125868.83506      1539.799 6        41.018    28317981.400 6 114024795.67006      1579.938 6        41.561
S36        14.000    38352404.361 7 201543647.30907      -520.995 7        44.998
G06        15.000    23518958.755 7 123593040.96607      1186.160 7        42.227                                    23518964.695 6  96306329.69806       924.279 6        38.925    23518965.761 6  96306331.68706       924.298 6        40.858
E09        16.000    28571257.826 4 150142713.98204     -3778.999 4        24.677                                                                    28571278.593 5 112119475.00705     -2821.859 5        33.443    28571276.036 5 115044336.84905     -2895.664 5        33.329
G12        17.000    20395653.008 8 107180056.02008       176.389 8        50.459                                    20395651.352 8  83517009.58608       137.447 8        51.222    20395651.575 7  83517006.58407       137.464 7        46.065
G32        18.000    23595298.499 7 123994160.76307      1437.931 7        43.805                                    23595304.086 6  96618874.19606      1120.464 6        40.253    23595304.523 6  96618878.20206      1120.486 6        40.274
R22        19.000    24743325.399 5 132081616.20805     -4361.949 5        34.252                                                                    24743329.514 5 102730141.29205     -3392.658 5        35.038
E10        21.000    28116597.394 6 147753751.81106      2489.028 6        38.435                                                                    28116611.320 6 110335673.40606      1858.546 6        41.311    28116610.070 7 113213986.62607      1907.142 7        42.963
I06        22.000    38576888.169 7 151384080.52607      -497.319 7        42.220
S28        23.000    41048635.453 5 215711864.68305      -529.498 5        34.838
S23        25.000    38290752.335 7 201219125.40807      -525.276 7        44.883
S45        26.000    63543445.855 6 333924285.75906      -582.416 6        36.079
C07        27.000                                                                                                                                    40208605.329 6 209376660.93606     -1443.769 6        38.357    40208608.112 6 161903284.30006     -1116.640 6        40.830    40208605.037 6 170135650.17306     -1172.844 6        38.814
R04        28.000    22248189.684 7 119137974.53207     -4369.697 7        47.102                                                                    22248195.150 7  92662831.06407     -3398.622 7        42.455
C40        29.000                                                                                                                                    40702357.621 6 211947752.92806     -1721.739 6        38.664                                                                    40702363.557 6 172224893.21906     -1398.952 6        38.895
G17        30.000    25065597.557 6 131720639.72006     -3880.325 6        40.029                                    25065602.820 5 102639497.54005     -3023.627 5        30.596    25065602.813 5 102639494.55405     -3023.712 5        35.410
E12        31.000    27505395.322 6 144541888.36206      2042.650 6        36.129                                                                    27505402.769 6 107937199.36106      1525.353 6        40.195    27505401.953 6 110752939.70706      1565.092 6        40.989
G11        32.000    24715378.029 6 129880237.47006      2522.245 6        39.985                                    24715384.861 4 101205441.63604      1965.374 4        24.120    24715385.655 6 101205432.66106      1965.354 6        40.126
I02        33.000    37104104.519 7 145604454.38807      -521.738 7        43.010
R15        34.000    21273687.347 8 113680228.35108      2059.721 8        49.646                                                                    21273692.482 7  88418012.46507      1602.049 7        45.902
R13        35.000    22838264.762 6 121955005.61006     -3660.154 6        38.919
G29        36.000    25901441.695 5 136113003.40905      3336.742 5        34.900                                    25901456.989 3 106062117.09303      2600.042 3        21.095
C42        37.000                                                                                                                                    25206165.998 7 131255064.73807     -2737.078 7        44.158                                                                    25206179.512 7 106655525.58607     -2223.966 7        44.175
C10        38.000                                                                                                                                    39268535.536 6 204481519.39306     -1187.126 6        41.018    39268539.051 7 158118070.46807      -917.966 7        43.678    39268535.633 6 166157963.43206      -964.461 6        40.236
E25        39.000    24648076.770 7 129526675.03307      1104.616 7        46.668                                                                    24648082.234 8  96724578.33408       824.900 8        49.278    24648081.172 8  99247814.42708       846.347 8        49.709
C30        40.000                                                                                                                                    26350094.198 6 137211842.82806     -3263.454 6        40.486                                                                    26350102.569 6 111495892.32806     -2651.769 6        39.132
R23        41.000    21605150.782 7 115573071.53007     -2126.521 7        46.496
S44        42.000    40932963.266 6 215104191.23406      -451.723 6        37.115
C36        43.000                                                                                                                                    26953116.786 5 140351751.10405     -3376.200 5        33.635                                                                    26953132.006 5 114047271.99605     -2743.360 5        35.752
C05        44.000                                                                                                                                    39604679.239 6 206231851.92706      -525.113 6        38.444    39604683.444 7 159471537.15407      -406.083 7        43.164    39604683.095 6 167580346.57806      -426.426 6        39.889
R14        45.000    19619199.145 8 104581479.14308      -875.499 8        51.463                                                                    19619203.284 7  81341231.79407      -680.973 7        47.986
E26        46.000    28960998.518 5 152191168.34805     -2352.644 5        31.057                                                                    28961005.244 5 113649332.73605     -1756.643 5        32.407    28961004.278 5 116614085.29105     -1802.435 5        34.038
C35        48.000                                                                                                                                    23925445.523 7 124586159.89707      2411.669 7        47.394                                                                    23925448.985 7 101236508.43607      1959.823 7        46.366
C45        50.000                                                                                                                                    22942206.710 8 119466090.11108     -2346.278 8        49.041                                                                    22942202.483 8  97075966.76208     -1906.434 8        49.374
S48        51.000    77288769.237 6 406156405.36506      -528.030 6        38.072
C33        52.000                                                                                                                                    25759386.390 7 134135888.99207      -185.254 7        42.679                                                                    25759405.397 7 108996480.70907      -150.237 7        43.043
E33        53.000    26989111.564 6 141828848.79006      -214.902 6        40.515                                                                    26989120.420 7 105911229.56507      -160.594 7        42.836    26989118.737 7 108674119.60807      -164.763 7        43.572
C60        54.000                                                                                                                                    40932966.667 6 213148716.28506      -447.337 6        39.465                                                                    40932961.575 6 173200721.30506      -363.454 6        39.964
E31        55.000    26769619.775 6 140675216.65306     -2910.379 6        41.178                                                                    26769629.137 7 105049681.14107     -2173.444 7        43.700    26769628.141 7 107790106.71507     -2230.103 7        44.816
C26        56.000                                                                                                                                    22094256.346 8 115050675.56608       527.114 8        50.944                                                                    22094258.167 8  93488140.01908       428.457 8        49.929
C02        57.000                                                                                                                                    41103033.800 5 214034130.00705      -480.559 5        32.551    41103039.342 6 165504708.71306      -371.454 6        36.340    41103039.847 5 173920224.88805      -390.239 5        32.647
I03        58.000    91064368.218 5 281570622.83605       955.923 5        32.587
C21        59.000                                                                                                                                    27037477.659 6 140790971.41706     -3724.362 6        40.072                                                                    27037484.828 6 114404117.47706     -3026.212 6        40.164
R24        60.000    21086514.507 8 112759187.17508      2239.772 8        49.115                                                                    21086518.706 7  87701652.32307      1742.032 7        45.865
> 2025 01 02 12 31 20.0000000  0 56
E24         1.000    23889848.756 8 125542122.83008     -1243.507 8        48.822                                                                    23889850.995 8  93749056.91808      -928.570 8        50.779    23889850.239 8  96194673.26508      -952.816 8        51.676
G15         2.000    25387802.615 6 133413518.56406     -4347.967 6        38.598                                    25387816.470 4 103958502.39404     -3388.009 4        29.071    25387815.653 5 103958497.34705     -3388.017 5        35.714
E03         3.000    25053316.577 7 131656075.97407       -62.643 7        45.123                                                                    25053322.707 8  98314616.16408       -46.775 8        48.273    25053321.746 8 100879346.05008       -48.015 8        48.756
G19         4.000    22149952.118 7 116398927.73707     -2741.737 7        45.090                                    22149951.188 5  90700491.54705     -2136.414 5        34.390
S21         5.000    38581971.337 7 202749207.85807      -520.249 7        42.610
E05         6.000    23557214.628 7 123793923.09207     -2776.689 7        46.290                                                                    23557220.601 8  92443478.17408     -2073.508 8        48.667    23557219.659 8  94855047.86108     -2127.655 8        49.200
G25         7.000    22100963.612 7 116141459.04507      2302.049 7        44.491                                    22100967.560 7  90499907.92707      1793.803 7        42.047    22100968.027 6  90499908.92506      1793.890 6        41.900
C29         8.000                                                                                                                                    23088229.119 8 120226496.70608      -700.091 8        48.449                                                                    23088230.677 7  97693894.49807      -569.030 7        47.755
R05         9.000    21238035.086 8 113529524.00708     -1253.934 8        49.783                                                                    21238038.862 7  88300794.22207      -975.247 7        45.842
G24        10.000    20747026.498 8 109026359.55908     -2322.171 8        49.953                                    20747028.478 8  84955618.99508     -1809.484 8        51.952    20747028.616 7  84955623.98807     -1809.384 7        46.286
C14        11.000                                                                                                                                    25122442.128 7 130819155.29807     -1545.075 7        42.891    25122446.554 7 101157695.35807     -1194.834 7        46.317    25122442.735 7 106301290.26907     -1255.773 7        43.970
S27        12.000    39358942.104 6 206832519.84306      -542.784 6        36.756
E08        13.000    28316007.850 6 148801640.97606      2060.801 6        38.078                                                                    28316022.081 6 111118172.90706      1538.945 6        40.872    28316020.147 6 114016898.97406      1578.996 6        41.418
S36        14.000    38352896.293 7 201546252.63607      -520.977 7        44.781
G06        15.000    23517831.062 7 123587117.45507      1183.522 7        42.618                                    23517837.452 6  96301713.98106       922.225 6        38.979    23517838.094 6  96301715.97606       922.151 6        40.534
E09        16.000    28574852.993 4 150161610.56704     -3778.925 4        24.722                                                                    28574874.520 5 112133585.96705     -2821.931 5        33.497    28574872.011 5 115058815.93105     -2895.802 5        33.186
G12        17.000    20395486.494 8 107179180.48908       174.068 8        50.582                                    20395484.739 8  83516327.35608       135.636 8        51.329    20395485.363 7  83516324.35707       135.600 7        46.314
G32        18.000    23593931.623 7 123986978.22007      1435.313 7        44.382                                    23593937.295 6  96613277.40406      1118.426 6        40.348    23593938.386 6  96613281.40006      1118.471 6        40.451
R22        19.000    24747410.171 5 132103431.51305     -4363.551 5        34.862                                                                    24747416.323 5 102747108.93805     -3394.032 5        34.619
E10        21.000    28114229.442 6 147741307.90506      2488.808 6        38.763                                                                    28114243.262 6 110326380.96506      1858.584 6        41.347    28114242.076 7 113204451.76107      1907.125 7        42.997
I06        22.000    38577521.633 7 151386567.42107      -497.173 7        42.262
S28        23.000    41049142.611 5 215714512.58905      -529.366 5        34.648
S23        25.000    38291251.587 7 201221752.17907      -525.216 7        44.781
S45        26.000    63543949.248 5 333927199.12105      -582.581 5        35.729
C07        27.000                                                                                                                                    40209991.785 6 209383880.67606     -1443.829 6        38.249    40209994.494 6 161908867.06406     -1116.573 6        40.663    40209991.506 6 170141516.85006     -1173.529 6        38.544
R04        28.000    22252271.534 7 119159828.36707     -4371.624 7        47.839                                                                    22252276.761 7  92679828.46107     -3400.266 7        42.292
C40        29.000                                                                                                                                    40704011.127 6 211956362.89506     -1721.787 6        38.372                                                                    40704017.168 6 172231889.56206     -1399.315 6        38.829
G17        30.000    25069289.800 6 131740044.22406     -3881.153 6        39.399                                    25069295.311 5 102654617.94305     -3024.278 5        30.604    25069295.373 5 102654614.94405     -3024.326 5        35.581
E12        31.000    27503452.610 5 144531678.85305      2041.395 5        35.971                                                                    27503459.896 6 107929575.41406      1524.563 6        39.982    27503459.229 6 110745116.86806      1564.284 6        41.309
G11        32.000    24712978.820 6 129867628.85806      2521.494 6        40.052                                    24712985.469 4 101195616.81104      1964.795 4        24.241    24712985.900 6 101195607.84506      1964.577 6        39.793
I02        33.000    37104768.992 7 145607063.33707      -521.876 7        42.971
R15        34.000    21271760.982 8 113669933.43208      2058.584 8        50.054                                                                    21271765.838 7  88410005.31107      1601.139 7        45.865
R13        35.000    22841694.401 6 121973308.59106     -3660.910 6        39.189
G29        36.000    25898267.532 5 136096320.44205      3336.951 5        34.805                                    25898282.365 3 106049117.49703      2600.203 3        22.152
C42        37.000                                                                                                                                    25208794.826 7 131268755.61207     -2738.965 7        43.996                                                                    25208808.734 7 106666650.53507     -2225.749 7        44.223
C10        38.000                                                                                                                                    39269676.183 6 204487456.54806     -1187.424 6        40.825    39269679.408 7 158122661.45707      -918.173 7        43.507    39269675.915 6 166162787.87306      -964.890 6        40.207
E25        39.000    24647026.219 7 129521155.24407      1103.550 7        46.625                                                                    24647031.862 8  96720456.42008       824.096 8        49.234    24647030.820 8  99243584.98008       845.561 8        49.786
C30        40.000                                                                                                                                    26353228.234 6 137228164.46906     -3264.970 6        40.176                                                                    26353236.829 6 111509155.05906     -2653.059 6        38.610
R23        41.000    21607140.873 7 115583715.47107     -2130.869 7        46.568
S44        42.000    40933393.118 6 215106449.59606      -451.382 6        37.217
C36        43.000                                                                                                                                    26956359.351 5 140368634.45405     -3376.693 5        33.168                                                                    26956374.308 5 114060991.11305     -2744.219 5        35.743
C05        44.000                                                                                                                                    39605183.893 6 206234477.96806      -525.146 6        38.874    39605187.517 7 159473567.79407      -405.996 7        43.065    39605187.320 6 167582480.49906      -426.825 6        39.477
R14        45.000    19620021.294 8 104585862.68008      -877.634 8        51.345                                                                    19620025.371 7  81344641.21207      -682.664 7        47.655
E26        46.000    28963237.575 5 152202935.15405     -2354.516 5        30.725                                                                    28963244.397 5 113658119.72005     -1757.874 5        32.994    28963243.340 5 116623101.50605     -1804.026 5        33.988
C35        48.000                                                                                                                                    23923130.733 7 124574105.76807      2410.261 7        47.556                                                                    23923134.111 7 101226713.51607      1958.424 7        46.325
C45        50.000                                                                                                                                    22944460.547 8 119477825.41508     -2347.560 8        49.214                                                                    22944456.135 8  97085502.67208     -1907.690 8        49.338
S48        51.000    77289266.200 6 406159046.92406      -528.353 6        38.204
C33        52.000                                                                                                                                    25759566.471 7 134136822.66407      -188.037 7        42.823                                                                    25759584.719 7 108997239.42907      -152.887 7        43.069
E33        53.000    26989317.668 6 141829930.60406      -217.605 6        40.102                                                                    26989326.221 7 105912037.43007      -162.426 7        42.885    26989324.685 7 108674948.54607      -166.747 7        43.539
C60        54.000                                                                                                                                    40933396.712 6 213150954.15306      -447.535 6        39.072                                                                    40933391.177 6 173202539.78306      -363.653 6        39.823
E31        55.000    26772389.221 6 140689770.16806     -2910.622 6        41.287                                                                    26772398.626 7 105060549.01907     -2173.622 7        43.670    26772397.434 7 107801258.10707     -2230.282 7        44.566
C26        56.000                                                                                                                                    22093750.941 8 115048044.25108       525.678 8        50.987                                                                    22093752.845 8  93486001.88008       427.053 8        49.842
C02        57.000                                                                                                                                    41103494.426 5 214036533.38105      -480.761 5        32.413    41103501.158 6 165506567.16606      -371.588 6        36.439    41103501.385 5 173922177.84305      -390.608 5        32.371
I03        58.000    91063150.914 5 281565843.69105       956.099 5        33.114
C21        59.000                                                                                                                                    27041053.415 6 140809592.98506     -3724.035 6        40.267                                                                    27041060.939 6 114419248.98606     -3026.088 6        40.250
R24        60.000    21084421.989 8 112747997.91508      2236.204 8        49.623                                                                    21084426.132 7  87692949.55807      1739.203 7        45.698
> 2025 01 02 12 31 25.0000000  0 56
E24         1.000    23891032.525 8 125548343.63708     -1244.806 8        48.743                                                                    23891034.841 8  93753702.31108      -929.515 8        50.939    23891034.011 8  96199439.84308      -953.794 8        51.528
G15         2.000    25391939.387 6 133435256.74006     -4347.401 6        38.483                                    25391953.145 4 103975441.12004     -3387.562 4        29.156    25391953.169 5 103975436.07505     -3387.631 5        35.867
E03         3.000    25053377.567 7 131656395.81607       -65.207 7        45.231                                                                    25053383.539 8  98314855.01108       -48.708 8        48.449    25053382.601 8 100879591.12708       -49.946 8        48.632
G19         4.000    22152561.985 7 116412643.10407     -2744.381 7        45.132                                    22152561.171 5  90711178.83205     -2138.476 5        34.262
S21         5.000    38582466.274 7 202751810.32307      -520.608 7        42.546
E05         6.000    23559857.426 7 123807811.28607     -2778.464 7        46.470                                                                    23559863.516 8  92453849.21508     -2074.877 8        48.826    23559862.490 8  94865689.44508     -2128.999 8        49.102
G25         7.000    22098773.950 7 116129952.52007      2300.570 7        44.150                                    22098777.936 6  90490941.81706      1792.651 6        41.962    22098778.353 7  90490942.82107      1792.719 7        42.008
C29         8.000                                                                                                                                    23088902.553 8 120230004.81308      -703.078 8        48.341                                                                    23088904.426 7  97696745.12807      -571.345 7        47.655
R05         9.000    21239210.112 8 113535805.12608     -1258.552 8        49.880                                                                    21239213.958 7  88305679.51907      -978.876 7        45.833
G24        10.000    20749237.408 8 109037976.94908     -2324.878 8        49.920                                    20749239.204 8  84964671.50408     -1811.594 8        51.834    20749239.355 7  84964676.50307     -1811.604 7        46.262
C14        11.000                                                                                                                                    25123926.880 7 130826887.85007     -1547.816 7        42.828    25123931.008 7 101163674.64407     -1196.879 7        46.123    25123927.733 7 106307573.58007     -1257.798 7        43.928
S27        12.000    39359458.992 6 206835234.01606      -543.186 6        36.718
E08        13.000    28314047.655 6 148791340.70406      2059.495 6        38.075                                                                    28314062.010 6 111110481.17806      1537.852 6        41.261    28314060.131 6 114009006.58506      1578.068 6        41.683
S36        14.000    38353393.220 7 201548857.71607      -521.077 7        44.850
G06        15.000    23516706.579 6 123581207.09506      1180.759 6        41.774                                    23516712.669 6  96297108.51406       920.070 6        38.571    23516713.447 6  96297110.51506       920.009 6        40.334
E09        16.000                                                                                                                                    28578470.388 5 112147696.13305     -2821.870 5        33.186    28578467.868 5 115073294.19905     -2895.630 5        33.066
G12        17.000    20395321.943 8 107178316.19208       171.711 8        50.645                                    20395320.259 8  83515653.87908       133.802 8        51.212    20395320.945 7  83515650.87307       133.816 7        46.268
G32        18.000    23592567.492 7 123979808.80107      1432.470 7        44.552                                    23592572.998 6  96607690.85606      1116.212 6        40.255    23592573.642 6  96607694.85306      1116.302 6        40.572
R22        19.000    24751500.732 5 132125255.24105     -4365.854 5        34.971                                                                    24751503.730 5 102764083.03605     -3395.450 5        34.690
E10        21.000    28111861.353 6 147728864.69306      2488.462 6        38.709                                                                    28111875.270 6 110317089.02406      1858.308 6        41.478    28111874.029 7 113194917.42607      1906.752 7        43.100
I06        22.000    38578155.513 6 151389054.11206      -497.423 6        41.948
S28        23.000    41049647.833 5 215717160.21905      -529.930 5        35.067
S23        25.000    38291751.881 7 201224378.63607      -525.269 7        44.867
S45        26.000    63544453.803 6 333928412.37516      -582.486 6        36.178
C07        27.000                                                                                                                                    40211378.640 6 209391100.56406     -1443.973 6        38.390    40211380.845 6 161914449.96306     -1116.790 6        40.648    40211378.092 6 170147383.61006     -1173.580 6        38.607
R04        28.000    22256355.200 8 119181691.89208     -4373.758 8        48.437                                                                    22256358.682 6  92696833.38806     -3401.746 6        41.788
C40        29.000                                                                                                                                    40705664.090 6 211964972.84706     -1721.963 6        38.523                                                                    40705670.453 6 172238885.85706     -1399.365 6        38.802
G17        30.000    25072982.324 6 131759451.87606     -3881.745 6        38.970                                    25072988.344 5 102669740.79205     -3024.734 5        30.241    25072988.660 5 102669737.81305     -3024.946 5        35.738
E12        31.000    27501510.598 6 144521474.79406      2040.367 6        36.072                                                                    27501518.077 6 107921955.52406      1523.652 6        39.991    27501517.371 6 110737298.20906      1563.226 6        41.218
G11        32.000    24710579.788 6 129855023.90706      2520.529 6        40.601                                    24710586.859 4 101185794.82704      1964.034 4        24.226    24710586.819 6 101185785.84106      1964.083 6        39.748
I02        33.000    37105434.334 7 145609672.94607      -521.992 7        42.910
R15        34.000    21269835.168 8 113659643.76808      2057.314 8        49.685                                                                    21269840.009 7  88402002.24107      1600.151 7        45.612
R13        35.000    22845121.782 6 121991615.01706     -3661.722 6        39.462
G29        36.000    25895093.087 5 136079636.86905      3336.685 5        34.700                                    25895107.580 3 106036117.43903      2600.000 3        21.714
C42        37.000                                                                                                                                    25211425.416 7 131282455.11407     -2740.828 7        44.233                                                                    25211439.673 7 106677782.48907     -2227.235 7        44.235
C10        38.000                                                                                                                                    39270816.485 6 204493394.35706     -1187.644 6        40.567    39270819.532 7 158127252.94407      -918.387 7        43.625    39270815.969 6 166167612.83206      -965.148 6        40.102
E25        39.000    24645977.031 7 129515640.15507      1102.370 7        46.660                                                                    24645982.409 8  96716338.01408       823.181 8        49.397    24645981.302 8  99239359.13308       844.702 8        49.601
C30        40.000                                                                                                                                    26356363.639 6 137244493.18306     -3266.533 6        39.967                                                                    26356372.416 6 111522423.49206     -2654.172 6        38.949
R23        41.000    21609134.364 7 115594380.85907     -2135.352 7        46.559
S44        42.000    40933824.862 6 215108707.67606      -451.660 6        37.104
C36        43.000                                                                                                                                    26959601.779 5 140385518.49005     -3376.780 5        33.413                                                                    26959616.844 6 114074710.78706     -2744.270 6        36.125
C05        44.000                                                                                                                                    39605688.109 6 206237103.67206      -525.316 6        38.883    39605691.925 7 159475598.17507      -406.143 7        43.020    39605691.325 6 167584614.09606      -426.663 6        39.462
R14        45.000    19620845.631 8 104590256.50808      -879.882 8        51.475                                                                    19620849.865 7  81348058.62507      -684.385 7        47.914
E26        46.000    28965478.298 4 152214711.09304     -2356.325 4        29.772                                                                    28965485.122 5 113666913.51905     -1759.766 5        33.066    28965484.155 5 116632124.66605     -1805.602 5        34.000
C35        48.000                                                                                                                                    23920817.115 7 124562058.47807      2408.720 7        47.436                                                                    23920820.746 7 101216924.13607      1957.277 7        46.308
C45        50.000                                                                                                                                    22946715.345 8 119489566.65008     -2348.960 8        48.990                                                                    22946710.985 8  97095043.36908     -1908.640 8        49.303
S48        51.000    77289761.084 6 406161688.45606      -528.476 6        38.114
C33        52.000                                                                                                                                    25759748.078 7 134137770.32907      -191.022 7        42.887                                                                    25759766.716 7 108998009.46607      -155.205 7        43.098
E33        53.000    26989525.981 6 141831024.75206      -220.169 6        40.274                                                                    26989534.518 7 105912854.50607      -164.521 7        43.043    26989532.843 7 108675786.92907      -168.655 7        43.674
C60        54.000                                                                                                                                    40933826.417 6 213153191.69106      -447.558 6        39.027                                                                    40933821.021 6 173204357.98906      -363.692 6        39.805
E31        55.000    26775158.491 6 140704324.52306     -2910.995 6        41.135                                                                    26775168.196 7 105071417.51807     -2173.882 7        43.865    26775166.932 7 107812410.13307     -2230.545 7        44.328
C26        56.000                                                                                                                                    22093247.085 8 115045419.92308       524.059 8        50.957                                                                    22093248.840 8  93483869.39408       425.790 8        49.795
C02        57.000                                                                                                                                    41103955.701 5 214038936.37705      -480.612 5        32.078    41103962.571 6 165508425.31706      -371.580 6        36.454    41103962.826 5 173924130.46905      -390.447 5        32.192
I03        58.000    91061931.903 5 281561064.13705       955.961 5        33.018
C21        59.000                                                                                                                                    27044629.459 6 140828212.50406     -3723.870 6        40.596                                                                    27044636.637 6 114434378.81706     -3025.984 6        40.167
R24        60.000    21082333.113 8 112736825.78808      2232.605 8        49.738                                                                    21082337.021 7  87684260.14007      1736.437 7        45.789
> 2025 01 02 12 31 30.0000000  0 56
E24         1.000    23892217.400 8 125554569.76608     -1245.658 8        48.765                                                                    23892219.621 8  93758351.67908      -930.194 8        50.912    23892218.805 8  96204210.50308      -954.473 8        51.406
G15         2.000    25396075.938 6 133456991.94506     -4346.450 6        38.643                                    25396089.271 4 103992377.53304     -3386.823 4        29.118    25396089.263 5 103992372.50005     -3386.780 5        35.119
E03         3.000    25053440.810 7 131656727.41907       -67.348 7        45.088                                                                    25053446.665 8  98315102.63808       -50.277 8        48.404    25053445.740 8 100879845.21208       -51.601 8        48.611
G19         4.000    22155174.324 7 116426370.74807     -2746.656 7        45.177                                    22155173.520 5  90721875.67905     -2140.251 5        34.371
S21         5.000    38582960.822 7 202754412.68607      -520.299 7        42.624
E05         6.000    23562501.641 7 123821707.62407     -2779.966 7        46.451                                                                    23562507.953 8  92464226.33008     -2075.929 8        48.778    23562506.894 8  94876337.27208     -2130.106 8        48.981
G25         7.000    22096585.446 7 116118452.34907      2299.530 7        44.245                                    22096589.542 7  90481980.65507      1791.837 7        42.076    22096590.202 7  90481981.66207      1791.878 7        42.023
C29         8.000                                                                                                                                    23089579.451 8 120233527.01908      -705.699 8        48.221                                                                    23089580.755 7  97699607.21307      -573.516 7        47.784
R05         9.000    21240388.798 8 113542108.89308     -1262.923 8        49.591                                                                    21240393.042 7  88310582.43807      -982.261 7        45.181
G24        10.000    20751450.405 8 109049607.00508     -2327.200 8        49.797                                    20751452.335 8  84973733.87608     -1813.400 8        51.912    20751452.618 7  84973738.87007     -1813.425 7        46.155
C14        11.000                                                                                                                                    25125414.284 7 130834633.11807     -1550.097 7        42.967    25125418.163 7 101169663.75907     -1198.720 7        46.311    25125415.088 7 106313867.23007     -1259.675 7        44.089
S27        12.000    39359971.467 6 206837947.39106      -542.616 6        36.465
E08        13.000    28312088.546 6 148781046.01206      2058.540 6        38.063                                                                    28312103.362 6 111102793.58106      1537.338 6        41.068    28312101.052 6 114001118.46406      1577.202 6        41.495
S36        14.000    38353889.378 7 201551462.59107      -520.792 7        44.932
G06        15.000    23515584.412 6 123575309.83906      1178.218 6        41.032                                    23515590.399 6  96292513.24906       918.090 6        38.393    23515591.687 6  96292515.24906       918.148 6        40.810
E09        16.000                                                                                                                                    28582065.751 5 112161805.46205     -2821.532 5        33.449    28582063.503 5 115087771.59805     -2895.371 5        32.946
G12        17.000    20395159.586 8 107177463.08808       169.637 8        50.558                                    20395157.917 8  83514989.11808       132.184 8        51.320    20395158.424 7  83514986.11907       132.152 7        46.237
G32        18.000    23591206.081 7 123972652.48507      1430.089 7        44.492                                    23591211.179 6  96602114.50606      1114.356 6        40.315    23591211.954 6  96602118.50906      1114.208 6        40.915
R22        19.000    24755590.238 5 132147087.26105     -4367.331 5        35.510                                                                    24755594.990 5 102781063.70105     -3396.769 5        34.886
E10        21.000    28109493.426 6 147716422.06606      2488.530 6        38.748                                                                    28109507.380 6 110307797.54606      1858.253 6        41.187    28109506.131 7 113185383.54807      1906.746 7        42.878
I06        22.000    38578789.109 7 151391540.51207      -497.162 7        42.011
S28        23.000    41050146.692 5 215719807.40505      -529.200 5        35.019
S23        25.000    38292250.234 7 201227004.56307      -525.141 7        44.819
S45        26.000    63544954.603 5 333931325.55005      -582.507 5        35.781
C07        27.000                                                                                                                                    40212765.391 6 209398320.57806     -1443.882 6        38.459    40212767.699 6 161920032.93106     -1116.533 6        40.336    40212764.446 6 170153250.47406     -1173.400 6        38.733
R04        28.000    22260439.598 8 119203564.79208     -4375.416 8        48.726                                                                    22260444.561 7  92713845.60907     -3403.152 7        42.772
C40        29.000                                                                                                                                    40707317.872 6 211973582.74906     -1721.913 6        38.550                                                                    40707323.786 6 172245882.11006     -1399.191 6        38.931
G17        30.000    25076676.305 6 131778862.64206     -3882.327 6        38.673                                    25076682.029 5 102684866.07405     -3025.189 5        30.317    25076682.866 5 102684863.07305     -3025.345 5        35.919
E12        31.000    27499570.155 6 144511276.07106      2039.401 6        36.049                                                                    27499577.205 6 107914339.64806      1522.872 6        39.877    27499576.527 6 110729483.64906      1562.609 6        40.932
G11        32.000    24708182.260 6 129842422.59406      2519.993 6        41.087                                    24708188.813 4 101175975.66704      1963.622 4        24.256    24708189.199 6 101175966.68006      1963.635 6        38.898
I02        33.000    37106099.220 7 145612282.97107      -521.975 7        42.883
R15        34.000    21267910.581 8 113649359.39008      2056.392 8        49.909                                                                    21267915.298 7  88394003.28007      1599.495 7        45.199
R13        35.000    22848550.355 6 122009924.74806     -3661.948 6        39.652
G29        36.000    25891917.760 5 136062952.66305      3337.016 5        35.405                                    25891932.643 3 106023116.86103      2600.266 3        22.114
C42        37.000                                                                                                                                    25214058.532 7 131296163.18607     -2742.273 7        44.522                                                                    25214072.047 7 106688921.42007     -2228.374 7        44.378
C10        38.000                                                                                                                                    39271956.362 6 204499332.72106     -1187.434 6        40.465    39271959.986 7 158131844.86707      -918.302 7        43.272    39271956.504 6 166172438.26306      -965.083 6        40.310
E25        39.000    24644928.377 7 129510129.68307      1101.760 7        46.695                                                                    24644933.792 8  96712223.05308       822.785 8        49.436    24644932.714 8  99235136.83208       844.166 8        49.518
C30        40.000                                                                                                                                    26359500.964 6 137260828.85506     -3267.777 6        40.222                                                                    26359509.790 6 111535697.58806     -2655.333 6        39.222
R23        41.000    21611132.645 7 115605067.92207     -2139.447 7        46.277
S44        42.000    40934253.597 6 215110965.36606      -451.328 6        37.040
C36        43.000                                                                                                                                    26962844.409 5 140402403.27305     -3376.938 5        33.150                                                                    26962859.504 6 114088431.01406     -2744.184 6        36.045
C05        44.000                                                                                                                                    39606192.119 6 206239728.94806      -525.018 6        38.529    39606196.248 7 159477628.22707      -405.881 7        42.832    39606195.617 6 167586747.38006      -426.519 6        39.787
R14        45.000    19621671.709 8 104594660.41308      -881.697 8        51.646                                                                    19621676.138 8  81351483.86508      -685.710 8        48.100
E26        46.000    28967720.542 4 152226496.24904     -2357.925 4        29.232                                                                    28967727.629 5 113675714.17405     -1760.695 5        32.934    28967726.793 5 116641154.94005     -1806.956 5        33.760
C35        48.000                                                                                                                                    23918504.872 7 124550017.97407      2407.528 7        47.310                                                                    23918508.541 7 101207140.27207      1956.278 7        46.429
C45        50.000                                                                                                                                    22948971.193 8 119501313.73708     -2349.912 8        48.841                                                                    22948966.910 8  97104588.83608     -1909.438 8        49.324
S48        51.000    77290255.184 6 406164329.73206      -528.192 6        37.758
C33        52.000                                                                                                                                    25759932.020 7 134138731.87907      -193.527 7        42.453                                                                    25759951.314 7 108998790.81207      -157.307 7        43.147
E33        53.000    26989736.516 6 141832131.19106      -222.431 6        40.150                                                                    26989745.036 7 105913680.74607      -166.204 7        43.204    26989743.529 7 108676634.72407      -170.398 7        43.534
C60        54.000                                                                                                                                    40934256.216 6 213155428.86806      -447.408 6        38.802                                                                    40934250.512 6 173206175.89806      -363.620 6        39.892
E31        55.000    26777928.337 6 140718879.64106     -2911.031 6        41.049                                                                    26777938.048 7 105082286.57207     -2173.817 7        43.759    26777936.714 7 107823562.72907     -2230.506 7        44.376
C26        56.000                                                                                                                                    22092744.449 8 115042802.51208       522.945 8        50.871                                                                    22092746.220 8  93481742.53808       424.870 8        50.061
C02        57.000                                                                                                                                    41104418.013 5 214041338.94305      -480.744 5        32.299    41104423.957 6 165510283.11706      -371.568 6        36.113    41104423.872 5 173926082.73005      -389.993 5        32.060
I03        58.000    91060713.934 5 281556284.11405       956.250 5        33.054
C21        59.000                                                                                                                                    27048204.663 6 140846829.91606     -3723.072 6        40.570                                                                    27048212.062 6 114449506.93206     -3025.323 6        40.060
R24        60.000    21080247.267 8 112725670.72408      2229.446 8        48.831                                                                    21080250.942 7  87675583.99207      1734.060 7        45.810
> 2025 01 02 12 31 35.0000000  0 56
E24         1.000    23893403.196 8 125560801.68508     -1247.044 8        48.909                                                                    23893405.507 8  93763005.36908      -931.216 8        51.040    23893404.691 8  96208985.59708      -955.536 8        51.516
G15         2.000    25400211.413 6 133478724.68206     -4346.305 6        38.532                                    25400224.860 4 104009312.02804     -3386.700 4        29.071    25400224.652 5 104009306.98805     -3386.685 5        35.262
E03         3.000    25053506.559 7 131657071.23707       -70.039 7        45.136                                                                    25053512.061 8  98315359.38708       -52.345 8        48.475    25053511.028 8 100880108.66208       -53.736 8        48.610
G19         4.000    22157788.716 7 116440111.08807     -2749.452 7        44.891                                    22157788.225 5  90732582.42205     -2142.423 5        34.305
S21         5.000    38583454.762 7 202757015.14207      -520.613 7        42.991
E05         6.000    23565147.623 7 123835612.53607     -2781.910 7        46.543                                                                    23565154.017 8  92474609.85108     -2077.434 8        48.861    23565152.854 8  94886991.67308     -2131.562 8        49.044
G25         7.000    22094398.362 7 116106958.99907      2297.920 7        44.460                                    22094402.440 7  90473024.80707      1790.589 7        42.068    22094402.799 6  90473025.81106      1790.494 6        41.356
C29         8.000                                                                                                                                    23090258.792 8 120237063.75808      -708.884 8        48.432                                                                    23090259.920 7  97702481.09907      -576.112 7        47.585
R05         9.000    21241572.326 8 113548435.57908     -1267.710 8        49.974                                                                    21241576.490 7  88315503.18307      -985.966 7        45.660
G24        10.000    20753666.029 8 109061250.16008     -2330.019 8        50.087                                    20753667.957 8  84982806.45808     -1815.598 8        51.925    20753668.040 7  84982811.46107     -1815.624 7        45.582
C14        11.000                                                                                                                                    25126905.412 7 130842391.61107     -1553.147 7        43.177    25126909.042 7 101175663.10107     -1200.961 7        46.396    25126905.079 7 106320171.61807     -1262.009 7        43.801
S27        12.000    39360489.741 6 206840660.69106      -542.888 6        36.427
E08        13.000    28310130.661 6 148770757.26206      2057.094 6        38.018                                                                    28310145.458 6 111095110.47006      1536.008 6        41.218    28310143.164 6 113993234.88506      1576.198 6        41.712
S36        14.000    38354384.038 7 201554067.38107      -520.912 7        45.154
G06        15.000    23514464.842 7 123569426.12607      1175.264 7        42.032                                    23514470.723 6  96287928.54406       915.790 6        38.270    23514471.864 6  96287930.53506       915.923 6        40.584
E09        16.000    28585641.304 4 150218293.99804     -3778.287 4        24.211                                                                    28585661.390 5 112175914.22405     -2821.381 5        33.186    28585658.880 5 115102248.43205     -2895.245 5        32.892
G12        17.000    20394999.231 8 107176621.60308       167.064 8        50.579                                    20394997.788 8  83514333.41408       130.180 8        51.310    20394998.405 7  83514330.41607       130.187 7        45.923
G32        18.000    23589846.833 7 123965509.70007      1427.157 7        44.792                                    23589851.940 6  96596548.70106      1112.073 6        40.296    23589852.254 6  96596552.70706      1112.037 6        40.503
R22        19.000    24759680.193 5 132168928.04505     -4369.431 5        34.643                                                                    24759685.344 5 102798051.11905     -3398.056 5        34.414
E10        21.000    28107125.917 6 147703980.50406      2488.072 6        39.009                                                                    28107139.670 6 110298506.84506      1857.986 6        41.416    28107138.581 7 113175850.47507      1906.458 7        42.887
I06        22.000    38579422.806 6 151394026.98206      -497.399 6        41.940
S28        23.000    41050658.169 5 215722455.08405      -529.764 5        35.248
S23        25.000    38292751.870 7 201229630.65607      -525.407 7        45.082
S45        26.000    63545460.866 6 333934238.85506      -582.801 6        36.329
C07        27.000                                                                                                                                    40214152.161 6 209405541.07406     -1444.175 6        38.559    40214154.058 6 161925616.26806     -1116.849 6        40.195    40214151.078 6 170159117.69606     -1173.613 6        38.577
R04        28.000    22264526.075 8 119225447.71508     -4377.599 8        48.830                                                                    22264530.731 7  92730865.63107     -3404.844 7        42.555
C40        29.000                                                                                                                                    40708971.396 6 211982192.98406     -1722.257 6        38.625                                                                    40708977.373 6 172252878.63206     -1399.465 6        38.694
G17        30.000    25080370.905 6 131798276.88306     -3883.305 6        38.547                                    25080376.354 5 102699994.06105     -3025.945 5        30.136    25080376.747 5 102699991.04805     -3025.896 5        35.781
E12        31.000    27497630.554 5 144501083.20305      2037.770 5        35.929                                                                    27497637.870 6 107906728.10606      1521.730 6        40.067    27497636.887 6 110721673.54206      1561.439 6        41.149
G11        32.000    24705785.222 6 129829825.33206      2518.898 6        40.620                                    24705791.420 4 101166159.67104      1962.763 4        24.256    24705791.673 6 101166150.68906      1962.672 6        38.321
I02        33.000    37106764.496 7 145614894.00207      -522.324 7        42.990
R15        34.000    21265987.050 8 113639080.77708      2055.108 8        49.085                                                                    21265991.726 7  88386008.81507      1598.385 7        45.183
R13        35.000    22851980.114 6 122028238.20606     -3663.150 6        39.847
G29        36.000    25888742.746 5 136046268.25105      3336.648 5        35.200                                    25888757.371 3 106010116.12003      2599.951 3        22.571
C42        37.000                                                                                                                                    25216692.182 7 131309880.26807     -2744.364 7        44.503                                                                    25216706.218 7 106700067.63507     -2230.079 7        44.119
C10        38.000                                                                                                                                    39273096.847 6 204505272.03306     -1188.102 6        40.441    39273099.977 7 158136437.50507      -918.668 7        43.175    39273097.041 6 166177264.40006      -965.385 6        40.095
E25        39.000    24643880.609 7 129504624.29007      1100.479 7        46.871                                                                    24643886.128 8  96708111.88808       821.773 8        49.601    24643885.063 8  99230918.41008       843.243 8        49.586
C30        40.000                                                                                                                                    26362639.447 6 137277171.92606     -3269.433 6        40.596                                                                    26362648.323 6 111548977.70006     -2656.795 6        39.090
R23        41.000    21613134.613 7 115615776.84107     -2144.044 7        46.220
S44        42.000    40934686.249 6 215113223.13706      -451.732 6        37.429
C36        43.000                                                                                                                                    26966087.044 5 140419289.17705     -3377.431 5        32.174                                                                    26966102.333 5 114102152.15005     -2744.226 5        35.233
C05        44.000                                                                                                                                    39606696.433 6 206242354.26406      -525.287 6        38.736    39606700.079 7 159479658.29907      -406.114 7        42.557    39606699.842 6 167588880.66906      -426.737 6        39.357
R14        45.000    19622500.388 8 104599074.84608      -884.063 8        51.787                                                                    19622504.396 8  81354917.32208      -687.593 8        48.018
E26        46.000    28969964.739 4 152238290.98904     -2360.048 4        29.924                                                                    28969971.801 5 113684522.04505     -1762.121 5        33.090    28969971.001 5 116650192.56705     -1807.960 5        33.377
C35        48.000                                                                                                                                    23916194.029 7 124537984.69207      2405.814 7        47.839                                                                    23916197.621 7 101197362.26607      1954.848 7        46.330
C45        50.000                                                                                                                                    22951228.377 8 119513067.11308     -2351.441 8        48.849                                                                    22951224.006 8  97114139.40108     -1910.743 8        49.215
S48        51.000    77290752.872 6 406166971.18706      -528.470 6        38.045
C33        52.000                                                                                                                                    25760119.686 7 134139707.79907      -196.729 7        43.130                                                                    25760138.703 7 108999583.81507      -159.824 7        42.991
E33        53.000    26989949.511 6 141833250.35906      -225.160 6        39.982                                                                    26989958.025 7 105914516.48807      -168.159 7        43.321    26989956.530 7 108677492.27707      -172.520 7        43.757
C60        54.000                                                                                                                                    40934685.500 6 213157666.09706      -447.530 6        38.868                                                                    40934679.845 6 173207993.83306      -363.578 6        39.622
E31        55.000    26780698.156 6 140733435.93606     -2911.434 6        40.961                                                                    26780707.973 7 105093156.52507     -2174.175 7        43.875    26780706.700 7 107834716.25007     -2230.876 7        44.406
C26        56.000                                                                                                                                    22092243.113 8 115040192.46608       521.155 8        50.898                                                                    22092244.981 8  93479621.65008       423.461 8        49.720
C02        57.000                                                                                                                                    41104879.113 5 214043741.44805      -480.433 5        32.204    41104885.058 6 165512140.89506      -371.569 6        36.166    41104885.630 5 173928034.98505      -390.393 5        32.377
I03        58.000    91059495.963 5 281551503.97005       956.141 5        33.329
C21        59.000                                                                                                                                    27051779.766 6 140865445.65906     -3722.970 6        40.520                                                                    27051786.940 6 114464633.66806     -3025.274 6        39.592
R24        60.000    21078163.515 8 112714533.22308      2225.589 8        49.385                                                                    21078168.170 7  87666921.48807      1731.094 7        45.523
> 2025 01 02 12 31 40.0000000  0 56
E24         1.000    23894590.333 8 125567039.95208     -1248.039 8        49.009                                                                    23894592.629 8  93767663.80408      -931.983 8        50.951    23894591.800 8  96213765.55408      -956.352 8        51.489
G15         2.000    25404346.807 6 133500455.46506     -4345.486 6        39.150                                    25404360.038 4 104026245.00104     -3386.063 4        29.071    25404360.519 5 104026239.95805     -3386.307 5        35.267
E03         3.000    25053574.141 7 131657427.86207       -72.283 7        45.503                                                                    25053579.952 8  98315625.69408       -53.997 8        48.396    25053578.924 8 100880381.91508       -55.423 8        48.681
G19         4.000    22160406.074 7 116453864.69207     -2751.800 7        45.461                                    22160405.480 5  90743299.50105     -2144.260 5        34.400
S21         5.000    38583951.251 7 202759618.27907      -520.662 7        42.868
E05         6.000    23567795.394 7 123849526.61207     -2783.441 7        46.415                                                                    23567801.741 8  92485000.22108     -2078.571 8        48.847    23567800.621 8  94897653.09608     -2132.780 8        49.054
G25         7.000    22092212.532 7 116095473.03707      2296.697 7        44.408                                    22092216.702 7  90464074.71407      1789.631 7        42.108    22092217.016 6  90464075.71706      1789.605 6        41.402
C29         8.000                                                                                                                                    23090940.642 8 120240615.60708      -711.621 8        48.354                                                                    23090942.045 7  97705367.25207      -578.264 7        47.823
R05         9.000    21242760.679 8 113554785.92408     -1272.128 8        49.432                                                                    21242764.853 7  88320442.32507      -989.483 7        46.006
G24        10.000    20755884.176 8 109072907.01908     -2332.448 8        50.133                                    20755886.181 8  84991889.71608     -1817.489 8        51.940    20755886.351 7  84991894.72407     -1817.537 7        45.419
C14        11.000                                                                                                                                    25128398.214 7 130850163.81207     -1555.511 7        43.217    25128400.623 7 101181673.04607     -1202.865 7        46.377    25128397.558 7 106326487.13807     -1263.941 7        44.027
S27        12.000    39361007.314 6 206843374.84306      -542.703 6        36.321
E08        13.000    28308174.242 6 148760475.15406      2056.037 6        38.159                                                                    28308188.808 6 111087432.28706      1535.308 6        41.156    28308186.615 6 113985356.41406      1575.276 6        41.971
S36        14.000    38354878.966 7 201556672.00707      -520.656 7        44.968
G06        15.000    23513348.124 6 123563556.54506      1172.815 6        41.659                                    23513353.833 6  96283354.85106       913.882 6        38.351    23513355.013 6  96283356.85406       913.839 6        40.675
E09        16.000                                                                                                                                    28589256.736 5 112190022.90105     -2821.275 5        33.084    28589254.274 5 115116725.19405     -2894.955 5        33.144
G12        17.000    20394841.636 8 107175792.34508       164.926 8        50.770                                    20394839.989 8  83513687.23608       128.515 8        51.331    20394840.496 7  83513684.23807       128.521 7        45.737
G32        18.000    23588490.379 7 123958381.05007      1424.625 7        44.429                                    23588495.393 6  96590993.91306      1110.096 6        40.398    23588495.776 6  96590997.91906      1110.040 6        40.412
R22        19.000    24763772.620 5 132190778.23105     -4371.190 5        34.443                                                                    24763776.979 5 102815045.92705     -3399.393 5        33.000
E10        21.000    28104758.755 6 147691540.61606      2488.232 6        39.402                                                                    28104772.628 6 110289217.39106      1857.908 6        41.304    28104771.189 7 113166318.67807      1906.381 7        42.773
I06        22.000    38580056.347 7 151396513.94807      -497.270 7        42.178
S28        23.000    41051156.764 5 215725103.16005      -529.465 5        35.462
S23        25.000    38293251.055 7 201232257.49307      -525.110 7        45.114
S45        26.000    63545963.392 6 333937152.89806      -582.636 6        36.276
C07        27.000                                                                                                                                    40215538.906 6 209412762.66606     -1444.043 6        38.682    40215540.640 6 161931200.48306     -1116.800 6        40.184    40215537.745 6 170164985.83406     -1173.479 6        38.631
R04        28.000    22268613.514 8 119247341.01808     -4379.567 8        48.220                                                                    22268619.809 7  92747893.72407     -3406.236 7        43.401
C40        29.000                                                                                                                                    40710624.992 6 211990804.13206     -1722.224 6        38.781                                                                    40710631.086 6 172259875.90806     -1399.381 6        38.745
G17        30.000    25084066.011 6 131817695.22406     -3883.867 6        38.345                                    25084071.488 5 102715125.24005     -3026.392 5        30.158    25084071.649 5 102715122.23305     -3026.190 5        35.833
E12        31.000    27495692.172 5 144490896.75005      2036.884 5        35.657                                                                    27495699.421 6 107899121.38006      1521.077 6        40.188    27495698.509 6 110713868.37706      1560.742 6        41.073
G11        32.000    24703388.313 6 129817232.73106      2518.318 6        40.884                                    24703395.055 4 101156347.30304      1962.300 4        24.135    24703395.466 6 101156338.32406      1962.299 6        38.886
I02        33.000    37107430.094 7 145617506.38607      -522.465 7        43.024
R15        34.000    21264064.569 8 113628808.41108      2054.050 8        49.317                                                                    21264070.256 7  88378019.21307      1597.641 7        45.487
R13        35.000    22855410.127 6 122046556.02506     -3663.770 6        39.483
G29        36.000    25885567.757 5 136029584.17605      3336.927 5        35.386                                    25885582.411 3 105997115.65803      2600.169 3        23.105
C42        37.000                                                                                                                                    25219328.249 7 131323606.92307     -2746.006 7        44.024                                                                    25219342.265 7 106711221.63407     -2231.373 7        44.305
C10        38.000                                                                                                                                    39274237.667 6 204511212.87606     -1188.051 6        40.107    39274241.229 7 158141031.34407      -918.683 7        43.122    39274237.967 6 166182091.80506      -965.311 6        40.355
E25        39.000    24642834.130 7 129499124.55007      1099.602 7        46.949                                                                    24642839.589 8  96704004.94308       821.194 8        49.489    24642838.527 8  99226704.33208       842.561 8        49.670
C30        40.000                                                                                                                                    26365779.538 6 137293523.01506     -3270.801 6        40.353                                                                    26365788.494 6 111562264.30206     -2657.829 6        39.661
R23        41.000    21615139.770 7 115626508.23707     -2148.230 7        45.213
S44        42.000    40935116.102 6 215115481.52806      -451.652 6        37.161
C36        43.000                                                                                                                                    26969330.561 5 140436176.77305     -3377.293 5        31.441                                                                    26969345.372 5 114115874.69305     -2744.534 5        35.376
C05        44.000                                                                                                                                    39607200.796 6 206244980.16506      -524.790 6        38.375    39607204.255 7 159481688.85107      -405.976 7        42.823    39607204.040 6 167591014.43206      -426.545 6        39.760
R14        45.000    19623330.614 8 104603500.78908      -886.049 8        51.722                                                                    19623334.251 7  81358359.71707      -689.126 7        47.879
E26        46.000    28972210.392 4 152250095.88404     -2361.404 4        29.526                                                                    28972218.318 5 113693337.60405     -1763.890 5        33.509    28972217.165 5 116659238.02605     -1809.602 5        33.754
C35        48.000                                                                                                                                    23913884.628 7 124525959.25207      2404.498 7        47.633                                                                    23913888.372 7 101187590.61407      1953.861 7        46.595
C45        50.000                                                                                                                                    22953486.980 8 119524827.35608     -2352.486 8        48.889                                                                    22953482.447 8  97123695.54408     -1911.565 8        49.458
S48        51.000    77291249.043 6 406169613.21206      -528.260 6        38.054
C33        52.000                                                                                                                                    25760309.930 7 134140698.63407      -199.440 7        43.278                                                                    25760328.911 7 109000388.93707      -162.132 7        43.187
E33        53.000    26990165.324 6 141834382.83806      -227.578 6        40.172                                                                    26990173.679 7 105915362.17607      -169.969 7        43.312    26990172.106 7 108678360.02407      -174.402 7        43.807
C60        54.000                                                                                                                                    40935115.277 6 213159903.96706      -447.357 6        38.706                                                                    40935109.756 6 173209812.28906      -363.477 6        39.814
E31        55.000    26783468.470 6 140747994.03406     -2911.529 6        40.603                                                                    26783478.350 7 105104027.81107     -2174.193 7        43.706    26783477.042 7 107845871.14107     -2230.978 7        44.391
C26        56.000                                                                                                                                    22091743.394 8 115037590.36608       519.891 8        50.763                                                                    22091745.261 8  93477507.21108       422.449 8        49.959
C02        57.000                                                                                                                                    41105339.695 5 214046144.56205      -480.109 5        32.102    41105346.869 6 165513999.14006      -371.614 6        36.189    41105347.007 5 173929987.70305      -390.284 5        32.479
I03        58.000    91058278.051 5 281546724.14505       956.153 5        33.198
C21        59.000                                                                                                                                    27055354.167 6 140884060.29906     -3722.476 6        40.365                                                                    27055361.606 6 114479759.53606     -3025.066 6        39.580
R24        60.000    21076084.402 8 112703413.86208      2222.255 8        49.565                                                                    21076088.867 7  87658273.10507      1728.477 7        45.791
> 2025 01 02 12 31 45.0000000  0 56
E24         1.000    23895778.317 8 125573283.67008     -1249.297 8        49.055                                                                    23895780.777 8  93772326.30108      -932.869 8        51.075    23895779.958 8  96218549.68008      -957.208 8        51.594
G15         2.000    25408481.261 6 133522183.32006     -4345.297 6        39.150                                    25408494.706 4 104043175.68704     -3385.929 4        29.137    25408494.640 5 104043170.64905     -3386.071 5        35.190
E03         3.000    25053644.278 7 131657796.32007       -74.845 7        45.198                                                                    25053650.098 8  98315900.84308       -55.886 8        48.492    25053649.050 8 100880664.24108       -57.398 8        48.654
G19         4.000    22163025.631 7 116467630.73807     -2754.499 7        45.725                                    22163025.050 5  90754026.27405     -2146.357 5        34.400
S21         5.000    38584447.471 7 202762220.98407      -520.382 7        42.952
E05         6.000    23570444.596 7 123863448.89007     -2785.208 7        46.449                                                                    23570451.085 8  92495396.70408     -2079.858 8        48.914    23570449.932 8  94908320.79608     -2134.146 8        49.098
G25         7.000    22090028.286 7 116083993.51607      2295.255 7        43.807                                    22090032.176 7  90455129.64407      1788.507 7        42.142    22090032.945 6  90455130.65406      1788.488 6        41.576
C29         8.000                                                                                                                                    23091625.363 8 120244181.63008      -714.600 8        48.559                                                                    23091626.814 7  97708264.94307      -580.603 7        47.662
R05         9.000    21243952.562 8 113561158.68908     -1276.849 8        49.414                                                                    21243956.489 7  88325398.90307      -992.983 7        45.612
G24        10.000    20758104.834 8 109084576.59908     -2335.158 8        50.143                                    20758106.820 8  85000982.88908     -1819.600 8        51.989    20758107.188 7  85000987.88307     -1819.589 7        45.603
C14        11.000                                                                                                                                    25129892.995 7 130857948.83107     -1558.328 7        43.048    25129895.734 7 101187692.88407     -1204.951 7        46.556    25129892.681 7 106332813.09007     -1266.141 7        43.970
S27        12.000    39361522.700 6 206846088.78606      -542.708 6        36.488
E08        13.000    28306218.928 6 148750198.67806      2054.679 6        37.807                                                                    28306233.271 6 111079758.32306      1534.371 6        41.352    28306230.916 6 113977482.25406      1574.364 6        41.869
S36        14.000    38355375.392 7 201559276.66507      -520.970 7        44.795
G06        15.000    23512233.247 6 123557700.16006      1169.951 6        41.309                                    23512239.491 6  96278791.43906       911.650 6        38.495    23512240.664 6  96278793.43606       911.571 6        40.939
E09        16.000    28592832.372 4 150256079.88404     -3777.629 4        24.301                                                                    28592851.717 5 112204130.78805     -2821.415 5        32.880    28592849.214 5 115131201.08405     -2894.816 5        32.940
G12        17.000    20394686.063 8 107174974.32608       162.460 8        50.744                                    20394684.323 8  83513049.82008       126.592 8        51.408    20394685.085 7  83513046.81507       126.637 7        45.710
G32        18.000    23587136.169 7 123951265.58407      1421.763 7        44.986                                    23587141.327 6  96585449.39706      1107.869 6        40.443    23587141.788 6  96585453.39406      1107.918 6        40.908
R22        19.000    24767868.582 5 132212636.74805     -4372.859 5        33.695                                                                    24767873.093 5 102832047.19905     -3401.037 5        32.383
E10        21.000    28102391.865 6 147679101.43706      2487.708 6        39.372                                                                    28102405.574 6 110279928.46006      1857.731 6        41.640    28102404.063 7 113156787.41307      1906.241 7        42.701
I06        22.000    38580689.995 7 151399000.71207      -497.311 7        42.140
S28        23.000    41051662.339 5 215727751.21605      -529.820 5        35.624
S23        25.000    38293752.561 7 201234884.19707      -525.326 7        45.213
S45        26.000    63546463.167 6 333940066.68606      -582.669 6        36.178
C07        27.000                                                                                                                                    40216925.731 6 209419984.44906     -1444.415 6        38.661    40216927.750 6 161936784.80806     -1116.809 6        40.122    40216924.577 6 170170854.12706     -1173.499 6        38.664
R04        28.000    22272703.198 8 119269243.82008     -4381.506 8        48.250                                                                    22272709.089 7  92764929.21707     -3407.802 7        43.194
C40        29.000                                                                                                                                    40712278.457 6 211999415.27906     -1722.366 6        38.814                                                                    40712284.657 6 172266873.18406     -1399.520 6        38.796
G17        30.000    25087761.747 6 131837116.71706     -3884.639 6        38.450                                    25087767.253 5 102730258.87205     -3026.990 5        30.234    25087768.641 6 102730255.87706     -3026.774 6        36.268
E12        31.000    27493754.603 5 144480715.73805      2035.452 5        35.552                                                                    27493762.085 6 107891518.71206      1520.020 6        40.315    27493760.959 6 110706067.37206      1559.853 6        41.256
G11        32.000    24700992.688 6 129804643.84906      2517.388 6        41.192                                    24700999.432 4 101146537.84204      1961.592 4        24.045    24700999.552 6 101146528.87706      1961.484 6        39.177
I02        33.000    37108096.137 7 145620119.33107      -522.675 7        42.912
R15        34.000    21262143.825 8 113618541.28608      2052.899 8        49.323                                                                    21262148.551 7  88370033.68607      1596.606 7        44.926
R13        35.000    22858840.349 6 122064877.29506     -3664.629 6        39.297
G29        36.000    25882392.518 5 136012899.51305      3336.930 5        35.529                                    25882407.354 3 105984114.73403      2600.182 3        23.086
C42        37.000                                                                                                                                    25221965.962 7 131337342.17007     -2747.985 7        44.548                                                                    25221979.965 7 106722382.63907     -2232.928 7        44.278
C10        38.000                                                                                                                                    39275378.782 6 204517154.35906     -1188.448 6        40.200    39275382.270 7 158145625.67307      -918.981 7        43.422    39275378.847 6 166186919.76006      -965.533 6        40.203
E25        39.000    24641788.166 7 129493629.51007      1098.546 7        47.089                                                                    24641793.950 8  96699901.51008       820.355 8        49.542    24641792.839 8  99222493.85008       841.734 8        49.703
C30        40.000                                                                                                                                    26368920.730 6 137309881.11906     -3272.238 6        40.276                                                                    26368929.873 6 111575556.62206     -2658.916 6        39.868
R23        41.000    21617149.605 7 115637261.13507     -2152.764 7        46.124
S44        42.000    40935543.982 6 215117739.62406      -451.455 6        37.301
C36        43.000                                                                                                                                    26972573.271 5 140453065.13405     -3377.999 5        31.811                                                                    26972588.792 5 114129597.87105     -2744.576 5        35.657
C05        44.000                                                                                                                                    39607704.703 6 206247605.73106      -525.180 6        38.877    39607708.663 7 159483719.11507      -406.074 7        42.768    39607708.251 6 167593147.95406      -426.676 6        39.568
R14        45.000    19624162.412 8 104607936.80308      -888.237 8        51.762                                                                    19624166.706 8  81361809.94208      -690.861 8        48.224
E26        46.000    28974459.511 4 152261909.96104     -2363.728 4        29.867                                                                    28974466.599 5 113702159.89105     -1765.109 5        33.886    28974465.469 5 116668290.49105     -1811.280 5        33.754
C35        48.000                                                                                                                                    23911576.155 7 124513940.69307      2403.000 7        47.334                                                                    23911580.447 7 101177824.58007      1952.760 7        46.527
C45        50.000                                                                                                                                    22955746.504 8 119536593.51708     -2353.858 8        48.899                                                                    22955741.959 8  97133256.51708     -1912.572 8        49.402
S48        51.000    77291744.025 6 406172255.18506      -528.264 6        37.826
C33        52.000                                                                                                                                    25760502.751 7 134141703.44307      -202.393 7        43.278                                                                    25760521.909 7 109001205.42507      -164.369 7        43.177
E33        53.000    26990382.860 6 141835527.66206      -230.116 6        40.672                                                                    26990391.641 7 105916217.09307      -171.848 7        43.549    26990389.961 7 108679237.24407      -176.377 7        43.816
C60        54.000                                                                                                                                    40935544.790 6 213162141.53806      -447.459 6        38.712                                                                    40935539.546 6 173211630.52506      -363.513 6        39.727
E31        55.000    26786238.907 6 140762552.91706     -2911.764 6        40.491                                                                    26786248.820 7 105114899.70207     -2174.426 7        43.896    26786247.331 7 107857026.64707     -2231.118 7        44.513
C26        56.000                                                                                                                                    22091245.042 8 115034995.26808       518.315 8        50.873                                                                    22091246.903 8  93475398.48308       421.294 8        49.918
C02        57.000                                                                                                                                    41105801.788 5 214048547.32305      -480.515 5        32.329    41105807.723 6 165515857.10406      -371.676 6        36.019    41105808.398 5 173931940.15505      -390.507 5        32.820
I03        58.000    91057059.724 5 281541943.89205       956.098 5        33.078
C21        59.000                                                                                                                                    27058928.709 6 140902672.88106     -3722.430 6        40.002                                                                    27058935.785 6 114494883.70606     -3024.522 6        39.264
R24        60.000    21074008.851 8 112692311.64208      2218.687 8        49.689                                                                    21074012.780 7  87649638.04307      1725.664 7        45.612
