     3.04           OBSERVATION DATA    M                   RINEX VERSION / TYPE
ssrcrin-15.6.1x                         20250102 094500 UTC PGM / RUN BY / DATE 
(00000000023479385599111004) Septentrio proprietary         COMMENT             
rref                                                        MARKER NAME         
01                                                          MARKER NUMBER       
geodetic                                                    MARKER TYPE         
NFB                 CLIMERS@TUW                             OBSERVER / AGENCY   
3297213             SEPT ASTERX SB3 PROB4.14.4              REC # / TYPE / VERS 
Unknown             Unknown                                 ANT # / TYPE        
  4127832.0053  1207192.5990  4695248.7353                  APPROX POSITION XYZ 
        0.0000        0.0000        0.0000                  ANTENNA: DELTA H/E/N
G   23 X1  C1C L1C D1C S1C C1W S1W C2W L2W D2W S2W C2L L2L  SYS / # / OBS TYPES 
       D2L S2L C5Q L5Q D5Q S5Q C1L L1L D1L S1L              SYS / # / OBS TYPES 
E   21 X1  C1C L1C D1C S1C C6C L6C D6C S6C C5Q L5Q D5Q S5Q  SYS / # / OBS TYPES 
       C7Q L7Q D7Q S7Q C8Q L8Q D8Q S8Q                      SYS / # / OBS TYPES 
S    9 X1  C1C L1C D1C S1C C5I L5I D5I S5I                  SYS / # / OBS TYPES 
R   17 X1  C1C L1C D1C S1C C2P L2P D2P S2P C2C L2C D2C S2C  SYS / # / OBS TYPES 
       C3Q L3Q D3Q S3Q                                      SYS / # / OBS TYPES 
C   25 X1  C1P L1P D1P S1P C5P L5P D5P S5P C2I L2I D2I S2I  SYS / # / OBS TYPES 
       C7I L7I D7I S7I C6I L6I D6I S6I C7D L7D D7D S7D      SYS / # / OBS TYPES 
J   17 X1  C1C L1C D1C S1C C2L L2L D2L S2L C5Q L5Q D5Q S5Q  SYS / # / OBS TYPES 
       C1L L1L D1L S1L                                      SYS / # / OBS TYPES 
I    5 X1  C5A L5A D5A S5A                                  SYS / # / OBS TYPES 
SEPTENTRIO RECEIVERS OUTPUT ALIGNED CARRIER PHASES.         COMMENT             
NO FURTHER PHASE SHIFT APPLIED IN THE RINEX ENCODER.        COMMENT             
G L1C                                                       SYS / PHASE SHIFT   
G L2W                                                       SYS / PHASE SHIFT   
G L2L  0.00000                                              SYS / PHASE SHIFT   
G L5Q  0.00000                                              SYS / PHASE SHIFT   
G L1L  0.00000                                              SYS / PHASE SHIFT   
E L1C  0.00000                                              SYS / PHASE SHIFT   
E L6C  0.00000                                              SYS / PHASE SHIFT   
E L5Q  0.00000                                              SYS / PHASE SHIFT   
E L7Q  0.00000                                              SYS / PHASE SHIFT   
E L8Q  0.00000                                              SYS / PHASE SHIFT   
S L1C                                                       SYS / PHASE SHIFT   
S L5I                                                       SYS / PHASE SHIFT   
R L1C                                                       SYS / PHASE SHIFT   
R L2P  0.00000                                              SYS / PHASE SHIFT   
R L2C                                                       SYS / PHASE SHIFT   
R L3Q  0.00000                                              SYS / PHASE SHIFT   
C L1P  0.00000                                              SYS / PHASE SHIFT   
C L5P  0.00000                                              SYS / PHASE SHIFT   
C L2I                                                       SYS / PHASE SHIFT   
C L7I                                                       SYS / PHASE SHIFT   
C L6I                                                       SYS / PHASE SHIFT   
C L7D                                                       SYS / PHASE SHIFT   
J L1C                                                       SYS / PHASE SHIFT   
J L2L  0.00000                                              SYS / PHASE SHIFT   
J L5Q  0.00000                                              SYS / PHASE SHIFT   
J L1L  0.00000                                              SYS / PHASE SHIFT   
I L5A                                                       SYS / PHASE SHIFT   
  2025     1     2     9    45    0.0000000     GPS         TIME OF FIRST OBS   
 C1C    0.000 C2C    0.000 C2P    0.000                     GLONASS COD/PHS/BIS 
DBHZ                                                        SIGNAL STRENGTH UNIT
    18                                                      LEAP SECONDS        
 24 R01  1 R02 -4 R03  5 R04  6 R05  1 R06 -4 R07  5 R08  6 GLONASS SLOT / FRQ #
    R09 -2 R10 -7 R11  0 R12 -1 R13 -2 R14 -7 R15  0 R16 -1 GLONASS SLOT / FRQ #
    R17  4 R18 -3 R19  3 R20  2 R21  4 R22 -3 R23  3 R24  2 GLONASS SLOT / FRQ #
                                                            END OF HEADER       
> 2025 01 02 09 45  0.0000000  0 54
E24         1.000    25168886.942 7 132263503.16407      1760.625 7        46.579                                                                    25168889.649 8  98768266.76108      1314.745 8        48.393    25168888.746 8 101344819.33908      1349.012 8        49.207
G15         2.000    20258558.875 8 106459400.49608      -519.335 8        49.560                                    20258557.654 8  82955353.55808      -404.676 8        50.161    20258558.029 7  82955348.56207      -404.660 7        45.720
E15         3.000    28966539.271 5 152220152.05805     -1979.491 5        33.395                                                                    28966545.317 6 113670883.30506     -1478.266 6        36.839    28966544.303 6 116636207.97506     -1516.639 6        37.875
G19         4.000    23562502.395 6 123821909.96006      2711.118 6        41.962                                    23562504.241 4  96484627.73504      2112.545 4        29.896
S21         5.000    38526605.844 7 202458270.38207      -498.834 7        42.131
E05         6.000    23185820.734 7 121842274.12707      1283.520 7        45.898                                                                    23185824.110 8  90986089.20408       958.435 8        48.896    23185823.344 8  93359638.73708       983.391 8        49.595
E13         7.000    28773800.375 5 151207334.61705       147.663 5        32.647                                                                    28773813.441 6 112914618.34806       110.215 6        36.280    28773811.925 6 115860208.89606       113.098 6        37.240
R02         8.000    21138699.392 8 112800065.21608     -4236.834 8        50.779                                                                    21138703.891 7  87733363.53107     -3295.302 7        46.090
R20         9.000    24673925.870 5 131942597.38905     -3166.036 5        31.072                                                                    24673931.805 6 102622042.34406     -2462.788 6        38.952
G24        10.000    22134489.131 7 116317520.23407      2309.631 7        43.884                                    22134491.194 7  90637041.73807      1799.705 7        42.567    22134491.508 7  90637046.74107      1799.672 7        42.155
G30        11.000    23996449.976 6 126102085.47106     -3444.426 6        40.234                                    23996455.128 5  98261327.12405     -2683.968 5        34.910    23996456.417 6  98261335.11706     -2683.877 6        38.153
S27        12.000    39248574.218 6 206252531.39906      -531.673 6        36.722
G13        13.000    20455266.067 8 107493103.77108     -2260.530 8        49.400                                    20455263.951 6  83760827.13406     -1761.449 6        40.234
S36        14.000    38296441.177 7 201249612.29507      -499.810 7        44.343
I09        15.000    40798571.169 5 160102037.19605     -1008.458 5        30.725
E09        16.000    23767550.437 8 124899295.16608     -1512.638 8        49.092                                                                    23767552.926 8  93268939.76708     -1129.518 8        50.610    23767552.182 8  95702040.35408     -1158.972 8        51.233
G12        17.000    25334998.649 6 133136335.63706      3377.393 6        37.970                                    25335005.924 4 103742643.25004      2631.714 4        29.100    25335005.658 5 103742640.28105      2631.654 5        34.762
R21        18.000    23269327.574 7 124518929.76907      -365.279 7        44.358                                                                    23269334.756 6  96848109.96606      -284.127 6        39.456
R22        19.000    23841297.869 7 127266478.99307      2587.686 7        42.525                                                                    23841306.892 6  98985019.68106      2012.546 6        39.865
R03        21.000    19479221.230 8 104273756.02108      -323.658 8        52.262                                                                    19479221.317 7  81101800.13907      -251.812 7        47.172
I06        22.000    38248285.907 7 150094602.28707      -469.438 7        42.574
S28        23.000    40974227.596 5 215320866.01105      -509.196 5        34.981
S23        25.000    38229261.926 7 200896040.93607      -500.655 7        43.809
S45        26.000    63478813.675 6 333584435.87806      -549.574 6        36.117
C07        27.000                                                                                                                                    38908567.602 6 202607089.65106      -654.102 6        41.025    38908565.878 7 156668639.81007      -505.686 7        44.724    38908563.843 6 164634833.03006      -531.333 6        41.833
R04        28.000    21957802.039 7 117583009.65807      3129.591 7        47.419                                                                    21957803.610 7  91453426.93307      2434.085 7        44.206
C40        29.000                                                                                                                                    38944646.629 7 202794972.94407      -778.956 7        42.923                                                                    38944648.356 7 164787526.88307      -632.850 7        43.073
G17        30.000    22414328.092 7 117788203.27207       946.632 7        46.351                                    22414328.694 7  91783073.20607       737.631 7        43.384    22414328.941 7  91783070.21507       737.600 7        42.491
G14        31.000    21554343.982 7 113268824.45907     -2727.973 7        46.666                                    21554343.432 6  88261416.54806     -2125.692 6        36.110    21554343.512 7  88261402.55007     -2125.758 7        45.606
G23        32.000    23209759.786 7 121968053.96507       143.636 7        43.191                                    23209760.666 4  95040014.84404       111.924 4        29.232    23209760.763 7  95040009.85507       111.926 7        42.500
I02        33.000    37201776.751 7 145987758.93107       -84.512 7        43.029
E04        34.000    26698846.526 6 140303293.16006     -3320.689 6        39.994                                                                    26698853.424 7 104771913.83007     -2479.760 7        45.165    26698852.523 7 107505094.01207     -2544.347 7        46.257
R13        35.000    19355815.179 7 103359009.39707      -275.615 7        47.036
R12        36.000    20745592.174 8 110819191.64908     -3316.975 8        49.697                                                                    20745595.582 7  86192699.41407     -2579.858 7        46.061
C42        37.000                                                                                                                                    25707646.014 6 133866448.92006      2206.040 6        40.484                                                                    25707658.174 7 108777498.04507      1792.708 7        43.441
C10        38.000                                                                                                                                    38613511.373 6 201070683.40706      -266.026 6        41.838    38613512.483 7 155480607.29007      -205.708 7        45.229    38613509.467 6 163386389.11706      -215.937 6        41.640
C30        40.000                                                                                                                                    25459585.261 7 132574780.32807      1514.692 7        43.156                                                                    25459591.523 7 107727909.72507      1230.927 7        42.180
G05        41.000    24866005.048 6 130671518.39806     -4127.357 6        40.479                                    24866015.101 5 101821885.82705     -3216.104 5        32.287    24866015.523 6 101821894.78706     -3216.088 6        37.176
S44        42.000    40967656.296 6 215286514.39906      -477.479 6        37.361
C36        43.000                                                                                                                                    22290131.947 8 116070531.33408     -2094.388 8        49.221                                                                    22290138.993 8  94316826.67708     -1701.712 8        50.090
C05        44.000                                                                                                                                    39488959.756 6 205629286.81406      -545.179 6        37.849    39488962.096 7 159005600.13207      -421.318 7        42.679    39488962.579 6 167090716.71106      -442.673 6        40.067
R14        45.000    22610387.392 7 120526129.02907      2879.154 7        47.994                                                                    22610394.865 7  93742609.95307      2239.312 7        42.580
G10        47.000    25753293.215 6 135334436.99306      2171.982 6        38.201                                    25753297.486 5 105455406.69105      1692.472 5        30.528    25753297.804 6 105455407.67606      1692.366 6        36.843
C45        50.000                                                                                                                                    22043889.970 8 114788347.15408       610.698 8        50.788                                                                    22043883.867 8  93274923.82708       496.387 8        50.149
S48        51.000    77237476.221 6 405885175.14706      -491.173 6        37.565
E06        52.000    24669908.086 7 129641199.80707     -2627.235 7        46.958                                                                    24669912.774 8  96809978.43308     -1961.857 8        48.732    24669912.087 8  99335456.31908     -2013.071 8        49.399
C09        53.000                                                                                                                                    41521839.179 4 216214923.31504     -1133.405 4        29.678    41521850.253 6 167191029.38306      -875.758 6        36.892    41521844.914 5 175692271.39005      -920.175 5        33.605
C60        54.000                                                                                                                                    40967656.925 6 213329382.29406      -473.128 6        39.661                                                                    40967648.184 6 173347534.09106      -384.151 6        38.832
E31        55.000    23496066.308 8 123472666.03208      -879.574 8        48.556                                                                    23496069.355 8  92203646.72208      -656.856 8        50.556    23496068.651 8  94608955.32008      -673.905 8        51.007
C26        56.000                                                                                                                                    26089080.843 6 135852672.65106      2386.831 6        40.896                                                                    26089087.493 6 110391445.22406      1939.622 6        40.565
C02        57.000                                                                                                                                    41054420.461 5 213781012.46205      -522.276 5        30.551    41054424.877 6 165308988.19206      -403.918 6        36.537    41054425.118 5 173714550.98705      -424.321 5        31.192
I03        58.000    94312969.612 6 294318870.22606       885.746 6        36.658
C21        59.000                                                                                                                                    22953096.011 8 119522744.59808      -291.402 8        49.498                                                                    22953093.078 8  97121986.22408      -236.610 8        49.381
C22        60.000                                                                                                                                    23359708.728 8 121640048.12408     -3266.732 8        48.733                                                                    23359706.004 8  98842461.49208     -2654.336 8        48.068
> 2025 01 02 09 45  5.0000000  0 54
E24         1.000    25167211.835 7 132254702.33107      1759.636 7        46.410                                                                    25167214.894 8  98761694.72508      1314.045 8        48.311    25167214.003 8 101338075.86008      1348.268 8        49.276
G15         2.000    20259054.723 8 106462004.78908      -522.448 8        49.671                                    20259053.226 8  82957382.87208      -407.104 8        50.194    20259053.412 7  82957377.87307      -407.133 7        45.467
E15         3.000    28968422.928 5 152230052.55205     -1980.731 5        33.299                                                                    28968429.141 6 113678276.55206     -1479.320 6        36.817    28968428.281 6 116643794.08906     -1517.934 6        37.656
G19         4.000    23559922.832 7 123808355.27607      2710.580 7        42.307                                    23559924.772 4  96474065.68604      2112.127 4        29.640
S21         5.000    38527070.061 6 202460763.71306      -498.445 6        41.764
E05         6.000    23184599.815 7 121835858.99107      1282.549 7        45.877                                                                    23184603.296 8  90981298.67608       957.748 8        48.773    23184602.553 8  93354723.23608       982.741 8        49.703
E13         7.000    28773661.065 5 151206601.12705       145.687 5        33.204                                                                    28773673.762 6 112914070.58106       109.144 6        36.280    28773672.269 6 115859646.85706       111.533 6        37.550
R02         8.000    21142669.710 8 112821254.24308     -4238.884 8        50.244                                                                    21142674.446 7  87749843.87707     -3296.960 7        46.351
R20         9.000    24676887.775 5 131958435.75705     -3169.001 5        30.702                                                                    24676893.051 6 102634361.13406     -2464.624 6        38.535
G24        10.000    22132291.688 7 116305973.67507      2308.883 7        44.345                                    22132293.955 7  90628044.43507      1799.127 7        42.635    22132294.558 7  90628049.46007      1798.957 7        42.133
G30        11.000    23999726.816 6 126119307.34406     -3444.528 6        40.224                                    23999732.300 5  98274746.74105     -2684.041 5        34.995    23999732.781 6  98274754.73906     -2684.222 6        38.138
S27        12.000    39249073.971 6 206255188.41006      -531.321 6        36.174
G13        13.000    20457418.045 8 107504411.88508     -2262.778 8        49.828                                    20457415.825 6  83769638.64906     -1763.202 6        40.298
S36        14.000    38296918.823 7 201252110.10507      -499.283 7        44.269
I09        15.000    40799857.347 5 160107078.58705     -1007.998 5        30.325
E09        16.000    23768990.208 8 124906861.57508     -1514.050 8        49.024                                                                    23768992.787 8  93274590.00408     -1130.603 8        50.505    23768992.047 8  95707837.99108     -1160.131 8        51.313
G12        17.000    25331784.669 6 133119448.49306      3377.417 6        38.270                                    25331792.290 4 103729484.52804      2631.732 4        29.090    25331792.811 5 103729481.58305      2631.705 5        35.124
R21        18.000    23269671.175 7 124520765.94807      -369.283 7        44.733                                                                    23269677.925 6  96849538.06706      -287.181 6        39.595
R22        19.000    23838873.879 7 127253543.76607      2586.032 7        42.516                                                                    23838883.769 6  98974959.03906      2011.387 6        39.072
R03        21.000    19479525.607 8 104275384.50708      -327.816 8        52.117                                                                    19479526.073 7  81103066.73807      -255.017 7        46.873
I06        22.000    38248883.679 7 150096948.40707      -469.129 7        42.806
S28        23.000    40974716.290 5 215323410.70305      -508.845 5        34.676
S23        25.000    38229740.197 7 200898543.29107      -500.353 7        44.149
S45        26.000    63479289.393 6 333587182.91906      -549.122 6        36.121
C07        27.000                                                                                                                                    38909195.405 6 202610360.02306      -654.213 6        40.827    38909193.737 7 156671168.66307      -505.923 7        44.441    38909191.912 6 164637490.48306      -531.509 6        41.783
R04        28.000    21954879.915 8 117567366.17408      3127.711 8        48.073                                                                    21954882.523 7  91441259.79507      2432.594 7        44.539
C40        29.000                                                                                                                                    38945394.728 7 202798868.80807      -779.539 7        42.950                                                                    38945396.525 7 164790692.58807      -633.242 7        43.098
G17        30.000    22413428.241 7 117783475.90707       944.243 7        46.509                                    22413429.098 7  91779389.56407       735.768 7        43.450    22413429.298 7  91779386.57207       735.815 7        42.006
G14        31.000    21556940.054 7 113282467.94007     -2729.471 7        46.387                                    21556939.718 6  88272047.81606     -2126.857 6        36.091    21556940.174 7  88272033.81207     -2126.822 7        45.595
G23        32.000    23209624.634 7 121967342.94407       140.650 7        42.844                                    23209625.435 4  95039460.80004       109.599 4        29.280    23209625.743 7  95039455.79207       109.649 7        42.273
I02        33.000    37201884.569 7 145988181.15007       -84.399 7        43.141
E04        34.000    26702006.025 6 140319897.17106     -3321.039 6        39.628                                                                    26702012.997 7 104784312.89507     -2479.997 7        44.963    26702011.887 7 107517816.54207     -2544.714 7        46.147
R13        35.000    19356074.018 7 103360393.56007      -278.116 7        47.045
R12        36.000    20748697.705 8 110835779.21008     -3318.084 8        50.446                                                                    20748700.987 7  86205600.83507     -2580.752 7        46.324
C42        37.000                                                                                                                                    25705529.270 6 133855421.44506      2204.817 6        41.683                                                                    25705540.389 7 108768537.31007      1791.770 7        43.490
C10        38.000                                                                                                                                    38613766.456 6 201072014.10206      -266.269 6        41.511    38613767.872 7 155481636.26907      -205.921 7        44.968    38613765.089 6 163387470.41606      -216.234 6        41.814
C30        40.000                                                                                                                                    25458131.579 7 132567210.38607      1513.308 7        43.336                                                                    25458137.618 7 107721758.54307      1229.695 7        42.000
G05        41.000    24869931.881 6 130692153.63406     -4126.951 6        40.353                                    24869941.941 5 101837965.14705     -3215.789 5        32.245    24869942.115 6 101837974.11706     -3215.818 6        37.335
S44        42.000    40968111.954 6 215288899.94406      -476.841 6        37.157
C36        43.000                                                                                                                                    22292143.450 8 116081005.26108     -2095.313 8        49.171                                                                    22292150.463 8  94325337.59908     -1702.463 8        50.097
C05        44.000                                                                                                                                    39489482.725 6 205632010.96106      -544.479 6        37.890    39489485.486 7 159007706.64107      -421.172 7        42.984    39489486.081 6 167092930.34206      -442.488 6        40.143
R14        45.000    22607687.113 7 120511735.75107      2878.247 7        47.773                                                                    22607695.315 7  93731415.21307      2238.650 7        42.718
G10        47.000    25751227.340 6 135323580.79506      2170.407 6        37.743                                    25751231.739 5 105446947.25705      1691.229 5        30.551    25751231.816 6 105446948.25006      1691.106 6        36.219
C45        50.000                                                                                                                                    22043304.077 8 114785296.30408       609.531 8        50.914                                                                    22043298.003 8  93272444.77008       495.420 8        50.174
S48        51.000    77237942.803 6 405887630.70406      -491.028 6        37.346
E06        52.000    24672408.391 7 129654338.30807     -2628.272 7        46.944                                                                    24672412.898 8  96819789.64308     -1962.679 8        48.771    24672412.082 8  99345523.47308     -2013.862 8        49.421
C09        53.000                                                                                                                                    41522927.183 4 216220584.05404     -1132.038 4        29.687    41522936.658 6 167195406.62006      -875.331 6        36.991    41522932.054 5 175696871.19805      -919.838 5        33.443
C60        54.000                                                                                                                                    40968110.669 6 213331746.13706      -472.550 6        39.568                                                                    40968101.888 6 173349454.93006      -383.973 6        38.997
E31        55.000    23496903.978 8 123477067.57608      -881.067 8        48.470                                                                    23496906.900 8  92206933.59108      -657.932 8        50.574    23496906.221 8  94612327.93608      -675.111 8        51.071
C26        56.000                                                                                                                                    26086788.252 6 135840738.37706      2386.753 6        41.173                                                                    26086795.961 6 110381747.67006      1939.561 6        40.698
C02        57.000                                                                                                                                    41054920.384 5 213783623.08105      -522.331 5        30.475    41054926.199 6 165311006.86006      -403.760 6        36.563    41054926.633 5 173716672.29005      -423.964 5        31.366
I03        58.000    94311840.862 6 294314440.84406       886.053 6        37.323
C21        59.000                                                                                                                                    22953376.956 8 119524207.44408      -293.811 8        49.591                                                                    22953373.965 8  97123174.91808      -238.624 8        49.362
C22        60.000                                                                                                                                    23362845.912 8 121656384.73108     -3268.010 8        48.513                                                                    23362843.288 8  98855736.31208     -2655.438 8        48.085
> 2025 01 02 09 45 10.0000000  0 54
E24         1.000    25165538.182 7 132245908.25507      1758.307 7        46.230                                                                    25165541.470 8  98755127.74008      1313.026 8        48.334    25165540.555 8 101331337.55908      1347.307 8        49.354
G15         2.000    20259553.504 8 106464626.28608      -525.820 8        49.180                                    20259552.090 8  82959425.59308      -409.728 8        50.151    20259552.439 7  82959420.58607      -409.771 7        45.756
E15         3.000    28970309.052 5 152239962.55605     -1983.003 5        33.820                                                                    28970315.011 5 113685676.88805     -1480.576 5        35.410    28970313.783 6 116651387.48606     -1519.237 6        37.062
G19         4.000    23557344.647 7 123794805.36707      2709.574 7        42.123                                    23557346.157 4  96463507.35304      2111.357 4        29.365
S21         5.000    38527551.073 7 202463256.55307      -498.192 7        42.252
E05         6.000    23183380.273 7 121829450.29707      1281.281 7        45.533                                                                    23183383.798 8  90976512.96408       956.821 8        48.846    23183383.028 8  93349812.68408       981.731 8        49.741
E13         7.000    28773523.661 5 151205879.03305       143.310 5        32.868                                                                    28773536.388 6 112913531.37106       107.021 6        36.284    28773534.934 6 115859093.56506       109.668 6        37.444
R02         8.000    21146642.804 8 112842455.68308     -4241.288 8        50.502                                                                    21146647.366 7  87766333.85107     -3298.808 7        45.931
R20         9.000    24679851.254 5 131974288.68105     -3171.657 5        30.815                                                                    24679857.527 6 102646691.22006     -2466.944 6        37.633
G24        10.000    22130095.499 7 116294433.17807      2307.669 7        44.525                                    22130097.847 7  90619051.85607      1798.184 7        42.561    22130098.384 6  90619056.85906      1798.174 6        41.936
G30        11.000    24003004.968 6 126136531.90106     -3445.038 6        39.982                                    24003010.026 5  98288168.45205     -2684.441 5        35.010    24003010.329 6  98288176.43806     -2684.328 6        38.129
S27        12.000    39249582.444 6 206257845.43006      -531.148 6        36.926
G13        13.000    20459572.256 8 107515732.90508     -2265.282 8        49.783                                    20459570.159 6  83778460.21706     -1765.153 6        40.226
S36        14.000    38297392.801 7 201254606.69807      -499.455 7        44.444
I09        15.000    40801141.565 5 160112119.26005     -1008.391 5        30.687
E09        16.000    23770431.919 8 124914437.14808     -1515.875 8        49.022                                                                    23770434.402 8  93280247.08108     -1131.992 8        50.572    23770433.629 8  95713642.64608     -1161.513 8        51.342
G12        17.000    25328571.427 6 133102562.48306      3377.302 6        39.285                                    25328579.017 4 103716326.69404      2631.649 4        29.289    25328579.586 5 103716323.74805      2631.255 5        34.752
R21        18.000    23270018.140 7 124522623.39107      -373.393 7        43.894                                                                    23270025.044 6  96850982.77806      -290.313 6        40.362
R22        19.000    23836453.336 7 127240618.55507      2584.074 7        43.297                                                                    23836462.355 6  98964906.20106      2009.706 6        39.679
R03        21.000    19479833.345 8 104277035.05808      -332.129 8        52.079                                                                    19479834.053 7  81104350.48807      -258.347 7        47.071
I06        22.000    38249481.248 7 150099294.37107      -469.035 7        42.940
S28        23.000    40975193.310 5 215325954.84405      -508.386 5        35.067
S23        25.000    38230214.457 7 200901045.37907      -500.361 7        44.405
S45        26.000    63479763.457 5 333589929.57905      -549.156 5        35.962
C07        27.000                                                                                                                                    38909824.432 6 202613633.46806      -654.929 6        40.810    38909822.433 7 156673699.90107      -506.442 7        44.324    38909820.462 6 164640150.42806      -532.105 6        41.702
R04        28.000    21951961.593 8 117551733.31308      3125.684 8        48.404                                                                    21951963.140 7  91429100.88607      2431.081 7        44.212
C40        29.000                                                                                                                                    38946143.952 7 202802768.65307      -780.217 7        42.847                                                                    38946145.475 7 164793861.52807      -633.932 7        43.122
G17        30.000    22412530.995 7 117778761.95407       941.601 7        46.165                                    22412532.068 7  91775716.36907       733.714 7        43.454    22412532.094 7  91775713.38007       733.666 7        42.138
G14        31.000    21559538.046 7 113296120.90107     -2731.340 7        46.643                                    21559537.807 6  88282686.46806     -2128.313 6        36.019    21559537.765 7  88282672.45907     -2128.313 7        45.482
G23        32.000    23209492.545 7 121966648.27807       137.572 7        42.097                                    23209493.156 4  95038919.50204       107.199 4        29.175    23209493.477 7  95038914.50407       107.103 7        42.290
I02        33.000    37201992.631 7 145988604.36207       -84.613 7        43.134
E04        34.000    26705166.032 6 140336504.78306     -3321.777 6        39.970                                                                    26705173.145 7 104796714.63907     -2480.552 7        44.855    26705172.018 7 107530541.80907     -2545.260 7        45.974
R13        35.000    19356335.764 7 103361791.85007      -280.905 7        46.991
R12        36.000    20751804.845 8 110852373.79808     -3319.408 8        50.688                                                                    20751807.729 7  86218507.73607     -2581.813 7        46.766
C42        37.000                                                                                                                                    25703412.679 6 133844401.40506      2203.417 6        41.313                                                                    25703424.109 7 108759582.62207      1790.538 7        43.467
C10        38.000                                                                                                                                    38614022.805 6 201073347.93006      -266.853 6        41.545    38614023.893 7 155482667.66207      -206.419 7        45.044    38614021.362 6 163388554.25606      -216.798 6        41.795
C30        40.000                                                                                                                                    25456678.562 7 132559648.91907      1511.698 7        42.866                                                                    25456685.471 6 107715614.20906      1228.405 6        41.757
G05        41.000    24873858.492 6 130712788.28506     -4126.664 6        40.303                                    24873868.714 5 101854044.00705     -3215.563 5        32.353    24873868.733 6 101854052.96806     -3215.579 6        37.267
S44        42.000    40968565.211 6 215291284.96906      -476.849 6        37.335
C36        43.000                                                                                                                                    22294156.166 8 116091485.28208     -2096.413 8        49.242                                                                    22294163.046 8  94333853.47608     -1703.475 8        50.066
C05        44.000                                                                                                                                    39490006.071 6 205634734.67006      -544.436 6        38.084    39490008.335 7 159009812.79007      -420.952 7        42.682    39490009.269 6 167095143.58306      -442.372 6        40.360
R14        45.000    22604987.870 7 120497348.53107      2877.005 7        47.784                                                                    22604995.269 7  93720225.19807      2237.562 7        42.385
G10        47.000    25749163.260 6 135312733.97206      2168.938 6        37.338                                    25749167.853 5 105438495.14005      1690.091 5        30.664    25749168.276 6 105438496.12806      1689.976 6        36.166
C45        50.000                                                                                                                                    22042719.835 8 114782253.41608       607.986 8        50.920                                                                    22042713.629 8  93269972.18008       494.082 8        50.183
S48        51.000    77238412.140 6 405890085.82906      -490.567 6        37.641
E06        52.000    24674909.940 7 129667483.70207     -2629.602 7        46.787                                                                    24674914.297 8  96829605.99508     -1963.647 8        48.795    24674913.578 8  99355595.90908     -2014.879 8        49.481
C09        53.000                                                                                                                                    41524014.132 5 216226244.88405     -1132.152 5        30.272    41524023.615 6 167199783.95306      -875.524 6        37.278    41524019.250 5 175701471.06005      -919.956 5        33.497
C60        54.000                                                                                                                                    40968564.485 6 213334109.47706      -472.624 6        39.526                                                                    40968555.991 6 173351375.32206      -384.004 6        38.661
E31        55.000    23497743.377 8 123481478.56608      -882.965 8        48.582                                                                    23497746.310 8  92210227.50808      -659.362 8        50.556    23497745.620 8  94615707.78208      -676.519 8        51.139
C26        56.000                                                                                                                                    26084497.182 6 135828806.16806      2386.311 6        40.965                                                                    26084504.412 6 110372051.78606      1939.225 6        40.717
C02        57.000                                                                                                                                    41055422.704 5 213786233.17105      -521.989 5        30.921    41055427.857 6 165313025.16006      -403.548 6        36.348    41055427.575 5 173718793.22405      -424.080 5        30.785
I03        58.000    94310711.357 6 294310011.00006       886.092 6        36.813
C21        59.000                                                                                                                                    22953660.915 8 119525684.54108      -296.629 8        49.554                                                                    22953657.621 8  97124375.18608      -241.007 8        49.296
C22        60.000                                                                                                                                    23365984.657 8 121672729.73608     -3269.661 8        48.679                                                                    23365982.171 8  98869017.94908     -2656.853 8        48.006
> 2025 01 02 09 45 15.0000000  0 54
E24         1.000    25163866.269 7 132237120.89307      1756.522 7        46.216                                                                    25163869.217 8  98748565.77808      1311.678 8        48.408    25163868.322 8 101324604.40308      1345.876 8        49.247
G15         2.000    20260055.522 8 106467264.94308      -529.586 8        49.306                                    20260054.208 8  82961481.68408      -412.662 8        50.078    20260054.649 7  82961476.68207      -412.665 7        45.830
E15         3.000    28972196.009 5 152249882.02505     -1984.944 5        33.970                                                                    28972202.291 6 113693084.30606     -1482.208 6        36.643    28972201.734 6 116658988.14406     -1520.965 6        37.561
G19         4.000    23554767.152 6 123781260.15306      2708.461 6        41.356                                    23554768.477 4  96452952.68304      2110.481 4        28.882
S21         5.000    38528029.434 7 202465748.88907      -498.628 7        42.715
E05         6.000    23182161.852 7 121823048.03307      1279.679 7        45.413                                                                    23182165.563 8  90971732.04908       955.640 8        48.940    23182164.695 8  93344907.04508       980.529 8        49.657
E13         7.000    28773388.397 5 151205168.35905       141.043 5        31.962                                                                    28773401.227 5 112913000.67005       105.023 5        35.519    28773399.525 6 115858548.99106       107.838 6        36.669
R02         8.000    21150618.508 8 112863669.28808     -4244.132 8        50.380                                                                    21150622.098 7  87782833.30207     -3300.933 7        44.962
R20         9.000    24682817.930 5 131990156.12405     -3174.883 5        31.615                                                                    24682825.253 6 102659032.56806     -2469.435 6        38.679
G24        10.000    22127900.892 7 116282898.70807      2306.172 7        44.521                                    22127902.906 7  90610063.97007      1797.015 7        42.489    22127903.181 7  90610068.97807      1797.040 7        42.186
G30        11.000    24006282.959 6 126153759.11706     -3445.780 6        40.184                                    24006288.347 5  98301592.22905     -2685.020 5        34.805    24006288.692 6  98301600.23006     -2685.178 6        37.913
S27        12.000    39250084.146 6 206260501.68606      -531.268 6        36.325
G13        13.000    20461729.112 8 107527066.76008     -2268.170 8        49.777                                    20461726.925 6  83787291.78706     -1767.405 6        40.234
S36        14.000    38297870.089 7 201257103.59907      -499.219 7        44.661
I09        15.000    40802426.354 5 160117159.19905     -1008.165 5        30.800
E09        16.000    23771875.338 8 124922021.82908     -1517.967 8        49.193                                                                    23771877.733 8  93285910.96208     -1133.536 8        50.650    23771876.959 8  95719454.28008     -1163.110 8        51.279
G12        17.000    25325358.215 6 133085677.52706      3376.753 6        40.219                                    25325365.817 4 103703169.67604      2631.217 4        29.450    25325366.647 5 103703166.69305      2631.307 5        34.910
R21        18.000    23270369.057 7 124524502.08407      -377.895 7        44.321                                                                    23270376.773 6  96852443.97406      -293.931 6        40.517
R22        19.000    23834033.798 7 127227703.33207      2581.906 7        42.944                                                                    23834043.182 6  98954861.14506      2008.143 6        40.195
R03        21.000    19480146.271 8 104278707.75908      -336.905 8        52.534                                                                    19480146.713 7  81105651.47407      -262.024 7        47.156
I06        22.000    38250079.441 7 150101640.11907      -469.263 7        42.876
S28        23.000    40975683.440 5 215328498.60505      -508.866 5        35.314
S23        25.000    38230690.775 7 200903547.06807      -500.411 7        44.289
S45        26.000    63480243.222 5 333591075.84215      -549.546 5        35.814
C07        27.000                                                                                                                                    38910453.847 6 202616909.91906      -655.736 6        40.677    38910451.635 7 156676233.47607      -507.087 7        44.254    38910449.662 6 164642812.84006      -533.034 6        41.585
R04        28.000    21949044.237 8 117536110.99108      3123.346 8        48.172                                                                    21949045.687 7  91416950.21307      2429.178 7        44.256
C40        29.000                                                                                                                                    38946893.744 7 202806672.43107      -781.239 7        42.692                                                                    38946895.134 7 164797033.67807      -634.968 7        43.005
G17        30.000    22411636.757 7 117774061.37407       938.699 7        45.919                                    22411637.587 7  91772053.60207       731.446 7        43.335    22411637.735 7  91772050.61407       731.439 7        42.423
G14        31.000    21562138.239 7 113309783.28507     -2733.495 7        46.839                                    21562137.734 6  88293332.46706     -2129.997 6        36.034    21562138.004 7  88293318.46207     -2130.052 7        45.597
G23        32.000    23209363.502 7 121965969.99007       133.963 7        42.277                                    23209364.100 4  95038390.95104       104.385 4        29.052    23209364.257 7  95038385.95807       104.370 7        42.184
I02        33.000    37202100.573 7 145989028.64107       -84.975 7        42.885
E04        34.000    26708327.235 6 140353115.91406     -3322.765 6        40.467                                                                    26708334.100 7 104809119.01807     -2481.266 7        44.656    26708332.942 7 107543269.77707     -2545.986 7        45.824
R13        35.000    19356600.536 7 103363204.26107      -284.032 7        46.832
R12        36.000    20754912.730 8 110868975.39008     -3321.137 8        51.114                                                                    20754915.535 7  86231420.05907     -2583.024 7        46.885
C42        37.000                                                                                                                                    25701297.160 6 133833388.75006      2201.782 6        40.658                                                                    25701309.267 7 108750633.97507      1788.794 7        43.336
C10        38.000                                                                                                                                    38614279.878 6 201074684.81706      -267.805 6        41.151    38614280.832 7 155483701.42507      -207.028 7        44.856    38614278.006 6 163389640.61006      -217.841 6        41.754
C30        40.000                                                                                                                                    25455227.812 7 132552095.89807      1509.625 7        42.011                                                                    25455234.880 6 107709476.76906      1226.550 6        41.628
G05        41.000    24877785.499 6 130733422.40506     -4126.843 6        39.700                                    24877795.308 5 101870122.44805     -3215.702 5        32.036    24877795.862 6 101870131.41106     -3215.613 6        36.699
S44        42.000    40969018.401 6 215293669.43606      -477.134 6        37.641
C36        43.000                                                                                                                                    22296169.824 8 116101971.37208     -2097.929 8        49.058                                                                    22296176.772 8  94342374.29108     -1704.913 8        49.999
C05        44.000                                                                                                                                    39490528.928 6 205637457.88106      -544.808 6        37.732    39490530.889 7 159011918.56607      -421.271 7        42.345    39490532.123 6 167097356.44206      -442.851 6        40.141
R14        45.000    22602289.557 7 120482967.55807      2875.345 7        47.718                                                                    22602297.219 7  93709040.03807      2236.510 7        42.205
G10        47.000    25747101.825 6 135301896.52806      2166.439 6        37.860                                    25747105.577 5 105430050.32705      1688.144 5        30.619    25747105.514 6 105430051.32106      1688.117 6        36.405
C45        50.000                                                                                                                                    22042137.006 8 114779218.44608       606.060 8        50.689                                                                    22042130.798 8  93267506.03508       492.352 8        50.118
S48        51.000    77238879.353 6 405892540.60506      -490.837 6        37.372
E06        52.000    24677412.629 7 129680635.95307     -2631.215 7        46.490                                                                    24677417.133 8  96839427.47208     -1964.931 8        48.899    24677416.496 8  99365673.60008     -2016.169 8        49.435
C09        53.000                                                                                                                                    41525101.876 5 216231905.74505     -1132.177 5        30.211    41525111.087 6 167204161.27306      -875.590 6        37.251    41525106.080 5 175706071.02005      -920.531 5        33.551
C60        54.000                                                                                                                                    40969018.140 6 213336472.25006      -472.620 6        39.255                                                                    40969009.780 6 173353295.27006      -384.151 6        38.688
E31        55.000    23498584.366 8 123485898.93508      -885.104 8        48.325                                                                    23498587.497 8  92213528.43408      -660.990 8        50.654    23498586.780 8  94619094.81708      -678.208 8        51.030
C26        56.000                                                                                                                                    26082205.800 6 135816875.94806      2385.702 6        40.346                                                                    26082213.070 6 110362357.53506      1938.408 6        40.729
C02        57.000                                                                                                                                    41055924.308 5 213788842.63905      -521.684 5        30.762    41055928.648 6 165315043.04806      -403.696 6        36.212    41055928.925 5 173720913.71405      -424.331 5        31.004
I03        58.000    94309582.821 6 294305580.64106       886.002 6        36.983
C21        59.000                                                                                                                                    22953947.036 8 119527175.83308      -299.841 8        49.254                                                                    22953944.014 8  97125587.00408      -243.756 8        49.211
C22        60.000                                                                                                                                    23369125.490 8 121689083.07508     -3271.663 8        48.507                                                                    23369122.658 7  98882306.37707     -2658.639 7        47.982
> 2025 01 02 09 45 20.0000000  0 54
E24         1.000    25162195.295 7 132228340.26707      1755.416 7        46.398                                                                    25162198.334 8  98742008.82808      1310.931 8        48.471    25162197.412 8 101317876.40808      1345.099 8        49.190
G15         2.000    20260561.087 8 106469920.85808      -532.895 8        49.387                                    20260559.622 8  82963551.21908      -415.242 8        50.226    20260559.946 7  82963546.22007      -415.238 7        45.934
E15         3.000    28974086.181 5 152259811.05505     -1986.858 5        34.452                                                                    28974092.516 6 113700498.83806     -1483.493 6        37.308    28974090.790 6 116666596.11406     -1522.388 6        37.974
G19         4.000    23552190.126 6 123767719.79506      2707.548 6        40.770                                    23552191.727 4  96442401.78404      2109.774 4        28.815
S21         5.000    38528501.785 7 202468240.93807      -498.396 7        42.648
E05         6.000    23180944.971 7 121816652.23307      1278.491 7        45.431                                                                    23180948.404 8  90966955.97308       954.721 8        48.924    23180947.622 8  93340006.37608       979.614 8        49.553
E13         7.000    28773255.033 5 151204469.20105       138.586 5        31.924                                                                    28773268.041 5 112912478.54505       103.514 5        35.419    28773266.547 6 115858013.25606       106.245 6        36.329
R02         8.000    21154595.976 8 112884895.06608     -4246.403 8        50.759                                                                    21154600.367 7  87799342.21607     -3302.737 7        45.637
R20         9.000    24685789.013 5 132006038.04805     -3177.493 5        31.917                                                                    24685795.040 6 102671385.18106     -2471.740 6        38.592
G24        10.000    22125706.528 7 116271370.32107      2305.066 7        43.771                                    22125709.106 7  90601080.82207      1796.150 7        42.637    22125709.400 6  90601085.83606      1796.160 6        41.878
G30        11.000    24009562.210 6 126170989.02906     -3446.364 6        39.498                                    24009567.169 5  98315018.11405     -2685.472 5        34.805    24009567.476 6  98315026.10306     -2685.433 6        37.811
S27        12.000    39250588.496 6 206263157.64206      -531.261 6        36.163
G13        13.000    20463888.050 8 107538413.51308     -2270.634 8        49.440                                    20463886.142 6  83796133.40706     -1769.325 6        40.343
S36        14.000    38298342.359 7 201259600.02407      -499.225 7        44.554
I09        15.000    40803710.388 5 160122198.46605     -1007.731 5        30.468
E09        16.000    23773320.230 8 124929615.68108     -1519.629 8        49.099                                                                    23773322.777 8  93291581.69308     -1134.766 8        50.687    23773322.068 8  95725272.94608     -1164.402 8        51.151
G12        17.000    25322144.680 6 133068793.75306      3376.534 6        40.181                                    25322152.889 4 103690013.57904      2631.041 4        29.839    25322153.053 5 103690010.61005      2631.162 5        35.362
R21        18.000    23270724.066 7 124526401.98507      -381.998 7        43.970                                                                    23270731.446 6  96853921.63906      -297.103 6        40.875
R22        19.000    23831615.271 7 127214798.18107      2580.052 7        43.352                                                                    23831624.602 6  98944823.92106      2006.557 6        40.393
R03        21.000    19480463.444 8 104280402.81408      -341.148 8        52.739                                                                    19480463.361 7  81106969.83607      -265.339 7        47.265
I06        22.000    38250677.029 7 150103985.69907      -469.068 7        42.756
S28        23.000    40976163.902 5 215331042.13905      -508.772 5        35.424
S23        25.000    38231167.378 7 200906048.53807      -500.187 7        44.144
S45        26.000    63480718.215 6 333593821.75806      -549.201 6        36.102
C07        27.000                                                                                                                                    38911083.250 6 202620189.46506      -656.220 6        40.868    38911081.738 7 156678769.41907      -507.386 7        44.354    38911079.630 6 164645477.71106      -533.081 6        41.692
R04        28.000    21946128.388 7 117520499.44207      3121.263 7        47.828                                                                    21946129.918 7  91404807.88307      2427.694 7        43.708
C40        29.000                                                                                                                                    38947644.064 7 202810580.22507      -781.957 7        42.974                                                                    38947645.621 7 164800209.05007      -635.228 7        42.990
G17        30.000    22410744.701 7 117769374.26807       936.130 7        45.652                                    22410745.664 7  91768401.33007       729.445 7        43.443    22410745.859 7  91768398.34807       729.365 7        42.425
G14        31.000    21564739.767 7 113323455.15307     -2735.305 7        46.488                                    21564739.435 6  88303985.85906     -2131.407 6        36.140    21564739.696 7  88303971.85607     -2131.448 7        45.556
G23        32.000    23209237.919 7 121965308.10907       130.788 7        42.336                                    23209238.068 4  95037875.19704       101.915 4        29.213    23209238.493 7  95037870.19407       101.870 7        42.432
I02        33.000    37202208.860 7 145989453.83507       -85.122 7        42.906
E04        34.000    26711489.077 6 140369730.64106     -3323.464 6        40.536                                                                    26711495.841 7 104821526.07907     -2481.685 7        44.870    26711494.839 7 107556000.51107     -2546.489 7        45.773
R13        35.000    19356867.842 7 103364630.94507      -286.698 7        47.042
R12        36.000    20758021.045 8 110885584.03608     -3322.420 8        49.846                                                                    20758024.175 7  86244337.88307     -2584.104 7        46.324
C42        37.000                                                                                                                                    25699184.200 6 133822383.60806      2200.340 6        41.242                                                                    25699195.814 7 108741691.36307      1788.044 7        43.321
C10        38.000                                                                                                                                    38614536.523 6 201076024.78906      -268.324 6        41.335    38614537.866 7 155484737.57307      -207.422 7        44.930    38614535.251 6 163390729.43406      -217.763 6        41.621
C30        40.000                                                                                                                                    25453779.533 6 132544551.37606      1508.059 6        41.955                                                                    25453786.107 6 107703346.19906      1225.649 6        41.640
G05        41.000    24881711.473 6 130754056.04006     -4126.627 6        39.210                                    24881721.791 5 101886200.50705     -3215.533 5        31.638    24881721.760 6 101886209.47206     -3215.443 6        36.926
S44        42.000    40969473.116 6 215296053.39106      -476.577 6        37.698
C36        43.000                                                                                                                                    22298184.746 8 116112463.57608     -2098.998 8        49.225                                                                    22298191.700 8  94350900.03708     -1705.439 8        50.035
C05        44.000                                                                                                                                    39491051.737 6 205640180.66906      -544.565 6        37.868    39491054.140 7 159014024.00007      -420.987 7        42.508    39491054.788 6 167099568.91106      -442.408 6        40.117
R14        45.000    22599593.651 7 120468593.08507      2874.283 7        47.730                                                                    22599600.325 7  93697859.92307      2235.556 7        42.002
G10        47.000    25745041.552 6 135291068.46406      2164.675 6        38.387                                    25745045.183 5 105421612.84005      1686.766 5        31.155    25745044.616 6 105421613.82706      1686.868 6        36.544
C45        50.000                                                                                                                                    22041555.474 8 114776191.44508       604.610 8        50.809                                                                    22041549.503 8  93265046.32508       491.471 8        50.124
S48        51.000    77239349.929 6 405894994.54806      -490.880 6        37.278
E06        52.000    24679916.786 7 129693795.11207     -2632.476 7        46.738                                                                    24679921.195 8  96849254.10408     -1965.853 8        48.877    24679920.614 8  99375756.57808     -2017.106 8        49.294
C09        53.000                                                                                                                                    41526189.263 5 216237566.75205     -1132.265 5        30.377    41526198.812 6 167208538.69206      -875.416 6        37.713    41526193.375 5 175710671.01805      -919.977 5        33.240
C60        54.000                                                                                                                                    40969471.630 6 213338834.54906      -472.431 6        39.306                                                                    40969463.430 6 173355214.78906      -383.623 6        38.814
E31        55.000    23499427.187 8 123490328.74208      -886.848 8        48.378                                                                    23499430.442 8  92216836.40408      -662.281 8        50.634    23499429.779 8  94622489.08308      -679.494 8        50.954
C26        56.000                                                                                                                                    26079914.872 6 135804947.81306      2385.363 6        40.188                                                                    26079922.641 6 110352664.94606      1938.594 6        40.970
C02        57.000                                                                                                                                    41056425.581 5 213791451.70005      -521.886 5        30.566    41056429.384 6 165317060.53006      -403.555 6        36.416    41056429.746 5 173723033.75705      -424.201 5        30.543
I03        58.000    94308453.345 6 294301149.87606       886.083 6        37.051
C21        59.000                                                                                                                                    22954236.086 8 119528681.38708      -302.488 8        49.397                                                                    22954233.162 8  97126810.36508      -245.616 8        49.278
C22        60.000                                                                                                                                    23372267.649 8 121705444.81108     -3273.162 8        48.102                                                                    23372264.820 8  98895601.58008     -2659.557 8        48.075
> 2025 01 02 09 45 25.0000000  0 54
E24         1.000    25160526.004 7 132219566.50407      1753.727 7        46.538                                                                    25160528.709 8  98735457.01208      1309.622 8        48.518    25160527.776 8 101311153.67408      1343.821 8        49.282
G15         2.000    20261069.925 8 106472594.10908      -536.657 8        49.503                                    20261068.327 8  82965634.26908      -418.174 8        50.241    20261068.481 7  82965629.25907      -418.155 7        45.636
E15         3.000    28975977.081 5 152269749.60905     -1989.025 5        33.754                                                                    28975983.313 6 113707920.49506     -1485.199 6        38.015    28975982.521 6 116674211.35106     -1523.906 6        38.823
G19         4.000    23549614.679 6 123754184.32606      2706.393 6        41.785                                    23549616.028 4  96431854.70304      2108.865 4        29.109
S21         5.000    38528976.703 7 202470732.85707      -498.702 7        42.718
E05         6.000    23179728.969 7 121810262.97407      1276.931 7        45.472                                                                    23179732.592 8  90962184.78108       953.563 8        49.063    23179731.807 8  93335110.71608       978.444 8        49.671
E13         7.000    28773123.905 5 151203781.52005       136.227 5        32.006                                                                    28773137.207 6 112911965.04606       101.707 6        36.102    28773135.613 6 115857486.35406       104.167 6        36.881
R02         8.000    21158576.429 8 112906133.34908     -4249.173 8        50.419                                                                    21158580.604 7  87815860.85307     -3304.894 7        45.636
R20         9.000    24688759.995 5 132021934.65905     -3181.136 5        30.521                                                                    24688768.261 6 102683749.23806     -2474.281 6        37.516
G24        10.000    22123513.800 7 116259848.12007      2303.555 7        44.185                                    22123516.464 7  90592102.50007      1794.975 7        42.635    22123516.849 6  90592107.51206      1794.996 6        41.707
G30        11.000    24012841.248 6 126188221.70906     -3447.095 6        39.763                                    24012846.415 5  98328446.14905     -2686.043 5        34.662    24012846.882 6  98328454.16706     -2686.151 6        37.599
S27        12.000    39251096.249 6 206265812.88306      -531.379 6        36.405
G13        13.000    20466049.783 8 107549773.20908     -2273.567 8        50.207                                    20466047.827 6  83804985.11106     -1771.610 6        40.374
S36        14.000    38298820.291 7 201262095.85707      -499.427 7        44.676
I09        15.000    40804994.821 5 160127237.05605     -1007.689 5        30.513
E09        16.000    23774767.212 8 124937218.78008     -1521.844 8        49.123                                                                    23774769.638 8  93297259.33008     -1136.482 8        50.742    23774768.881 8  95731098.69208     -1166.112 8        51.280
G12        17.000    25318931.857 6 133051911.26606      3376.060 6        39.513                                    25318940.068 4 103676858.49004      2630.674 4        29.839    25318940.435 5 103676855.50205      2630.940 5        34.010
R21        18.000    23271083.405 7 124528323.34107      -386.677 7        44.471                                                                    23271090.426 6  96855416.03606      -300.754 6        40.908
R22        19.000    23829200.179 7 127201903.21807      2577.717 7        43.285                                                                    23829209.365 6  98934794.58606      2004.697 6        40.656
R03        21.000    19480783.916 8 104282119.81408      -345.953 8        52.552                                                                    19480784.144 7  81108305.27607      -269.079 7        47.219
I06        22.000    38251274.669 7 150106331.17707      -469.281 7        42.773
S28        23.000    40976647.486 5 215333585.40705      -508.961 5        34.995
S23        25.000    38231643.056 7 200908549.89807      -500.477 7        44.238
S45        26.000    63481194.747 6 333596567.31306      -549.578 6        36.352
C07        27.000                                                                                                                                    38911713.816 6 202623472.22106      -657.179 6        40.944    38911712.109 7 156681307.85707      -508.158 7        44.167    38911709.917 6 164648145.22206      -533.854 6        41.721
R04        28.000    21943214.877 8 117504898.50108      3118.786 8        48.211                                                                    21943217.227 7  91392673.83207      2425.664 7        44.092
C40        29.000                                                                                                                                    38948395.256 7 202814492.06407      -783.140 7        43.084                                                                    38948396.930 7 164803387.71907      -636.137 7        43.016
G17        30.000    22409855.296 7 117764700.68007       933.107 7        45.881                                    22409856.285 7  91764759.59707       727.096 7        43.460    22409856.118 7  91764756.61707       727.025 7        42.186
G14        31.000    21567343.353 7 113337136.54207     -2737.467 7        46.312                                    21567342.899 6  88314646.66606     -2133.087 6        36.087    21567342.883 7  88314632.66407     -2133.120 7        44.898
G23        32.000    23209115.059 7 121964662.70407       127.095 7        42.193                                    23209115.290 4  95037372.27604        99.030 4        29.393    23209115.091 7  95037367.27907        99.001 7        42.299
I02        33.000    37202317.700 7 145989880.12307       -85.624 7        42.853
E04        34.000    26714651.378 6 140386348.97906     -3324.409 6        40.689                                                                    26714658.441 7 104833935.85107     -2482.539 7        45.237    26714657.284 7 107568734.01107     -2547.219 7        45.866
R13        35.000    19357137.680 7 103366071.76407      -289.885 7        46.612
R12        36.000    20761131.083 8 110902199.76008     -3324.138 8        50.171                                                                    20761134.435 7  86257261.21807     -2585.433 7        45.970
C42        37.000                                                                                                                                    25697072.018 6 133811385.99706      2198.457 6        40.975                                                                    25697083.836 7 108732754.89607      1786.582 7        43.454
C10        38.000                                                                                                                                    38614795.320 6 201077367.99506      -269.306 6        41.533    38614796.051 7 155485776.22607      -208.245 7        44.670    38614793.175 6 163391820.88306      -218.737 6        41.743
C30        40.000                                                                                                                                    25452332.972 7 132537015.43907      1506.023 7        42.627                                                                    25452339.094 6 107697222.61406      1223.970 6        41.886
G05        41.000    24885637.914 6 130774689.21806     -4126.866 6        39.853                                    24885648.220 5 101902278.21405     -3215.718 5        31.547    24885648.715 6 101902287.19406     -3215.676 6        36.518
S44        42.000    40969925.233 6 215298436.90606      -476.811 6        37.285
C36        43.000                                                                                                                                    22300201.124 8 116122961.95608     -2100.583 8        49.363                                                                    22300207.829 8  94359430.81208     -1706.779 8        50.060
C05        44.000                                                                                                                                    39491574.434 6 205642903.08706      -544.700 6        38.000    39491577.106 7 159016129.15407      -421.257 7        42.601    39491577.758 6 167101781.10806      -442.652 6        40.138
R14        45.000    22596897.615 7 120454225.05707      2872.559 7        47.134                                                                    22596905.682 7  93686684.83707      2234.161 7        42.980
G10        47.000    25742982.546 6 135280249.84906      2162.535 6        38.589                                    25742986.488 5 105413182.70205      1685.094 5        31.441    25742986.317 6 105413183.68806      1685.212 6        36.382
C45        50.000                                                                                                                                    22040975.767 8 114773172.48008       602.672 8        50.837                                                                    22040969.751 8  93262593.15708       489.901 8        50.133
S48        51.000    77239816.798 6 405897448.61806      -490.924 6        37.395
E06        52.000    24682422.311 7 129706961.23907     -2634.293 7        46.570                                                                    24682426.668 8  96859085.93108     -1967.098 8        48.969    24682426.019 8  99385844.89208     -2018.453 8        49.328
C09        53.000                                                                                                                                    41527276.137 5 216243227.91305     -1132.568 5        30.445    41527286.236 6 167212916.25406      -875.723 6        37.486    41527280.513 5 175715271.10205      -920.031 5        33.425
C60        54.000                                                                                                                                    40969925.186 6 213341196.39006      -472.570 6        39.526                                                                    40969917.000 6 173357133.94906      -383.930 6        38.673
E31        55.000    23500272.186 8 123494768.04208      -889.041 8        48.292                                                                    23500275.198 8  92220151.46108      -663.886 8        50.763    23500274.516 8  94625890.62408      -681.222 8        51.029
C26        56.000                                                                                                                                    26077624.530 6 135793021.79006      2384.786 6        40.176                                                                    26077632.383 6 110342974.09306      1937.936 6        40.808
C02        57.000                                                                                                                                    41056926.546 5 213794060.29105      -522.079 5        30.543    41056930.367 6 165319077.69406      -403.691 6        36.140    41056930.470 5 173725153.46605      -424.036 5        31.087
I03        58.000    94307324.153 6 294296718.66506       885.985 6        36.662
C21        59.000                                                                                                                                    22954528.322 8 119530201.26808      -305.728 8        49.714                                                                    22954525.056 8  97128045.38208      -248.292 8        49.295
C22        60.000                                                                                                                                    23375411.094 8 121721814.99608     -3275.188 8        48.543                                                                    23375408.560 8  98908903.67508     -2661.265 8        48.027
> 2025 01 02 09 45 30.0000000  0 54
E24         1.000    25158857.130 7 132210799.68007      1752.772 7        46.301                                                                    25158860.476 8  98728910.37908      1308.901 8        48.561    25158859.507 8 101304436.25308      1343.005 8        49.434
G15         2.000    20261581.758 8 106475284.76608      -539.684 8        49.685                                    20261580.342 8  82967730.87908      -420.530 8        50.167    20261580.617 7  82967725.87707      -420.552 7        46.026
E15         3.000    28977870.748 5 152279697.85805     -1990.477 5        35.152                                                                    28977876.687 6 113715349.37306     -1486.319 6        37.936    28977875.357 6 116681834.03606     -1525.171 6        38.030
G19         4.000    23547040.430 7 123740653.94007      2705.762 7        42.444                                    23547041.276 4  96421311.59504      2108.377 4        29.431
S21         5.000    38529447.131 7 202473224.78007      -498.178 7        42.552
E05         6.000    23178514.279 7 121803880.43707      1275.957 7        45.535                                                                    23178518.033 8  90957418.59408       952.816 8        49.102    23178517.239 8  93330220.19808       977.683 8        49.856
E13         7.000    28772995.770 5 151203105.58205       134.075 5        31.464                                                                    28773008.776 6 112911460.27306       100.066 6        36.042    28773006.910 6 115856968.42106       102.980 6        36.631
R02         8.000    21162558.179 8 112927383.94108     -4251.191 8        50.064                                                                    21162562.850 7  87832389.08907     -3306.542 7        46.068
R20         9.000    24691736.576 5 132037845.90305     -3183.430 5        30.060                                                                    24691743.788 6 102696124.66506     -2476.131 6        37.248
G24        10.000    22121322.804 7 116248332.19507      2302.681 7        44.075                                    22121325.015 7  90583129.06207      1794.294 7        42.629    22121325.500 6  90583134.08506      1794.234 6        41.623
G30        11.000    24016121.161 6 126205457.30806     -3447.278 6        40.310                                    24016126.230 5  98341876.46805     -2686.184 5        34.567    24016126.623 6  98341884.45506     -2686.237 6        37.698
S27        12.000    39251601.980 6 206268468.33806      -530.961 6        36.654
G13        13.000    20468214.121 8 107561146.00708     -2275.767 8        49.994                                    20468212.003 6  83813847.02806     -1773.323 6        40.265
S36        14.000    38299294.363 7 201264591.45807      -498.978 7        44.754
I09        15.000    40806277.724 5 160132275.14605     -1007.153 5        30.566
E09        16.000    23776215.727 8 124944831.25208     -1523.304 8        48.771                                                                    23776218.236 8  93302943.96008     -1137.535 8        50.791    23776217.492 8  95736931.61908     -1167.207 8        51.454
G12        17.000    25315719.153 6 133035030.19106      3376.233 6        39.784                                    25315727.507 4 103663704.49704      2630.812 4        29.962    25315727.755 5 103663701.53805      2630.808 5        34.457
R21        18.000    23271446.970 7 124530266.09307      -390.675 7        44.480                                                                    23271453.009 6  96856927.03006      -303.765 6        41.056
R22        19.000    23826786.581 7 127189018.56107      2575.917 7        42.990                                                                    23826795.725 6  98924773.28206      2003.595 6        40.937
R03        21.000    19481108.231 8 104283859.16308      -349.990 8        52.277                                                                    19481109.125 7  81109658.10207      -272.238 7        47.260
I06        22.000    38251871.900 7 150108676.61307      -469.034 7        42.724
S28        23.000    40977130.546 5 215336128.56705      -508.692 5        35.157
S23        25.000    38232116.619 7 200911051.08907      -500.070 7        44.175
S45        26.000    63481673.354 6 333599312.71506      -548.721 6        36.537
C07        27.000                                                                                                                                    38912345.041 6 202626758.25506      -657.482 6        40.932    38912343.176 7 156683848.82707      -508.325 7        44.250    38912340.834 6 164650815.42206      -534.338 6        41.788
R04        28.000    21940304.104 8 117489308.55908      3117.043 8        48.244                                                                    21940305.975 7  91380548.32807      2424.310 7        43.200
C40        29.000                                                                                                                                    38949147.186 7 202818408.10607      -783.435 7        43.321                                                                    38949148.947 7 164806569.83907      -636.734 7        42.910
G17        30.000    22408968.831 7 117760040.80707       930.768 7        46.577                                    22408969.441 7  91761128.55707       725.270 7        43.409    22408969.334 6  91761125.57306       725.215 6        41.871
G14        31.000    21569948.441 7 113350827.61307     -2739.042 7        46.496                                    21569948.218 6  88325315.01906     -2134.317 6        36.042    21569948.376 7  88325301.02307     -2134.398 7        44.918
G23        32.000    23208995.034 7 121964033.90007       124.228 7        42.612                                    23208995.697 4  95036882.29304        96.808 4        29.242    23208995.790 7  95036877.30207        96.785 7        42.491
I02        33.000    37202426.465 7 145990307.66907       -85.466 7        42.794
E04        34.000    26717814.067 6 140402971.10606     -3324.652 6        40.594                                                                    26717821.679 7 104846348.43707     -2482.724 7        45.664    26717820.511 7 107581470.41407     -2547.495 7        46.019
R13        35.000    19357409.575 7 103367526.88707      -292.290 7        46.673
R12        36.000    20764243.770 8 110918822.69908     -3325.184 8        50.681                                                                    20764246.664 7  86270190.16207     -2586.253 7        46.391
C42        37.000                                                                                                                                    25694961.672 6 133800396.09206      2197.305 6        41.063                                                                    25694973.357 7 108723824.72507      1785.489 7        43.579
C10        38.000                                                                                                                                    38615054.237 6 201078714.49606      -269.516 6        41.986    38615054.747 7 155486817.41907      -208.436 7        44.856    38615051.877 6 163392915.04706      -219.068 6        41.890
C30        40.000                                                                                                                                    25450888.063 7 132529488.23407      1504.737 7        43.009                                                                    25450893.417 6 107691106.17206      1222.594 6        41.893
G05        41.000    24889564.285 6 130795322.07906     -4126.352 6        39.772                                    24889574.501 5 101918355.67405     -3215.318 5        31.502    24889575.409 6 101918364.65306     -3215.444 6        36.681
S44        42.000    40970379.505 6 215300820.13706      -476.258 6        37.297
C36        43.000                                                                                                                                    22302218.293 8 116133466.63308     -2101.362 8        49.303                                                                    22302225.133 8  94367966.73708     -1707.647 8        50.036
C05        44.000                                                                                                                                    39492097.533 6 205645625.29906      -544.471 6        38.201    39492099.655 7 159018234.15707      -420.839 7        42.684    39492100.254 6 167103993.15306      -442.440 6        39.979
R14        45.000    22594203.004 7 120439863.39507      2871.695 7        46.681                                                                    22594211.340 7  93675514.68807      2233.585 7        42.779
G10        47.000    25740925.359 6 135269440.84006      2161.018 6        38.426                                    25740929.667 5 105404760.05105      1683.922 5        31.094    25740929.605 6 105404761.05406      1683.824 6        36.628
C45        50.000                                                                                                                                    22040397.519 8 114770161.68208       601.462 8        50.847                                                                    22040391.561 8  93260146.66208       488.657 8        50.061
S48        51.000    77240298.754 6 405899902.47006      -490.430 6        38.009
E06        52.000    24684929.165 7 129720134.46607     -2635.228 7        46.411                                                                    24684933.503 8  96868923.07308     -1967.885 8        49.054    24684932.706 8  99395938.65608     -2019.202 8        49.489
C09        53.000                                                                                                                                    41528364.111 5 216248889.40405     -1132.256 5        31.562    41528372.826 6 167217294.04806      -875.538 6        37.422    41528367.906 5 175719871.55005      -920.104 5        32.928
C60        54.000                                                                                                                                    40970379.029 6 213343557.96906      -472.200 6        39.694                                                                    40970370.588 6 173359052.92406      -383.553 6        38.604
E31        55.000    23501118.868 8 123499216.98608      -890.566 8        48.068                                                                    23501121.784 8  92223473.72008      -665.085 8        50.828    23501121.129 8  94629299.55208      -682.453 8        51.219
C26        56.000                                                                                                                                    26075335.183 6 135781098.05206      2384.659 6        40.510                                                                    26075342.126 6 110333285.11906      1937.656 6        40.629
C02        57.000                                                                                                                                    41057426.961 5 213796668.53705      -521.240 5        30.649    41057431.533 6 165321094.57206      -403.108 6        36.336    41057431.417 5 173727272.95605      -424.114 5        30.913
I03        58.000    94306195.666 6 294292287.17706       886.422 6        36.507
C21        59.000                                                                                                                                    22954822.785 8 119531735.61208      -308.233 8        49.655                                                                    22954819.714 8  97129292.18508      -250.507 8        49.329
C22        60.000                                                                                                                                    23378556.699 8 121738193.73808     -3276.477 8        48.960                                                                    23378553.931 8  98922212.76008     -2662.496 8        48.033
> 2025 01 02 09 45 35.0000000  0 54
E24         1.000    25157190.443 7 132202039.67707      1751.212 7        46.380                                                                    25157193.453 8  98722368.84108      1307.729 8        48.649    25157192.548 8 101297724.06408      1341.801 8        49.480
G15         2.000    20262097.074 8 106477992.70808      -543.427 8        49.692                                    20262095.651 8  82969840.96108      -423.447 8        50.181    20262095.992 7  82969835.95207      -423.400 7        45.824
E15         3.000    28979765.276 5 152289655.67805     -1992.856 5        35.724                                                                    28979771.560 6 113722785.38206     -1487.858 6        37.966    28979769.965 6 116689464.02806     -1526.932 6        38.192
G19         4.000    23544466.637 7 123727128.43407      2704.369 7        42.616                                    23544467.307 4  96410772.27604      2107.292 4        29.725
S21         5.000    38529919.840 7 202475716.44507      -498.417 7        42.262
E05         6.000    23177301.130 7 121797504.40707      1274.465 7        45.556                                                                    23177304.715 8  90952657.27008       951.715 8        49.158    23177303.900 8  93325334.66108       976.521 8        49.939
E13         7.000    28772869.408 5 151202441.13405       131.738 5        31.721                                                                    28772882.281 6 112910964.12706        98.347 6        36.091    28772880.540 6 115856459.31506       101.050 6        36.601
R02         8.000    21166542.877 8 112948646.75808     -4253.924 8        50.299                                                                    21166547.520 7  87848926.80307     -3308.547 7        45.508
R20         9.000    24694716.660 5 132053771.69005     -3186.508 5        30.838                                                                    24694721.014 6 102708511.44106     -2478.461 6        37.648
G24        10.000    22119132.587 7 116236822.41407      2301.257 7        44.301                                    22119134.721 7  90574160.41607      1793.184 7        42.679    22119135.168 6  90574165.41706      1793.272 6        41.268
G30        11.000    24019401.951 6 126222695.59506     -3448.070 6        40.513                                    24019406.581 5  98355308.88405     -2686.806 5        34.886    24019407.190 6  98355316.86906     -2686.756 6        37.633
S27        12.000    39252103.808 6 206271123.83906      -530.992 6        36.620
G13        13.000    20470380.437 8 107572531.71208     -2278.548 8        50.044                                    20470378.621 6  83822719.00006     -1775.491 6        40.315
S36        14.000    38299768.364 7 201267086.96807      -499.196 7        44.479
I09        15.000    40807560.390 5 160137312.57405     -1007.666 5        30.604
E09        16.000    23777666.091 8 124952452.91108     -1525.305 8        48.815                                                                    23777668.564 8  93308635.45308     -1139.021 8        50.794    23777667.854 8  95742771.58408     -1168.752 8        51.427
G12        17.000    25312507.497 6 133018150.39106      3375.716 6        39.123                                    25312515.223 4 103650551.49904      2630.414 4        29.991    25312516.502 5 103650548.54305      2630.368 5        34.286
R21        18.000    23271813.566 7 124532230.14507      -395.095 7        44.155                                                                    23271819.898 6  96858454.61406      -307.178 6        39.850
R22        19.000    23824374.818 7 127176144.03907      2573.856 7        42.770                                                                    23824383.502 6  98914759.89106      2001.847 6        40.925
R03        21.000    19481437.630 8 104285620.88908      -354.632 8        52.563                                                                    19481438.189 7  81111028.32207      -275.826 7        47.429
I06        22.000    38252469.637 7 150111021.89407      -469.171 7        42.720
S28        23.000    40977617.077 5 215338671.21105      -508.348 5        34.971
S23        25.000    38232591.339 7 200913551.93907      -500.307 7        44.056
S45        26.000    63482149.921 6 333602057.81406      -549.133 6        36.476
C07        27.000                                                                                                                                    38912976.528 6 202630047.38906      -658.263 6        41.111    38912974.758 7 156686392.18607      -508.938 7        44.129    38912972.493 6 164653488.09106      -534.845 6        41.683
R04        28.000    21937394.296 8 117473729.31008      3114.700 8        48.341                                                                    21937396.562 7  91368431.14607      2422.482 7        43.228
C40        29.000                                                                                                                                    38949900.112 7 202822328.15907      -784.477 7        43.257                                                                    38949901.858 7 164809755.19307      -637.452 7        43.134
G17        30.000    22408084.876 7 117755394.42607       927.829 7        46.538                                    22408085.182 7  91757508.02807       722.979 7        43.464    22408085.461 7  91757505.03707       723.047 7        42.045
G14        31.000    21572556.056 7 113364528.12207     -2741.127 7        46.582                                    21572555.344 6  88335990.72406     -2135.939 6        36.038    21572555.842 7  88335976.71707     -2135.916 7        44.930
G23        32.000    23208878.920 7 121963421.54607       120.709 7        42.652                                    23208879.108 4  95036405.13904        94.058 4        29.365    23208879.483 7  95036400.12907        94.155 7        42.518
I02        33.000    37202535.483 7 145990736.26207       -85.894 7        42.637
E04        34.000    26720977.969 6 140419596.82406     -3325.659 6        40.851                                                                    26720985.590 7 104858763.70607     -2483.456 7        45.877    26720984.067 7 107594209.56207     -2548.110 7        46.010
R13        35.000    19357684.898 7 103368996.08207      -295.367 7        46.870
R12        36.000    20767356.966 8 110935452.59808     -3326.789 8        50.573                                                                    20767360.190 7  86283124.50807     -2587.483 7        46.556
C42        37.000                                                                                                                                    25692852.809 6 133789413.70306      2195.507 6        41.294                                                                    25692864.376 7 108714900.62807      1784.135 7        43.568
C10        38.000                                                                                                                                    38615313.634 7 201080064.14507      -270.395 7        42.303    38615313.606 7 155487861.05707      -209.125 7        44.781    38615311.076 6 163394011.73906      -219.714 6        41.671
C30        40.000                                                                                                                                    25449443.464 7 132521969.58907      1502.835 7        43.259                                                                    25449449.754 7 107684996.62907      1221.130 7        42.097
G05        41.000    24893490.847 6 130815954.46906     -4126.620 6        40.462                                    24893500.729 5 101934432.77705     -3215.535 5        31.940    24893501.138 6 101934441.73906     -3215.407 6        36.529
S44        42.000    40970832.780 6 215303202.89106      -476.627 6        37.183
C36        43.000                                                                                                                                    22304236.794 8 116143977.43208     -2102.926 8        49.440                                                                    22304243.598 8  94376507.60108     -1708.734 8        50.054
C05        44.000                                                                                                                                    39492620.543 6 205648347.07606      -544.433 6        38.207    39492622.271 7 159020338.81507      -420.964 7        42.377    39492622.915 6 167106204.83206      -442.342 6        40.021
R14        45.000    22591510.410 7 120425508.21807      2870.288 7        46.460                                                                    22591517.934 7  93664349.60407      2232.367 7        42.707
G10        47.000    25738870.559 6 135258641.35706      2158.777 6        38.417                                    25738874.719 5 105396344.83005      1682.170 5        31.449    25738874.639 6 105396345.82806      1682.000 6        36.541
C45        50.000                                                                                                                                    22039820.927 8 114767158.87308       599.669 8        50.788                                                                    22039814.877 8  93257706.62308       487.283 8        50.157
S48        51.000    77240762.237 6 405902355.45106      -490.883 6        37.656
E06        52.000    24687437.137 7 129733314.60007     -2636.740 7        46.661                                                                    24687441.522 8  96878765.37008     -1969.030 8        48.982    24687440.783 8  99406037.71108     -2020.464 8        49.513
C09        53.000                                                                                                                                    41529450.317 5 216254551.01105     -1132.324 5        31.457    41529459.210 6 167221671.93406      -875.523 6        36.911    41529454.949 5 175724472.03005      -919.976 5        32.563
C60        54.000                                                                                                                                    40970832.675 6 213345919.04006      -472.259 6        39.703                                                                    40970824.060 6 173360971.47506      -383.764 6        38.724
E31        55.000    23501967.021 8 123503675.37508      -892.780 8        48.312                                                                    23501970.237 8  92226803.03008      -666.640 8        50.799    23501969.524 8  94632715.71208      -684.043 8        51.209
C26        56.000                                                                                                                                    26073045.690 6 135769176.41306      2383.938 6        39.814                                                                    26073052.860 6 110323597.81006      1937.212 6        40.510
C02        57.000                                                                                                                                    41057928.136 5 213799276.39805      -521.645 5        31.064    41057932.301 6 165323111.14706      -403.626 6        36.295    41057932.475 5 173729392.04205      -424.247 5        31.177
I03        58.000    94305066.263 6 294287855.22306       886.495 6        36.718
C21        59.000                                                                                                                                    22955120.143 8 119533284.23108      -311.240 8        49.661                                                                    22955117.123 8  97130550.54908      -252.883 8        49.240
C22        60.000                                                                                                                                    23381703.610 8 121754580.88008     -3278.367 8        49.127                                                                    23381700.874 8  98935528.61908     -2663.888 8        48.033
> 2025 01 02 09 45 40.0000000  0 54
E24         1.000    25155524.593 7 132193286.49407      1750.062 7        46.369                                                                    25155527.795 8  98715832.39108      1306.791 8        48.704    25155526.939 8 101291017.09508      1340.937 8        49.419
G15         2.000    20262615.709 8 106480717.97308      -546.697 8        49.487                                    20262614.257 8  82971964.53708      -425.997 8        50.303    20262614.614 7  82971959.53707      -426.046 7        45.810
E15         3.000    28981661.485 5 152299623.00605     -1994.433 5        35.138                                                                    28981667.961 6 113730228.53006     -1489.367 6        38.544    28981666.963 6 116697101.32706     -1528.169 6        39.643
G19         4.000    23541893.605 7 123713607.87407      2703.580 7        42.392                                    23541894.313 4  96400236.81104      2106.678 4        29.991
S21         5.000    38530396.957 7 202478207.80307      -498.341 7        42.652
E05         6.000    23176089.415 7 121791134.93807      1273.271 7        45.350                                                                    23176092.683 8  90947900.85108       950.877 8        49.215    23176091.866 8  93320454.16508       975.666 8        49.819
E13         7.000    28772745.330 5 151201788.25505       129.141 5        32.192                                                                    28772757.970 6 112910476.57806        96.589 6        36.095    28772756.151 6 115855959.04006        99.059 6        36.722
R02         8.000    21170530.291 8 112969921.72308     -4256.169 8        50.265                                                                    21170534.082 7  87865473.97707     -3310.356 7        45.539
R20         9.000    24697698.746 5 132069712.00205     -3189.055 5        30.098                                                                    24697702.056 6 102720909.48606     -2480.625 6        37.406
G24        10.000    22116943.685 7 116225318.79907      2300.033 7        43.553                                    22116945.620 7  90565196.57907      1792.232 7        42.772    22116946.537 6  90565201.58606      1792.263 6        41.762
G30        11.000    24022683.000 6 126239936.63906     -3448.453 6        40.737                                    24022687.459 5  98368743.43605     -2687.104 5        35.257    24022688.179 6  98368751.43606     -2686.961 6        37.108
S27        12.000    39252613.435 6 206273778.59006      -530.824 6        36.896
G13        13.000    20472549.859 8 107583930.33208     -2280.966 8        49.963                                    20472547.693 6  83831601.03406     -1777.374 6        40.453
S36        14.000    38300242.857 7 201269582.63007      -499.054 7        44.724
I09        15.000    40808845.673 5 160142349.31005     -1006.978 5        30.936
E09        16.000    23779118.276 8 124960083.80308     -1527.070 8        48.890                                                                    23779120.724 8  93314333.83908     -1140.335 8        50.895    23779120.009 8  95748618.62508     -1170.052 8        51.350
G12        17.000    25309295.805 6 133001271.89306      3375.494 6        39.577                                    25309303.252 5 103637399.51105      2630.243 5        30.287    25309305.341 5 103637396.54105      2630.350 5        34.805
R21        18.000    23272185.251 7 124534215.54507      -399.180 7        44.802                                                                    23272191.058 6  96859998.80706      -310.415 6        39.345
R22        19.000    23821964.365 7 127163279.75207      2571.930 7        42.986                                                                    23821973.868 6  98904754.44106      2000.273 6        40.408
R03        21.000    19481771.299 8 104287404.70808      -358.976 8        52.698                                                                    19481771.282 7  81112415.73007      -279.193 7        47.426
I06        22.000    38253067.271 7 150113367.07007      -468.983 7        42.415
S28        23.000    40978103.844 5 215341213.60205      -508.348 5        34.729
S23        25.000    38233069.740 7 200916052.50307      -500.004 7        44.059
S45        26.000    63482625.707 6 333604802.70706      -548.952 6        36.197
C07        27.000                                                                                                                                    38913609.026 6 202633339.65406      -658.714 6        41.123    38913607.304 7 156688937.98407      -509.329 7        44.193    38913604.774 6 164656163.33406      -535.267 6        41.588
R04        28.000    21934487.114 8 117458160.80408      3112.629 8        48.108                                                                    21934489.472 7  91356322.30907      2420.933 7        43.215
C40        29.000                                                                                                                                    38950653.598 7 202826252.27407      -785.271 7        43.257                                                                    38950655.503 7 164812943.84307      -638.030 7        43.007
G17        30.000    22407202.905 7 117750761.62707       925.277 7        46.360                                    22407203.606 7  91753898.08107       720.988 7        43.712    22407204.087 7  91753895.09507       720.939 7        42.502
G14        31.000    21575164.790 7 113378238.13507     -2742.882 7        46.604                                    21575164.254 6  88346673.83806     -2137.307 6        36.030    21575164.933 7  88346659.82707     -2137.302 7        45.699
G23        32.000    23208765.606 7 121962825.65607       117.557 7        43.132                                    23208765.766 4  95035940.80604        91.601 4        29.232    23208765.908 7  95035935.81307        91.614 7        42.451
I02        33.000    37202644.995 7 145991165.71707       -85.966 7        42.548
E04        34.000    26724142.390 6 140436226.18306     -3326.094 6        40.551                                                                    26724150.211 7 104871181.69107     -2483.862 7        46.008    26724148.408 7 107606951.51007     -2548.593 7        45.645
R13        35.000    19357963.011 7 103370479.67607      -298.022 7        46.936
R12        36.000    20770470.562 8 110952089.55908     -3327.985 8        49.909                                                                    20770474.225 7  86296064.35507     -2588.523 7        46.432
C42        37.000                                                                                                                                    25690745.151 6 133778438.91006      2194.175 6        41.576                                                                    25690756.723 7 108705982.71407      1783.033 7        43.335
C10        38.000                                                                                                                                    38615573.341 7 201081416.91707      -270.873 7        42.277    38615573.563 7 155488907.10407      -209.375 7        44.950    38615570.761 6 163395110.97406      -219.975 6        41.652
C30        40.000                                                                                                                                    25448000.038 7 132514459.56507      1501.141 7        42.836                                                                    25448007.683 7 107678894.09307      1219.881 7        42.087
G05        41.000    24897416.990 6 130836586.43806     -4126.291 6        40.193                                    24897426.858 5 101950509.54905     -3215.278 5        31.955    24897426.684 6 101950518.52606     -3215.276 6        36.344
S44        42.000    40971287.106 6 215305585.18406      -476.462 6        37.660
C36        43.000                                                                                                                                    22306256.482 8 116154494.37708     -2103.955 8        49.367                                                                    22306263.330 8  94385053.47008     -1709.567 8        49.961
C05        44.000                                                                                                                                    39493143.321 6 205651068.51306      -544.342 6        38.375    39493144.655 7 159022443.20507      -420.773 7        42.514    39493145.634 6 167108416.21406      -442.335 6        39.925
R14        45.000    22588818.391 7 120411159.43907      2869.069 7        47.057                                                                    22588826.182 7  93653189.46707      2231.516 7        42.927
G10        47.000    25736817.029 6 135247851.38906      2157.043 6        38.171                                    25736821.484 5 105387937.04505      1680.818 5        31.215    25736821.262 6 105387938.04706      1681.024 6        36.276
C45        50.000                                                                                                                                    22039245.768 8 114764164.09408       598.210 8        50.681                                                                    22039239.755 8  93255273.12008       486.104 8        50.039
S48        51.000    77241231.825 6 405904808.43806      -490.500 6        37.720
E06        52.000    24689946.592 7 129746501.70407     -2638.075 7        46.418                                                                    24689950.975 8  96888612.86308     -1969.958 8        49.103    24689950.247 8  99416142.09508     -2021.372 8        49.380
C09        53.000                                                                                                                                    41530538.960 5 216260212.82705     -1132.505 5        31.321    41530546.528 6 167226049.96706      -875.557 6        36.628    41530541.653 5 175729072.67205      -919.719 5        31.826
C60        54.000                                                                                                                                    40971285.709 6 213348279.68406      -472.164 6        39.853                                                                    40971277.290 6 173362889.67906      -383.616 6        38.757
E31        55.000    23502817.220 8 123508143.23508      -894.543 8        48.163                                                                    23502820.434 8  92230139.42008      -667.952 8        50.881    23502819.697 8  94636139.14208      -685.403 8        51.108
C26        56.000                                                                                                                                    26070757.932 6 135757256.91306      2383.769 6        40.868                                                                    26070763.876 6 110313912.25606      1936.982 6        40.422
C02        57.000                                                                                                                                    41058428.265 5                      -521.311 5        30.943    41058432.618 6 165325127.33106      -403.186 6        36.310    41058432.582 5 173731510.71405      -423.850 5        30.634
I03        58.000    94303936.496 6 294283422.90106       886.576 6        36.261
C21        59.000                                                                                                                                    22955420.495 8 119534847.17608      -313.969 8        49.684                                                                    22955417.269 8  97131820.57808      -255.123 8        49.259
C22        60.000                                                                                                                                    23384852.132 8 121770976.42608     -3279.890 8        49.106                                                                    23384849.539 7  98948851.33007     -2665.196 7        47.835
> 2025 01 02 09 45 45.0000000  0 54
E24         1.000    25153860.564 7 132184540.39107      1748.701 7        46.252                                                                    25153863.408 8  98709301.22208      1305.874 8        48.712    25153862.599 8 101284315.55108      1339.884 8        49.255
G15         2.000    20263137.613 8 106483460.78808      -550.131 8        49.622                                    20263136.198 8  82974101.79108      -428.673 8        50.250    20263136.525 7  82974096.79007      -428.652 7        45.651
E15         3.000    28983560.866 6 152309600.07906     -1996.242 6        36.000                                                                    28983566.564 6 113737678.93806     -1490.770 6        37.996    28983565.746 6 116704746.11106     -1529.625 6        38.267
G19         4.000    23539321.261 7 123700092.52307      2702.656 7        42.724                                    23539322.281 4  96389705.41004      2105.956 4        29.858
S21         5.000    38530869.527 7 202480698.99007      -498.117 7        42.353
E05         6.000    23174878.588 7 121784772.27907      1271.943 7        45.365                                                                    23174881.894 8  90943149.52008       949.828 8        49.246    23174881.115 8  93315578.88308       974.678 8        49.620
E13         7.000    28772623.608 5 151201147.10105       127.173 5        32.222                                                                    28772635.857 6 112909997.80306        95.074 6        36.401    28772634.025 6 115855467.78106        97.459 6        36.809
R02         8.000    21174519.594 8 112991209.40508     -4258.544 8        50.753                                                                    21174523.930 7  87882031.04207     -3312.192 7        45.321
R20         9.000    24700680.560 5 132085666.96805     -3192.434 5        30.106                                                                    24700686.247 6 102733318.90306     -2483.057 6        36.892
G24        10.000    22114755.785 7 116213821.60207      2298.960 7        43.782                                    22114757.749 7  90556237.73807      1791.396 7        42.726    22114758.574 6  90556242.74006      1791.390 6        41.998
G30        11.000    24025964.377 6 126257180.66306     -3448.984 6        40.784                                    24025968.955 5  98382180.32105     -2687.513 5        35.457    24025969.623 6  98382188.30506     -2687.379 6        37.221
S27        12.000    39253117.047 6 206276433.21506      -530.598 6        36.488
G13        13.000    20474721.424 8 107595342.13908     -2283.495 8        49.924                                    20474719.270 6  83840493.34906     -1779.344 6        40.398
S36        14.000    38300718.933 7 201272078.42207      -498.766 7        44.417
I09        15.000    40810128.500 5 160147385.66505     -1006.956 5        30.725
E09        16.000    23780572.125 8 124967724.16008     -1528.901 8        48.916                                                                    23780574.605 8  93320039.29308     -1141.686 8        50.866    23780573.914 8  95754472.91608     -1171.411 8        51.154
G12        17.000    25306084.243 6 132984394.91106      3375.427 6        39.769                                    25306091.608 5 103624248.70205      2630.182 5        30.241    25306092.915 5 103624245.72905      2630.280 5        34.767
R21        18.000    23272560.193 7 124536222.45507      -403.429 7        44.880                                                                    23272566.897 6  96861559.71206      -313.714 6        40.010
R22        19.000    23819555.725 7 127150425.93107      2569.872 7        42.650                                                                    23819565.776 6  98894757.11306      1998.739 6        40.539
R03        21.000    19482108.790 8 104289211.17808      -363.358 8        52.679                                                                    19482108.547 7  81113820.75707      -282.611 7        46.943
I06        22.000    38253664.955 7 150115712.28007      -469.047 7        42.694
S28        23.000    40978583.631 5 215343755.92405      -508.302 5        34.852
S23        25.000    38233545.315 7 200918552.94207      -499.897 7        44.253
S45        26.000    63483098.733 5 333607547.62305      -548.739 5        35.695
C07        27.000                                                                                                                                    38914242.584 6 202636635.27706      -659.204 6        41.402    38914240.130 7 156691486.37707      -509.759 7        44.299    38914237.538 6 164658841.32006      -535.983 6        41.666
R04        28.000    21931581.893 8 117442603.35408      3110.542 8        48.680                                                                    21931584.156 7  91344222.07207      2419.294 7        43.227
C40        29.000                                                                                                                                    38951408.042 7 202830180.67007      -785.971 7        43.308                                                                    38951409.941 7 164816135.97807      -638.871 7        43.037
G17        30.000    22406323.761 7 117746142.63407       922.625 7        46.271                                    22406324.736 7  91750298.89307       718.924 7        43.780    22406324.971 7  91750295.91107       718.931 7        42.508
G14        31.000    21577775.565 7 113391957.86907     -2744.757 7        46.756                                    21577775.020 6  88357364.52306     -2138.770 6        36.095    21577775.030 7  88357350.51307     -2138.764 7        45.389
G23        32.000    23208655.033 7 121962246.48807       114.331 7        42.825                                    23208655.599 4  95035489.50104        89.096 4        29.213    23208655.466 7  95035484.50107        89.042 7        42.129
I02        33.000    37202754.655 7 145991596.59307       -86.180 7        42.720
E04        34.000    26727307.456 6 140452859.38106     -3326.899 6        40.648                                                                    26727315.430 7 104883602.54007     -2484.320 7        45.973    26727313.773 7 107619696.38707     -2549.091 7        45.583
R13        35.000    19358243.125 7 103371977.50707      -300.785 7        46.577
R12        36.000    20773586.531 8 110968733.77008     -3329.431 8        49.909                                                                    20773589.873 7  86309009.85207     -2589.585 7        45.976
C42        37.000                                                                                                                                    25688638.759 6 133767471.92506      2192.804 6        41.380                                                                    25688650.604 7 108697071.15307      1781.604 7        43.592
C10        38.000                                                                                                                                    38615833.818 7 201082773.12707      -271.336 7        42.190    38615834.305 7 155489955.81807      -209.885 7        45.074    38615831.330 6 163396213.02106      -220.676 6        41.738
C30        40.000                                                                                                                                    25446559.381 7 132506958.38307      1499.437 7        42.758                                                                    25446567.254 7 107672798.77207      1218.381 7        42.231
G05        41.000    24901343.086 6 130857218.10506     -4126.062 6        39.958                                    24901352.947 5 101966586.08405     -3215.096 5        31.721    24901353.788 6 101966595.05206     -3215.057 6        36.567
S44        42.000    40971737.912 6 215307967.27206      -476.299 6        37.388
C36        43.000                                                                                                                                    22308277.313 8 116165017.70008     -2105.105 8        49.444                                                                    22308284.208 8  94393604.53408     -1710.743 8        50.083
C05        44.000                                                                                                                                    39493665.271 6 205653789.75706      -543.955 6        38.150    39493667.638 7 159024547.45607      -420.653 7        42.531    39493668.210 6 167110627.46206      -442.212 6        40.005
R14        45.000    22586128.678 7 120396817.42707      2867.898 7        47.803                                                                    22586135.513 7  93642034.61807      2230.655 7        43.202
G10        47.000    25734766.082 6 135237071.16006      2155.316 6        38.886                                    25734769.975 5 105379536.86805      1679.473 5        31.260    25734769.761 5 105379537.86705      1679.440 5        35.562
C45        50.000                                                                                                                                    22038672.206 8 114761177.57508       596.661 8        50.711                                                                    22038666.254 8  93252846.33108       484.688 8        50.183
S48        51.000    77241704.904 6 405907261.39406      -490.319 6        37.531
E06        52.000    24692457.273 7 129759695.97507     -2639.381 7        46.574                                                                    24692461.748 8  96898465.71708     -1970.938 8        49.122    24692461.127 8  99426251.97908     -2022.359 8        49.194
C09        53.000                                                                                                                                    41531626.284 5 216265874.99705     -1132.706 5        30.370    41531634.287 6 167230428.30506      -875.647 6        36.522    41531629.079 5 175733673.66805      -920.275 5        31.713
C60        54.000                                                                                                                                    40971738.984 6 213350640.11006      -471.925 6        39.817                                                                    40971730.610 6 173364807.71706      -383.536 6        39.003
E31        55.000    23503669.455 8 123512620.82008      -896.319 8        48.304                                                                    23503672.463 8  92233483.07608      -669.358 8        50.858    23503671.784 8  94639570.02308      -686.820 8        50.982
C26        56.000                                                                                                                                    26068469.228 6 135745339.77106      2383.345 6        40.563                                                                    26068475.100 6 110304228.62006      1936.565 6        40.584
C02        57.000                                                                                                                                    41058927.928 5                      -521.418 5        31.313    41058933.793 6 165327143.34006      -402.955 6        36.495    41058933.596 5 173733629.24805      -423.470 5        30.898
I03        58.000    94302806.758 6 294278990.33306       886.599 6        36.594
C21        59.000                                                                                                                                    22955723.507 8 119536424.68208      -316.779 8        49.598                                                                    22955720.195 8  97133102.43608      -257.553 8        49.319
C22        60.000                                                                                                                                    23388002.520 8 121787380.60408     -3281.548 8        48.803                                                                    23387999.850 8  98962181.05308     -2666.645 8        48.063
> 2025 01 02 09 45 50.0000000  0 54
E24         1.000    25152197.221 7 132175800.83007      1747.435 7        46.184                                                                    25152200.353 8  98702774.95608      1304.819 8        48.574    25152199.463 8 101277619.02508      1338.926 8        49.232
G15         2.000    20263662.781 8 106486220.65108      -553.478 8        49.350                                    20263661.386 8  82976252.33008      -431.279 8        50.208    20263661.768 7  82976247.32207      -431.303 7        45.970
E15         3.000    28985461.538 6 152319586.41906     -1997.981 6        36.730                                                                    28985466.780 6 113745136.29206     -1492.220 6        38.192    28985466.111 6 116712397.99706     -1531.045 6        38.174
G19         4.000    23536750.243 7 123686581.85207      2701.901 7        42.593                                    23536751.138 4  96379177.66104      2105.367 4        29.934
S21         5.000    38531345.375 7 202483189.41107      -497.715 7        42.415
E05         6.000    23173668.900 7 121778415.89907      1270.855 7        45.365                                                                    23173672.344 8  90938402.87208       948.995 8        49.157    23173671.469 8  93310708.40908       973.761 8        49.565
E13         7.000    28772503.222 5 151200517.22705       124.862 5        31.834                                                                    28772515.823 6 112909527.46506        93.270 6        36.212    28772514.169 6 115854985.17006        95.981 6        36.696
R02         8.000    21178510.951 8 113012508.81408     -4260.958 8        50.425                                                                    21178514.954 7  87898597.22307     -3314.032 7        45.403
R20         9.000    24703666.712 5 132101636.32505     -3194.892 5        30.589                                                                    24703672.866 6 102745739.51506     -2485.022 6        36.318
G24        10.000    22112568.604 7 116202330.28707      2297.783 7        43.712                                    22112571.014 7  90547283.48407      1790.478 7        42.718    22112571.585 7  90547288.48907      1790.469 7        42.455
G30        11.000    24029245.952 6 126274427.12606     -3449.302 6        40.567                                    24029250.835 5  98395619.10405     -2687.763 5        35.467    24029251.609 6  98395627.10306     -2687.874 6        37.251
S27        12.000    39253619.809 6 206279087.34106      -530.591 6        36.208
G13        13.000    20476895.357 8 107606766.58308     -2285.989 8        49.581                                    20476893.301 6  83849395.50506     -1781.291 6        40.389
S36        14.000    38301193.113 7 201274572.75707      -498.835 7        44.594
I09        15.000    40811412.607 4 160152421.10804     -1007.164 4        29.953
E09        16.000    23782027.622 8 124975373.44608     -1530.591 8        48.886                                                                    23782030.228 8  93325751.42108     -1142.996 8        50.833    23782029.516 8  95760334.05808     -1172.776 8        51.134
G12        17.000    25302872.547 6 132967518.91806      3375.267 6        39.042                                    25302880.169 5 103611098.66305      2630.064 5        30.121    25302881.252 5 103611095.69405      2629.969 5        35.605
R21        18.000    23272938.933 7 124538250.49707      -407.471 7        44.436                                                                    23272945.807 6  96863137.07206      -316.788 6        40.551
R22        19.000    23817149.701 7 127137582.09407      2567.951 7        42.745                                                                    23817158.887 6  98884767.57906      1997.354 6        40.439
R03        21.000    19482449.926 8 104291039.43708      -367.656 8        52.703                                                                    19482450.219 7  81115242.74407      -285.988 7        47.131
I06        22.000    38254262.672 7 150118057.14407      -468.814 7        42.533
S28        23.000    40979068.905 5 215346297.88605      -508.138 5        34.767
S23        25.000    38234021.109 7 200921052.79807      -499.677 7        44.102
S45        26.000    63483575.189 6 333608691.90216      -548.794 6        36.185
C07        27.000                                                                                                                                    38914876.238 6 202639933.76806      -659.786 6        41.497    38914873.373 7 156694036.98307      -510.278 7        44.229    38914871.042 6 164661521.58306      -536.175 6        41.518
R04        28.000    21928678.603 8 117427056.48908      3108.644 8        48.153                                                                    21928681.110 7  91332130.08707      2417.794 7        43.477
C40        29.000                                                                                                                                    38952163.121 7 202834112.81807      -786.699 7        43.291                                                                    38952164.999 7 164819331.12807      -639.167 7        43.020
G17        30.000    22405447.185 7 117741536.89807       920.028 7        45.716                                    22405448.419 7  91746710.04007       716.897 7        43.778    22405448.288 7  91746707.06207       716.841 7        42.690
G14        31.000    21580387.983 7 113405686.78607     -2746.470 7        46.638                                    21580387.543 5  88368062.36305     -2140.098 5        35.952    21580387.633 7  88368048.36207     -2140.150 7        45.348
G23        32.000    23208547.643 7 121961683.48707       111.180 7        42.631                                    23208548.494 4  95035050.80204        86.634 4        29.232    23208548.651 7  95035045.80007        86.544 7        42.643
I02        33.000    37202864.906 7 145992027.87507       -86.302 7        42.929
E04        34.000    26730473.537 6 140469495.90206     -3327.450 6        40.026                                                                    26730481.206 7 104896025.88907     -2484.834 7        45.538    26730479.719 7 107632443.82707     -2549.602 7        45.580
R13        35.000    19358526.488 7 103373489.28407      -303.639 7        47.192
R12        36.000    20776704.619 8 110985384.64108     -3330.687 8        50.622                                                                    20776706.836 7  86321960.50807     -2590.585 7        45.460
C42        37.000                                                                                                                                    25686534.429 6 133756512.25006      2191.371 6        41.728                                                                    25686545.818 7 108688165.48907      1780.803 7        43.445
C10        38.000                                                                                                                                    38616094.194 7 201084132.21007      -271.908 7        42.157    38616095.376 7 155491006.73407      -210.282 7        45.257    38616092.284 6 163397317.35406      -221.016 6        41.635
C30        40.000                                                                                                                                    25445120.765 7 132499465.54807      1497.863 7        42.328                                                                    25445128.239 7 107666710.18907      1217.123 7        42.263
G05        41.000    24905269.274 6 130877848.94206     -4125.956 6        38.802                                    24905278.724 5 101982661.98305     -3215.010 5        31.208    24905278.893 5 101982670.96105     -3215.032 5        35.752
S44        42.000    40972191.362 6 215310348.64506      -476.178 6        37.448
C36        43.000                                                                                                                                    22310299.442 8 116175546.87708     -2106.278 8        49.704                                                                    22310306.206 8  94402160.31908     -1711.509 8        50.023
C05        44.000                                                                                                                                    39494187.234 6 205656510.37306      -543.922 6        38.237    39494190.255 7 159026651.23107      -420.714 7        42.550    39494190.549 6 167112838.17306      -442.058 6        40.031
R14        45.000    22583439.508 8 120382481.63208      2866.644 8        48.350                                                                    22583446.378 7  93630884.57607      2229.669 7        42.832
G10        47.000    25732716.471 6 135226300.16206      2153.688 6        38.793                                    25732720.219 5 105371143.87405      1678.200 5        31.366    25732720.048 6 105371144.87906      1678.026 6        36.204
C45        50.000                                                                                                                                    22038100.280 8 114758198.78708       595.173 8        50.877                                                                    22038094.232 8  93250425.79808       483.601 8        50.141
S48        51.000    77242174.948 6 405909713.85706      -490.314 6        37.800
E06        52.000    24694969.435 7 129772896.91407     -2640.686 7        46.568                                                                    24694973.859 8  96908323.54908     -1971.925 8        49.061    24694973.115 8  99436366.97908     -2023.411 8        49.235
C09        53.000                                                                                                                                    41532712.135 5 216271537.01505     -1132.150 5        30.641    41532721.758 6 167234806.53306      -875.466 6        36.885    41532716.329 5 175738274.51005      -920.229 5        30.981
C60        54.000                                                                                                                                    40972192.174 6 213352999.83506      -471.772 6        39.952                                                                    40972183.630 6 173366725.14806      -383.363 6        38.823
E31        55.000    23504523.260 8 123517107.58108      -898.094 8        48.370                                                                    23504526.256 8  92236833.57708      -670.659 8        50.779    23504525.583 8  94643007.92508      -688.149 8        50.961
C26        56.000                                                                                                                                    26066179.986 6 135733424.49106      2383.121 6        41.039                                                                    26066186.836 6 110294546.47106      1936.405 6        40.324
C02        57.000                                                                                                                                    41059430.123 5 213807097.25815      -520.992 5        31.494    41059434.243 6 165329158.81706      -403.055 6        36.125    41059434.095 5 173735747.15905      -423.264 5        30.619
I03        58.000    94301676.970 6 294274557.13006       886.716 6        36.427
C21        59.000                                                                                                                                    22956029.057 8 119538016.22208      -319.547 8        49.628                                                                    22956025.904 8  97134395.67008      -259.680 8        49.274
C22        60.000                                                                                                                                    23391154.290 8 121803792.88808     -3283.056 8        48.500                                                                    23391151.642 7  98975517.33607     -2667.850 7        47.971
> 2025 01 02 09 45 55.0000000  0 54
E24         1.000    25150535.558 7 132167067.84407      1745.915 7        46.484                                                                    25150538.523 8  98696253.58308      1303.715 8        48.549    25150537.623 8 101270927.53008      1337.796 8        49.120
G15         2.000    20264191.350 8 106488997.55708      -557.110 8        49.181                                    20264189.811 8  82978416.14208      -434.111 8        50.136    20264190.391 7  82978411.13907      -434.039 7        45.916
E15         3.000    28987363.153 5 152329582.05105     -1999.963 5        35.552                                                                    28987369.309 6 113752600.56406     -1493.457 6        38.270    28987367.875 6 116720056.99406     -1532.425 6        38.045
G19         4.000    23534180.265 7 123673075.90207      2700.690 7        42.256                                    23534181.073 4  96368653.57804      2104.426 4        29.924
S21         5.000    38531816.362 7 202485679.03307      -497.831 7        42.328
E05         6.000    23172460.558 7 121772065.81907      1269.322 7        45.377                                                                    23172463.918 8  90933660.93208       947.884 8        49.096    23172463.096 8  93305842.77008       972.546 8        49.521
E13         7.000    28772385.461 5 151199898.58805       122.660 5        31.132                                                                    28772398.231 6 112909065.52506        91.596 6        36.193    28772396.530 6 115854511.19506        94.008 6        36.994
R02         8.000    21182504.561 8 113033820.18108     -4263.456 8        50.266                                                                    21182508.855 7  87915172.72107     -3316.065 7        45.193
R20         9.000    24706654.504 4 132117619.84504     -3198.256 4        28.427                                                                    24706662.042 6 102758171.19606     -2487.438 6        37.388
G24        10.000    22110383.391 7 116190844.88307      2296.458 7        43.592                                    22110385.405 7  90538333.83007      1789.447 7        42.673    22110385.539 7  90538338.84207      1789.437 7        42.008
G30        11.000    24032528.275 6 126291676.09206     -3450.177 6        40.255                                    24032533.172 5  98409059.83805     -2688.445 5        35.148    24032534.177 6  98409067.81906     -2688.229 6        36.820
S27        12.000    39254126.667 5 206281740.88405      -530.433 5        35.871
G13        13.000    20479071.871 8 107618203.67308     -2288.659 8        49.382                                    20479069.716 6  83858307.51906     -1783.368 6        40.315
S36        14.000    38301668.012 7 201277066.53007      -498.894 7        44.761
I09        15.000    40812695.961 4 160157455.65604     -1006.452 4        29.905
E09        16.000    23783485.207 8 124983031.68508     -1532.514 8        49.037                                                                    23783487.519 8  93331470.23408     -1144.459 8        50.713    23783486.844 8  95766202.05508     -1174.271 8        51.076
G12        17.000    25299660.890 6 132950643.91906      3374.957 6        38.150                                    25299668.989 5 103597949.39205      2629.821 5        30.045    25299670.024 5 103597946.43805      2629.777 5        35.571
R21        18.000    23273321.577 7 124540299.62607      -411.994 7        43.922                                                                    23273328.703 6  96864730.81906      -320.391 6        41.278
R22        19.000    23814745.881 7 127124748.22107      2565.816 7        42.944                                                                    23814754.731 6  98874785.75806      1995.562 6        39.937
R03        21.000    19482795.625 8 104292889.70108      -372.245 8        52.841                                                                    19482795.777 7  81116681.81607      -289.448 7        47.407
I06        22.000    38254860.172 7 150120401.68507      -468.835 7        42.754
S28        23.000    40979554.720 5 215348839.14005      -508.197 5        35.162
S23        25.000    38234496.282 7 200923551.94507      -499.751 7        44.414
S45        26.000    63484053.719 6 333611435.65106      -548.697 6        36.053
C07        27.000                                                                                                                                    38915509.948 6 202643235.17706      -660.529 6        41.642    38915507.565 7 156696589.84907      -510.881 7        44.241    38915505.091 6 164664204.26706      -536.681 6        41.707
R04        28.000    21925777.506 8 117411520.15308      3106.223 8        48.210                                                                    21925779.503 7  91320046.27807      2415.906 7        44.144
C40        29.000                                                                                                                                    38952918.984 7 202838048.73007      -787.436 7        43.105                                                                    38952920.885 7 164822529.40307      -639.977 7        42.961
G17        30.000    22404573.509 7 117736944.46307       917.191 7        45.559                                    22404574.619 7  91743131.54907       714.684 7        43.680    22404573.968 7  91743128.57107       714.657 7        42.955
G14        31.000    21583002.411 7 113419424.90107     -2748.568 7        46.530                                    21583001.810 6  88378767.37206     -2141.740 6        36.068    21583002.171 7  88378753.36807     -2141.713 7        45.029
G23        32.000    23208443.627 7 121961136.70807       107.716 7        42.415                                    23208444.431 4  95034624.73804        83.944 4        29.280    23208444.567 7  95034619.72607        84.016 7        42.417
I02        33.000    37202974.639 7 145992460.28907       -86.539 7        42.451
E04        34.000    26733640.055 6 140486135.77406     -3328.270 6        40.091                                                                    26733647.442 7 104908451.71507     -2485.362 7        45.081    26733646.136 7 107645193.81607     -2550.176 7        45.409
R13        35.000    19358812.734 7 103375014.98607      -306.554 7        46.961
R12        36.000    20779822.282 8 111002042.25108     -3332.158 8        50.024                                                                    20779825.801 7  86334916.42407     -2591.711 7        45.871
C42        37.000                                                                                                                                    25684431.282 7 133745559.91407      2189.707 7        42.011                                                                    25684442.600 7 108679265.84307      1779.373 7        43.300
C10        38.000                                                                                                                                    38616355.454 7 201085494.18207      -272.708 7        42.201    38616356.933 7 155492059.90507      -210.919 7        45.372    38616353.815 6 163398424.09406      -221.581 6        41.812
C30        40.000                                                                                                                                    25443683.883 7 132491981.05807      1495.976 7        42.119                                                                    25443690.931 7 107660628.43807      1215.692 7        42.290
G05        41.000    24909195.022 6 130898479.01206     -4126.075 6        38.880                                    24909204.441 5 101998737.27205     -3215.105 5        30.838    24909204.925 6 101998746.23006     -3215.001 6        36.102
S44        42.000    40972642.007 6 215312729.27106      -476.233 6        37.331
C36        43.000                                                                                                                                    22312322.798 8 116186081.90408     -2107.593 8        49.691                                                                    22312329.408 8  94410720.90508     -1712.568 8        49.996
C05        44.000                                                                                                                                    39494710.083 6 205659230.33106      -543.837 6        38.411    39494712.482 7 159028754.48807      -420.656 7        42.737    39494713.059 6 167115048.41606      -441.986 6        39.946
R14        45.000    22580751.508 8 120368151.79108      2865.292 8        48.557                                                                    22580757.866 7  93619739.18207      2228.528 7        42.669
G10        47.000    25730668.502 6 135215538.38906      2151.532 6        38.342                                    25730672.283 5 105362758.03305      1676.519 5        31.321    25730672.014 6 105362759.03306      1676.626 6        36.480
C45        50.000                                                                                                                                    22037529.769 8 114755227.75708       593.429 8        50.845                                                                    22037523.670 8  93248011.62108       482.173 8        50.061
S48        51.000    77242647.299 6 405912166.41006      -490.540 6        37.856
E06        52.000    24697482.682 7 129786104.51507     -2642.222 7        46.666                                                                    24697487.201 8  96918186.35508     -1973.097 8        48.900    24697486.534 8  99446487.07308     -2024.563 8        49.062
C09        53.000                                                                                                                                    41533798.473 4 216277198.94304     -1131.986 4        29.592    41533809.535 6 167239184.71306      -875.646 6        36.609    41533803.557 5 175742875.33405      -920.065 5        30.913
C60        54.000                                                                                                                                    40972644.997 6 213355358.82206      -471.740 6        39.727                                                                    40972636.708 6 173368642.01506      -383.285 6        38.336
E31        55.000    23505378.694 8 123521603.54008      -900.158 8        48.236                                                                    23505381.835 8  92240190.94708      -672.226 8        50.716    23505381.125 8  94646452.87808      -689.707 8        50.867
C26        56.000                                                                                                                                    26063892.392 6 135721511.08106      2382.513 6        40.303                                                                    26063898.648 6 110284865.88506      1935.969 6        40.160
C02        57.000                                                                                                                                    41059929.858 5 213809702.98805      -521.525 5        30.702    41059934.408 6 165331173.72406      -402.802 6        36.518    41059934.434 5                      -423.438 5        30.626
I03        58.000    94300547.012 6 294270123.34206       886.800 6        36.514
C21        59.000                                                                                                                                    22956337.475 8 119539621.82208      -322.537 8        49.436                                                                    22956334.195 8  97135700.37008      -262.086 8        49.250
C22        60.000                                                                                                                                    23394307.579 8 121820213.29108     -3284.953 8        48.154                                                                    23394304.969 7  98988860.25007     -2669.258 7        47.835
> 2025 01 02 09 46  0.0000000  0 54
E24         1.000    25148875.149 7 132158341.87607      1744.563 7        46.357                                                                    25148877.949 8  98689737.44808      1302.769 8        48.653    25148877.028 8 101264241.40908      1336.764 8        49.298
G15         2.000    20264723.062 8 106491791.92008      -560.561 8        49.103                                    20264721.572 8  82980593.56208      -436.800 8        50.075    20264721.987 7  82980588.55807      -436.790 7        45.564
E15         3.000    28989267.153 5 152339587.39105     -2001.978 5        35.300                                                                    28989273.129 6 113760072.07106     -1495.116 6        38.381    28989272.111 6 116727723.40106     -1533.890 6        37.803
G19         4.000    23531611.052 7 123659575.09907      2699.611 7        42.445                                    23531611.817 4  96358133.50504      2103.586 4        29.772
S21         5.000    38532294.445 7 202488168.56007      -497.864 7        42.538
E05         6.000    23171253.139 7 121765722.51007      1267.978 7        45.723                                                                    23171256.822 8  90928924.03808       946.945 8        49.216    23171256.008 8  93300982.30208       971.650 8        49.693
E13         7.000    28772269.517 5 151199291.75205       120.047 5        30.219                                                                    28772282.774 6 112908612.35706        89.824 6        36.548    28772281.440 6 115854046.19706        92.203 6        37.278
R02         8.000    21186500.479 8 113055143.91308     -4265.865 8        50.096                                                                    21186505.424 7  87931757.82807     -3317.995 7        45.478
R20         9.000    24709645.709 5 132133618.00805     -3201.187 5        31.751                                                                    24709653.679 6 102770614.22506     -2489.679 6        39.565
G24        10.000    22108199.188 7 116179365.84207      2295.227 7        44.114                                    22108201.013 7  90529389.13907      1788.489 7        42.578    22108201.594 7  90529394.14707      1788.520 7        42.140
G30        11.000    24035811.418 6 126308927.94706     -3450.624 6        39.829                                    24035815.996 5  98422502.82305     -2688.792 5        34.629    24035816.426 6  98422510.81306     -2688.820 6        36.843
S27        12.000    39254631.603 6 206284394.38206      -530.643 6        36.397
G13        13.000    20481250.516 8 107629653.87308     -2291.256 8        49.586                                    20481248.634 6  83867229.74506     -1785.390 6        40.231
S36        14.000    38302142.554 7 201279560.07607      -498.622 7        44.641
I09        15.000    40813978.859 5 160162489.75105     -1007.344 5        30.370
E09        16.000    23784944.290 8 124990699.33008     -1534.414 8        49.066                                                                    23784946.588 8  93337196.06308     -1145.822 8        50.862    23784945.981 8  95772077.25508     -1175.696 8        51.203
G12        17.000    25296449.684 6 132933770.39906      3374.481 6        37.939                                    25296458.056 4 103584801.28504      2629.452 4        29.905    25296458.662 5 103584798.32105      2629.612 5        35.562
R21        18.000    23273708.040 7 124542370.29807      -416.223 7        43.837                                                                    23273715.527 6  96866341.35706      -323.709 6        41.104
R22        19.000    23812343.933 7 127111924.83707      2563.594 7        43.039                                                                    23812352.741 6  98864812.10106      1993.835 6        39.300
R03        21.000    19483145.262 8 104294762.41708      -376.707 8        52.701                                                                    19483146.077 7  81118138.37307      -293.014 7        47.279
I06        22.000    38255457.807 7 150122746.21907      -468.806 7        42.914
S28        23.000    40980038.255 5 215351380.00205      -508.364 5        35.229
S23        25.000    38234972.067 7 200926050.98407      -499.785 7        44.259
S45        26.000    63484530.108 6 333614179.30506      -548.373 6        36.091
C07        27.000                                                                                                                                    38916144.293 6 202646539.87906      -661.259 6        41.385    38916142.027 7 156699145.24207      -511.264 7        44.155    38916139.805 6 164666889.59406      -537.338 6        41.504
R04        28.000    21922878.079 7 117395994.87007      3104.041 7        47.982                                                                    21922880.181 7  91307971.04407      2414.276 7        43.318
C40        29.000                                                                                                                                    38953675.737 7 202841988.86607      -788.402 7        43.145                                                                    38953677.575 7 164825731.07007      -640.743 7        43.037
G17        30.000    22403702.286 7 117732365.74907       914.419 7        45.288                                    22403703.372 7  91739563.75507       712.528 7        43.545    22403702.690 7  91739560.77107       712.517 7        42.345
G14        31.000    21585618.404 7 113433172.64307     -2750.439 7        46.079                                    21585617.902 5  88389479.88005     -2143.199 5        35.895    21585618.423 7  88389465.87607     -2143.225 7        44.682
G23        32.000    23208342.821 7 121960606.57207       104.321 7        42.377                                    23208343.555 4  95034211.64204        81.287 4        29.147    23208343.636 7  95034206.63507        81.428 7        42.131
I02        33.000    37203085.370 7 145992894.01507       -86.686 7        42.954
E04        34.000    26736806.922 6 140502779.41506     -3328.927 6        39.757                                                                    26736814.405 7 104920880.37607     -2486.000 7        44.956    26736813.378 7 107657946.70707     -2550.798 7        45.580
R13        35.000    19359100.649 7 103376555.00307      -309.402 7        46.965
R12        36.000    20782941.381 8 111018707.03508     -3333.615 8        49.986                                                                    20782945.633 7  86347877.90307     -2592.782 7        46.192
C42        37.000                                                                                                                                    25682329.050 6 133734615.32306      2188.289 6        41.709                                                                    25682340.848 7 108670372.48507      1778.060 7        43.517
C10        38.000                                                                                                                                    38616617.864 6 201086859.51506      -273.410 6        41.886    38616619.100 7 155493115.66207      -211.398 7        45.225    38616616.051 6 163399533.53706      -222.156 6        41.733
C30        40.000                                                                                                                                    25442248.266 6 132484505.41306      1494.250 6        41.743                                                                    25442255.303 7 107654553.84307      1214.100 7        42.379
G05        41.000    24913121.009 6 130919108.72306     -4125.793 6        39.108                                    24913130.186 5 102014812.28705     -3214.883 5        30.740    24913130.975 6 102014821.27006     -3215.010 6        36.000
S44        42.000    40973097.129 6 215315109.62906      -475.789 6        37.202
C36        43.000                                                                                                                                    22314346.942 8 116196623.24408     -2108.819 8        49.525                                                                    22314353.745 8  94419286.59508     -1713.676 8        50.089
C05        44.000                                                                                                                                    39495232.843 6 205661950.12206      -543.897 6        38.366    39495234.553 7 159030857.60207      -420.542 7        42.688    39495235.527 6 167117258.45006      -441.969 6        40.036
R14        45.000    22578064.481 8 120353828.72108      2863.974 8        48.051                                                                    22578071.304 6  93608599.02506      2227.606 6        41.945
G10        47.000    25728622.487 6 135204786.35006      2149.408 6        38.634                                    25728626.185 5 105354379.81105      1674.873 5        31.087    25728626.167 6 105354380.80906      1674.675 6        36.151
C45        50.000                                                                                                                                    22036961.037 8 114752264.92308       591.817 8        50.986                                                                    22036954.632 8  93245604.07008       480.817 8        50.154
S48        51.000    77243116.216 6 405914618.53506      -490.210 6        37.837
E06        52.000    24699997.432 7 129799319.23207     -2643.570 7        46.984                                                                    24700001.870 8  96928054.47308     -1974.042 8        48.981    24700001.325 8  99456612.62308     -2025.622 8        49.258
C09        53.000                                                                                                                                    41534885.915 4 216282861.28404     -1132.369 4        29.934    41534896.900 6 167243563.12806      -875.715 6        36.885    41534891.002 5 175747476.40405      -920.290 5        30.468
C60        54.000                                                                                                                                    40973098.111 6 213357717.54306      -471.562 6        39.637                                                                    40973089.773 6 173370558.66206      -383.370 6        38.655
E31        55.000    23506236.121 8 123526109.13008      -902.004 8        48.291                                                                    23506239.204 8  92243555.51008      -673.552 8        50.789    23506238.560 8  94649905.21408      -691.157 8        50.993
C26        56.000                                                                                                                                    26061606.175 6 135709599.97406      2382.191 6        41.416                                                                    26061611.690 6 110275187.15606      1935.501 6        40.296
C02        57.000                                                                                                                                    41060430.282 5 213812308.34705      -520.400 5        30.619    41060434.295 6 165333188.44306      -403.064 6        36.163    41060434.692 5                      -423.579 5        31.494
I03        58.000    94299417.139 6 294265689.27406       886.610 6        36.601
C21        59.000                                                                                                                                    22956648.429 8 119541241.91308      -325.429 8        49.386                                                                    22956645.301 8  97137016.82608      -264.520 8        49.251
C22        60.000                                                                                                                                    23397462.674 8 121836642.20408     -3286.549 8        48.681                                                                    23397459.944 7  99002210.08407     -2670.698 7        47.831
> 2025 01 02 09 46  5.0000000  0 54
E24         1.000    25147215.900 7 132149623.02907      1742.979 7        46.423                                                                    25147218.830 8  98683226.64608      1301.622 8        48.776    25147217.894 8 101257560.75608      1335.578 8        49.229
G15         2.000    20265258.042 8 106494603.87708      -564.189 8        49.263                                    20265256.668 8  82982784.69208      -439.626 8        50.059    20265256.816 7  82982779.68407      -439.598 7        45.592
E15         3.000    28991172.806 5 152349602.50605     -2004.169 5        35.957                                                                    28991179.258 6 113767550.88606     -1496.643 6        39.102    28991177.905 6 116735397.33606     -1535.515 6        38.234
G19         4.000    23529043.238 7 123646079.56807      2698.424 7        42.076                                    23529043.563 4  96347617.54704      2102.662 4        29.554
S21         5.000    38532766.166 7 202490658.15707      -498.057 7        42.387
E05         6.000    23170047.651 7 121759386.07307      1266.456 7        45.561                                                                    23170051.075 8  90924192.28608       945.816 8        49.347    23170050.178 8  93296127.11208       970.481 8        49.631
E13         7.000    28772156.763 5 151198696.70205       117.658 5        31.019                                                                    28772169.688 6 112908168.00006        87.830 6        36.707    28772168.064 6 115853590.25006        90.349 6        37.388
R02         8.000    21190499.123 8 113076480.15908     -4268.600 8        49.897                                                                    21190504.169 7  87948352.64107     -3320.027 7        45.893
R20         9.000    24712639.945 5 132149630.83705     -3204.217 5        33.365                                                                    24712648.082 6 102783068.65306     -2492.184 6        40.160
G24        10.000    22106015.465 7 116167893.29407      2293.902 7        43.215                                    22106017.855 7  90520449.50007      1787.449 7        42.550    22106018.574 7  90520454.51307      1787.399 7        42.138
G30        11.000    24039094.985 6 126326182.80406     -3451.253 6        39.553                                    24039099.401 5  98435948.14905     -2689.284 5        34.314    24039100.351 6  98435956.14106     -2689.411 6        37.138
S27        12.000    39255137.044 6 206287048.20406      -530.774 6        36.439
G13        13.000    20483432.116 8 107641117.23308     -2294.014 8        49.686                                    20483430.080 6  83876162.22606     -1787.542 6        40.224
S36        14.000    38302613.295 7 201282054.04107      -498.910 7        44.343
I09        15.000    40815261.450 5 160167523.40005     -1006.951 5        30.370
E09        16.000    23786405.118 8 124998376.47308     -1536.421 8        49.141                                                                    23786407.547 8  93342928.98908     -1147.362 8        51.056    23786406.896 8  95777959.73808     -1177.287 8        51.157
G12        17.000    25293239.367 6 132916898.46506      3374.120 6        38.622                                    25293247.315 4 103571654.41204      2629.169 4        29.772    25293247.949 5 103571651.41105      2629.354 5        35.552
R21        18.000    23274098.743 7 124544462.65107      -420.685 7        43.617                                                                    23274106.355 6  96867968.73006      -327.116 6        40.706
R22        19.000    23809942.772 7 127099112.03607      2561.405 7        43.082                                                                    23809951.827 6  98854846.68006      1992.176 6        39.075
R03        21.000    19483499.183 8 104296657.56708      -381.417 8        52.741                                                                    19483499.416 7  81119612.36507      -296.610 7        47.148
I06        22.000    38256054.925 7 150125090.84407      -468.955 7        42.899
S28        23.000    40980523.381 5 215353921.01205      -508.219 5        34.948
S23        25.000    38235445.531 7 200928549.79407      -499.795 7        43.797
S45        26.000    63485008.885 6 333616922.92606      -548.631 6        36.008
C07        27.000                                                                                                                                    38916779.785 6 202649847.95806      -662.010 6        41.185    38916777.227 7 156701703.27007      -511.925 7        44.050    38916774.844 6 164669577.67706      -537.977 6        41.554
R04        28.000    21919980.840 8 117380480.76008      3101.702 8        48.192                                                                    21919982.562 7  91295904.53807      2412.230 7        43.177
C40        29.000                                                                                                                                    38954433.006 7 202845933.32307      -789.490 7        43.071                                                                    38954435.031 7 164828936.21407      -641.443 7        42.999
G17        30.000    22402833.460 7 117727800.91607       911.471 7        45.586                                    22402834.670 7  91736006.77807       710.233 7        43.437    22402834.605 7  91736003.77907       710.313 7        42.339
G14        31.000    21588236.073 7 113446930.11307     -2752.577 7        46.263                                    21588235.836 5  88400199.97305     -2144.862 5        35.919    21588236.204 7  88400185.96807     -2144.834 7        44.743
G23        32.000    23208245.354 7 121960093.20307       100.961 7        43.077                                    23208245.765 4  95033811.60404        78.673 4        29.081    23208246.128 7  95033806.61307        78.665 7        42.157
I02        33.000    37203196.496 7 145993328.78207       -87.171 7        42.861
E04        34.000    26739975.278 6 140519426.95806     -3330.019 6        40.226                                                                    26739982.581 7 104933311.94607     -2486.680 7        45.210    26739981.338 7 107670702.57307     -2551.527 7        45.701
R13        35.000    19359391.775 7 103378109.36707      -312.346 7        46.808
R12        36.000    20786063.127 8 111035379.12608     -3335.190 8        50.120                                                                    20786066.537 7  86360845.07607     -2594.053 7        46.438
C42        37.000                                                                                                                                    25680228.487 6 133723678.66506      2186.487 6        41.347                                                                    25680240.613 7 108661485.50707      1776.772 7        43.427
C10        38.000                                                                                                                                    38616880.653 6 201088228.29606      -274.183 6        41.988    38616881.848 7 155494174.08607      -212.014 7        45.114    38616878.910 6 163400645.75606      -222.779 6        41.836
C30        40.000                                                                                                                                    25440814.571 6 132477038.67806      1492.368 6        41.859                                                                    25440821.311 7 107648486.47607      1212.650 7        42.258
G05        41.000    24917046.739 6 130939738.18506     -4125.995 6        39.252                                    24917055.953 5 102030887.10105     -3215.045 5        31.011    24917057.053 6 102030896.06606     -3215.059 6        36.465
S44        42.000    40973547.435 6 215317489.82006      -476.097 6        37.418
C36        43.000                                                                                                                                    22316372.473 8 116207170.98708     -2110.263 8        49.358                                                                    22316379.318 8  94427857.45808     -1714.758 8        50.114
C05        44.000                                                                                                                                    39495754.797 6 205664669.77606      -544.134 6        38.201    39495756.727 7 159032960.63107      -420.634 7        42.188    39495757.603 6 167119468.37706      -442.063 6        40.195
R14        45.000    22575377.623 7 120339512.25607      2862.490 7        47.339                                                                    22575385.497 7  93597464.05907      2226.454 7        43.084
G10        47.000    25726577.609 6 135194044.10906      2147.290 6        38.532                                    25726582.054 5 105346009.20305      1673.212 5        31.094    25726582.077 6 105346010.17506      1673.543 6        36.646
C45        50.000                                                                                                                                    22036393.548 8 114749310.39608       589.975 8        50.872                                                                    22036387.299 8  93243203.24208       479.440 8        50.186
S48        51.000    77243582.221 6 405917070.71906      -490.558 6        37.796
E06        52.000    24702513.464 7 129812541.15907     -2645.174 7        46.708                                                                    24702517.869 8  96937927.97608     -1975.245 8        49.219    24702517.408 8  99466743.69508     -2026.813 8        49.216
C09        53.000                                                                                                                                    41535974.788 4 216288524.05104     -1132.763 4        29.346    41535983.828 6 167247941.91506      -875.968 6        36.605    41535978.513 5 175752077.83905      -920.651 5        30.483
C60        54.000                                                                                                                                    40973550.849 6 213360076.09506      -471.790 6        39.462                                                                    40973542.878 6 173372475.12306      -383.286 6        39.033
E31        55.000    23507095.376 8 123530624.46908      -904.166 8        48.359                                                                    23507098.454 8  92246927.35208      -675.160 8        50.927    23507097.796 8  94653365.01608      -692.732 8        50.966
C26        56.000                                                                                                                                    26059319.364 6 135697691.30206      2381.513 6        41.487                                                                    26059324.673 6 110265510.36806      1935.073 6        40.412
C02        57.000                                                                                                                                    41060930.504 5                      -520.940 5        30.491    41060934.978 6 165335202.96406      -402.867 6        36.166    41060935.179 5                      -423.669 5        30.770
I03        58.000    94298287.362 6 294261254.95406       887.031 6        36.790
C21        59.000                                                                                                                                    22956962.232 8 119542876.61508      -328.468 8        49.394                                                                    22956959.178 8  97138345.12508      -266.906 8        49.251
C22        60.000                                                                                                                                    23400619.637 8 121853079.76908     -3288.438 8        48.537                                                                    23400616.720 7  99015566.90007     -2672.078 7        47.953
> 2025 01 02 09 46 10.0000000  0 54
E24         1.000    25145558.035 7 132140911.38607      1741.653 7        46.473                                                                    25145561.031 8  98676721.21508      1300.534 8        48.795    25145560.067 8 101250885.61708      1334.423 8        49.207
G15         2.000    20265796.689 8 106497433.47908      -567.755 8        49.069                                    20265795.123 8  82984989.57008      -442.406 8        50.063    20265795.415 7  82984984.55707      -442.328 7        45.533
E15         3.000    28993080.737 6 152359627.44106     -2006.055 6        36.491                                                                    28993086.771 6 113775037.05306     -1497.983 6        39.279    28993085.488 6 116743078.79706     -1536.946 6        38.607
G19         4.000    23526475.677 7 123632589.40707      2697.459 7        42.214                                    23526476.204 4  96337105.76704      2101.909 4        29.336
S21         5.000    38533237.546 7 202493147.95707      -497.919 7        42.322
E05         6.000    23168843.186 7 121753056.56407      1265.111 7        45.586                                                                    23168846.588 8  90919465.70808       944.779 8        49.348    23168845.740 8  93291277.23308       969.411 8        49.642
E13         7.000    28772045.919 5 151198113.56305       115.367 5        30.672                                                                    28772058.855 6 112907732.53406        86.309 6        36.983    28772057.084 6 115853143.44306        88.374 6        37.543
R02         8.000    21194500.349 8 113097828.83108     -4271.038 8        50.658                                                                    21194504.392 7  87964957.15707     -3321.937 7        45.698
R20         9.000    24715637.438 5 132165658.46305     -3206.843 5        32.407                                                                    24715644.464 6 102795534.55806     -2494.386 6        40.040
G24        10.000    22103833.732 7 116156427.27707      2292.518 7        43.666                                    22103835.923 7  90511514.95607      1786.373 7        42.620    22103836.671 7  90511519.95507      1786.338 7        42.284
G30        11.000    24042378.858 6 126343440.73906     -3451.850 6        39.832                                    24042383.521 5  98449395.87605     -2689.754 5        34.486    24042384.377 6  98449403.88306     -2689.810 6        37.437
S27        12.000    39255640.352 6 206289701.95106      -530.913 6        36.567
G13        13.000    20485616.136 8 107652593.84508     -2296.691 8        49.296                                    20485614.038 6  83885105.03306     -1789.629 6        40.210
S36        14.000    38303091.620 7 201284548.24707      -498.894 7        44.707
I09        15.000    40816542.583 5 160172556.60405     -1006.361 5        30.536
E09        16.000    23787867.751 8 125006063.18708     -1538.319 8        49.026                                                                    23787870.263 8  93348669.05708     -1148.766 8        50.923    23787869.578 8  95783849.54708     -1178.694 8        51.159
G12        17.000    25290029.061 6 132900028.17806      3373.875 6        39.006                                    25290036.909 5 103558508.81605      2628.992 5        30.008    25290037.774 5 103558505.83305      2629.190 5        35.638
R21        18.000    23274494.159 7 124546576.57807      -425.001 7        44.445                                                                    23274501.097 6  96869612.87906      -330.615 6        40.663
R22        19.000    23807545.017 7 127086309.90807      2559.272 7        42.794                                                                    23807553.883 6  98844889.56706      1990.526 6        40.007
R03        21.000    19483857.691 8 104298575.40308      -385.875 8        52.643                                                                    19483857.937 7  81121104.01407      -300.107 7        47.464
I06        22.000    38256652.062 7 150127435.59007      -469.013 7        42.749
S28        23.000    40981005.914 5 215356462.46905      -508.609 5        35.281
S23        25.000    38235922.372 7 200931048.42507      -499.712 7        44.408
S45        26.000    63485483.002 6 333619666.52006      -548.702 6        36.567
C07        27.000                                                                                                                                    38917415.662 6 202653159.52906      -662.677 6        41.004    38917413.267 7 156704263.98007      -512.467 7        43.900    38917410.914 6 164672268.58506      -538.422 6        41.833
R04        28.000    21917085.380 7 117364977.83007      3099.480 7        47.178                                                                    21917088.244 7  91283846.74407      2410.665 7        43.865
C40        29.000                                                                                                                                    38955191.693 7 202849882.13607      -790.239 7        42.933                                                                    38955193.454 7 164832144.93707      -642.094 7        42.974
G17        30.000    22401967.790 7 117723250.03107       908.770 7        45.357                                    22401968.606 7  91732460.66707       708.124 7        43.481    22401968.038 7  91732457.68607       708.091 7        42.627
G14        31.000    21590856.286 7 113460697.34107     -2754.408 7        46.601                                    21590855.697 5  88410927.66805     -2146.292 5        35.929    21590856.349 7  88410913.65707     -2146.351 7        45.034
G23        32.000    23208150.920 7 121959596.66107        97.645 7        42.150                                    23208151.253 4  95033424.68604        76.087 4        29.185    23208151.369 7  95033419.70007        76.008 7        42.307
I02        33.000    37203307.782 7 145993764.91007       -87.382 7        43.194
E04        34.000    26743144.045 6 140536078.40506     -3330.720 6        40.341                                                                    26743151.297 7 104945746.42707     -2487.235 7        44.999    26743149.827 7 107683461.43707     -2552.056 7        45.440
R13        35.000    19359685.713 7 103379678.33007      -315.222 7        47.013
R12        36.000    20789185.659 8 111052058.48108     -3336.593 8        50.398                                                                    20789188.821 7  86373817.89707     -2595.177 7        46.455
C42        37.000                                                                                                                                    25678130.450 6 133712749.97006      2184.945 6        41.669                                                                    25678141.940 7 108652605.04507      1775.470 7        43.592
C10        38.000                                                                                                                                    38617144.208 6 201089600.58906      -274.857 6        41.783    38617145.274 7 155495235.23007      -212.544 7        45.150    38617142.509 6 163401760.84606      -223.341 6        41.785
C30        40.000                                                                                                                                    25439382.426 6 132469580.95106      1490.632 6        41.952                                                                    25439389.167 7 107642426.43407      1211.149 7        42.243
G05        41.000    24920972.647 6 130960367.44206     -4125.920 6        39.778                                    24920981.877 5 102046961.76005     -3214.991 5        31.525    24920982.326 6 102046970.73206     -3214.830 6        36.594
S44        42.000    40974005.029 6 215319869.91106      -476.075 6        37.376
C36        43.000                                                                                                                                    22318399.463 8 116217725.17008     -2111.518 8        49.455                                                                    22318406.232 8  94436433.58408     -1715.765 8        50.086
C05        44.000                                                                                                                                    39496276.707 6 205667389.39306      -543.835 6        38.258    39496278.994 7 159035063.62707      -420.605 7        42.305    39496279.857 6 167121678.30406      -441.986 6        40.069
R14        45.000    22572693.396 8 120325202.58408      2861.200 8        48.226                                                                    22572700.630 6  93586334.33106      2225.318 6        41.976
G10        47.000    25724535.551 6 135183311.77806      2145.541 6        38.420                                    25724539.887 5 105337646.32705      1671.852 5        31.057    25724540.071 6 105337647.33606      1671.851 6        36.302
C45        50.000                                                                                                                                    22035827.626 8 114746364.22908       588.379 8        51.043                                                                    22035821.555 8  93240809.23108       478.108 8        50.128
S48        51.000    77244046.894 6 405919523.01106      -490.590 6        37.645
E06        52.000    24705030.895 7 129825770.36007     -2646.653 7        46.695                                                                    24705035.364 8  96947806.90908     -1976.331 8        49.094    24705034.857 8  99476880.34408     -2027.935 8        49.213
C09        53.000                                                                                                                                    41537061.131 4 216294187.25104     -1132.552 4        28.995    41537071.802 6 167252321.09106      -875.960 6        36.752    41537066.362 5 175756679.64005      -920.335 5        30.657
C60        54.000                                                                                                                                    40974004.071 6 213362434.53906      -471.825 6        40.024                                                                    40973995.831 6 173374391.53206      -383.270 6        38.913
E31        55.000    23507956.444 8 123535149.59308      -906.005 8        48.179                                                                    23507959.562 8  92250306.50208      -676.591 8        50.877    23507958.886 8  94656832.31708      -694.226 8        51.018
C26        56.000                                                                                                                                    26057031.699 6 135685785.10506      2380.957 6        41.495                                                                    26057038.153 6 110255835.60506      1934.818 6        40.470
C02        57.000                                                                                                                                    41061430.968 5 213817518.76015      -520.838 5        30.362    41061435.460 6 165337217.45806      -402.938 6        36.291    41061435.526 5                      -423.155 5        30.309
I03        58.000    94297157.051 6 294256820.51406       886.920 6        36.624
C21        59.000                                                                                                                                    22957279.211 8 119544525.97208      -331.361 8        49.596                                                                    22957275.998 8  97139685.36108      -269.283 8        49.352
C22        60.000                                                                                                                                    23403777.539 8 121869526.02908     -3290.151 8        48.849                                                                    23403775.233 7  99028930.81107     -2673.429 7        47.976
> 2025 01 02 09 46 15.0000000  0 54
E24         1.000    25143901.526 7 132132206.44807      1740.468 7        46.444                                                                    25143904.493 8  98670220.79108      1299.750 8        48.739    25143903.589 8 101244215.61408      1333.619 8        49.205
G15         2.000    20266338.302 8 106500280.22808      -570.864 8        49.285                                    20266336.847 8  82987207.81108      -444.828 8        50.201    20266337.346 7  82987202.81407      -444.892 7        45.458
E15         3.000    28994990.107 6 152369661.74206     -2007.691 6        37.705                                                                    28994995.938 6 113782530.21406     -1499.264 6        40.126    28994995.162 6 116750767.42606     -1538.305 6        39.586
G19         4.000    23523909.402 7 123619104.12907      2696.731 7        42.629                                    23523909.872 4  96326597.79904      2101.347 4        29.422
S21         5.000    38533714.615 7 202495637.37707      -497.742 7        42.542
E05         6.000    23167639.605 7 121746733.51107      1264.125 7        45.701                                                                    23167643.325 8  90914743.95008       944.017 8        49.270    23167642.535 8  93286432.30308       968.571 8        49.642
E13         7.000    28771936.959 5 151197541.80705       113.763 5        31.087                                                                    28771949.962 6 112907305.59506        84.689 6        37.456    28771948.166 6 115852705.37906        86.847 6        37.860
R02         8.000    21198503.219 8 113119189.54908     -4273.062 8        50.414                                                                    21198507.479 7  87981571.03607     -3323.594 7        46.165
R20         9.000    24718639.224 4 132181700.29104     -3210.056 4        29.166                                                                    24718645.068 6 102808011.57706     -2496.209 6        37.406
G24        10.000    22101653.153 7 116144967.33507      2291.480 7        43.391                                    22101655.144 7  90502585.14607      1785.565 7        42.785    22101655.641 7  90502590.15707      1785.666 7        42.017
G30        11.000    24045663.817 6 126360701.26306     -3452.177 6        40.524                                    24045668.250 5  98462845.61705     -2690.003 5        35.114    24045669.514 6  98462853.61306     -2690.004 6        37.875
S27        12.000    39256149.003 6 206292355.03106      -530.480 6        37.002
G13        13.000    20487802.480 8 107664083.20908     -2299.016 8        49.403                                    20487800.420 6  83894057.78006     -1791.440 6        40.372
S36        14.000    38303566.221 7 201287041.76107      -498.456 7        44.694
I09        15.000    40817825.265 4 160177589.04304     -1006.398 4        29.886
E09        16.000    23789332.257 8 125013758.97308     -1539.928 8        49.120                                                                    23789334.723 8  93354415.90408     -1149.902 8        50.909    23789334.092 8  95789746.31508     -1179.903 8        51.208
G12        17.000    25286819.235 6 132883159.04806      3373.791 6        38.571                                    25286826.673 5 103545364.12405      2628.913 5        30.038    25286826.731 5 103545361.14905      2628.820 5        34.590
R21        18.000    23274893.641 7 124548711.67707      -429.009 7        43.809                                                                    23274899.603 6  96871273.48206      -333.618 6        40.241
R22        19.000    23805148.225 7 127073517.98407      2557.467 7        42.068                                                                    23805158.017 6  98834940.39506      1989.146 6        39.829
R03        21.000    19484219.978 8 104300515.27508      -390.065 8        52.721                                                                    19484220.547 7  81122612.80507      -303.348 7        47.204
I06        22.000    38257249.456 7 150129780.08407      -468.683 7        42.588
S28        23.000    40981488.487 5 215359003.27305      -507.997 5        35.133
S23        25.000    38236397.875 7 200933546.55007      -499.517 7        44.172
S45        26.000    63485962.498 6 333622409.70406      -548.074 6        36.681
C07        27.000                                                                                                                                    38918052.155 6 202656474.13906      -663.071 6        41.046    38918049.630 7 156706827.04407      -512.698 7        44.211    38918047.503 6 164674961.97206      -538.822 6        41.623
R04        28.000    21914192.664 8 117349485.75308      3097.592 8        48.423                                                                    21914195.379 7  91271797.33107      2409.157 7        43.742
C40        29.000                                                                                                                                    38955950.520 7 202853834.85307      -790.708 7        42.872                                                                    38955952.469 7 164835356.84307      -642.640 7        43.041
G17        30.000    22401104.005 7 117718712.62807       906.338 7        46.176                                    22401105.100 7  91728925.06407       706.231 7        43.791    22401104.703 7  91728922.08607       706.202 7        42.250
G14        31.000    21593477.816 7 113474473.86407     -2756.018 7        46.555                                    21593477.342 6  88421662.60406     -2147.541 6        36.068    21593477.898 7  88421648.59907     -2147.667 7        44.704
G23        32.000    23208058.969 7 121959116.47607        94.498 7        42.686                                    23208059.885 4  95033050.51704        73.637 4        29.270    23208059.948 6  95033045.49406        73.687 6        41.628
I02        33.000    37203418.896 7 145994202.05407       -87.364 7        43.081
E04        34.000    26746313.052 6 140552733.30506     -3331.052 6        40.033                                                                    26746320.574 7 104958183.48607     -2487.492 7        44.805    26746319.020 7 107696222.94807     -2552.389 7        45.305
R13        35.000    19359981.736 7 103381261.16807      -317.818 7        46.845
R12        36.000    20792309.126 8 111068744.59808     -3337.743 8        50.143                                                                    20792312.871 7  86386795.98407     -2596.008 7        46.442
C42        37.000                                                                                                                                    25676033.044 6 133701828.76206      2183.755 6        41.633                                                                    25676044.683 7 108643730.68307      1774.325 7        43.490
C10        38.000                                                                                                                                    38617407.765 6 201090975.90506      -275.102 6        41.805    38617409.377 7 155496298.71207      -212.838 7        45.070    38617406.528 6 163402878.41606      -223.717 6        41.790
C30        40.000                                                                                                                                    25437951.674 6 132462131.76806      1489.166 6        41.230                                                                    25437958.616 7 107636373.34407      1210.003 7        42.133
G05        41.000    24924897.803 6 130980996.01006     -4125.411 6        39.192                                    24924907.707 5 102063035.88205     -3214.585 5        31.894    24924908.456 6 102063044.84806     -3214.658 6        36.624
S44        42.000    40974457.567 6 215322249.38006      -475.636 6        37.021
C36        43.000                                                                                                                                    22320427.201 8 116228285.34308     -2112.436 8        49.358                                                                    22320434.169 8  94445014.58708     -1716.656 8        50.039
C05        44.000                                                                                                                                    39496799.109 6 205670108.49906      -543.510 6        38.042    39496801.217 7 159037166.22107      -420.294 7        42.718    39496802.004 6 167123887.82006      -441.851 6        40.088
R14        45.000    22570010.274 7 120310899.26007      2860.164 7        47.396                                                                    22570017.905 7  93575209.53907      2224.640 7        42.866
G10        47.000    25722494.925 6 135172588.84806      2144.026 6        37.834                                    25722499.378 5 105329290.75405      1670.666 5        31.094    25722499.390 6 105329291.76306      1670.557 6        36.185
C45        50.000                                                                                                                                    22035263.285 8 114743425.92908       587.081 8        51.083                                                                    22035257.244 8  93238421.63508       476.921 8        50.091
S48        51.000    77244527.907 6 405921974.90506      -489.931 6        38.267
E06        52.000    24707549.683 7 129839006.34007     -2647.689 7        46.855                                                                    24707554.158 8  96957690.91108     -1977.160 8        49.066    24707553.520 8  99487022.19008     -2028.812 8        49.241
C09        53.000                                                                                                                                    41538149.486 4 216299850.50704     -1131.735 4        29.659    41538159.344 6 167256700.27306      -875.708 6        36.881    41538154.695 5 175761281.51205      -920.547 5        31.525
C60        54.000                                                                                                                                    40974457.408 6 213364792.39606      -471.274 6        39.874                                                                    40974448.610 6 173376307.47806      -382.972 6        38.820
E31        55.000    23508819.408 8 123539684.02308      -907.601 8        48.454                                                                    23508822.442 8  92253692.59808      -677.745 8        50.883    23508821.789 8  94660306.74908      -695.439 8        50.984
C26        56.000                                                                                                                                    26054745.269 6 135673880.91606      2380.751 6        41.833                                                                    26054752.254 6 110246162.49806      1934.501 6        40.632
C02        57.000                                                                                                                                    41061930.609 5 213820123.25105      -520.691 5        30.483    41061935.906 6 165339231.45006      -402.729 6        36.510    41061935.405 5                      -423.328 5        31.087
I03        58.000    94296027.177 6 294252385.57906       887.026 6        36.854
C21        59.000                                                                                                                                    22957598.809 8 119546189.51608      -333.950 8        49.684                                                                    22957595.438 8  97141037.13808      -271.482 8        49.281
C22        60.000                                                                                                                                    23406937.548 8 121885980.46908     -3291.477 8        48.915                                                                    23406935.149 7  99042301.38407     -2674.747 7        47.933
> 2025 01 02 09 46 20.0000000  0 54
E24         1.000    25142246.473 7 132123508.57007      1738.710 7        46.502                                                                    25142249.297 8  98663725.63808      1298.396 8        48.557    25142248.470 8 101237551.02108      1332.285 8        49.235
G15         2.000    20266883.458 8 106503144.51608      -574.711 8        49.129                                    20266881.906 8  82989439.71708      -447.824 8        50.109    20266882.474 7  82989434.71007      -447.799 7        45.549
E15         3.000    28996901.283 6 152379705.79106     -2010.097 6        37.641                                                                    28996907.161 6 113790030.64006     -1500.905 6        39.054    28996906.567 6 116758463.52106     -1540.032 6        39.733
G19         4.000    23521344.518 7 123605624.06807      2695.440 7        42.502                                    23521344.690 4  96316093.88704      2100.335 4        29.744
S21         5.000    38534188.598 7 202498126.94407      -498.013 7        42.614
E05         6.000    23166437.910 7 121740417.30907      1262.346 7        45.676                                                                    23166441.383 8  90910027.30108       942.710 8        49.129    23166440.609 8  93281592.60408       967.331 8        49.694
E13         7.000    28771830.306 5 151196981.83405       110.572 5        31.487                                                                    28771843.443 6 112906887.44506        82.601 6        37.773    28771841.769 6 115852276.30606        84.817 6        38.225
R02         8.000    21202508.020 8 113140562.76108     -4276.006 8        50.644                                                                    21202513.285 7  87998194.61107     -3325.799 7        46.422
R20         9.000    24721641.154 4 132197756.63504     -3212.972 4        29.346                                                                    24721647.079 6 102820499.90806     -2498.898 6        36.794
G24        10.000    22099473.353 7 116133513.80707      2289.928 7        43.585                                    22099475.594 7  90493660.33307      1784.361 7        42.734    22099475.695 6  90493665.33306      1784.427 6        41.814
G30        11.000    24048948.433 6 126377964.72406     -3453.265 6        40.176                                    24048953.609 5  98476297.64505     -2690.847 5        35.595    24048954.819 6  98476305.62806     -2690.782 6        38.568
S27        12.000    39256659.001 6 206295007.91706      -530.745 6        36.548
G13        13.000    20489991.495 8 107675585.67908     -2301.957 8        49.383                                    20489989.288 6  83903020.73606     -1793.732 6        40.279
S36        14.000    38304040.490 7 201289534.65807      -498.657 7        44.778
I09        15.000    40819107.664 5 160182621.03705     -1006.216 5        30.113
E09        16.000    23790798.389 8 125021464.20608     -1542.097 8        49.121                                                                    23790801.009 8  93360169.80908     -1151.616 8        50.698    23790800.321 8  95795650.32408     -1181.624 8        51.170
G12        17.000    25283609.669 6 132866291.51306      3373.070 6        38.276                                    25283616.835 5 103532220.66805      2628.342 5        30.015    25283617.823 5 103532217.69305      2628.436 5        34.886
R21        18.000    23275295.963 7 124550868.41607      -433.676 7        43.503                                                                    23275303.153 6  96872950.97106      -337.409 6        40.222
R22        19.000    23802753.106 6 127060736.63506      2555.021 6        41.585                                                                    23802762.932 6  98824999.41406      1987.349 6        39.973
R03        21.000    19484586.664 8 104302477.77108      -394.857 8        52.646                                                                    19484587.204 7  81124139.18307      -307.134 7        47.751
I06        22.000    38257846.971 7 150132124.62607      -468.915 7        42.417
S28        23.000    40981972.589 5 215361543.73605      -508.126 5        34.995
S23        25.000    38236871.112 7 200936044.60207      -499.804 7        44.069
S45        26.000    63486435.873 6 333623452.84716      -548.836 6        36.386
C07        27.000                                                                                                                                    38918688.679 6 202659792.05806      -664.259 6        41.108    38918687.072 7 156709392.66307      -513.557 7        44.266    38918684.649 6 164677658.06306      -539.485 6        41.802
R04        28.000    21911302.121 7 117334004.72107      3095.011 7        47.925                                                                    21911303.495 7  91259756.53107      2407.155 7        43.621
C40        29.000                                                                                                                                    38956710.677 7 202857791.83107      -792.016 7        42.912                                                                    38956712.491 7 164838572.19207      -643.437 7        43.118
G17        30.000    22400243.429 7 117714189.06907       903.178 7        46.029                                    22400244.259 7  91725400.24907       703.769 7        43.746    22400243.925 7  91725397.26707       703.691 7        42.550
G14        31.000    21596101.152 7 113488260.01607     -2758.288 7        46.611                                    21596100.785 5  88432405.04705     -2149.310 5        35.933    21596101.165 7  88432391.04707     -2149.392 7        44.876
G23        32.000    23207971.062 7 121958652.96507        90.922 7        42.392                                    23207971.691 4  95032689.33704        70.846 4        29.270    23207972.261 6  95032684.33806        70.879 6        41.747
I02        33.000    37203530.889 7 145994640.43007       -87.830 7        43.251
E04        34.000    26749483.452 6 140569392.02406     -3332.350 6        40.627                                                                    26749490.592 7 104970623.39507     -2488.406 7        44.388    26749489.178 7 107708987.38307     -2553.319 7        45.287
R13        35.000    19360280.995 7 103382858.55607      -320.971 7        47.140
R12        36.000    20795434.226 8 111085437.97608     -3339.509 8        50.406                                                                    20795437.887 7  86399779.70207     -2597.390 7        46.864
C42        37.000                                                                                                                                    25673937.202 6 133690915.42506      2181.761 6        41.900                                                                    25673948.896 7 108634862.71307      1772.941 7        43.736
C10        38.000                                                                                                                                    38617672.608 6 201092354.59906      -276.218 6        41.733    38617674.007 7 155497364.80007      -213.575 7        45.147    38617671.311 6 163403998.71106      -224.315 6        41.983
C30        40.000                                                                                                                                    25436523.264 6 132454691.48306      1487.026 6        41.940                                                                    25436529.631 7 107630327.48707      1208.415 7        42.019
G05        41.000    24928823.500 6 131001624.26106     -4125.604 6        38.414                                    24928833.362 5 102079109.75905     -3214.737 5        31.472    24928833.902 6 102079118.71806     -3214.720 6        36.877
S44        42.000    40974910.842 6 215324628.65006      -475.919 6        37.055
C36        43.000                                                                                                                                    22322456.229 8 116238851.83308     -2114.108 8        49.470                                                                    22322463.402 8  94453600.71408     -1717.754 8        50.149
C05        44.000                                                                                                                                    39497321.547 6 205672827.46306      -543.931 6        38.264    39497323.427 7 159039268.70107      -420.584 7        42.538    39497324.272 6 167126097.19906      -441.884 6        40.288
R14        45.000    22567328.219 8 120296602.66708      2858.584 8        48.084                                                                    22567334.892 7  93564090.00507      2223.430 7        42.080
G10        47.000    25720456.682 6 135161875.83706      2141.307 6        37.909                                    25720460.832 5 105320942.94605      1668.548 5        31.034    25720460.672 6 105320943.96206      1668.582 6        36.049
C45        50.000                                                                                                                                    22034700.594 8 114740495.88108       585.037 8        51.127                                                                    22034694.565 8  93236040.73008       475.476 8        50.227
S48        51.000    77244988.319 6 405924426.40206      -490.341 6        37.784
E06        52.000    24710069.604 7 129852249.46707     -2649.453 7        46.556                                                                    24710074.338 8  96967580.24808     -1978.551 8        48.933    24710073.483 8  99497169.51208     -2030.137 8        49.224
C09        53.000                                                                                                                                    41539237.882 4 216305514.22704     -1133.086 4        29.507    41539247.475 6 167261079.76406      -876.162 6        36.885    41539242.209 5 175765883.67105      -920.220 5        31.774
C60        54.000                                                                                                                                    40974909.883 6 213367150.03006      -471.574 6        39.700                                                                    40974901.227 6 173378223.24306      -383.214 6        38.637
E31        55.000    23509684.164 8 123544228.13308      -909.913 8        48.580                                                                    23509687.128 8  92257085.92708      -679.469 8        50.625    23509686.495 8  94663788.59908      -697.168 8        51.029
C26        56.000                                                                                                                                    26052459.179 6 135661979.09106      2380.014 6        41.466                                                                    26052466.754 6 110236491.31206      1934.009 6        40.749
C02        57.000                                                                                                                                    41062430.702 5 213822727.50305      -520.801 5        31.102    41062435.641 6 165341245.23606      -402.640 6        36.340    41062435.887 5                      -423.552 5        30.958
I03        58.000    94294896.154 6 294247950.36306       887.021 6        36.582
C21        59.000                                                                                                                                    22957920.852 8 119547867.62808      -337.227 8        49.781                                                                    22957917.736 8  97142400.73808      -273.935 8        49.425
C22        60.000                                                                                                                                    23410099.120 8 121902443.46708     -3293.510 8        48.674                                                                    23410096.631 8  99055678.90208     -2676.209 8        48.066
> 2025 01 02 09 46 25.0000000  0 54
E24         1.000    25140592.575 7 132114818.11907      1737.589 7        46.466                                                                    25140595.543 8  98657236.04408      1297.516 8        48.490    25140594.736 8 101230892.13108      1331.330 8        49.085
G15         2.000    20267431.807 8 106506026.63508      -577.973 8        49.349                                    20267430.364 8  82991685.51608      -450.368 8        50.026    20267430.452 7  82991680.51407      -450.388 7        45.830
E15         3.000    28998814.539 6 152389759.77606     -2011.511 6        37.043                                                                    28998820.400 6 113797538.52706     -1502.303 6        39.408    28998819.941 6 116766167.24606     -1541.320 6        40.451
G19         4.000    23518779.797 7 123592149.65007      2694.507 7        42.209                                    23518780.617 4  96305594.37504      2099.611 4        29.754
S21         5.000    38534662.679 7 202500616.79807      -497.761 7        42.844
E05         6.000    23165237.474 7 121734108.23607      1261.367 7        45.753                                                                    23165240.835 8  90905315.98708       941.900 8        49.143    23165240.061 8  93276758.38908       966.454 8        49.555
E13         7.000    28771726.500 5 151196433.97305       108.488 5        31.419                                                                    28771739.167 6 112906478.31606        81.090 6        38.165    28771737.300 6 115851856.51606        83.080 6        38.231
R02         8.000    21206516.205 8 113161948.31908     -4278.204 8        50.276                                                                    21206520.216 7  88014827.80207     -3327.490 7        45.679
R20         9.000    24724646.755 5 132213827.94405     -3215.443 5        30.868                                                                    24724652.985 6 102832999.83706     -2500.824 6        37.822
G24        10.000    22097295.429 7 116122067.04607      2288.899 7        43.318                                    22097297.306 7  90484740.79307      1783.557 7        42.618    22097297.948 7  90484745.80607      1783.525 7        42.089
G30        11.000    24052234.058 6 126395231.42006     -3453.374 6        40.021                                    24052239.644 5  98489752.19505     -2690.936 5        35.648    24052240.248 6  98489760.19506     -2691.037 6        38.706
S27        12.000    39257154.689 6 206297660.98406      -530.534 6        36.779
G13        13.000    20492182.634 8 107687101.55408     -2304.261 8        49.296                                    20492180.678 6  83911994.13706     -1795.527 6        40.155
S36        14.000    38304515.774 7 201292027.41907      -498.295 7        44.773
I09        15.000    40820390.544 4 160187652.79604     -1006.281 4        29.829
E09        16.000    23792266.621 8 125029179.20308     -1543.738 8        49.065                                                                    23792269.132 8  93365931.00408     -1152.802 8        50.705    23792268.439 8  95801561.81008     -1182.869 8        51.052
G12        17.000    25280400.528 6 132849425.86406      3373.186 6        38.838                                    25280407.354 4 103519078.67004      2628.443 4        29.839    25280408.015 5 103519075.68005      2628.490 5        34.867
R21        18.000    23275703.515 7 124553047.00007      -437.708 7        44.096                                                                    23275709.914 6  96874645.40206      -340.433 6        40.238
R22        19.000    23800361.383 7 127047966.22807      2553.264 7        42.025                                                                    23800370.419 6  98815067.02106      1985.649 6        40.584
R03        21.000    19484957.571 8 104304463.01408      -399.120 8        52.772                                                                    19484958.032 7  81125683.25507      -310.416 7        47.672
I06        22.000    38258444.634 7 150134469.44807      -468.709 7        42.320
S28        23.000    40982455.131 5 215364084.68805      -507.794 5        35.114
S23        25.000    38237347.424 7 200938542.98907      -499.451 7        44.284
S45        26.000    63486909.888 6 333626196.26206      -548.644 6        36.295
C07        27.000                                                                                                                                    38919326.469 6 202663113.68406      -664.447 6        40.539    38919325.139 7 156711961.15707      -513.772 7        44.397    38919322.570 6 164680357.13606      -539.873 6        41.797
R04        28.000    21908412.574 7 117318535.36907      3092.877 7        47.790                                                                    21908414.659 7  91247724.82807      2405.629 7        43.818
C40        29.000                                                                                                                                    38957471.505 7 202861753.36607      -792.521 7        42.781                                                                    38957473.273 7 164841791.23007      -643.865 7        43.058
G17        30.000    22399385.043 7 117709679.67107       900.695 7        45.344                                    22399386.137 7  91721886.46907       701.834 7        43.674    22399385.958 7  91721883.48907       701.774 7        42.808
G14        31.000    21598726.574 7 113502056.10607     -2760.013 7        46.237                                    21598726.141 5  88443155.22905     -2150.654 5        35.824    21598726.708 7  88443141.21607     -2150.596 7        45.231
G23        32.000    23207885.946 7 121958206.50607        87.822 7        42.995                                    23207886.784 4  95032341.44604        68.437 4        29.014    23207887.307 7  95032336.43907        68.427 7        42.258
I02        33.000    37203642.594 7 145995080.15607       -88.148 7        43.340
E04        34.000    26752654.492 6 140586054.87006     -3332.875 6        40.532                                                                    26752661.489 7 104983066.38507     -2488.762 7        44.339    26752660.292 7 107721754.97307     -2553.739 7        45.220
R13        35.000    19360583.046 7 103384470.58207      -323.716 7        46.793
R12        36.000    20798560.953 8 111102138.84708     -3340.692 8        50.196                                                                    20798564.397 7  86412769.26207     -2598.378 7        46.760
C42        37.000                                                                                                                                    25671842.728 6 133680010.27906      2180.466 6        41.673                                                                    25671854.517 7 108626001.36707      1771.819 7        43.556
C10        38.000                                                                                                                                    38617938.636 6 201093736.96406      -276.667 6        41.728    38617939.584 7 155498433.71907      -213.874 7        45.014    38617936.841 6 163405121.96306      -224.738 6        41.785
C30        40.000                                                                                                                                    25435096.819 7 132447260.42507      1485.431 7        42.506                                                                    25435102.585 6 107624289.10206      1207.144 6        41.859
G05        41.000    24932748.429 6 131022252.38706     -4125.390 6        38.856                                    24932758.919 5 102095183.53005     -3214.563 5        31.049    24932758.984 6 102095192.47906     -3214.582 6        36.484
S44        42.000    40975359.833 6 215327008.00906      -475.689 6        37.671
C36        43.000                                                                                                                                    22324486.860 8 116249424.95608     -2115.081 8        49.358                                                                    22324493.850 8  94462192.21808     -1718.613 8        50.144
C05        44.000                                                                                                                                    39497843.819 6 205675546.56006      -543.702 6        38.267    39497845.592 7 159041371.29807      -420.318 7        42.428    39497846.463 6 167128306.67506      -441.568 6        40.405
R14        45.000    22564647.479 8 120282313.04008      2857.416 8        48.162                                                                    22564654.757 7  93552975.87507      2222.386 7        42.950
G10        47.000    25718420.066 6 135151172.88006      2139.785 6        38.925                                    25718424.098 5 105312602.95705      1667.368 5        31.109    25718424.057 5 105312603.95305      1667.255 5        35.495
C45        50.000                                                                                                                                    22034139.590 8 114737574.38508       583.616 8        50.935                                                                    22034133.513 8  93233666.74708       474.346 8        50.183
S48        51.000    77245463.281 6 405926878.64006      -490.202 6        38.246
E06        52.000    24712591.157 7 129865500.05007     -2650.619 7        46.416                                                                    24712595.829 8  96977475.14908     -1979.387 8        48.926    24712594.873 8  99507322.54208     -2031.015 8        49.019
C09        53.000                                                                                                                                    41540323.520 4 216311178.56204     -1132.406 4        29.611    41540334.703 6 167265459.78306      -875.824 6        36.907    41540329.543 5 175770486.45305      -920.408 5        32.072
C60        54.000                                                                                                                                    40975362.697 6 213369507.74406      -471.227 6        39.673                                                                    40975354.122 6 173380139.02806      -382.731 6        39.027
E31        55.000    23510550.696 8 123548782.21808      -911.616 8        48.267                                                                    23510553.748 8  92260486.70808      -680.701 8        50.610    23510553.119 8  94667278.09708      -698.527 8        50.872
C26        56.000                                                                                                                                    26050173.743 6 135650079.96706      2379.786 6        41.130                                                                    26050181.590 6 110226822.27606      1933.875 6        40.679
C02        57.000                                                                                                                                    41062931.502 5 213825331.87305      -520.565 5        30.762    41062935.783 6 165343259.13406      -402.596 6        36.359    41062935.859 5                      -422.757 5        30.875
I03        58.000    94293766.561 6 294243515.15006       887.115 6        36.567
C21        59.000                                                                                                                                    22958245.971 8 119549560.60208      -339.861 8        49.651                                                                    22958242.774 8  97143776.39108      -276.112 8        49.422
C22        60.000                                                                                                                                    23413262.416 8 121918915.32808     -3295.009 8        48.570                                                                    23413259.912 8  99069063.58908     -2677.374 8        48.049
> 2025 01 02 09 46 30.0000000  0 54
E24         1.000    25138940.092 7 132106134.43407      1735.919 7        46.209                                                                    25138943.084 8  98650751.48608      1296.247 8        48.593    25138942.240 8 101224238.40208      1330.135 8        49.163
G15         2.000    20267983.319 8 106508925.98508      -581.668 8        49.203                                    20267982.096 8  82993944.74808      -453.244 8        49.999    20267982.411 7  82993939.74007      -453.265 7        45.937
E15         3.000    29000728.901 5 152399823.20305     -2013.763 5        35.429                                                                    29000735.812 6 113805053.42606     -1503.851 6        39.303    29000734.331 6 116773878.20506     -1543.052 6        40.112
G19         4.000    23516216.738 6 123578680.19506      2693.412 6        41.676                                    23516217.452 4  96295098.73504      2098.752 4        29.517
S21         5.000    38535134.167 7 202503106.09707      -497.953 7        42.643
E05         6.000    23164038.068 7 121727805.70807      1259.739 7        45.570                                                                    23164041.499 8  90900609.54308       940.739 8        49.130    23164040.687 8  93271929.17008       965.238 8        49.633
E13         7.000    28771624.083 5 151195897.56205       106.269 5        31.140                                                                    28771637.220 6 112906077.75706        79.077 6        38.640    28771635.433 6 115851445.49906        81.276 6        38.721
R02         8.000    21210526.156 8 113183346.12108     -4280.772 8        50.707                                                                    21210529.630 7  88031470.51207     -3329.533 7        45.434
R20         9.000    24727657.170 5 132229913.50205     -3218.867 5        31.162                                                                    24727660.923 6 102845510.82806     -2503.354 6        38.799
G24        10.000    22095118.234 7 116110626.40907      2287.448 7        43.585                                    22095120.212 7  90475826.02107      1782.423 7        42.669    22095120.830 7  90475831.03307      1782.451 7        42.417
G30        11.000    24055520.487 6 126412500.74006     -3454.190 6        40.064                                    24055526.045 5  98503208.78605     -2691.568 5        35.548    24055526.274 6  98503216.77406     -2691.888 6        38.802
S27        12.000    39257663.149 6 206300314.08506      -530.535 6        36.684
G13        13.000    20494376.414 8 107698630.20708     -2307.124 8        49.563                                    20494374.488 6  83920977.49706     -1797.759 6        40.169
S36        14.000    38304989.068 7 201294519.80907      -498.420 7        44.600
I09        15.000    40821670.265 4 160192683.79904     -1006.283 4        29.498
E09        16.000    23793736.686 8 125036903.31508     -1545.828 8        48.706                                                                    23793738.943 8  93371698.99708     -1154.382 8        50.669    23793738.310 8  95807480.27708     -1184.516 8        51.150
G12        17.000    25277190.907 6 132832561.45706      3372.556 6        38.474                                    25277198.183 4 103505937.64904      2627.956 4        29.659    25277198.751 5 103505934.69305      2627.942 5        35.176
R21        18.000    23276114.283 7 124555246.95807      -442.308 7        43.700                                                                    23276121.695 6  96876356.45106      -343.999 6        40.663
R22        19.000    23797971.188 7 127035206.17907      2550.840 7        42.442                                                                    23797979.854 6  98805142.61406      1983.904 6        40.124
R03        21.000    19485332.464 8 104306470.45608      -403.790 8        52.339                                                                    19485332.426 7  81127244.59007      -314.125 7        47.402
I06        22.000    38259042.215 7 150136814.04607      -468.875 7        42.698
S28        23.000    40982938.437 5 215366625.11705      -508.150 5        35.167
S23        25.000    38237825.584 7 200941041.15707      -499.730 7        44.278
S45        26.000    63487384.340 6 333628939.37706      -548.688 6        36.318
C07        27.000                                                                                                                                    38919965.023 6 202666438.31806      -665.338 6        40.579    38919963.414 7 156714531.97407      -514.480 7        44.281    38919961.085 6 164683058.69006      -540.551 6        41.869
R04        28.000    21905525.823 8 117303076.72608      3090.536 8        48.817                                                                    21905528.341 7  91235701.45407      2403.780 7        44.110
C40        29.000                                                                                                                                    38958232.677 7 202865718.82707      -793.597 7        43.105                                                                    38958234.696 7 164845013.50107      -644.788 7        43.316
G17        30.000    22398529.048 7 117705183.80407       897.736 7        45.725                                    22398530.555 7  91718383.23407       699.527 7        43.625    22398530.019 7  91718380.25707       699.427 7        43.010
G14        31.000    21601353.540 7 113515861.50607     -2762.155 7        45.890                                    21601353.287 5  88453912.67205     -2152.327 5        35.819    21601353.574 7  88453898.65607     -2152.321 7        45.320
G23        32.000    23207803.997 7 121957776.43107        84.274 7        42.599                                    23207804.926 4  95032006.31904        65.664 4        29.090    23207805.341 7  95032001.31707        65.802 7        42.406
I02        33.000    37203754.885 7 145995520.82007       -88.317 7        43.139
E04        34.000    26755825.841 6 140602721.16306     -3333.757 6        40.417                                                                    26755833.149 7 104995511.95907     -2489.457 7        44.354    26755831.764 7 107734525.21507     -2554.399 7        45.400
R13        35.000    19360887.373 7 103386096.54907      -326.719 7        47.009
R12        36.000    20801688.279 8 111118846.45508     -3342.333 8        50.358                                                                    20801691.476 7  86425764.04907     -2599.497 7        46.449
C42        37.000                                                                                                                                    25669749.901 6 133669112.72006      2178.666 6        41.287                                                                    25669761.556 7 108617146.22207      1770.318 7        43.867
C10        38.000                                                                                                                                    38618204.588 6 201095122.38006      -277.533 6        41.797    38618205.613 7 155499505.01307      -214.616 7        44.844    38618202.785 7 163406247.74507      -225.435 7        42.027
C30        40.000                                                                                                                                    25433671.491 7 132439837.97007      1483.577 7        42.783                                                                    25433677.358 7 107618257.75307      1205.549 7        42.201
G05        41.000    24936674.102 6 131042879.87106     -4125.618 6        39.153                                    24936684.261 5 102111256.81005     -3214.746 5        31.109    24936685.056 6 102111265.78406     -3214.718 6        36.696
S44        42.000    40975813.823 6 215329386.79606      -475.775 6        37.803
C36        43.000                                                                                                                                    22326518.602 8 116260004.07908     -2116.574 8        49.250                                                                    22326525.438 8  94470788.63208     -1719.874 8        50.343
C05        44.000                                                                                                                                    39498365.796 6 205678265.19106      -543.744 6        38.099    39498367.622 7 159043473.52607      -420.546 7        42.362    39498368.494 6 167130515.82406      -441.874 6        40.403
R14        45.000    22561967.776 8 120268029.73708      2855.845 8        48.268                                                                    22561975.528 7  93541866.67807      2221.247 7        42.963
G10        47.000    25716384.728 6 135140479.45906      2137.637 6        39.069                                    25716389.161 5 105304270.40905      1665.693 5        31.306    25716389.758 6 105304271.41906      1665.546 6        36.178
C45        50.000                                                                                                                                    22033579.953 8 114734660.81008       581.811 8        51.009                                                                    22033573.969 8  93231299.25508       472.748 8        50.389
S48        51.000    77245932.126 6 405929329.83006      -490.246 6        37.871
E06        52.000    24715114.113 7 129878757.45407     -2652.270 7        46.219                                                                    24715118.620 8  96987375.13608     -1980.612 8        48.955    24715117.771 8  99517480.79008     -2032.256 8        49.107
C09        53.000                                                                                                                                    41541412.232 4 216316843.02604     -1132.795 4        29.602    41541423.058 6 167269839.87906      -876.046 6        37.376    41541417.632 5 175775089.28705      -920.830 5        32.251
C60        54.000                                                                                                                                    40975815.114 6 213371864.91406      -471.350 6        39.595                                                                    40975806.910 6 173382054.44206      -383.077 6        39.351
E31        55.000    23511419.017 8 123553345.64108      -913.722 8        48.238                                                                    23511422.138 8  92263894.45508      -682.367 8        50.625    23511421.527 8  94670774.73708      -700.128 8        50.933
C26        56.000                                                                                                                                    26047889.411 6 135638182.89406      2379.047 6        40.872                                                                    26047896.837 6 110217154.95706      1933.140 6        40.958
C02        57.000                                                                                                                                    41063431.344 5 213827935.66705      -520.622 5        31.042    41063435.679 6 165345272.61706      -402.891 6        36.287    41063435.554 5                      -423.723 5        30.740
I03        58.000    94292635.792 6 294239079.45406       887.191 6        36.427
C21        59.000                                                                                                                                    22958573.794 8 119551267.80708      -342.971 8        49.528                                                                    22958570.638 8  97145163.65508      -278.685 8        49.595
C22        60.000                                                                                                                                    23416427.097 8 121935395.39408     -3296.980 8        48.365                                                                    23416424.815 8  99082454.99408     -2679.034 8        48.259
> 2025 01 02 09 46 35.0000000  0 54
E24         1.000    25137288.707 7 132097457.91307      1734.469 7        46.137                                                                    25137291.938 8  98644272.27508      1295.239 8        48.662    25137291.068 8 101217590.17108      1329.023 8        49.189
G15         2.000    20268538.824 8 106511842.97008      -585.227 8        49.093                                    20268537.167 8  82996217.71608      -456.019 8        49.944    20268537.424 7  82996212.70807      -456.048 7        46.149
E15         3.000    29002646.209 5 152409896.37105     -2015.762 5        35.171                                                                    29002652.464 6 113812575.61606     -1505.259 6        38.868    29002651.365 6 116781596.59806     -1544.476 6        40.188
G19         4.000    23513655.224 6 123565216.12106      2692.302 6        41.518                                    23513655.404 4  96284607.28704      2097.886 4        29.431
S21         5.000    38535608.942 7 202505595.33007      -498.008 7        42.682
E05         6.000    23162839.983 7 121721510.09107      1258.380 7        45.369                                                                    23162843.457 8  90895908.27508       939.649 8        49.185    23162842.685 8  93267105.25808       964.212 8        49.705
E13         7.000    28771524.042 5 151195373.04005       103.685 5        31.343                                                                    28771537.374 6 112905686.05306        77.552 6        38.477    28771535.586 6 115851043.59706        79.329 6        38.997
R02         8.000    21214537.919 8 113204756.18508     -4283.441 8        50.013                                                                    21214542.431 7  88048122.75707     -3331.575 7        45.524
R20         9.000    24730664.290 5 132246013.69305     -3221.474 5        30.943                                                                    24730671.725 6 102858033.26906     -2505.785 6        38.141
G24        10.000    22092942.119 7 116099192.31807      2286.083 7        43.845                                    22092944.356 7  90466916.35207      1781.362 7        42.624    22092944.864 7  90466921.36407      1781.262 7        42.567
G30        11.000    24058807.039 6 126429773.09206     -3454.920 6        40.386                                    24058812.956 5  98516667.73105     -2692.142 5        35.281    24058812.680 6  98516675.72406     -2692.195 6        38.628
S27        12.000    39258172.426 6 206302966.95206      -530.595 6        37.074
G13        13.000    20496572.963 8 107710172.06008     -2309.811 8        49.372                                    20496570.819 6  83929971.14306     -1799.852 6        40.119
S36        14.000    38305463.476 7 201297012.18507      -498.654 7        44.733
I09        15.000    40822953.563 4 160197714.37504     -1006.089 4        29.583
E09        16.000    23795208.363 8 125044636.95808     -1547.803 8        48.674                                                                    23795210.677 8  93377474.11408     -1155.857 8        50.722    23795209.966 8  95813406.04308     -1185.975 8        51.154
G12        17.000    25273981.621 6 132815698.74306      3372.272 6        38.925                                    25273989.284 4 103492797.93904      2627.727 4        29.460    25273990.699 5 103492794.98405      2627.711 5        35.833
R21        18.000    23276529.720 7 124557468.46107      -446.526 7        44.233                                                                    23276535.878 6  96878084.26106      -347.253 6        38.541
R22        19.000    23795583.507 7 127022456.84007      2548.770 7        42.178                                                                    23795591.212 6  98795226.55406      1982.236 6        40.157
R03        21.000    19485711.577 8 104308500.31108      -408.375 8        52.423                                                                    19485712.116 7  81128823.36707      -317.613 7        47.609
I06        22.000    38259639.582 7 150139158.76507      -469.168 7        42.531
S28        23.000    40983423.434 5 215369165.69705      -508.315 5        35.181
S23        25.000    38238303.301 7 200943539.49007      -499.748 7        44.582
S45        26.000    63487865.156 6 333631682.55506      -548.815 6        36.696
C07        27.000                                                                                                                                    38920604.227 6 202669766.40306      -666.023 6        40.641    38920602.619 7 156717105.46407      -515.058 7        44.354    38920600.137 6 164685763.04206      -541.006 6        41.809
R04        28.000    21902642.441 8 117287629.52508      3088.203 8        48.339                                                                    21902643.689 7  91223686.94007      2401.926 7        44.593
C40        29.000                                                                                                                                    38958995.060 7 202869688.61007      -794.453 7        43.001                                                                    38958997.132 7 164848239.27407      -645.449 7        43.115
G17        30.000    22397676.745 7 117700701.92107       894.909 7        46.338                                    22397677.624 7  91714890.89707       697.325 7        43.630    22397677.181 7  91714887.90707       697.318 7        42.480
G14        31.000    21603982.626 7 113529676.57007     -2764.028 7        46.175                                    21603982.203 5  88464677.63705     -2153.784 5        35.686    21603982.372 7  88464663.63707     -2153.834 7        45.062
G23        32.000    23207725.580 7 121957363.13307        80.939 7        42.603                                    23207726.297 4  95031684.26604        63.071 4        29.071    23207726.432 7  95031679.27607        62.966 7        42.377
I02        33.000    37203867.526 7 145995962.60407       -88.729 7        43.081
E04        34.000    26758998.047 6 140619391.33606     -3334.589 6        40.570                                                                    26759005.266 7 105007960.43907     -2490.076 7        44.506    26759003.956 7 107747298.43707     -2554.981 7        45.430
R13        35.000    19361194.419 7 103387737.03007      -329.600 7        46.762
R12        36.000    20804817.304 8 111135561.30108     -3343.802 8        50.281                                                                    20804820.821 7  86438764.47507     -2600.796 7        46.726
C42        37.000                                                                                                                                    25667658.648 6 133658223.14106      2177.004 6        41.616                                                                    25667670.398 7 108608297.54007      1769.139 7        43.611
C10        38.000                                                                                                                                    38618471.357 6 201096511.27806      -278.267 6        41.747    38618472.034 7 155500579.00007      -215.172 7        44.977    38618469.554 6 163407376.34806      -226.000 6        41.979
C30        40.000                                                                                                                                    25432247.232 7 132432424.54307      1481.665 7        42.974                                                                    25432253.814 6 107612233.69906      1204.173 6        41.671
G05        41.000    24940599.279 6 131063507.03406     -4125.543 6        40.012                                    24940609.590 5 102127329.82505     -3214.690 5        31.298    24940610.398 6 102127338.80806     -3214.768 6        36.605
S44        42.000    40976267.272 6 215331765.44406      -475.819 6        37.637
C36        43.000                                                                                                                                    22328551.301 8 116270589.60408     -2117.849 8        49.119                                                                    22328558.323 8  94479390.22208     -1720.804 8        50.161
C05        44.000                                                                                                                                    39498887.607 6 205680983.76806      -543.904 6        37.875    39498889.778 7 159045575.71607      -420.527 7        42.612    39498890.484 6 167132724.89606      -441.742 6        40.088
R14        45.000    22559289.612 7 120253753.26107      2854.469 7        47.956                                                                    22559296.826 7  93530762.76907      2220.049 7        42.933
G10        47.000    25714351.836 6 135129795.92906      2135.596 6        38.742                                    25714356.088 5 105295945.54305      1664.104 5        31.117    25714356.473 6 105295946.54306      1663.987 6        36.147
C45        50.000                                                                                                                                    22033021.869 8 114731755.55908       580.142 8        50.905                                                                    22033016.096 8  93228938.49908       471.508 8        50.171
S48        51.000    77246398.718 6 405931780.82106      -490.510 6        37.645
E06        52.000    24717638.201 7 129892022.07107     -2653.720 7        46.433                                                                    24717642.776 8  96997280.52008     -1981.723 8        48.954    24717642.070 8  99527644.57608     -2033.404 8        49.159
C09        53.000                                                                                                                                    41542500.716 4 216322507.93104     -1132.900 4        28.891    41542511.157 6 167274220.31906      -876.061 6        37.645    41542505.887 5 175779692.44705      -920.648 5        32.772
C60        54.000                                                                                                                                    40976267.816 6 213374221.94306      -471.571 6        39.787                                                                    40976259.505 6 173383969.67906      -382.970 6        39.126
E31        55.000    23512289.259 7 123557918.80407      -915.704 7        47.982                                                                    23512292.413 8  92267309.47508      -683.845 8        50.720    23512291.764 8  94674278.85108      -701.671 8        51.006
C26        56.000                                                                                                                                    26045604.951 6 135626288.25706      2378.672 6        40.234                                                                    26045612.376 6 110207489.60506      1932.953 6        40.639
C02        57.000                                                                                                                                    41063930.829 5 213830539.41905      -520.976 5        30.619    41063935.347 6 165347285.96906      -402.700 6        36.257    41063935.834 5                      -423.276 5        30.989
I03        58.000    94291505.906 6 294234643.57206       887.406 6        36.643
C21        59.000                                                                                                                                    22958904.287 8 119552989.64008      -345.903 8        49.508                                                                    22958901.339 8  97146562.78408      -280.951 8        49.442
C22        60.000                                                                                                                                    23419593.576 8 121951884.04408     -3298.655 8        48.658                                                                    23419591.279 8  99095853.36208     -2680.365 8        48.110
> 2025 01 02 09 46 40.0000000  0 54
E24         1.000    25135639.432 7 132088787.76107      1733.426 7        46.344                                                                    25135642.064 8  98637797.83508      1294.446 8        48.570    25135641.217 8 101210946.83408      1328.164 8        49.198
G15         2.000    20269096.930 8 106514776.80208      -588.421 8        48.860                                    20269095.458 8  82998503.81208      -458.508 8        50.026    20269095.560 7  82998498.81107      -458.505 7        45.597
E15         3.000    29004565.186 5 152419978.45905     -2017.388 5        34.767                                                                    29004570.792 6 113820104.46706     -1506.528 6        38.063    29004569.884 6 116789321.86006     -1545.673 6        38.868
G19         4.000    23511094.019 7 123551756.66407      2691.407 7        42.379                                    23511094.144 4  96274119.44504      2097.187 4        29.848
S21         5.000    38536082.361 7 202508083.52107      -497.532 7        42.711
E05         6.000    23161642.924 7 121715220.64107      1257.278 7        45.372                                                                    23161646.654 8  90891211.60508       938.906 8        49.122    23161645.886 8  93262286.06908       963.348 8        49.722
E13         7.000    28771427.201 5 151194859.56705       101.755 5        30.574                                                                    28771439.753 6 112905302.65406        76.053 6        38.405    28771437.901 6 115850650.18906        77.806 6        38.901
R02         8.000    21218552.533 8 113226177.75808     -4285.416 8        50.709                                                                    21218557.376 7  88064783.97107     -3333.242 7        45.394
R20         9.000    24733677.337 5 132262127.65405     -3224.061 5        31.766                                                                    24733684.702 6 102870566.31306     -2507.547 6        39.186
G24        10.000    22090767.600 7 116087763.99007      2285.191 7        43.718                                    22090769.623 7  90458011.18107      1780.668 7        42.737    22090770.062 7  90458016.18107      1780.668 7        42.552
G30        11.000    24062094.120 6 126447047.66706     -3455.190 6        40.207                                    24062100.242 5  98530128.42005     -2692.349 5        35.262    24062100.640 6  98530136.40306     -2692.336 6        38.438
S27        12.000    39258667.703 6 206305618.94306      -530.108 6        36.363
G13        13.000    20498771.710 8 107721726.31008     -2312.034 8        49.242                                    20498769.494 6  83938974.44706     -1801.582 6        40.160
S36        14.000    38305937.741 7 201299504.12307      -498.317 7        44.770
I09        15.000    40824236.753 4 160202743.89704     -1005.933 4        29.735
E09        16.000    23796681.541 8 125052379.34408     -1549.332 8        48.574                                                                    23796684.007 8  93383255.75908     -1156.987 8        50.680    23796683.308 8  95819338.51808     -1187.143 8        51.184
G12        17.000    25270772.190 6 132798836.92606      3372.374 6        38.631                                    25270780.555 4 103479658.92304      2627.806 4        29.441    25270781.148 5 103479655.95205      2627.742 5        35.495
R21        18.000    23276949.529 7 124559710.88007      -450.560 7        44.119                                                                    23276955.091 6  96879828.34206      -350.338 6        39.075
R22        19.000    23793196.324 7 127009717.47707      2546.904 7        42.119                                                                    23793205.349 6  98785318.27606      1980.929 6        40.336
R03        21.000    19486095.126 8 104310552.08108      -412.469 8        52.654                                                                    19486095.457 7  81130419.18407      -320.808 7        47.497
I06        22.000    38260237.108 7 150141502.97207      -468.728 7        42.707
S28        23.000    40983907.389 5 215371705.30905      -507.763 5        35.352
S23        25.000    38238774.561 7 200946037.13107      -499.289 7        44.184
S45        26.000    63488338.652 6 333634424.92506      -548.331 6        36.533
C07        27.000                                                                                                                                    38921243.427 6 202673097.14906      -666.430 6        40.629    38921242.044 7 156719681.01107      -515.304 7        44.396    38921239.816 6 164688469.55606      -541.814 6        41.743
R04        28.000    21899758.797 8 117272192.69008      3086.289 8        48.039                                                                    21899760.813 7  91211680.54107      2400.395 7        44.218
C40        29.000                                                                                                                                    38959758.151 7 202873661.95307      -794.938 7        43.090                                                                    38959760.259 7 164851467.93407      -646.098 7        42.931
G17        30.000    22396826.371 7 117696233.19207       892.518 7        46.232                                    22396827.157 7  91711408.80807       695.461 7        43.765    22396826.812 7  91711405.82907       695.494 7        42.379
G14        31.000    21606613.486 7 113543500.54307     -2765.637 7        46.140                                    21606612.809 5  88475449.55105     -2155.040 5        35.819    21606613.127 7  88475435.53807     -2154.964 7        45.225
G23        32.000    23207650.228 7 121956965.87607        77.893 7        42.366                                    23207650.588 4  95031374.70404        60.692 4        29.242    23207650.935 7  95031369.71107        60.669 7        42.468
I02        33.000    37203980.509 7 145996405.30207       -88.556 7        43.164
E04        34.000    26762171.175 6 140636064.61606     -3334.836 6        39.985                                                                    26762178.042 7 105020411.21807     -2490.306 7        44.483    26762176.765 7 107760074.03707     -2555.303 7        45.275
R13        35.000    19361504.187 7 103389391.13707      -332.142 7        46.919
R12        36.000    20807947.981 8 111152282.56708     -3344.813 8        50.168                                                                    20807950.583 7  86451769.88207     -2601.485 7        46.404
C42        37.000                                                                                                                                    25665569.073 6 133647340.77506      2175.844 6        41.857                                                                    25665580.623 7 108599454.73507      1767.829 7        43.443
C10        38.000                                                                                                                                    38618738.778 6 201097902.90706      -278.553 6        41.564    38618739.327 7 155501655.07707      -215.364 7        44.960    38618736.737 6 163408507.15106      -226.450 6        41.752
C30        40.000                                                                                                                                    25430825.476 7 132425019.38207      1480.235 7        42.796                                                                    25430831.687 6 107606216.36306      1202.825 6        41.709
G05        41.000    24944524.573 6 131084133.08306     -4124.939 6        39.243                                    24944534.816 5 102143401.98405     -3214.223 5        31.758    24944534.910 6 102143410.95906     -3214.230 6        36.979
S44        42.000    40976719.859 6 215334143.16806      -475.281 6        37.860
C36        43.000                                                                                                                                    22330585.056 8 116281180.73908     -2118.741 8        49.058                                                                    22330592.262 8  94487996.38408     -1721.798 8        50.033
C05        44.000                                                                                                                                    39499409.329 6 205683701.46506      -543.538 6        38.138    39499411.616 7 159047677.22707      -420.239 7        42.660    39499412.448 6 167134933.26706      -441.574 6        40.155
R14        45.000    22556612.240 7 120239482.77807      2853.519 7        47.935                                                                    22556619.791 7  93519663.54207      2219.381 7        42.844
G10        47.000    25712320.595 6 135119121.56506      2134.157 6        38.165                                    25712324.872 5 105287627.83805      1662.980 5        31.245    25712325.525 6 105287628.84506      1662.913 6        36.639
C45        50.000                                                                                                                                    22032465.445 8 114728857.85508       578.850 8        50.856                                                                    22032459.652 8  93226583.88208       470.200 8        50.106
S48        51.000    77246865.443 6 405934231.42706      -489.871 6        37.992
E06        52.000    24720163.517 7 129905293.11407     -2654.780 7        46.487                                                                    24720168.129 8  97007190.71008     -1982.531 8        48.953    24720167.547 8  99537813.28408     -2034.208 8        49.201
C09        53.000                                                                                                                                    41543587.528 4 216328172.58704     -1132.932 4        28.986    41543598.486 6 167278600.59606      -876.123 6        37.815    41543593.497 5 175784295.43605      -920.768 5        32.269
C60        54.000                                                                                                                                    40976720.134 6 213376578.05506      -471.139 6        39.673                                                                    40976712.105 6 173385884.21906      -382.939 6        38.790
E31        55.000    23513161.421 8 123562500.92008      -917.265 8        48.065                                                                    23513164.302 8  92270731.18608      -685.008 8        50.646    23513163.714 8  94677789.82208      -702.867 8        51.069
C26        56.000                                                                                                                                    26043321.478 6 135614395.33406      2378.469 6        40.486                                                                    26043328.371 6 110197825.63506      1932.547 6        40.415
C02        57.000                                                                                                                                    41064431.016 5 213833142.17405      -520.491 5        30.657    41064435.655 6 165349298.61906      -402.467 6        36.465    41064435.484 5                      -423.071 5        30.943
I03        58.000    94290375.437 6 294230206.92906       887.415 6        36.733
C21        59.000                                                                                                                                    22959237.565 8 119554725.35408      -348.522 8        49.580                                                                    22959234.710 8  97147973.19108      -283.321 8        49.309
C22        60.000                                                                                                                                    23422761.976 8 121968380.51908     -3299.970 8        48.595                                                                    23422759.310 7  99109258.08607     -2681.718 7        47.915
> 2025 01 02 09 46 45.0000000  0 54
E24         1.000    25133990.528 7 132080124.05107      1731.875 7        46.090                                                                    25133993.416 8  98631328.18708      1293.339 8        48.693    25133992.554 8 101204308.41208      1327.062 8        49.262
G15         2.000    20269658.493 8 106517727.46408      -591.931 8        49.255                                    20269656.955 8  83000803.02308      -461.244 8        50.111    20269657.351 7  83000798.02407      -461.307 7        46.112
E15         3.000    29006485.267 5 152430069.55405     -2019.433 5        34.990                                                                    29006490.985 6 113827640.05506     -1508.043 6        37.051    29006489.820 6 116797054.02306     -1547.217 6        37.660
G19         4.000    23508533.504 7 123538301.84107      2690.271 7        42.565                                    23508533.809 5  96263635.21105      2096.307 5        30.075
S21         5.000    38536555.808 7 202510570.90907      -497.569 7        42.296
E05         6.000    23160447.197 7 121708937.35007      1255.932 7        45.115                                                                    23160450.970 8  90886519.53708       937.851 8        49.244    23160450.187 8  93257471.60008       962.285 8        49.753
E13         7.000    28771330.891 5 151194357.21505        99.535 5        30.747                                                                    28771343.929 6 112904927.52606        74.280 6        37.985    28771342.246 6 115850265.26006        76.027 6        38.706
R02         8.000    21222569.364 8 113247611.00308     -4287.844 8        50.539                                                                    21222573.845 7  88081454.24107     -3335.022 7        45.992
R20         9.000    24736693.439 5 132278255.22705     -3227.305 5        30.725                                                                    24736701.760 6 102883110.04506     -2509.864 6        39.246
G24        10.000    22088593.725 7 116076341.40207      2283.711 7        43.733                                    22088595.998 7  90449110.47107      1779.515 7        42.827    22088596.210 7  90449115.47807      1779.537 7        42.442
G30        11.000    24065381.579 6 126464324.48306     -3455.735 6        40.031                                    24065387.931 5  98543590.84605     -2692.777 5        35.319    24065388.190 6  98543598.84506     -2692.697 6        38.562
S27        12.000    39259171.516 6 206308270.16906      -530.378 6        36.257
G13        13.000    20500972.686 8 107733292.94608     -2314.725 8        49.461                                    20500970.551 6  83947987.40706     -1803.678 6        40.312
S36        14.000    38306411.992 7 201301995.71007      -498.386 7        44.609
I09        15.000    40825516.340 4 160207772.46104     -1006.038 4        29.659
E09        16.000    23798156.617 8 125060130.47608     -1551.276 8        48.367                                                                    23798158.997 8  93389043.93408     -1158.434 8        50.779    23798158.250 8  95825277.68908     -1188.632 8        51.178
G12        17.000    25267564.320 6 132781976.00406      3371.953 6        38.910                                    25267571.955 4 103466520.60004      2627.488 4        29.782    25267571.706 5 103466517.64105      2627.378 5        35.910
R21        18.000    23277371.937 7 124561974.15807      -454.945 7        42.906                                                                    23277378.933 6  96881588.66106      -353.678 6        39.483
R22        19.000    23790810.936 7 126996988.09907      2544.779 7        42.546                                                                    23790820.586 6  98775417.77106      1979.066 6        40.670
R03        21.000    19486482.434 8 104312625.43608      -417.048 8        52.615                                                                    19486482.456 7  81132031.78807      -324.396 7        47.472
I06        22.000    38260834.313 7 150143846.70607      -468.765 7        42.971
S28        23.000    40984390.440 5 215374244.18505      -507.941 5        35.410
S23        25.000    38239251.580 7 200948533.96007      -499.430 7        44.293
S45        26.000    63488817.245 6 333637166.49306      -548.422 6        36.204
C07        27.000                                                                                                                                    38921883.456 6 202676430.54106      -667.166 6        40.603    38921882.233 7 156722258.59707      -515.911 7        44.322    38921879.987 6 164691178.20006      -542.038 6        41.807
R04        28.000    21896877.718 8 117256766.42308      3084.033 8        48.040                                                                    21896879.907 7  91199682.33807      2398.656 7        43.731
C40        29.000                                                                                                                                    38960521.615 7 202877638.84107      -795.887 7        43.363                                                                    38960523.975 7 164854699.46707      -646.636 7        42.973
G17        30.000    22395977.981 7 117691777.64307       889.659 7        46.001                                    22395979.172 7  91707936.99407       693.232 7        43.807    22395979.344 7  91707934.01307       693.181 7        42.480
G14        31.000    21609245.509 7 113557333.40507     -2767.613 7        46.191                                    21609245.173 5  88486228.38905     -2156.573 5        35.943    21609245.418 7  88486214.39007     -2156.618 7        45.077
G23        32.000    23207577.650 7 121956584.62707        74.518 7        42.292                                    23207577.982 4  95031077.62804        58.067 4        29.204    23207578.287 7  95031072.62507        58.048 7        42.381
I02        33.000    37204093.271 7 145996848.67907       -88.944 7        43.342
E04        34.000    26765344.001 6 140652740.98606     -3335.689 6        39.081                                                                    26765351.570 7 105032864.31107     -2491.015 7        44.546    26765350.149 7 107772851.99007     -2555.999 7        45.142
R13        35.000    19361816.966 7 103391058.77607      -335.019 7        47.111
R12        36.000    20811079.114 8 111169010.22708     -3346.291 8        50.263                                                                    20811081.847 7  86464780.28607     -2602.728 7        45.386
C42        37.000                                                                                                                                    25663480.526 6 133636465.61806      2174.036 6        41.990                                                                    25663492.246 7 108590617.78407      1766.655 7        43.473
C10        38.000                                                                                                                                    38619006.576 6 201099297.16506      -279.278 6        41.559    38619007.256 7 155502733.20707      -215.917 7        44.808    38619004.480 6 163409640.10106      -226.968 6        41.688
C30        40.000                                                                                                                                    25429405.117 7 132417622.46707      1478.328 7        43.179                                                                    25429411.095 6 107600205.73206      1201.401 6        41.642
G05        41.000    24948449.567 6 131104758.05606     -4125.086 6        39.114                                    24948459.868 5 102159473.30005     -3214.331 5        32.210    24948459.822 6 102159482.26506     -3214.323 6        37.660
S44        42.000    40977171.725 6 215336519.96106      -475.378 6        37.679
C36        43.000                                                                                                                                    22332620.165 8 116291777.48108     -2120.103 8        49.394                                                                    22332627.266 8  94496607.09508     -1722.729 8        50.057
C05        44.000                                                                                                                                    39499931.499 6 205686418.32206      -543.483 6        38.108    39499933.544 7 159049778.09607      -420.296 7        42.491    39499934.335 6 167137140.94506      -441.546 6        40.267
R14        45.000    22553937.228 8 120225218.39008      2852.081 8        48.319                                                                    22553944.006 7  93508569.02307      2218.325 7        43.081
G10        47.000    25710291.079 6 135108456.38306      2131.963 6        38.204                                    25710295.345 5 105279317.29505      1661.271 5        31.494    25710295.142 6 105279318.27006      1661.325 6        36.439
C45        50.000                                                                                                                                    22031910.532 8 114725967.69508       577.126 8        50.943                                                                    22031904.606 8  93224235.38508       468.957 8        50.109
S48        51.000    77247338.125 6 405936681.14806      -490.281 6        38.063
E06        52.000    24722690.165 7 129918570.59507     -2656.270 7        46.149                                                                    24722694.762 8  97017105.69508     -1983.640 8        49.004    24722694.138 8  99547986.92908     -2035.360 8        49.238
C09        53.000                                                                                                                                    41544676.907 4 216333836.90604     -1133.012 4        29.223    41544686.372 6 167282980.59206      -875.985 6        37.070    41544681.487 5 175788898.18305      -920.949 5        32.665
C60        54.000                                                                                                                                    40977172.193 6 213378933.25306      -471.243 6        39.414                                                                    40977164.316 6 173387797.98106      -382.856 6        38.919
E31        55.000    23514035.197 7 123567091.98007      -919.260 7        47.963                                                                    23514037.992 8  92274159.57408      -686.467 8        50.743    23514037.333 8  94681307.64308      -704.389 8        51.003
C26        56.000                                                                                                                                    26041038.671 6 135602504.07506      2377.979 6        40.520                                                                    26041044.974 6 110188163.02306      1932.193 6        40.408
C02        57.000                                                                                                                                    41064930.916 5 213835743.97505      -520.082 5        30.362    41064935.126 6 165351310.53706      -402.586 6        36.049    41064935.327 5                      -422.752 5        30.702
I03        58.000    94289244.350 6 294225769.50906       887.629 6        36.567
C21        59.000                                                                                                                                    22959573.877 8 119556474.92008      -351.411 8        49.721                                                                    22959570.658 8  97149394.86208      -285.561 8        49.334
C22        60.000                                                                                                                                    23425931.312 8 121984884.79608     -3301.774 8        48.854                                                                    23425928.695 7  99122669.14007     -2682.952 7        47.977
> 2025 01 02 09 46 50.0000000  0 54
E24         1.000    25132343.104 7 132071467.35507      1730.621 7        46.045                                                                    25132346.126 8  98624863.79708      1292.274 8        48.657    25132345.229 8 101197675.37808      1326.034 8        49.390
G15         2.000    20270223.300 8 106520695.65008      -595.383 8        48.869                                    20270221.784 8  83003115.89008      -463.935 8        50.048    20270222.288 7  83003110.88507      -463.989 7        45.950
E15         3.000    29008407.732 5 152440170.26705     -2021.116 5        33.521                                                                    29008412.828 6 113835182.79906     -1509.312 6        36.745    29008412.004 6 116804793.52506     -1548.633 6        37.524
G19         4.000    23505973.996 7 123524852.31507      2689.370 7        42.457                                    23505974.382 5  96253155.10105      2095.600 5        30.121
S21         5.000    38537027.703 7 202513058.41707      -497.489 7        42.419
E05         6.000    23159252.926 7 121702660.86407      1254.611 7        45.096                                                                    23159256.629 8  90881832.55008       936.866 8        49.210    23159255.777 8  93252662.34208       961.305 8        49.680
E13         7.000    28771237.468 5 151193866.59505        97.020 5        31.125                                                                    28771250.358 6 112904561.12606        72.388 6        37.682    28771249.031 6 115849889.31006        74.349 6        39.015
R02         8.000    21226587.851 8 113269056.46008     -4290.350 8        49.745                                                                    21226592.745 7  88098134.02107     -3336.917 7        45.950
R20         9.000    24739713.409 4 132294397.42804     -3229.936 4        29.611                                                                    24739719.386 6 102895665.10206     -2512.282 6        38.072
G24        10.000    22086421.221 7 116064925.24107      2282.632 7        43.810                                    22086423.608 7  90440214.77207      1778.669 7        42.783    22086423.457 7  90440219.79907      1778.596 7        42.540
G30        11.000    24068669.958 6 126481604.16006     -3456.332 6        40.038                                    24068676.152 5  98557055.51205     -2693.246 5        35.400    24068676.370 6  98557063.51406     -2693.189 6        38.165
S27        12.000    39259676.980 6 206310921.43006      -530.259 6        36.420
G13        13.000    20503175.947 8 107744872.62908     -2317.251 8        49.286                                    20503174.069 6  83957010.52606     -1805.651 6        40.286
S36        14.000    38306883.525 7 201304487.10207      -498.204 7        44.551
I09        15.000    40826798.511 4 160212800.45104     -1005.432 4        29.261
E09        16.000    23799633.267 8 125067890.98608     -1553.041 8        48.557                                                                    23799635.809 8  93394839.11508     -1159.761 8        50.809    23799635.015 8  95831224.05008     -1190.006 8        51.215
G12        17.000    25264356.494 6 132765116.65006      3371.495 6        39.513                                    25264363.665 5 103453383.50405      2627.124 5        30.491    25264363.887 5 103453380.51405      2627.320 5        35.662
R21        18.000    23277798.573 7 124564259.02507      -459.139 7        43.668                                                                    23277805.125 6  96883365.78506      -357.092 6        40.195
R22        19.000    23788428.817 7 126984269.39607      2542.562 7        42.548                                                                    23788437.642 6  98765525.54806      1977.665 6        40.429
R03        21.000    19486873.727 8 104314721.46008      -421.492 8        52.357                                                                    19486874.367 7  81133662.02507      -327.882 7        47.480
I06        22.000    38261431.560 7 150146190.44607      -468.839 7        42.980
S28        23.000    40984872.284 5 215376782.83005      -507.757 5        35.371
S23        25.000    38239728.112 7 200951030.67707      -499.452 7        44.268
S45        26.000    63489295.141 6 333639908.08506      -548.009 6        36.083
C07        27.000                                                                                                                                    38922524.047 6 202679767.19706      -667.800 6        40.677    38922523.107 7 156724838.70307      -516.260 7        44.287    38922520.696 6 164693889.49706      -542.566 6        41.495
R04        28.000    21893999.478 8 117241351.28808      3081.899 8        48.232                                                                    21894001.348 7  91187692.79807      2396.957 7        43.554
C40        29.000                                                                                                                                    38961286.167 7 202881619.92407      -796.774 7        43.562                                                                    38961288.500 7 164857934.40407      -647.322 7        42.855
G17        30.000    22395132.783 7 117687335.92507       886.959 7        45.884                                    22395133.781 7  91704475.95607       691.131 7        43.602    22395133.649 7  91704472.97207       691.080 7        42.267
G14        31.000    21611879.468 7 113571175.78507     -2769.443 7        46.373                                    21611879.290 5  88497014.64505     -2158.006 5        35.857    21611879.446 7  88497000.63807     -2158.013 7        45.287
G23        32.000    23207508.046 7 121956220.04007        71.187 7        42.135                                    23207508.592 4  95030793.53504        55.470 4        29.166    23207509.078 7  95030788.53007        55.484 7        42.510
I02        33.000    37204206.454 7 145997293.12307       -89.096 7        43.170
E04        34.000    26768518.035 6 140669421.07506     -3336.310 6        39.063                                                                    26768525.664 7 105045320.17807     -2491.464 7        44.740    26768524.471 7 107785632.79407     -2556.477 7        45.120
R13        35.000    19362131.616 7 103392740.85607      -337.895 7        46.984
R12        36.000    20814211.652 8 111185744.88308     -3347.656 8        49.723                                                                    20814215.465 7  86477796.11507     -2603.715 7        46.016
C42        37.000                                                                                                                                    25661393.634 6 133625598.34106      2172.642 6        41.959                                                                    25661405.353 7 108581787.23807      1765.431 7        43.382
C10        38.000                                                                                                                                    38619274.687 6 201100694.72106      -279.801 6        41.743    38619275.629 7 155503813.88307      -216.393 7        44.810    38619272.836 6 163410775.73106      -227.465 6        41.700
C30        40.000                                                                                                                                    25427986.116 7 132410234.46407      1476.703 7        43.418                                                                    25427992.322 6 107594202.35406      1199.923 6        41.459
G05        41.000    24952374.117 6 131125382.56106     -4124.888 6        39.054                                    24952384.821 5 102175544.25605     -3214.177 5        32.365    24952385.174 6 102175553.22706     -3214.116 6        37.743
S44        42.000    40977622.496 6 215338896.48206      -475.201 6        37.656
C36        43.000                                                                                                                                    22334656.701 8 116302380.45008     -2121.205 8        49.745                                                                    22334663.455 8  94505222.87908     -1723.761 8        49.880
C05        44.000                                                                                                                                    39500452.689 6 205689134.93406      -543.197 6        38.099    39500454.993 7 159051878.77207      -420.043 7        42.317    39500455.852 6 167139348.44706      -441.536 6        39.994
R14        45.000    22551261.175 7 120210960.55807      2850.854 7        47.817                                                                    22551269.046 7  93497479.61007      2217.435 7        42.087
G10        47.000    25708264.049 6 135097800.96006      2130.012 6        38.462                                    25708267.746 5 105271014.32405      1659.754 5        31.313    25708268.125 6 105271015.30006      1659.998 6        36.612
C45        50.000                                                                                                                                    22031357.079 8 114723085.71908       575.522 8        50.960                                                                    22031351.201 8  93221893.54408       467.649 8        50.064
S48        51.000    77247811.621 6 405939131.87206      -489.912 6        38.057
E06        52.000    24725218.242 7 129931855.14107     -2657.638 7        46.136                                                                    24725222.730 8  97027025.95808     -1984.641 8        48.981    24725222.122 8  99558165.98508     -2036.400 8        49.269
C09        53.000                                                                                                                                    41545766.021 4 216339501.55704     -1132.413 4        29.270    41545773.898 6 167287360.85306      -875.933 6        36.760    41545769.090 5 175793501.17505      -920.680 5        32.018
C60        54.000                                                                                                                                    40977624.685 6 213381288.14106      -470.970 6        39.856                                                                    40977616.576 6 173389711.50106      -382.639 6        38.775
E31        55.000    23514910.486 8 123571692.62908      -921.162 8        48.053                                                                    23514913.433 8  92277595.12508      -687.909 8        50.736    23514912.848 8  94684832.81808      -705.818 8        51.130
C26        56.000                                                                                                                                    26038755.514 6 135590615.15306      2377.635 6        40.868                                                                    26038761.839 6 110178502.30506      1931.946 6        40.353
C02        57.000                                                                                                                                    41065430.267 5 213838345.53405      -520.410 5        30.423    41065434.575 6 165353322.18806      -402.258 6        36.185    41065434.293 5                      -422.440 5        30.800
I03        58.000    94288113.443 6 294221331.77606       887.642 6        36.877
C21        59.000                                                                                                                                    22959912.748 8 119558239.00008      -354.267 8        49.921                                                                    22959909.424 8  97150828.31808      -287.933 8        49.221
C22        60.000                                                                                                                                    23429102.592 8 122001397.52208     -3303.400 8        48.768                                                                    23429099.731 7  99136087.06107     -2684.308 7        47.799
> 2025 01 02 09 46 55.0000000  0 54
E24         1.000    25130697.179 7 132062817.53907      1729.126 7        46.112                                                                    25130700.100 8  98618404.53508      1291.284 8        48.815    25130699.194 8 101191047.61808      1324.921 8        49.299
G15         2.000    20270791.036 8 106523681.13208      -598.908 8        49.064                                    20270789.895 8  83005442.23208      -466.682 8        50.204    20270790.009 7  83005437.22307      -466.566 7        45.732
E15         3.000    29010330.603 5 152450280.39405     -2023.096 5        34.300                                                                    29010336.825 6 113842732.54206     -1510.810 6        36.745    29010335.910 6 116812540.22206     -1550.059 6        37.301
G19         4.000    23503415.427 7 123511407.95307      2688.257 7        43.096                                    23503415.934 5  96242679.00705      2094.739 5        30.279
S21         5.000    38537498.976 7 202515545.52007      -497.431 7        42.391
E05         6.000    23158060.231 7 121696391.03307      1253.169 7        45.391                                                                    23158063.490 8  90877150.53708       935.845 8        49.304    23158062.681 8  93247858.18708       960.296 8        49.759
E13         7.000    28771146.203 5 151193387.54105        95.016 5        31.064                                                                    28771159.053 6 112904203.43006        70.570 6        37.834    28771157.802 6 115849522.27706        72.445 6        38.967
R02         8.000    21230608.939 8 113290513.83708     -4292.806 8        50.114                                                                    21230613.886 7  88114823.06407     -3338.845 7        46.320
R20         9.000    24742734.873 5 132310554.02505     -3232.579 5        30.709                                                                    24742741.246 6 102908231.37006     -2514.439 6        37.316
G24        10.000    22084250.249 7 116053515.34607      2281.292 7        43.989                                    22084252.385 7  90431323.95707      1777.628 7        42.978    22084252.337 6  90431328.95806      1777.663 6        41.957
G30        11.000    24071959.015 6 126498886.50806     -3456.701 6        40.026                                    24071964.838 5  98570522.26005     -2693.530 5        35.533    24071965.252 6  98570530.25106     -2693.545 6        38.198
S27        12.000    39260190.747 6 206313572.20406      -530.133 6        36.926
G13        13.000    20505381.884 8 107756465.17408     -2319.844 8        49.873                                    20505380.077 6  83966043.67106     -1807.670 6        40.403
S36        14.000    38307360.209 7 201306978.31407      -498.381 7        44.727
I09        15.000    40828080.175 4 160217827.80004     -1005.745 4        29.336
E09        16.000    23801111.776 8 125075660.71308     -1554.934 8        48.797                                                                    23801114.335 8  93400641.18208     -1161.156 8        50.892    23801113.554 8  95837177.47808     -1191.432 8        51.194
G12        17.000    25261148.334 6 132748258.63306      3371.464 6        40.179                                    25261155.655 5 103440247.44105      2627.106 5        31.109    25261156.447 5 103440244.45705      2627.124 5        35.910
R21        18.000    23278229.359 7 124566565.17107      -463.486 7        44.035                                                                    23278236.829 6  96885159.42906      -360.339 6        40.446
R22        19.000    23786047.766 7 126971561.22807      2540.470 7        43.323                                                                    23786056.933 6  98755641.53206      1975.942 6        40.029
R03        21.000    19487269.330 8 104316839.90208      -425.983 8        52.245                                                                    19487269.768 7  81135309.69107      -331.296 7        47.259
I06        22.000    38262028.600 7 150148534.02507      -468.744 7        42.969
S28        23.000    40985354.786 5 215379321.47705      -508.025 5        35.362
S23        25.000    38240200.641 7 200953527.20507      -499.339 7        44.178
S45        26.000    63489766.928 6 333642649.36606      -548.143 6        36.242
C07        27.000                                                                                                                                    38923165.814 6 202683106.98406      -668.310 6        40.825    38923164.288 7 156727421.24907      -516.836 7        44.333    38923162.013 6 164696603.35206      -542.751 6        41.528
R04        28.000    21891123.280 7 117225947.40007      3079.590 7        47.866                                                                    21891125.120 7  91175712.00707      2395.197 7        44.519
C40        29.000                                                                                                                                    38962051.798 7 202885605.03207      -797.576 7        43.748                                                                    38962053.690 7 164861172.60907      -647.881 7        42.777
G17        30.000    22394290.031 7 117682907.87407       884.146 7        46.043                                    22394290.942 7  91701025.56507       688.937 7        43.693    22394291.191 7  91701022.58407       689.024 7        42.169
G14        31.000    21614515.422 7 113585027.51007     -2771.328 7        46.441                                    21614515.222 5  88507808.18405     -2159.470 5        35.986    21614515.598 7  88507794.17807     -2159.488 7        45.654
G23        32.000    23207442.257 7 121955871.93507        67.897 7        42.825                                    23207442.385 4  95030522.28004        52.909 4        29.564    23207442.657 7  95030517.27607        53.063 7        42.262
I02        33.000    37204319.705 7 145997738.65107       -89.057 7        43.168
E04        34.000    26771693.361 6 140686104.70506     -3337.013 6        39.345                                                                    26771700.553 7 105057778.69707     -2491.966 7        45.056    26771699.383 7 107798416.32207     -2557.011 7        45.255
R13        35.000    19362449.400 7 103394436.90507      -340.634 7        46.785
R12        36.000    20817345.333 8 111202486.38808     -3349.070 8        49.545                                                                    20817349.719 7  86490817.26607     -2604.784 7        45.962
C42        37.000                                                                                                                                    25659308.512 7 133614738.78807      2171.051 7        42.497                                                                    25659319.971 7 108572962.95407      1764.484 7        43.515
C10        38.000                                                                                                                                    38619543.707 6 201102095.47906      -280.696 6        41.499    38619544.892 7 155504897.02807      -216.989 7        44.986    38619541.909 6 163411913.93806      -227.711 6        41.650
C30        40.000                                                                                                                                    25426569.205 7 132402855.21307      1474.865 7        43.283                                                                    25426575.104 6 107588206.08506      1198.557 6        41.409
G05        41.000    24956299.405 6 131146006.40806     -4124.830 6        39.580                                    24956309.672 5 102191614.68705     -3214.132 5        32.455    24956309.516 6 102191623.66406     -3214.092 6        37.524
S44        42.000    40978076.737 6 215341272.55406      -475.375 6        37.645
C36        43.000                                                                                                                                    22336694.194 8 116312989.50908     -2122.508 8        49.588                                                                    22336700.805 8  94513843.58008     -1724.434 8        49.882
C05        44.000                                                                                                                                    39500974.697 6 205691851.18906      -543.170 6        37.909    39500976.590 7 159053979.19607      -420.158 7        42.334    39500977.203 6 167141555.65406      -441.322 6        39.922
R14        45.000    22548588.182 7 120196709.15707      2849.531 7        47.874                                                                    22548595.391 7  93486395.21207      2216.362 7        42.705
G10        47.000    25706237.677 6 135087155.23806      2128.062 6        38.694                                    25706241.998 5 105262718.93305      1658.232 5        31.328    25706242.064 6 105262719.91806      1658.337 6        36.854
C45        50.000                                                                                                                                    22030805.125 8 114720211.76208       573.901 8        50.880                                                                    22030799.247 8  93219558.20708       466.599 8        49.985
S48        51.000    77248272.600 6 405941581.38306      -489.939 6        37.803
E06        52.000    24727747.683 7 129945146.58707     -2659.033 7        46.367                                                                    24727752.010 8  97036951.38108     -1985.667 8        48.971    24727751.399 8  99568350.33308     -2037.464 8        49.163
C09        53.000                                                                                                                                    41546852.680 4 216345166.38304     -1132.416 4        28.806    41546862.331 6 167291741.24506      -876.020 6        36.333    41546856.920 5 175798104.28505      -920.669 5        31.804
C60        54.000                                                                                                                                    40978077.276 6 213383642.59706      -470.832 6        39.634                                                                    40978068.554 6 173391624.68306      -382.566 6        38.742
E31        55.000    23515787.758 8 123576302.70308      -923.061 8        48.132                                                                    23515790.738 8  92281037.71208      -689.278 8        50.809    23515790.126 8  94688365.21708      -707.290 8        51.068
C26        56.000                                                                                                                                    26036472.589 6 135578728.38106      2377.019 6        41.092                                                                    26036479.153 6 110168843.33006      1931.765 6        40.415
C02        57.000                                                                                                                                    41065928.437 5 213840946.60305      -520.097 5        30.264    41065934.261 6 165355333.55906      -402.471 6        36.340    41065934.466 5                      -422.887 5        30.687
I03        58.000    94286983.004 6 294216893.67206       887.668 6        36.703
C21        59.000                                                                                                                                    22960253.979 8 119560017.41808      -357.209 8        49.657                                                                    22960250.942 8  97152273.41608      -290.012 8        49.219
C22        60.000                                                                                                                                    23432275.157 8 122017918.49708     -3305.126 8        48.707                                                                    23432272.449 7  99149511.68107     -2685.441 7        47.676
