     3.04           OBSERVATION DATA    M                   RINEX VERSION / TYPE
ssrcrin-15.6.1x                         20250102 163000 UTC PGM / RUN BY / DATE 
(00000000023479385599111004) Septentrio proprietary         COMMENT             
rref                                                        MARKER NAME         
01                                                          MARKER NUMBER       
geodetic                                                    MARKER TYPE         
NFB                 CLIMERS@TUW                             OBSERVER / AGENCY   
3297213             SEPT ASTERX SB3 PROB4.14.4              REC # / TYPE / VERS 
Unknown             Unknown                                 ANT # / TYPE        
  4127832.0916  1207193.2464  4695247.5830                  APPROX POSITION XYZ 
        0.0000        0.0000        0.0000                  ANTENNA: DELTA H/E/N
G   23 X1  C1C L1C D1C S1C C1W S1W C2W L2W D2W S2W C2L L2L  SYS / # / OBS TYPES 
       D2L S2L C5Q L5Q D5Q S5Q C1L L1L D1L S1L              SYS / # / OBS TYPES 
E   21 X1  C1C L1C D1C S1C C6C L6C D6C S6C C5Q L5Q D5Q S5Q  SYS / # / OBS TYPES 
       C7Q L7Q D7Q S7Q C8Q L8Q D8Q S8Q                      SYS / # / OBS TYPES 
S    9 X1  C1C L1C D1C S1C C5I L5I D5I S5I                  SYS / # / OBS TYPES 
R   17 X1  C1C L1C D1C S1C C2P L2P D2P S2P C2C L2C D2C S2C  SYS / # / OBS TYPES 
       C3Q L3Q D3Q S3Q                                      SYS / # / OBS TYPES 
C   25 X1  C1P L1P D1P S1P C5P L5P D5P S5P C2I L2I D2I S2I  SYS / # / OBS TYPES 
       C7I L7I D7I S7I C6I L6I D6I S6I C7D L7D D7D S7D      SYS / # / OBS TYPES 
J   17 X1  C1C L1C D1C S1C C2L L2L D2L S2L C5Q L5Q D5Q S5Q  SYS / # / OBS TYPES 
       C1L L1L D1L S1L                                      SYS / # / OBS TYPES 
I    5 X1  C5A L5A D5A S5A                                  SYS / # / OBS TYPES 
SEPTENTRIO RECEIVERS OUTPUT ALIGNED CARRIER PHASES.         COMMENT             
NO FURTHER PHASE SHIFT APPLIED IN THE RINEX ENCODER.        COMMENT             
G L1C                                                       SYS / PHASE SHIFT   
G L2W                                                       SYS / PHASE SHIFT   
G L2L  0.00000                                              SYS / PHASE SHIFT   
G L5Q  0.00000                                              SYS / PHASE SHIFT   
G L1L  0.00000                                              SYS / PHASE SHIFT   
E L1C  0.00000                                              SYS / PHASE SHIFT   
E L6C  0.00000                                              SYS / PHASE SHIFT   
E L5Q  0.00000                                              SYS / PHASE SHIFT   
E L7Q  0.00000                                              SYS / PHASE SHIFT   
E L8Q  0.00000                                              SYS / PHASE SHIFT   
S L1C                                                       SYS / PHASE SHIFT   
S L5I                                                       SYS / PHASE SHIFT   
R L1C                                                       SYS / PHASE SHIFT   
R L2P  0.00000                                              SYS / PHASE SHIFT   
R L2C                                                       SYS / PHASE SHIFT   
R L3Q  0.00000                                              SYS / PHASE SHIFT   
C L1P  0.00000                                              SYS / PHASE SHIFT   
C L5P  0.00000                                              SYS / PHASE SHIFT   
C L2I                                                       SYS / PHASE SHIFT   
C L7I                                                       SYS / PHASE SHIFT   
C L6I                                                       SYS / PHASE SHIFT   
C L7D                                                       SYS / PHASE SHIFT   
J L1C                                                       SYS / PHASE SHIFT   
J L2L  0.00000                                              SYS / PHASE SHIFT   
J L5Q  0.00000                                              SYS / PHASE SHIFT   
J L1L  0.00000                                              SYS / PHASE SHIFT   
I L5A                                                       SYS / PHASE SHIFT   
  2025     1     2    16    30    0.0000000     GPS         TIME OF FIRST OBS   
 C1C    0.000 C2C    0.000 C2P    0.000                     GLONASS COD/PHS/BIS 
DBHZ                                                        SIGNAL STRENGTH UNIT
    18                                                      LEAP SECONDS        
 24 R01  1 R02 -4 R03  5 R04  6 R05  1 R06 -4 R07  5 R08  6 GLONASS SLOT / FRQ #
    R09 -2 R10 -7 R11  0 R12 -1 R13 -2 R14 -7 R15  0 R16 -1 GLONASS SLOT / FRQ #
    R17  4 R18 -3 R19  3 R20  2 R21  4 R22 -3 R23  3 R24  2 GLONASS SLOT / FRQ #
                                                            END OF HEADER       
> 2025 01 02 16 30  0.0000000  0 58
E24         1.000    28910493.258 3                     -3223.169 3        21.024                                                                    28910496.046 4                     -2408.308 4        24.767    28910494.813 3                     -2470.778 3        22.914
E11         2.000    24200351.548 7 127173892.76207     -1486.762 7        43.359                                                                    24200348.988 7  94967638.86307     -1110.341 7        45.556    24200348.592 7  97445042.16207     -1139.232 7        45.928
G16         3.000    24070063.921 6 126489144.17306      3053.532 6        38.877                                    24070065.493 3  98563028.63403      2379.356 3        19.791
G05         4.000    23132395.588 7 121561635.48207       819.960 7        43.045                                    23132393.454 6  94723371.26106       638.928 6        39.081    23132393.426 6  94723370.25706       638.967 6        39.489
S21         5.000    38450428.167 7 202058022.01907      -477.882 7        42.370
G26         6.000    21668394.473 7 113868385.88107      1938.383 7        45.597                                    21668395.629 7  88728736.06507      1510.424 7        44.871    21668395.893 7  88728723.07007      1510.531 7        43.035
G25         7.000    21892283.835 7 115044901.33207     -3477.017 7        45.442                                    21892284.209 7  89645462.73007     -2709.364 7        43.746    21892284.611 7  89645463.72407     -2709.265 7        42.345
G04         8.000    25185234.225 6 132349262.48106     -1020.063 6        37.108                                    25185235.808 3 103129273.00903      -794.872 3        19.552    25185235.427 6 103129282.04106      -794.693 6        36.265
E36         9.000    24149816.324 7 126908308.86307      1351.341 7        47.980                                                                    24149818.683 8  94769327.82008      1009.049 8        49.870    24149818.295 8  97241559.28808      1035.416 8        50.241
R08        10.000    24377361.479 6 130539675.29106     -2625.375 6        38.730                                                                    24377362.611 6 101530855.68206     -2041.873 6        40.658
G20        11.000    23802884.022 6 125085111.41106     -1605.234 6        40.119                                    23802880.948 3  97468977.64703     -1250.855 3        22.305
S27        12.000    39243113.070 6 206223997.18006      -465.849 6        36.359
E08        13.000    28831708.738 5 151511714.76905     -3087.807 5        35.152                                                                    28831719.687 6 113141943.96706     -2305.647 6        36.378    28831717.145 6 116093462.34306     -2365.830 6        36.185
S36        14.000    38221557.866 7 200856099.15307      -477.454 7        44.090
C13        15.000                                                                                                                                    38269204.967 7 199277828.48607       655.269 7        43.636    38269208.221 7 154094285.98707       506.675 7        44.305    38269205.845 7 161929577.13107       532.524 7        42.828
G18        16.000    21684784.088 7 113954511.81907      2082.102 7        47.993                                    21684782.377 6  88795813.34306      1622.418 6        37.898    21684782.366 7  88795821.34807      1622.463 7        45.439
G12        17.000    25619467.043 3                     -4114.608 3        19.522
R01        18.000    23718919.812 6 126791224.02506       340.865 6        38.339                                                                    23718921.928 5  98615271.38405       264.979 5        32.623
E02        19.000    23441008.107 8 123183497.63808       442.201 8        48.779                                                                    23441008.381 8  91987781.09808       330.154 8        51.315    23441007.724 8  94387448.05508       338.786 8        51.169
E10        21.000    26109872.743 7 137208521.92007     -2773.070 7        42.171                                                                    26109874.191 7 102461040.92507     -2070.787 7        45.884    26109873.766 7 105133922.88307     -2124.764 7        45.865
I06        22.000    38723701.158 6 151960288.70006      -384.889 6        40.951
S28        23.000    40928875.067 5 215082670.84305      -476.419 5        34.062
E29        24.000    28918831.805 5 151969497.39105       421.791 5        33.156                                                                    28918833.557 6 113483713.67106       314.801 6        37.652    28918833.329 6 116444159.12106       322.999 6        39.207
S23        25.000    38172579.674 7 200598178.02407      -481.608 7        44.733
S45        26.000    63430110.269 6 333328030.15506      -539.146 6        36.529
R09        27.000    20808244.493 8 111115043.15908      2657.325 8        49.271                                                                    20808245.486 7  86422915.68807      2066.781 7        47.524
R18        28.000    19139717.198 8 102169395.15208     -1233.075 8        51.253                                                                    19139718.306 7  79465234.24407      -959.062 7        47.737
C38        29.000                                                                                                                                    38658730.266 7 201306251.89807      -122.315 7        43.422                                                                    38658728.220 7 163577860.34807       -99.403 7        43.852
C44        30.000                                                                                                                                    21489774.787 8 111903108.68308     -1320.369 8        51.142                                                                    21489773.963 8  90930525.05208     -1072.915 8        50.317
E12        31.000    28383004.982 5 149153877.86205     -3387.687 5        34.700                                                                    28383002.688 6 111381253.65906     -2530.039 6        37.112    28383002.821 6 114286834.67606     -2595.841 6        38.117
G11        32.000    25657248.412 6 134829963.61106     -4050.223 6        36.870                                    25657245.603 3 105062412.14403     -3156.010 3        18.478    25657245.708 6 105062403.14506     -3156.076 6        37.013
I02        33.000    38118324.915 6 149584522.78506      -834.281 6        41.066
R15        34.000    22375960.413 7 119570474.74907     -4528.926 7        45.920                                                                    22375964.479 7  92999322.83607     -3522.532 7        42.559
E34        35.000    27715816.502 6 145647679.81806      2758.821 6        38.850                                                                    27715825.725 6 108762951.66406      2060.180 6        41.638    27715824.213 6 111600239.14106      2113.880 6        41.254
G29        36.000    20626876.314 8 108395257.00908     -1578.358 8        48.559                                    20626873.441 8  84463944.73508     -1229.890 8        50.207    20626873.810 7  84463954.73407     -1229.836 7        45.397
G31        37.000    21696630.401 7 114016773.61807     -1029.105 7        47.436                                    21696627.958 7  88844333.35407      -801.901 7        46.051    21696628.639 7  88844339.36307      -801.954 7        43.486
C10        38.000                                                                                                                                    41071854.757 5 213871950.80805     -1154.508 5        33.659    41071855.301 6 165379365.77806      -892.786 6        39.348    41071852.465 5 173788472.67005      -938.278 5        34.995
E25        39.000    24250352.123 7 127436665.66407     -2134.164 7        47.009                                                                    24250353.776 8  95163871.40608     -1593.669 8        49.936    24250353.177 8  97646391.72408     -1635.272 8        50.208
C12        40.000                                                                                                                                    21716654.626 7 113084512.78507       171.235 7        47.023    21716652.297 8  87444211.33308       132.441 8        51.811    21716651.529 8  91890499.79908       139.152 8        50.109
E07        41.000    28175487.593 6 148063157.33506     -1744.824 6        37.289                                                                    28175497.632 6 110566652.60106     -1302.874 6        40.169    28175496.484 6 113450997.07106     -1336.824 6        40.513
S44        42.000    40589075.525 6 213297183.41906      -405.955 6        37.278
G28        43.000    22046973.908 7 115857811.47107     -2646.385 7        46.742                                    22046972.676 5  90278901.93705     -2062.118 5        35.705    22046972.791 7  90278901.93607     -2062.095 7        44.721
C05        44.000                                                                                                                                    39404854.352 6 205191416.54906      -418.772 6        37.849    39404852.646 7 158667033.15007      -323.904 7        42.874    39404853.477 6 166734929.08606      -340.454 6        40.014
C11        45.000                                                                                                                                    24693703.365 7 128586656.37907      2431.016 7        42.533    24693705.007 7  99431399.49707      1879.687 7        46.069    24693702.243 7 104487214.59307      1975.343 7        44.074
R16        46.000    19221885.353 8 102680054.48908     -1488.187 8        52.240                                                                    19221886.302 7  79862376.95007     -1157.494 7        47.632
R17        47.000    21676771.772 8 115997018.05108     -4107.382 8        48.590                                                                    21676771.844 7  90220034.23007     -3194.590 7        43.685
C35        48.000                                                                                                                                    24526641.551 7 127716822.80807     -3301.235 7        43.306                                                                    24526641.967 7 103780444.22507     -2682.518 7        44.615
C24        49.000                                                                                                                                    22126801.618 8 115220126.99808     -2363.257 8        50.471                                                                    22126799.535 8  93625811.98008     -1920.328 8        50.087
R19        50.000    20294727.833 6 108563343.78906      2085.017 6        40.482                                                                    20294728.465 7  84438262.29807      1621.648 7        44.408
S48        51.000    77170858.104 6 405536788.25106      -511.917 6        38.060
C08        52.000                                                                                                                                    38120800.717 6 198505101.62806       492.574 6        41.592    38120796.971 7 153496760.97907       380.949 7        45.293    38120795.652 7 161301669.36907       400.396 7        42.701
C34        53.000                                                                                                                                    22680494.242 8 118103531.68608      1668.827 8        48.955                                                                    22680495.627 8  95968903.09808      1356.123 8        48.294
C60        54.000                                                                                                                                    40589075.201 6 211358137.21906      -402.110 6        37.902                                                                    40589061.940 6 171745761.67006      -326.708 6        40.458
C25        55.000                                                                                                                                    22531225.902 8 117326228.11108       898.672 8        49.083                                                                    22531225.399 8  95337259.18008       730.252 8        48.800
C26        56.000                                                                                                                                    25934951.091 6 135050152.23106     -3921.228 6        41.785                                                                    25934954.497 7 109739346.83307     -3186.316 7        42.165
C02        57.000                                                                                                                                    40780942.763 5 212357093.95705      -383.888 5        33.545    40780940.861 6 164207961.14106      -296.499 6        39.670    40780941.741 5 172557530.39005      -311.847 5        33.916
I03        58.000    85809797.430 6 260950787.42706      1091.022 6        41.311
E30        59.000    27390724.104 6 143939363.64506      2157.124 6        39.222                                                                    27390729.984 7 107487282.60107      1610.753 7        42.696    27390729.037 7 110291284.78607      1652.894 7        42.993
> 2025 01 02 16 30  5.0000000  0 58
E24         1.000    28913562.070 3                     -3225.076 3        21.500                                                                    28913564.536 4                     -2407.583 4        24.120    28913563.334 3                     -2471.395 3        23.143
E11         2.000    24201767.293 7 127181331.60107     -1489.177 7        43.333                                                                    24201764.578 7  94973193.83407     -1111.957 7        45.628    24201764.173 7  97450742.04907     -1140.958 7        46.007
G16         3.000    24067159.300 6 126473877.36806      3053.024 6        38.198                                    24067159.984 3  98551132.48803      2378.956 3        19.642
G05         4.000    23131616.633 7 121557542.51007       816.901 7        43.420                                    23131614.511 6  94720181.93906       636.542 6        39.060    23131615.159 6  94720180.95606       636.493 6        39.664
S21         5.000    38450886.857 7 202060410.61407      -477.803 7        42.354
G26         6.000    21666550.792 7 113858697.82107      1936.648 7        45.962                                    21666552.037 7  88721186.94807      1509.073 7        44.963    21666551.960 7  88721173.95307      1509.113 7        43.181
G25         7.000    21895592.884 7 115062290.02507     -3478.666 7        45.550                                    21895593.241 7  89659012.36607     -2710.650 7        43.757    21895593.188 7  89659013.37607     -2710.687 7        42.163
G04         8.000    25186205.996 6 132354369.61806     -1022.603 6        37.913                                    25186207.621 3 103133252.62503      -796.842 3        19.493    25186207.782 6 103133261.62006      -797.015 6        36.072
E36         9.000    24148531.721 7 126901557.04507      1349.229 7        47.973                                                                    24148533.834 8  94764285.88508      1007.518 8        49.895    24148533.428 8  97236385.82108      1033.859 8        50.318
R08        10.000    24379813.868 6 130552809.54106     -2628.586 6        37.267                                                                    24379816.134 6 101541071.26106     -2044.314 6        40.420
G20        11.000    23804411.970 6 125093144.81706     -1608.332 6        39.613                                    23804409.662 3  97475237.44303     -1253.255 3        22.648
S27        12.000    39243554.808 6 206226326.08906      -465.894 6        36.095
E08        13.000    28834646.733 5 151527153.95805     -3087.950 5        35.414                                                                    28834657.440 6 113153473.23306     -2306.159 6        36.862    28834655.604 6 116105292.38506     -2366.136 6        36.832
S36        14.000    38222012.156 7 200858486.68207      -477.659 7        44.286
C13        15.000                                                                                                                                    38268576.181 7 199274554.29807       654.202 7        43.458    38268579.374 7 154091754.18407       505.877 7        44.396    38268577.177 7 161926916.56907       531.667 7        42.883
G18        16.000    21682803.950 7 113944106.58407      2079.765 7        47.863                                    21682802.297 6  88787705.38106      1620.590 6        38.012    21682802.481 7  88787713.39407      1620.633 7        45.500
G12        17.000    25623381.685 3                     -4115.221 3        19.403                                                                                                    25623376.738 3                     -3201.328 3        19.194
R01        18.000    23718603.717 6 126789529.08606       336.906 6        38.652                                                                    23718604.540 5  98613953.09105       261.798 5        33.587
E02        19.000    23440587.875 8 123181289.88008       440.689 8        48.578                                                                    23440588.260 8  91986132.45908       329.088 8        51.324    23440587.558 8  94385756.40308       337.725 8        51.185
E10        21.000    26112512.172 7 137222390.04907     -2774.480 7        42.214                                                                    26112513.206 7 102471397.00407     -2071.863 7        45.908    26112512.673 7 105144549.11807     -2125.889 7        45.845
I06        22.000    38724191.800 6 151962213.15606      -384.988 6        41.015
S28        23.000    40929327.108 5 215085053.08705      -476.518 5        34.057
E29        24.000    28918432.481 5 151967394.13305       419.614 5        32.503                                                                    28918433.417 6 113482143.06506       313.098 6        38.123    28918433.104 6 116442547.54406       321.394 6        39.438
S23        25.000    38173036.213 7 200600585.46007      -481.635 7        44.644
S45        26.000    63430565.923 6 333330725.96506      -539.469 6        36.612
R09        27.000    20805757.463 8 111101761.90908      2654.892 8        49.942                                                                    20805758.198 7  86412585.83807      2064.953 7        47.566
R18        28.000    19140873.893 8 102175568.95508     -1236.623 8        51.439                                                                    19140874.732 7  79470036.10607      -961.816 7        47.545
C38        29.000                                                                                                                                    38658848.237 7 201306865.62207      -123.422 7        43.608                                                                    38658846.108 7 163578359.04307      -100.184 7        43.934
C44        30.000                                                                                                                                    21491043.467 8 111909714.99908     -1322.401 8        51.115                                                                    21491042.597 8  90935893.20308     -1074.418 8        50.410
E12        31.000    28386228.815 5 149170818.10305     -3388.329 5        34.662                                                                    28386226.172 6 111393903.84206     -2530.388 6        37.059    28386226.497 6 114299814.88906     -2596.195 6        37.996
G11        32.000    25661102.055 6 134850215.71006     -4050.779 6        37.380                                    25661099.471 3 105078192.98403     -3156.439 3        18.448    25661100.025 6 105078184.00006     -3156.396 6        37.157
I02        33.000    38119388.543 6 149588694.07706      -834.436 6        41.244
R15        34.000    22380199.659 7 119593123.25507     -4530.606 7        46.680                                                                    22380203.182 7  93016938.32607     -3523.735 7        43.306
E34        35.000    27713191.404 6 145633886.12906      2758.220 6        38.853                                                                    27713200.829 6 108752651.20906      2060.015 6        41.666    27713199.412 6 111589669.97006      2113.634 6        41.652
G29        36.000    20628379.105 8 108403152.88408     -1580.237 8        48.656                                    20628375.977 8  84470097.37108     -1231.355 8        50.274    20628376.472 7  84470107.37207     -1231.349 7        45.445
G31        37.000    21697611.085 7 114021926.95107     -1032.531 7        47.348                                    21697608.616 7  88848348.94907      -804.572 7        46.135    21697609.111 7  88848354.94807      -804.496 7        42.921
C10        38.000                                                                                                                                    41072963.765 5 213877723.59305     -1154.653 5        34.114    41072963.542 6 165383829.65806      -893.095 6        39.192    41072961.076 5 173793163.50405      -938.367 5        35.376
E25        39.000    24252383.386 7 127447339.33107     -2135.560 7        47.033                                                                    24252384.893 8  95171842.00408     -1594.754 8        50.033    24252384.340 8  97654570.25008     -1636.383 8        50.183
C12        40.000                                                                                                                                    21716490.872 7 113083661.30307       169.056 7        46.944    21716488.690 8  87443552.92508       130.763 8        51.860    21716487.941 8  91889807.88208       137.540 8        50.186
E07        41.000    28177148.803 6 148071885.66506     -1746.681 6        36.813                                                                    28177158.670 6 110573170.52306     -1304.426 6        40.074    28177157.587 6 113457685.03406     -1338.471 6        40.577
S44        42.000    40589464.999 6 213299212.29206      -405.852 6        37.195
G28        43.000    22049493.276 7 115871049.32907     -2649.078 7        46.679                                    22049491.769 5  90289217.15305     -2064.217 5        35.824    22049491.908 7  90289217.14907     -2064.198 7        44.527
C05        44.000                                                                                                                                    39405256.731 6 205193510.79606      -419.122 6        37.754    39405254.819 7 158668652.55407      -323.856 7        42.743    39405255.682 6 166736630.79806      -340.251 6        40.074
C11        45.000                                                                                                                                    24691369.177 7 128574503.75207      2429.907 7        42.787    24691371.658 7  99422002.35607      1878.968 7        46.403    24691368.401 7 104477339.59207      1974.653 7        44.253
R16        46.000    19223279.777 8 102687504.75308     -1492.198 8        52.083                                                                    19223281.396 7  79868171.60107     -1160.587 7        47.988
R17        47.000    21680610.224 8 116017557.46308     -4108.631 8        48.908                                                                    21680610.431 7  90236009.32907     -3195.621 7        43.276
C35        48.000                                                                                                                                    24529811.866 7 127733330.38907     -3301.942 7        43.594                                                                    24529812.241 7 103793857.95907     -2682.973 7        44.966
C24        49.000                                                                                                                                    22129071.628 8 115231948.46008     -2365.584 8        50.672                                                                    22129069.713 8  93635417.86608     -1922.118 8        50.186
R19        50.000    20292780.849 6 108552925.71506      2081.946 6        40.708                                                                    20292781.071 7  84430159.39207      1619.263 7        44.855
S48        51.000    77171322.165 6 405539347.84306      -511.995 6        38.012
C08        52.000                                                                                                                                    38120328.849 6 198502640.59206       491.448 6        41.480    38120324.124 7 153494857.96707       380.053 7        45.287    38120323.114 7 161299669.57207       399.428 7        42.821
C34        53.000                                                                                                                                    22678892.458 8 118095191.22108      1667.092 8        48.838                                                                    22678893.867 8  95962125.77208      1354.845 8        48.403
C60        54.000                                                                                                                                    40589461.299 6 211360147.67006      -402.226 6        37.743                                                                    40589447.841 6 171747395.30306      -326.757 6        40.489
C25        55.000                                                                                                                                    22530364.192 8 117321740.24308       896.262 8        48.891                                                                    22530363.530 8  95333612.40608       728.406 8        49.018
C26        56.000                                                                                                                                    25938716.437 6 135069758.69906     -3921.621 6        41.502                                                                    25938719.730 7 109755278.66507     -3186.624 7        42.125
C02        57.000                                                                                                                                    40781311.301 5 212359011.04505      -383.456 5        33.281    40781308.853 6 164209443.57306      -296.577 6        39.778    40781309.872 5 172559088.14005      -311.528 5        34.390
I03        58.000    85808407.271 6 260945331.80706      1091.115 6        41.201
E30        59.000    27388671.916 6 143928577.90106      2156.730 6        39.592                                                                    27388677.405 7 107479228.35307      1610.657 7        42.893    27388676.376 7 110283020.42407      1652.662 7        43.026
> 2025 01 02 16 30 10.0000000  0 58
E24         1.000    28916631.352 3                     -3224.465 3        21.405                                                                    28916633.124 4                     -2408.476 4        25.429    28916632.432 3                     -2472.578 3        23.695
E11         2.000    24203185.007 7 127188781.02807     -1490.961 7        43.501                                                                    24203182.148 7  94978756.73207     -1113.323 7        45.708    24203181.749 7  97456450.07107     -1142.405 7        45.845
G16         3.000    24064253.885 6 126458612.87406      3052.747 6        39.165                                    24064255.071 3  98539238.16003      2378.736 3        19.672
G05         4.000    23130840.945 7 121553464.73307       814.033 7        44.101                                    23130838.376 6  94717004.46406       634.307 6        39.072    23130839.132 6  94717003.46506       634.387 6        39.685
S21         5.000    38451338.541 7 202062798.95507      -477.540 7        42.279
G26         6.000    21664708.774 7 113849018.87607      1934.957 7        45.886                                    21664710.180 7  88713644.93307      1507.754 7        44.968    21664710.275 7  88713631.93707      1507.866 7        43.268
G25         7.000    21898903.088 7 115079686.56207     -3479.971 7        45.482                                    21898903.699 7  89672568.11207     -2711.665 7        43.727    21898903.896 6  89672569.12806     -2711.873 6        41.890
G04         8.000    25187181.045 6 132359490.97406     -1025.739 6        37.750                                    25187182.100 3 103137243.26603      -799.246 3        20.024    25187183.070 6 103137252.24106      -799.126 6        37.002
E36         9.000    24147248.552 7 126894814.98107      1347.427 7        47.742                                                                    24147250.894 8  94759251.23808      1006.269 8        49.972    24147250.495 8  97231219.84108      1032.466 8        50.387
R08        10.000    24382271.001 6 130565959.64506     -2631.480 6        38.925                                                                    24382271.098 6 101551299.25206     -2046.602 6        39.315
G20        11.000    23805943.907 6 125101192.97906     -1610.914 6        39.664                                    23805941.045 3  97481508.74903     -1255.261 3        22.324
S27        12.000    39243995.679 6 206228654.75806      -465.870 6        36.333
E08        13.000    28837584.664 5 151542594.70805     -3088.439 5        34.900                                                                    28837595.443 6 113165003.65806     -2306.174 6        37.191    28837593.749 6 116117123.59806     -2366.375 6        36.745
S36        14.000    38222464.295 7 200860874.10307      -477.427 7        44.156
C13        15.000                                                                                                                                    38267948.334 7 199271284.93507       653.407 7        43.689    38267951.314 7 154089226.10007       505.307 7        44.384    38267949.289 7 161924259.95407       530.954 7        42.762
G18        16.000    21680826.510 8 113933712.68008      2077.684 8        48.098                                    21680824.374 6  88779606.25506      1618.974 6        37.996    21680824.740 7  88779614.24907      1619.028 7        44.831
G12        17.000                                                                                                                                                                    25627295.789 3                     -3205.511 3        19.851
R01        18.000    23718291.362 6 126787854.13706       332.933 6        38.613                                                                    23718292.776 5  98612650.31005       258.929 5        34.100
E02        19.000    23440169.022 8 123179088.92008       439.560 8        48.608                                                                    23440169.443 8  91984488.89708       328.263 8        51.368    23440168.700 8  94384069.97008       336.803 8        51.132
E10        21.000    26115152.418 7 137236264.94907     -2775.657 7        42.256                                                                    26115153.456 7 102481758.13307     -2072.630 7        45.806    26115152.995 7 105155180.53407     -2126.742 7        45.794
I06        22.000    38724682.168 6 151964137.29806      -384.639 6        41.087
S28        23.000    40929779.573 5 215087434.88305      -476.416 5        34.314
E29        24.000    28918033.827 5 151965301.56505       417.702 5        32.958                                                                    28918035.273 6 113480580.39106       311.882 6        38.168    28918034.883 6 116440944.11406       319.871 6        38.832
S23        25.000    38173493.763 7 200602992.80807      -481.419 7        44.631
S45        26.000    63431025.588 6 333333421.63506      -539.110 6        36.336
R09        27.000    20803272.796 8 111088492.44308      2652.786 8        49.679                                                                    20803273.099 7  86402265.14607      2063.334 7        47.295
R18        28.000    19142034.009 8 102181760.28508     -1239.977 8        51.492                                                                    19142034.731 7  79474851.59407      -964.386 7        47.334
C38        29.000                                                                                                                                    38658967.099 7 201307484.49607      -124.298 7        43.913                                                                    38658964.894 7 163578861.93607      -100.841 7        43.638
C44        30.000                                                                                                                                    21492313.893 8 111916330.75108     -1324.034 8        51.021                                                                    21492313.071 8  90941269.07008     -1075.945 8        50.250
E12        31.000    28389453.022 5 149187761.19805     -3388.884 5        34.533                                                                    28389450.572 6 111406556.15706     -2530.576 6        37.399    28389450.532 6 114312797.26006     -2596.471 6        37.807
G11        32.000    25664957.437 6 134870470.47406     -4050.958 6        37.202                                    25664953.696 3 105093975.92303     -3156.599 3        18.478    25664953.961 6 105093966.93806     -3156.793 6        37.297
I02        33.000    38120451.354 6 149592865.72706      -834.441 6        41.294
R15        34.000    22384440.038 7 119615779.24807     -4531.892 7        46.411                                                                    22384442.560 7  93034559.63507     -3524.792 7        43.579
E34        35.000    27710566.647 6 145620093.99406      2758.248 6        38.889                                                                    27710576.318 6 108742351.92806      2059.725 6        41.695    27710574.836 7 111579102.00007      2113.588 7        42.047
G29        36.000    20629883.606 8 108411058.07608     -1581.902 8        48.987                                    20629880.285 8  84476257.26408     -1232.653 8        50.248    20629880.829 7  84476267.27007     -1232.643 7        45.407
G31        37.000    21698594.895 7 114027097.09807     -1035.681 7        47.515                                    21698592.462 7  88852377.64607      -807.024 7        46.082    21698592.742 7  88852383.65307      -807.049 7        42.622
C10        38.000                                                                                                                                    41074072.356 5 213883496.43005     -1154.366 5        34.109    41074072.265 6 165388293.58106      -892.838 6        38.982    41074069.871 5 173797854.41105      -938.376 5        35.248
E25        39.000    24254415.499 7 127458019.58107     -2136.664 7        46.991                                                                    24254417.258 8  95179817.52108     -1595.578 8        50.073    24254416.711 8  97662753.81908     -1637.157 8        50.190
C12        40.000                                                                                                                                    21716329.431 7 113082820.29307       167.213 7        46.906    21716327.322 8  87442902.61708       129.326 8        51.898    21716326.502 8  91889124.51508       135.808 8        50.042
E07        41.000    28178811.662 6 148080623.75206     -1748.623 6        37.168                                                                    28178821.420 6 110579695.71306     -1305.674 6        40.198    28178820.264 6 113464380.44206     -1339.758 6        40.563
S44        42.000    40589846.307 6 213301241.09306      -405.687 6        36.998
G28        43.000    22052014.995 7 115884300.21807     -2651.506 7        46.684                                    22052013.281 5  90299542.51905     -2066.108 5        35.781    22052013.652 7  90299542.51507     -2066.026 7        44.736
C05        44.000                                                                                                                                    39405658.976 6 205195604.77606      -418.691 6        37.853    39405656.925 7 158670271.76707      -323.756 7        42.745    39405657.775 6 166738332.35106      -340.246 6        40.031
C11        45.000                                                                                                                                    24689036.056 7 128562355.80307      2429.052 7        42.648    24689038.822 7  99412608.81407      1878.378 7        45.664    24689035.499 7 104467468.42307      1973.824 7        44.020
R16        46.000    19224677.821 8 102694974.81808     -1495.959 8        51.784                                                                    19224679.155 7  79873981.64707     -1163.503 7        47.967
R17        47.000    21684449.201 8 116038102.90808     -4109.685 8        48.256                                                                    21684450.309 7  90251989.12607     -3196.374 7        43.892
C35        48.000                                                                                                                                    24532982.482 7 127749840.70607     -3302.325 7        43.700                                                                    24532982.908 7 103807273.96207     -2683.486 7        44.870
C24        49.000                                                                                                                                    22131344.357 8 115243780.95608     -2367.576 8        50.516                                                                    22131342.080 8  93645032.75508     -1923.894 8        49.976
R19        50.000    20290835.599 6 108542522.69506      2079.218 6        40.541                                                                    20290836.249 7  84422068.15107      1617.177 7        44.531
S48        51.000    77171783.261 6 405541906.78206      -511.681 6        37.679
C08        52.000                                                                                                                                    38119857.572 6 198500185.05406       490.565 6        41.628    38119852.444 7 153492959.18807       379.339 7        45.186    38119851.422 7 161297674.26107       398.536 7        42.573
C34        53.000                                                                                                                                    22677292.152 8 118086858.50908      1665.734 8        48.693                                                                    22677293.653 8  95955354.79308      1353.504 8        48.170
C60        54.000                                                                                                                                    40589847.423 6 211362158.02106      -402.210 6        37.698                                                                    40589833.966 6 171749028.89106      -326.663 6        40.181
C25        55.000                                                                                                                                    22529504.242 8 117317264.07908       894.079 8        48.724                                                                    22529503.904 8  95329975.16908       726.517 8        48.743
C26        56.000                                                                                                                                    25942481.946 6 135089366.91006     -3921.768 6        41.468                                                                    25942485.270 6 109771211.91906     -3186.562 6        41.769
C02        57.000                                                                                                                                    40781679.638 5 212360927.93105      -383.408 5        33.748    40781676.908 6 164210925.84106      -296.478 6        39.652    40781677.998 5 172560645.81605      -311.623 5        33.671
I03        58.000    85807016.608 6 260939875.97806      1091.235 6        41.478
E30        59.000    27386619.490 6 143917792.95106      2157.048 6        39.826                                                                    27386625.081 7 107471174.69607      1610.780 7        42.857    27386624.177 7 110274756.67207      1652.679 7        43.124
> 2025 01 02 16 30 15.0000000  0 58
E24         1.000    28919700.356 3                     -3225.454 3        19.970                                                                    28919703.314 4                     -2409.727 4        24.571    28919702.564 3                     -2470.812 3        23.448
E11         2.000    24204604.457 7 127196241.11507     -1493.165 7        43.414                                                                    24204601.758 7  94984327.57807     -1114.930 7        45.505    24204601.374 7  97462166.23507     -1144.075 7        45.904
G16         3.000    24061349.842 6 126443350.66706      3052.181 6        38.928                                    24061350.814 3  98527345.61003      2378.309 3        19.701
G05         4.000    23130067.809 7 121549402.15107       810.969 7        43.778                                    23130065.156 6  94713838.82306       631.923 6        39.120    23130065.876 6  94713837.82006       631.982 6        39.718
S21         5.000    38451795.598 7 202065187.05807      -477.623 7        42.434
G26         6.000    21662868.513 7 113839349.06207      1933.034 7        45.112                                    21662870.050 7  88706110.02707      1506.255 7        44.936    21662870.377 7  88706097.03407      1506.281 7        43.801
G25         7.000    21902215.000 7 115097090.99807     -3481.738 7        45.431                                    21902215.638 7  89686130.00807     -2713.041 7        43.666    21902216.069 7  89686131.02407     -2713.029 7        42.282
G04         8.000    25188158.697 6 132364626.72206     -1028.728 6        37.970                                    25188159.480 3 103141245.17503      -801.618 3        20.095    25188160.127 6 103141254.23706      -801.742 6        36.873
E36         9.000    24145967.379 7 126888082.72607      1345.495 7        47.743                                                                    24145969.780 8  94754223.92008      1004.711 8        49.839    24145969.362 8  97226061.37108      1030.936 8        50.268
R08        10.000    24384730.146 6 130579125.70106     -2634.761 6        38.237                                                                    24384729.423 6 101561539.58906     -2049.436 6        39.889
G20        11.000    23807478.628 6 125109255.93906     -1614.132 6        39.949                                    23807475.250 3  97487791.56303     -1257.756 3        22.286
S27        12.000    39244440.529 6 206230983.23206      -466.045 6        36.499
E08        13.000    28840523.282 5 151558036.97805     -3088.893 5        34.914                                                                    28840534.018 6 113176535.21406     -2306.406 6        36.677    28840532.149 6 116128955.99106     -2366.972 6        36.231
S36        14.000    38222920.212 7 200863261.25307      -477.401 7        44.128
C13        15.000                                                                                                                                    38267321.412 7 199268020.31307       652.444 7        43.784    38267324.334 7 154086701.70607       504.425 7        44.305    38267322.245 7 161921607.18807       530.137 7        42.817
G18        16.000    21678850.556 8 113923330.14408      2075.309 8        48.217                                    21678848.659 6  88771515.98106      1617.123 6        37.977    21678849.128 7  88771523.98707      1617.145 7        45.424
G12        17.000                                                                                                                                                                    25631210.815 3                     -3205.203 3        20.595
R01        18.000    23717981.462 6 126786199.14106       328.825 6        38.156                                                                    23717982.963 5  98611363.10105       255.932 5        34.467
E02        19.000    23439751.414 8 123176894.82208       438.063 8        48.569                                                                    23439751.868 8  91982850.45708       327.132 8        51.223    23439751.165 8  94382388.79108       335.622 8        51.181
E10        21.000    26117794.044 7 137250146.64307     -2777.043 7        42.106                                                                    26117794.907 7 102492124.35007     -2073.816 7        45.667    26117794.727 7 105165817.16807     -2127.863 7        45.848
I06        22.000    38725172.336 6 151966061.12706      -384.708 6        41.228
S28        23.000    40930233.170 5 215089816.49805      -476.414 5        34.109
E29        24.000    28917638.016 5 151963219.81405       415.451 5        33.120                                                                    28917639.384 6 113479025.82506       310.138 6        38.315    28917638.841 6 116439348.98706       318.026 6        38.733
S23        25.000    38173950.808 7 200605400.02807      -481.426 7        44.667
S45        26.000    63431486.948 6 333336117.03206      -539.020 6        36.654
R09        27.000    20800789.839 8 111075234.58508      2650.345 8        49.801                                                                    20800790.618 7  86391953.50707      2061.367 7        47.486
R18        28.000    19143197.193 8 102187969.24908     -1243.550 8        51.445                                                                    19143197.981 7  79479680.78907      -967.154 7        47.579
C38        29.000                                                                                                                                    38659086.658 7 201308108.53207      -125.345 7        44.217                                                                    38659084.811 7 163579369.03607      -101.844 7        43.615
C44        30.000                                                                                                                                    21493586.247 8 111922955.97808     -1326.010 8        50.969                                                                    21493585.380 8  90946652.60408     -1077.464 8        50.210
E12        31.000    28392677.401 5 149204707.02005     -3389.330 5        34.448                                                                    28392675.385 6 111419210.58606     -2531.345 6        37.350    28392675.190 6 114325781.78606     -2597.260 6        37.766
G11        32.000    25668811.646 6 134890727.86106     -4051.855 6        36.907                                    25668808.485 3 105109760.89503     -3157.282 3        18.507    25668808.898 6 105109751.90706     -3157.396 6        37.493
I02        33.000    38121514.213 6 149597037.94906      -834.506 6        41.368
R15        34.000    22388680.042 7 119638442.78107     -4533.500 7        46.132                                                                    22388683.796 7  93052186.80707     -3525.989 7        43.543
E34        35.000    27707942.526 6 145606303.46406      2758.004 6        38.778                                                                    27707952.043 6 108732053.83006      2059.505 6        41.514    27707950.740 7 111568535.26307      2113.232 7        42.260
G29        36.000    20631389.568 8 108418972.61008     -1583.901 8        48.415                                    20631386.372 8  84482424.43808     -1234.210 8        50.216    20631386.817 7  84482434.43907     -1234.140 7        45.505
G31        37.000    21699582.399 7 114032284.11207     -1039.149 7        47.518                                    21699579.515 7  88856419.48207      -809.727 7        46.050    21699580.183 7  88856425.49007      -809.755 7        43.005
C10        38.000                                                                                                                                    41075181.830 5 213889269.34005     -1154.933 5        34.605    41075181.029 6 165392757.53006      -892.769 6        38.682    41075178.448 5 173802545.34105      -938.157 5        35.248
E25        39.000    24256449.082 7 127468706.45507     -2138.064 7        46.904                                                                    24256450.934 8  95187797.98108     -1596.587 8        49.965    24256450.388 8  97670942.46808     -1638.263 8        50.211
C12        40.000                                                                                                                                    21716169.948 7 113081989.81007       164.976 7        46.990    21716167.946 8  87442260.44008       127.592 8        52.058    21716166.962 8  91888449.67608       134.056 8        49.998
E07        41.000    28180476.961 6 148089371.62106     -1750.416 6        36.994                                                                    28180485.988 6 110586228.19706     -1307.099 6        39.952    28180485.029 6 113471083.35306     -1341.473 6        40.586
S44        42.000    40590235.298 6 213303269.84606      -405.883 6        37.183
G28        43.000    22054538.849 7 115897564.18507     -2654.112 7        46.294                                    22054537.373 5  90309878.07605     -2068.135 5        35.600    22054537.397 7  90309878.07207     -2068.157 7        44.644
C05        44.000                                                                                                                                    39406061.028 6 205197698.57606      -418.780 6        37.758    39406058.853 7 158671890.82607      -323.756 7        42.749    39406059.926 6 166740033.75006      -340.417 6        40.086
C11        45.000                                                                                                                                    24686704.092 7 128550212.64707      2428.073 7        42.855    24686705.955 7  99403218.99307      1877.625 7        45.865    24686703.584 7 104457601.14107      1973.116 7        44.029
R16        46.000    19226080.111 8 102702464.84708     -1500.009 8        51.614                                                                    19226081.353 7  79879807.23707     -1166.694 7        47.756
R17        47.000    21688289.475 8 116058654.36208     -4110.912 8        48.172                                                                    21688290.970 7  90267973.59907     -3197.413 7        44.254
C35        48.000                                                                                                                                    24536153.654 7 127766353.81007     -3303.037 7        43.977                                                                    24536153.934 7 103820692.21707     -2683.894 7        44.777
C24        49.000                                                                                                                                    22133618.579 8 115255624.54108     -2369.854 8        50.321                                                                    22133616.460 8  93654656.62708     -1925.687 8        50.014
R19        50.000    20288893.440 6 108532134.72806      2076.157 6        40.698                                                                    20288894.159 7  84413988.62807      1614.695 7        44.534
S48        51.000    77172246.310 6 405544465.91806      -511.899 6        37.921
C08        52.000                                                                                                                                    38119387.660 6 198497734.94806       489.424 6        41.819    38119381.795 7 153491064.62107       378.493 7        45.162    38119381.001 7 161295683.34207       397.811 7        42.717
C34        53.000                                                                                                                                    22675693.535 8 118078533.59008      1664.168 8        48.765                                                                    22675694.952 8  95948590.12708      1352.217 8        48.195
C60        54.000                                                                                                                                    40590233.503 6 211364168.32906      -401.983 6        37.705                                                                    40590219.907 6 171750662.42606      -326.780 6        40.215
C25        55.000                                                                                                                                    22528646.922 8 117312799.65108       891.642 8        48.676                                                                    22528646.536 8  95326347.46508       724.545 8        48.745
C26        56.000                                                                                                                                    25946247.421 6 135108976.88406     -3922.110 6        41.516                                                                    25946251.196 6 109787146.63406     -3187.142 6        41.518
C02        57.000                                                                                                                                    40782048.882 5 212362844.69405      -383.258 5        33.269    40782045.011 6 164212408.00706      -296.451 6        39.739    40782046.040 5 172562203.33505      -311.754 5        33.431
I03        58.000    85805626.385 6 260934419.97006      1091.228 6        41.595
E30        59.000    27384567.491 6 143907008.87506      2156.734 6        39.817                                                                    27384572.871 7 107463121.68207      1610.568 7        42.690    27384571.912 7 110266493.57307      1652.555 7        43.075
> 2025 01 02 16 30 20.0000000  0 58
E24         1.000    28922768.233 3                     -3223.761 3        19.463                                                                    28922772.716 4                     -2408.064 4        24.617    28922770.374 4                     -2472.522 4        24.586
E11         2.000    24206026.176 7 127203712.63807     -1495.493 7        43.431                                                                    24206023.480 7  94989906.97307     -1116.741 7        45.526    24206023.218 7  97467891.17307     -1145.827 7        45.992
G16         3.000    24058445.599 6 126428091.59306      3051.471 6        39.042                                    24058447.072 3  98515455.47903      2377.742 3        20.048
G05         4.000    23129297.154 7 121545355.58707       807.724 7        43.680                                    23129295.049 6  94710685.66706       629.398 6        39.243    23129295.575 6  94710684.67506       629.300 6        39.246
S21         5.000    38452251.579 7 202067575.69207      -477.865 7        42.326
G26         6.000    21661030.077 7 113829689.17607      1931.014 7        45.248                                    21661031.819 7  88698582.86607      1504.683 7        44.932    21661032.156 7  88698569.88207      1504.597 7        43.566
G25         7.000    21905528.608 7 115114504.09907     -3483.590 7        45.440                                    21905529.244 7  89699698.66307     -2714.483 7        43.727    21905529.730 7  89699699.66807     -2714.483 7        42.336
G04         8.000    25189138.437 6 132369777.64106     -1031.726 6        37.240                                    25189139.763 3 103145258.95803      -803.947 3        19.642    25189140.423 6 103145267.95806      -803.986 6        36.934
E36         9.000    24144688.206 7 126881361.08007      1343.246 7        47.603                                                                    24144690.715 8  94749204.51108      1003.097 8        49.723    24144690.250 8  97220911.02208      1029.248 8        50.330
R08        10.000    24387192.919 6 130592308.30606     -2638.283 6        39.568                                                                    24387192.072 6 101571792.75706     -2052.099 6        40.052
G20        11.000    23809016.047 6 125117334.50306     -1617.255 6        39.757                                    23809012.227 3  97494086.55803     -1260.178 3        22.190
S27        12.000    39244882.965 6 206233312.58706      -466.182 6        36.393
E08        13.000    28843462.255 5 151573481.57905     -3089.128 5        34.281                                                                    28843473.088 6 113188068.51506     -2306.800 6        36.582    28843471.315 6 116140790.12706     -2366.884 6        36.820
S36        14.000    38223373.599 7 200865648.85607      -477.544 7        44.229
C13        15.000                                                                                                                                    38266695.414 7 199264761.31207       651.294 7        43.780    38266698.382 7 154084181.64407       503.630 7        44.114    38266696.418 7 161918958.98307       529.407 7        42.682
G18        16.000    21676877.170 8 113912959.77408      2072.851 8        48.168                                    21676875.198 6  88763435.18406      1615.207 6        38.048    21676875.520 7  88763443.18807      1615.113 7        45.648
G12        17.000                                                                                                                                                                    25635127.299 3                     -3206.223 3        21.238
R01        18.000    23717674.695 6 126784564.94106       324.704 6        38.093                                                                    23717676.699 5  98610092.06805       252.783 5        34.676
E02        19.000    23439335.482 8 123174708.37108       436.451 8        48.444                                                                    23439335.764 8  91981217.72708       325.940 8        51.256    23439335.086 8  94380713.46208       334.441 8        51.246
E10        21.000    26120437.042 6 137264035.92006     -2778.515 6        41.805                                                                    26120437.928 7 102502496.21807     -2074.990 7        45.536    26120437.904 7 105176459.60907     -2129.088 7        45.898
I06        22.000    38725662.853 6 151967985.24606      -384.969 6        41.347
S28        23.000    40930685.189 5 215092198.52405      -476.578 5        34.005
E29        24.000    28917243.837 5 151961149.70805       412.831 5        33.311                                                                    28917245.416 6 113477479.98706       308.351 6        38.646    28917244.857 6 116437762.80606       316.369 6        38.667
S23        25.000    38174410.557 7 200607807.75207      -481.645 7        44.667
S45        26.000    63431944.211 6 333337112.99316      -539.315 6        36.624
R09        27.000    20798309.694 8 111061989.22408      2647.818 8        50.063                                                                    20798309.774 7  86381651.57107      2059.359 7        46.996
R18        28.000    19144363.559 8 102194196.59708     -1247.388 8        51.435                                                                    19144364.535 7  79484524.29407      -970.181 7        47.450
C38        29.000                                                                                                                                    38659207.525 7 201308738.51907      -126.643 7        44.355                                                                    38659205.776 7 163579880.95707      -102.755 7        43.393
C44        30.000                                                                                                                                    21494860.440 8 111929591.46108     -1328.165 8        50.896                                                                    21494859.645 8  90952044.48408     -1079.089 8        50.092
E12        31.000    28395903.064 5 149221656.50005     -3390.162 5        34.390                                                                    28395900.648 6 111431867.68006     -2531.667 6        37.259    28395900.744 6 114338769.07006     -2597.844 6        37.750
G11        32.000    25672667.321 6 134910988.71806     -4052.673 6        37.180                                    25672664.070 3 105125548.57203     -3157.936 3        18.657    25672664.856 6 105125539.54706     -3157.892 6        37.240
I02        33.000    38122577.999 6 149601211.10606      -834.819 6        41.278
R15        34.000    22392923.608 7 119661114.49707     -4535.196 7        47.292                                                                    22392926.228 7  93069820.35507     -3527.319 7        42.955
E34        35.000    27705318.453 6 145592515.32806      2757.311 6        38.631                                                                    27705328.060 6 108721757.52206      2059.029 6        41.323    27705327.067 7 111557970.36307      2112.676 7        42.571
G29        36.000    20632897.369 8 108426897.29608     -1586.026 8        48.118                                    20632894.373 8  84488599.52108     -1235.865 8        50.193    20632894.827 7  84488609.51907     -1235.759 7        45.263
G31        37.000    21700572.657 7 114037488.75307     -1042.740 7        47.764                                    21700569.921 7  88860475.05507      -812.528 7        46.092    21700570.675 7  88860481.06607      -812.532 7        42.952
C10        38.000                                                                                                                                    41076290.578 5 213895043.05005     -1154.685 5        34.795    41076289.642 6 165397222.16006      -893.046 6        38.513    41076287.274 5 173807236.99605      -938.292 5        35.262
E25        39.000    24258484.269 7 127479400.74507     -2139.638 7        46.797                                                                    24258486.010 8  95195783.97008     -1597.765 8        49.963    24258485.429 8  97679136.79008     -1639.437 8        50.223
C12        40.000                                                                                                                                    21716012.612 7 113081170.62507       162.666 7        47.112    21716010.504 8  87441627.00508       125.738 8        51.940    21716009.640 8  91887784.02408       132.281 8        49.863
E07        41.000    28182143.068 6 148098130.01506     -1752.594 6        37.376                                                                    28182152.483 6 110592768.57306     -1308.795 6        39.736    28182151.387 6 113477794.32306     -1342.949 6        40.405
S44        42.000    40590618.767 6 213305299.31706      -405.962 6        36.960
G28        43.000    22057065.662 7 115910841.98207     -2656.977 7        47.125                                    22057064.050 5  90320224.40605     -2070.373 5        35.629    22057064.610 7  90320224.40207     -2070.308 7        44.832
C05        44.000                                                                                                                                    39406463.287 6 205199792.94206      -419.003 6        37.837    39406461.004 7 158673510.31407      -323.862 7        42.681    39406462.108 6 166741735.58106      -340.310 6        39.634
C11        45.000                                                                                                                                    24684373.411 7 128538075.00407      2426.895 7        42.595    24684375.116 7  99393833.44207      1876.614 7        46.105    24684372.655 7 104447738.34607      1972.216 7        43.966
R16        46.000    19227486.409 8 102709975.45308     -1504.209 8        51.771                                                                    19227487.558 8  79885648.81908     -1170.001 8        48.070
R17        47.000    21692131.715 8 116079212.68108     -4112.394 8        48.402                                                                    21692132.048 7  90283963.39907     -3198.645 7        43.592
C35        48.000                                                                                                                                    24539325.539 7 127782870.45407     -3303.708 7        43.994                                                                    24539325.611 7 103834113.34807     -2684.425 7        44.594
C24        49.000                                                                                                                                    22135895.199 8 115267479.94908     -2372.325 8        50.499                                                                    22135893.122 8  93664290.11608     -1927.557 8        49.772
R19        50.000    20286954.738 6 108521762.68906      2072.785 6        40.651                                                                    20286955.317 7  84405921.50607      1612.156 7        44.409
S48        51.000    77172709.544 6 405545425.61616      -512.109 6        37.985
C08        52.000                                                                                                                                    38118918.005 6 198495291.18606       488.137 6        41.909    38118912.486 7 153489174.96107       377.472 7        45.026    38118911.636 7 161293697.60107       396.734 7        42.372
C34        53.000                                                                                                                                    22674096.550 8 118070217.25008      1662.319 8        48.897                                                                    22674097.867 8  95941832.42308      1350.976 8        48.005
C60        54.000                                                                                                                                    40590619.561 6 211366179.36106      -402.280 6        37.905                                                                    40590606.268 6 171752296.54706      -326.678 6        40.143
C25        55.000                                                                                                                                    22527792.075 8 117308347.75708       889.127 8        48.723                                                                    22527791.568 8  95322729.94308       722.618 8        48.623
C26        56.000                                                                                                                                    25950013.867 6 135128589.39506     -3922.841 6        41.523                                                                    25950017.399 6 109803083.38006     -3187.385 6        40.925
C02        57.000                                                                                                                                    40782416.315 5 212364762.10605      -383.389 5        33.329    40782413.451 6 164213890.66906      -296.737 6        39.610    40782414.376 5 172563761.38405      -311.372 5        33.772
I03        58.000    85804235.813 6 260928964.36306      1091.055 6        41.712
E30        59.000    27382515.351 6 143896226.40806      2156.430 6        39.411                                                                    27382521.145 7 107455069.89007      1610.228 7        42.698    27382519.951 7 110258231.72907      1652.203 7        43.124
> 2025 01 02 16 30 25.0000000  0 58
E24         1.000    28925839.563 3                     -3227.241 3        20.452                                                                    28925841.769 4                     -2409.006 4        24.075    28925839.673 3                     -2471.295 3        23.943
E11         2.000    24207450.078 7 127211195.03207     -1497.593 7        43.498                                                                    24207447.397 7  94995494.48007     -1118.298 7        45.422    24207446.955 7  97473624.44607     -1147.530 7        46.029
G16         3.000    24055541.895 6 126412835.11506      3050.837 6        38.694                                    24055543.693 3  98503567.40703      2377.246 3        19.821
G05         4.000    23128530.312 7 121541324.47207       804.686 7        43.238                                    23128527.942 6  94707544.54306       627.030 6        39.108    23128529.086 6  94707543.54506       626.902 6        39.526
S21         5.000    38452705.600 7 202069964.57807      -477.816 7        42.326
G26         6.000    21659194.192 7 113820038.72407      1929.174 7        45.648                                    21659195.378 7  88691063.04707      1503.248 7        44.868    21659195.188 7  88691050.05807      1503.182 7        43.196
G25         7.000    21908844.162 7 115131925.31907     -3485.071 7        45.445                                    21908844.376 7  89713273.63907     -2715.642 7        43.591    21908844.503 7  89713274.63607     -2715.657 7        42.027
G04         8.000    25190121.401 6 132374942.94206     -1034.215 6        38.177                                    25190122.643 3 103149283.90303      -805.873 3        19.522    25190122.508 6 103149292.88806      -805.942 6        36.170
E36         9.000    24143411.115 7 126874649.51407      1341.315 7        47.481                                                                    24143413.531 8  94744192.64108      1001.602 8        49.734    24143413.068 8  97215768.40408      1027.705 8        50.350
R08        10.000    24389657.740 6 130605507.12206     -2641.480 6        38.510                                                                    24389655.984 6 101582058.53606     -2054.530 6        39.853
G20        11.000    23810555.775 6 125125428.10106     -1620.177 6        39.679                                    23810552.200 3  97500393.26103     -1262.481 3        21.738
S27        12.000    39245330.024 6 206235642.02406      -465.886 6        36.268
E08        13.000    28846400.932 5 151588927.99005     -3089.473 5        34.643                                                                    28846412.234 6 113199603.13806     -2307.054 6        36.246    28846410.723 6 116152625.68506     -2367.323 6        36.851
S36        14.000    38223826.807 7 200868036.33507      -477.529 7        44.084
C13        15.000                                                                                                                                    38266070.371 7 199261507.39907       650.280 7        43.672    38266073.503 7 154081665.52307       502.820 7        44.120    38266071.441 7 161916314.93607       528.385 7        42.597
G18        16.000    21674905.765 8 113902601.05108      2070.558 8        48.093                                    21674904.008 6  88755363.46706      1613.420 6        37.966    21674904.645 7  88755371.47907      1613.433 7        46.155
G12        17.000                                                                                                                                                                    25639040.590 3                     -3206.655 3        20.143
R01        18.000    23717372.773 6 126782951.05606       320.700 6        38.441                                                                    23717374.846 5  98608836.85605       249.351 5        34.710
E02        19.000    23438920.809 8 123172529.03408       435.183 8        48.398                                                                    23438921.057 8  91979590.31708       324.912 8        51.182    23438920.370 8  94379043.59808       333.372 8        51.304
E10        21.000    26123081.340 6 137277932.27506     -2779.954 6        41.788                                                                    26123082.397 7 102512873.36607     -2076.006 7        45.636    26123082.405 7 105187107.45807     -2130.115 7        46.001
I06        22.000    38726152.998 6 151969909.25606      -384.681 6        41.335
S28        23.000    40931144.988 5 215094580.91905      -476.330 5        34.114
E29        24.000    28916852.070 5 151959090.63705       410.491 5        33.228                                                                    28916853.460 6 113475942.34206       306.466 6        38.523    28916852.767 6 116436185.05506       314.538 6        38.129
S23        25.000    38174870.370 7 200610215.81107      -481.720 7        44.707
S45        26.000    63432407.440 6 333339809.13806      -539.437 6        36.378
R09        27.000    20795831.201 8 111048756.03308      2645.431 8        49.381                                                                    20795832.100 7  86371359.10307      2057.530 7        47.022
R18        28.000    19145533.380 8 102200441.78608     -1250.886 8        51.224                                                                    19145534.542 7  79489381.66907      -972.891 7        47.326
C38        29.000                                                                                                                                    38659329.213 7 201309373.94507      -127.675 7        44.403                                                                    38659327.765 7 163580397.30807      -103.744 7        43.302
C44        30.000                                                                                                                                    21496136.636 8 111936236.66208     -1330.017 8        50.931                                                                    21496135.786 8  90957444.26708     -1080.721 8        49.995
E12        31.000    28399128.925 5 149238609.06905     -3391.070 5        34.071                                                                    28399126.357 6 111444527.07006     -2532.062 6        37.312    28399126.758 6 114351758.70806     -2598.123 6        37.698
G11        32.000    25676522.717 6 134931252.47906     -4052.799 6        37.153                                    25676520.165 3 105141338.49603     -3158.038 3        18.627    25676520.257 6 105141329.48706     -3158.173 6        37.183
I02        33.000    38123641.200 6 149605384.86306      -834.913 6        40.970
R15        34.000    22397167.629 7 119683793.96307     -4536.695 7        46.451                                                                    22397170.454 7  93087459.91907     -3528.556 7        42.902
E34        35.000    27702695.193 6 145578729.07506      2756.906 6        38.778                                                                    27702704.642 6 108711462.62806      2058.742 6        41.328    27702703.574 7 111547406.89407      2112.573 7        42.660
G29        36.000    20634407.528 8 108434831.60108     -1587.784 8        48.484                                    20634404.203 8  84494782.10208     -1237.235 8        50.091    20634404.455 7  84494792.10507     -1237.285 7        45.315
G31        37.000    21701566.263 8 114042710.49208     -1046.084 8        48.007                                    21701563.578 7  88864543.95107      -815.130 7        45.983    21701564.342 7  88864549.95407      -815.125 7        43.181
C10        38.000                                                                                                                                    41077399.336 5 213900817.16205     -1154.761 5        35.324    41077398.550 6 165401687.03906      -893.066 6        38.234    41077396.218 5 173811928.89905      -938.387 5        35.448
E25        39.000    24260520.580 7 127490101.91907     -2140.947 7        46.740                                                                    24260522.358 8  95203775.11008     -1598.774 8        49.833    24260521.729 8  97687336.39408     -1640.488 8        50.281
C12        40.000                                                                                                                                    21715857.372 7 113080362.22407       160.598 7        47.054    21715855.126 8  87441001.91408       124.116 8        52.034    21715854.386 8  91887127.14608       130.551 8        49.710
E07        41.000    28183811.232 6 148106898.47006     -1754.703 6        36.684                                                                    28183821.065 6 110599316.43806     -1310.459 6        39.547    28183819.748 6 113484512.99506     -1344.469 6        40.410
S44        42.000    40591007.959 6 213307329.01906      -405.939 6        37.214
G28        43.000    22059594.975 7 115924133.09507     -2659.626 7        46.953                                    22059593.290 5  90330581.11705     -2072.434 5        35.486    22059593.630 7  90330581.11107     -2072.401 7        44.992
C05        44.000                                                                                                                                    39406865.411 6 205201887.37406      -418.959 6        37.939    39406863.499 7 158675129.88507      -324.073 7        42.722    39406864.205 6 166743437.48606      -340.379 6        39.508
C11        45.000                                                                                                                                    24682043.588 7 128525942.41007      2426.000 7        42.878    24682045.557 7  99384451.78707      1875.883 7        46.268    24682042.821 7 104437879.65907      1971.207 7        43.981
R16        46.000    19228896.500 8 102717506.22908     -1508.192 8        52.123                                                                    19228897.302 8  79891506.09208     -1173.071 8        48.042
R17        47.000    21695974.892 8 116099777.18808     -4113.429 8        48.260                                                                    21695975.505 7  90299958.01707     -3199.293 7        44.066
C35        48.000                                                                                                                                    24542497.981 7 127799390.13807     -3304.292 7        43.746                                                                    24542497.960 7 103847536.95107     -2684.899 7        44.343
C24        49.000                                                                                                                                    22138174.266 8 115279346.69808     -2374.531 8        50.518                                                                    22138172.016 8  93673932.82208     -1929.406 8        49.642
R19        50.000    20285018.996 6 108511406.00906      2069.591 6        40.179                                                                    20285019.294 7  84397866.33507      1609.714 7        44.379
S48        51.000    77173173.515 6 405547985.23806      -511.982 6        38.147
C08        52.000                                                                                                                                    38118450.003 6 198492853.13306       487.011 6        41.933    38118444.392 7 153487289.71807       376.562 7        44.972    38118443.362 7 161291716.50307       395.794 7        42.411
C34        53.000                                                                                                                                    22672501.055 8 118061908.96808      1660.832 8        48.917                                                                    22672502.344 7  95935081.29507      1349.605 7        47.918
C60        54.000                                                                                                                                    40591005.694 6 211368190.59506      -402.274 6        37.887                                                                    40590992.339 6 171753930.85606      -326.900 6        39.955
C25        55.000                                                                                                                                    22526939.703 8 117303907.86708       886.777 8        48.707                                                                    22526938.981 8  95319122.19008       720.533 8        48.529
C26        56.000                                                                                                                                    25953781.161 6 135148203.90906     -3923.026 6        41.676                                                                    25953784.107 6 109819021.78806     -3187.682 6        41.023
C02        57.000                                                                                                                                    40782784.450 5 212366679.61305      -383.823 5        33.132    40782781.854 6 164215373.39306      -296.600 6        39.652    40782782.395 5 172565319.49905      -311.457 5        33.515
I03        58.000    85802845.768 6 260923508.78306      1091.074 6        41.542
E30        59.000    27380463.551 6 143885445.07506      2156.237 6        39.000                                                                    27380469.526 7 107447018.93207      1610.039 7        42.576    27380468.435 7 110249970.73807      1652.124 7        43.050
> 2025 01 02 16 30 30.0000000  0 57
E24         1.000    28928908.460 3                     -3226.154 3        22.324                                                                    28928911.467 4                     -2409.888 4        25.038    28928910.560 4                     -2472.797 4        24.391
E11         2.000    24208876.051 7 127218688.57907     -1499.722 7        43.331                                                                    24208873.268 7  95001090.32207     -1119.949 7        45.365    24208872.946 7  97479366.26607     -1149.094 7        46.059
G16         3.000    24052639.618 6 126397581.50806      3050.425 6        39.165                                    24052641.055 3  98491681.56403      2376.946 3        19.522
G05         4.000    23127766.205 7 121537309.05207       801.537 7        43.166                                    23127763.916 6  94704415.64906       624.570 6        39.024    23127764.779 6  94704414.65606       624.586 6        40.110
S21         5.000    38453160.628 7 202072353.82107      -478.028 7        42.336
G26         6.000    21657359.768 7 113810397.95207      1927.223 7        45.646                                    21657360.778 7  88683550.77407      1501.731 7        44.828    21657360.774 7  88683537.78007      1501.748 7        42.995
G25         7.000    21912160.571 7 115149354.92407     -3486.777 7        44.927                                    21912161.041 7  89726855.15307     -2716.967 7        43.403    21912161.615 6  89726856.15806     -2716.995 6        41.449
G04         8.000    25191107.227 6 132380123.10906     -1037.500 6        38.342                                    25191108.265 3 103153320.40203      -808.438 3        19.552    25191108.736 6 103153329.40506      -808.206 6        37.270
E36         9.000    24142135.954 7 126867948.28907      1339.222 7        47.576                                                                    24142138.321 8  94739188.48908      1000.073 8        49.745    24142137.812 8  97210633.70508      1026.136 8        50.401
R08        10.000    24392123.600 6 130618722.30106     -2644.614 6        38.348                                                                    24392123.518 6 101592337.05706     -2056.905 6        39.129
G20        11.000    23812098.922 6 125133537.05006     -1623.160 6        39.643                                    23812095.174 3  97506711.92503     -1264.795 3        21.881
S27        12.000    39245770.278 6 206237971.13806      -465.900 6        36.518
E08        13.000    28849341.229 5 151604376.46605     -3089.819 5        34.133                                                                    28849352.356 6 113211139.28906     -2307.294 6        36.582    28849350.492 6 116164462.77706     -2367.570 6        36.646
S36        14.000    38224283.597 7 200870424.52807      -477.681 7        43.958
C13        15.000                                                                                                                                    38265446.385 7 199258258.84207       649.279 7        43.596    38265449.715 7 154079153.53307       502.021 7        44.141    38265447.586 7 161913675.21407       527.601 7        42.453
G18        16.000    21672936.931 8 113892254.25508      2068.232 8        48.098                                    21672935.054 6  88747301.03906      1611.608 6        37.947    21672935.269 7  88747309.05307      1611.550 7        45.743
R01        18.000    23717076.244 6 126781357.75306       316.565 6        38.997                                                                    23717077.370 5  98607597.57105       246.381 5        34.143
E02        19.000    23438507.298 8 123170357.09908       433.665 8        48.312                                                                    23438507.756 8  91977968.42208       323.858 8        51.166    23438507.059 8  94377379.39108       332.273 8        51.273
E10        21.000    26125727.400 6 137291835.90406     -2781.362 6        41.771                                                                    26125728.233 7 102523255.95207     -2077.012 7        45.597    26125728.049 7 105197760.90107     -2131.181 7        46.020
I06        22.000    38726642.943 6 151971833.38006      -384.871 6        41.402
S28        23.000    40931594.314 5 215096963.54105      -476.698 5        34.267
E29        24.000    28916462.283 5 151957042.94105       408.217 5        33.162                                                                    28916463.442 6 113474413.26006       304.875 6        37.637    28916463.138 6 116434616.08206       312.911 6        38.231
S23        25.000    38175328.895 7 200612624.32507      -481.629 7        44.643
S45        26.000    63432862.204 6 333342505.65706      -539.176 6        36.276
R09        27.000    20793354.812 8 111035534.98308      2643.002 8        49.169                                                                    20793356.247 7  86361076.10207      2055.601 7        47.628
R18        28.000    19146706.895 8 102206704.99508     -1254.452 8        51.398                                                                    19146707.649 7  79494253.05607      -975.657 7        47.653
C38        29.000                                                                                                                                    38659452.335 7 201310015.06807      -128.840 7        44.369                                                                    38659450.820 7 163580918.26807      -104.686 7        43.280
C44        30.000                                                                                                                                    21497414.791 8 111942891.84008     -1332.015 8        50.836                                                                    21497413.825 8  90962852.13908     -1082.336 8        49.973
E12        31.000    28402355.159 5 149255564.90505     -3391.345 5        33.665                                                                    28402353.071 6 111457188.96006     -2532.817 6        37.221    28402353.172 6 114364750.88706     -2598.474 6        37.784
G11        32.000    25680380.015 6 134951519.41706     -4053.522 6        36.934                                    25680376.935 3 105157130.92903     -3158.544 3        18.358    25680377.196 6 105157121.92606     -3158.828 6        37.425
I02        33.000    38124705.183 6 149609559.68306      -835.087 6        40.934
R15        34.000    22401412.586 7 119706481.52707     -4538.315 7        46.182                                                                    22401416.297 7  93105105.78507     -3529.796 7        42.828
E34        35.000    27700072.348 6 145564944.95806      2756.794 6        38.871                                                                    27700081.598 6 108701169.32406      2058.463 6        41.406    27700080.590 7 111536845.06207      2112.299 7        42.495
G29        36.000    20635919.472 8 108442775.76808     -1589.795 8        48.689                                    20635915.925 8  84500972.36308     -1238.801 8        50.056    20635916.367 7  84500982.37407     -1238.891 7        44.916
G31        37.000    21702562.916 7 114047949.58707     -1049.527 7        47.743                                    21702560.544 7  88868626.36907      -817.815 7        45.958    21702560.715 7  88868632.37807      -817.847 7        42.923
C10        38.000                                                                                                                                    41078508.836 5 213906591.85705     -1154.884 5        34.990    41078507.487 6 165406152.39106      -892.870 6        38.009    41078505.103 5 173816621.32105      -938.457 5        35.390
E25        39.000    24262558.239 7 127500810.25207     -2142.416 7        46.331                                                                    24262560.042 8  95211771.58208     -1599.801 8        49.848    24262559.374 8  97695541.46608     -1641.559 8        50.279
C12        40.000                                                                                                                                    21715703.810 7 113079564.84207       158.380 7        46.815    21715702.201 8  87440385.32808       122.476 8        52.126    21715701.253 8  91886479.21308       128.697 8        49.613
E07        41.000    28185482.062 6 148115677.17806     -1756.830 6        36.374                                                                    28185491.622 6 110605871.95606     -1311.927 6        39.709    28185490.461 6 113491239.53406     -1346.082 6        40.281
S44        42.000    40591392.255 6 213309359.18006      -406.015 6        37.070
G28        43.000    22062126.396 7 115937437.75907     -2662.325 7        46.712                                    22062125.149 5  90340948.38205     -2074.538 5        35.490    22062125.230 7  90340948.38107     -2074.484 7        44.612
C05        44.000                                                                                                                                    39407267.512 6 205203982.12806      -418.983 6        37.565    39407265.627 7 158676749.66907      -323.962 7        42.658    39407266.459 6 166745139.63006      -340.490 6        39.697
C11        45.000                                                                                                                                    24679715.176 7 128513815.10907      2424.961 7        42.516    24679716.565 7  99375074.22107      1875.026 7        46.163    24679713.895 7 104428025.24107      1970.345 7        44.032
R16        46.000    19230309.887 8 102725057.31608     -1512.225 8        52.080                                                                    19230310.646 8  79897379.16308     -1176.246 8        48.095
R17        47.000    21699819.242 8 116120348.28408     -4114.805 8        48.798                                                                    21699819.695 7  90315957.75007     -3200.373 7        44.429
C35        48.000                                                                                                                                    24545670.988 7 127815913.09907     -3304.964 7        43.484                                                                    24545671.126 7 103860963.20707     -2685.546 7        44.296
C24        49.000                                                                                                                                    22140455.330 8 115291225.00708     -2376.792 8        50.343                                                                    22140453.098 8  93683584.91808     -1931.342 8        49.602
R19        50.000    20283085.217 6 108501065.09806      2066.659 6        40.262                                                                    20283086.254 7  84389823.40507      1607.413 7        44.185
S48        51.000    77173635.514 6 405550545.62806      -512.137 6        37.864
C08        52.000                                                                                                                                    38117982.518 6 198490421.12306       485.854 6        41.592    38117977.400 7 153485409.13007       375.591 7        44.953    38117976.386 7 161289740.28607       394.794 7        42.368
C34        53.000                                                                                                                                    22670907.199 8 118053609.02308      1659.157 8        48.873                                                                    22670908.466 7  95928336.91207      1348.205 7        47.896
C60        54.000                                                                                                                                    40591392.534 6 211370202.31406      -402.452 6        37.887                                                                    40591378.790 6 171755565.53806      -326.995 6        39.964
C25        55.000                                                                                                                                    22526089.292 8 117299480.27508       884.309 8        48.524                                                                    22526088.701 8  95315524.40708       718.581 8        48.422
C26        56.000                                                                                                                                    25957548.209 6 135167820.71606     -3923.584 6        41.507                                                                    25957551.339 6 109834962.03006     -3188.331 6        40.672
C02        57.000                                                                                                                                    40783152.899 5 212368597.51905      -383.577 5        33.347    40783150.195 6 164216856.45106      -296.666 6        39.739    40783150.951 5 172566877.97905      -311.944 5        34.033
I03        58.000    85801455.717 6 260918053.42306      1091.023 6        41.523
E30        59.000    27378412.182 6 143874665.13606      2155.735 6        39.309                                                                    27378418.161 7 107438968.99507      1609.948 7        42.701    27378417.010 7 110241710.80607      1651.859 7        43.075
> 2025 01 02 16 30 35.0000000  0 57
E24         1.000    28931981.426 3                     -3228.057 3        20.714                                                                    28931981.991 4                     -2409.759 4        24.617    28931980.722 4                     -2472.421 4        25.023
E11         2.000    24210304.017 7 127226192.96407     -1501.927 7        43.249                                                                    24210301.369 7  95006694.24507     -1121.513 7        45.323    24210300.948 7  97485116.37307     -1150.750 7        45.955
G16         3.000    24049737.328 6 126382330.44306      3050.038 6        38.787                                    24049738.856 3  98479797.68803      2376.641 3        19.970
G05         4.000    23127005.028 7 121533309.14507       798.359 7        43.139                                    23127002.909 6  94701298.84906       622.095 6        39.099    23127003.500 6  94701297.85906       622.041 6        40.365
S21         5.000    38453615.115 7 202074743.46607      -478.097 7        42.445
G26         6.000    21655526.375 7 113800766.54007      1925.299 7        45.360                                    21655527.958 7  88676045.79407      1500.230 7        44.950    21655528.139 7  88676032.80007      1500.278 7        43.122
G25         7.000    21915479.287 7 115166792.60107     -3488.330 7        44.778                                    21915479.248 7  89740442.95207     -2718.178 7        43.374    21915479.986 6  89740443.95406     -2718.220 6        41.859
G04         8.000    25192095.501 6 132385317.62506     -1040.111 6        37.633                                    25192096.708 3 103157368.09803      -810.492 3        19.433    25192097.153 6 103157377.06706      -810.588 6        36.306
E36         9.000    24140862.734 7 126861257.07307      1337.256 7        47.610                                                                    24140864.964 8  94734191.81408       998.605 8        49.640    24140864.524 8  97205506.68308      1024.656 8        50.359
R08        10.000    24394595.003 6 130631953.69506     -2647.851 6        38.706                                                                    24394595.351 6 101602628.19506     -2059.496 6        39.393
G20        11.000    23813645.270 6 125141661.03206     -1626.209 6        39.976                                    23813641.009 3  97513042.29603     -1267.174 3        21.976
S27        12.000    39246214.529 6 206240300.80106      -466.212 6        36.484
E08        13.000    28852281.657 5 151619826.61805     -3090.347 5        34.771                                                                    28852292.574 6 113222676.72906     -2307.510 6        36.548    28852290.328 6 116176301.20706     -2367.831 6        37.043
S36        14.000    38224734.944 7 200872812.79107      -477.746 7        44.116
C13        15.000                                                                                                                                    38264823.649 7 199255015.33407       648.241 7        43.600    38264827.027 7 154076645.46007       501.318 7        44.325    38264824.631 7 161911039.60107       526.813 7        42.550
G18        16.000    21670970.179 8 113881919.04908      2065.883 8        48.116                                    21670968.278 6  88739247.64506      1609.777 6        38.000    21670968.506 7  88739255.65107      1609.802 7        45.354
R01        18.000    23716781.001 6 126779784.69606       312.552 6        38.805                                                                    23716782.639 5  98606374.13605       242.914 5        34.290
E02        19.000    23438095.297 8 123168192.20608       432.323 8        48.315                                                                    23438095.774 8  91976351.79408       322.837 8        51.123    23438095.075 8  94375720.59008       331.244 8        51.262
E10        21.000    26128374.563 7 137305746.51707     -2782.871 7        42.174                                                                    26128375.420 7 102533643.74607     -2078.091 7        45.539    26128375.118 7 105208419.68107     -2132.279 7        46.038
I06        22.000    38727133.109 6 151973757.32006      -384.772 6        41.244
S28        23.000    40932050.058 5 215099345.87605      -476.201 5        34.319
E29        24.000    28916074.778 5 151955006.46905       405.979 5        32.737                                                                    28916075.629 6 113472892.67606       303.327 6        38.435    28916075.701 6 116433055.81606       311.252 6        39.249
S23        25.000    38175786.789 7 200615032.80307      -481.660 7        44.685
S45        26.000    63433322.973 6 333345202.27806      -539.334 6        36.631
R09        27.000    20790881.695 8 111022325.94608      2640.601 8        49.703                                                                    20790882.413 7  86350802.41107      2053.791 7        47.365
R18        28.000    19147883.118 8 102212985.96808     -1257.973 8        51.092                                                                    19147884.097 7  79499138.26807      -978.431 7        47.463
C38        29.000                                                                                                                                    38659576.476 7 201310661.54007      -129.812 7        44.509                                                                    38659575.103 7 163581443.58707      -105.413 7        43.336
C44        30.000                                                                                                                                    21498694.658 8 111949556.64708     -1333.889 8        50.972                                                                    21498693.719 8  90968267.85208     -1083.874 8        50.004
E12        31.000    28405582.230 5 149272523.73805     -3392.074 5        33.695                                                                    28405580.153 6 111469853.00706     -2533.090 6        36.949    28405580.516 6 114377745.31806     -2599.106 6        37.894
G11        32.000    25684236.887 6 134971789.19306     -4054.348 6        37.013                                    25684234.228 3 105172925.54303     -3159.250 3        18.388    25684234.485 6 105172916.52006     -3159.049 6        37.070
I02        33.000    38125769.301 6 149613734.92406      -835.139 6        40.815
R15        34.000    22405660.369 7 119729176.65507     -4539.841 7        46.207                                                                    22405663.417 7  93122757.53107     -3530.944 7        42.715
E34        35.000    27697449.776 6 145551162.66206      2756.463 6        38.883                                                                    27697458.946 6 108690877.37606      2058.320 6        41.399    27697457.769 7 111526284.63207      2111.991 7        42.212
G29        36.000    20637432.818 8 108450729.48308     -1591.618 8        48.500                                    20637429.448 8  84507170.06708     -1240.222 8        50.122    20637429.841 7  84507180.06907     -1240.237 7        44.888
G31        37.000    21703562.840 7 114053205.70507     -1052.909 7        47.592                                    21703560.744 7  88872722.05007      -820.450 7        46.043    21703561.337 7  88872728.05507      -820.397 7        43.397
C10        38.000                                                                                                                                    41079618.366 5 213912366.81405     -1154.885 5        35.390    41079616.348 6 165410618.00106      -893.155 6        38.099    41079614.214 5 173821313.97205      -938.676 5        35.495
E25        39.000    24264597.407 7 127511525.37207     -2143.671 7        46.461                                                                    24264599.043 8  95219773.13508     -1600.778 8        49.788    24264598.381 8  97703751.75608     -1642.534 8        50.238
C12        40.000                                                                                                                                    21715552.593 7 113078778.14707       156.242 7        46.791    21715551.185 8  87439777.01508       120.855 8        52.148    21715550.201 8  91885839.96308       127.080 8        49.687
E07        41.000    28187154.462 6 148124465.79906     -1758.776 6        36.495                                                                    28187164.325 6 110612434.88706     -1313.382 6        39.736    28187163.008 6 113497973.68306     -1347.536 6        40.472
S44        42.000    40591781.084 6 213311389.47606      -406.051 6        37.130
G28        43.000    22064660.933 7 115950755.61607     -2664.843 7        46.637                                    22064659.468 5  90351325.93005     -2076.500 5        35.609    22064659.547 7  90351325.93507     -2076.567 7        45.085
C05        44.000                                                                                                                                    39407670.388 6 205206076.84206      -418.812 6        37.822    39407667.801 7 158678369.44707      -323.891 7        42.629    39407668.923 6 166746841.76506      -340.439 6        39.706
C11        45.000                                                                                                                                    24677386.560 7 128501692.73607      2424.250 7        42.548    24677388.565 7  99365700.48307      1874.415 7        46.433    24677385.783 7 104418174.87407      1969.683 7        43.975
R16        46.000    19231727.148 8 102732628.49008     -1516.256 8        51.902                                                                    19231727.941 7  79903267.86007     -1179.331 7        47.984
R17        47.000    21703664.620 8 116140925.48108     -4116.016 8        48.409                                                                    21703664.898 7  90331962.25207     -3201.335 7        44.178
C35        48.000                                                                                                                                    24548844.624 7 127832439.00507     -3305.474 7        43.573                                                                    24548844.681 7 103874391.86907     -2685.953 7        44.244
C24        49.000                                                                                                                                    22142738.463 8 115303114.54908     -2379.019 8        50.333                                                                    22142736.390 8  93693246.15108     -1933.125 8        49.719
R19        50.000    20281155.562 6 108490739.64006      2063.592 6        40.427                                                                    20281156.275 7  84381792.50007      1605.048 7        43.657
S48        51.000    77174098.859 6 405553106.13706      -512.105 6        38.087
C08        52.000                                                                                                                                    38117516.386 6 198487994.76806       484.756 6        41.938    38117511.488 7 153483532.92707       374.812 7        45.055    38117510.446 7 161287768.68107       393.883 7        42.284
C34        53.000                                                                                                                                    22669314.530 8 118045317.06408      1657.624 8        48.716                                                                    22669316.059 7  95921599.02907      1347.030 7        47.890
C60        54.000                                                                                                                                    40591778.847 6 211372214.14206      -402.414 6        37.713                                                                    40591765.130 6 171757200.31606      -326.968 6        39.889
C25        55.000                                                                                                                                    22525241.183 8 117295064.64908       881.972 8        48.584                                                                    22525240.744 8  95311936.36008       716.684 8        48.538
C26        56.000                                                                                                                                    25961315.650 6 135187439.41306     -3923.840 6        41.623                                                                    25961318.960 6 109850903.83406     -3188.385 6        40.722
C02        57.000                                                                                                                                    40783521.141 5 212370515.51405      -383.719 5        33.485    40783518.009 6 164218339.56006      -296.497 6        39.553    40783519.073 5 172568436.51105      -311.924 5        33.353
I03        58.000    85800065.553 6 260912598.03806      1091.126 6        41.623
E30        59.000    27376360.916 6 143863886.21906      2155.872 6        39.276                                                                    27376367.017 7 107430919.84407      1609.901 7        42.624    27376365.829 7 110233451.67507      1651.733 7        43.120
> 2025 01 02 16 30 40.0000000  0 57
E24         1.000    28935050.846 3                     -3229.063 3        19.075                                                                    28935052.127 4                     -2409.355 4        24.045    28935051.632 4                     -2472.766 4        25.323
E11         2.000    24211734.003 7 127233708.14007     -1504.152 7        43.204                                                                    24211731.413 7  95012306.23707     -1123.218 7        45.368    24211731.115 7  97490874.76907     -1152.540 7        45.896
G16         3.000    24046835.765 6 126367081.93206      3049.389 6        39.195                                    24046837.059 3  98467915.79903      2376.146 3        19.821
G05         4.000    23126247.130 7 121529324.72007       795.175 7        43.264                                    23126244.875 6  94698194.11406       619.612 6        39.141    23126245.167 6  94698193.11706       619.685 6        40.439
S21         5.000    38454068.739 7 202077133.38607      -478.058 7        42.385
G26         6.000    21653695.585 7 113791144.48507      1923.436 7        45.571                                    21653696.905 7  88668548.10707      1498.777 7        45.008    21653697.053 7  88668535.11507      1498.737 7        42.997
G25         7.000    21918799.117 7 115184238.27707     -3490.029 7        44.691                                    21918799.066 7  89754036.98907     -2719.503 7        43.367    21918799.726 7  89754037.98707     -2719.500 7        42.472
G04         8.000    25193087.249 6 132390526.62306     -1043.336 6        38.159                                    25193087.821 3 103161427.03803      -812.997 3        20.119    25193088.749 6 103161436.01406      -812.955 6        37.255
E36         9.000    24139591.403 7 126854575.84807      1335.245 7        47.763                                                                    24139593.560 8  94729202.60508       997.047 8        49.650    24139593.132 8  97200387.31608      1023.090 8        50.332
R08        10.000    24397068.411 6 130645200.93906     -2651.050 6        38.859                                                                    24397069.098 6 101612931.63306     -2061.879 6        40.663
G20        11.000    23815193.660 6 125149799.93506     -1629.244 6        39.312                                    23815189.854 3  97519384.32103     -1269.542 3        22.286
S27        12.000    39246657.591 6 206242630.54806      -466.120 6        36.654
E08        13.000    28855221.865 5 151635278.43105     -3090.399 5        35.243                                                                    28855232.485 6 113234215.42106     -2307.736 6        36.427    28855230.627 6 116188140.90506     -2368.036 6        36.862
S36        14.000    38225190.710 7 200875201.99607      -477.910 7        44.229
C13        15.000                                                                                                                                    38264201.779 7 199251776.84007       647.088 7        43.608    38264205.169 7 154074141.25907       500.361 7        44.348    38264202.787 7 161908408.06107       525.871 7        42.637
G18        16.000    21669005.614 8 113871595.42108      2063.513 8        48.354                                    21669003.729 6  88731203.27306      1607.932 6        38.063    21669003.956 7  88731211.27807      1607.925 7        45.544
R01        18.000    23716490.897 6 126778231.93306       308.599 6        38.375                                                                    23716491.413 5  98605166.41905       239.996 5        33.742
E02        19.000    23437684.780 8 123166034.36208       430.840 8        48.305                                                                    23437685.157 8  91974740.43108       321.722 8        51.077    23437684.442 8  94374067.19208       330.054 8        51.201
E10        21.000    26131022.822 7 137319664.05107     -2784.225 7        42.326                                                                    26131023.870 7 102544036.71507     -2079.181 7        45.564    26131023.543 7 105219083.77407     -2133.394 7        45.965
I06        22.000    38727623.702 6 151975681.09906      -384.763 6        41.261
S28        23.000    40932497.318 5 215101728.29905      -476.538 5        34.062
E29        24.000    28915689.064 5 151952980.74205       404.057 5        32.629                                                                    28915690.667 6 113471380.08506       301.710 6        38.186    28915690.272 6 116431503.75606       309.528 6        38.532
S23        25.000    38176244.862 7 200617441.50207      -481.853 7        44.841
S45        26.000    63433780.304 6 333347899.05906      -539.492 6        36.839
R09        27.000    20788410.116 8 111009128.95808      2638.114 8        49.351                                                                    20788410.744 7  86340538.10707      2051.892 7        47.035
R18        28.000    19149063.209 8 102219284.64708     -1261.574 8        51.072                                                                    19149064.263 7  79504037.24607      -981.260 7        47.215
C38        29.000                                                                                                                                    38659701.407 7 201311313.34607      -131.011 7        44.582                                                                    38659700.175 7 163581973.24207      -106.359 7        43.367
C44        30.000                                                                                                                                    21499976.365 8 111956231.07808     -1335.881 8        50.879                                                                    21499975.466 8  90973691.37708     -1085.508 8        50.065
E12        31.000    28408809.472 5 149289485.48305     -3392.610 5        33.587                                                                    28408807.953 6 111482519.25406     -2533.579 6        37.278    28408808.153 6 114390741.98906     -2599.583 6        37.781
G11        32.000    25688094.725 6 134992061.72606     -4054.836 6        36.870                                    25688091.875 3 105188722.33203     -3159.612 3        18.507    25688091.658 6 105188713.30906     -3159.711 6        36.949
I02        33.000    38126833.365 6 149617910.93706      -835.261 6        40.737
R15        34.000    22409909.199 7 119751879.32007     -4541.333 7        46.565                                                                    22409911.106 7  93140415.14507     -3532.187 7        42.353
E34        35.000    27694827.324 6 145537382.16206      2755.966 6        38.736                                                                    27694836.613 6 108680586.77806      2057.986 6        41.507    27694835.312 6 111515725.58906      2111.616 6        41.855
G29        36.000    20638947.894 8 108458692.72808     -1593.663 8        48.515                                    20638944.792 8  84513375.20008     -1241.817 8        50.115    20638945.324 7  84513385.20707     -1241.838 7        44.998
G31        37.000    21704566.629 7 114058478.82607     -1056.348 7        47.348                                    21704564.171 7  88876830.98307      -823.132 7        46.077    21704564.713 7  88876836.98707      -823.104 7        43.321
C10        38.000                                                                                                                                    41080726.716 5 213918142.09705     -1155.028 5        35.109    41080725.530 6 165415083.78106      -893.024 6        37.909    41080723.332 5 173826006.82905      -938.555 5        35.286
E25        39.000    24266637.772 7 127522247.28407     -2145.112 7        46.561                                                                    24266639.364 8  95227779.76208     -1601.841 8        49.795    24266638.747 8  97711967.25208     -1643.638 8        50.170
C12        40.000                                                                                                                                    21715403.629 7 113078002.15307       154.073 7        46.744    21715402.139 8  87439176.97808       119.120 8        52.085    21715401.109 8  91885209.40408       125.260 8        49.772
E07        41.000    28188828.554 6 148133264.35506     -1760.824 6        36.042                                                                    28188838.651 6 110619005.22406     -1314.911 6        39.772    28188837.505 6 113504715.41506     -1349.148 6        40.229
S44        42.000    40592163.784 6 213313419.88006      -406.034 6        37.055
G28        43.000    22067197.507 7 115964086.66307     -2667.555 7        46.854                                    22067196.287 5  90361713.75405     -2078.616 5        35.571    22067196.569 7  90361713.76407     -2078.628 7        45.186
C05        44.000                                                                                                                                    39408072.762 6 205208171.52606      -418.955 6        37.924    39408070.037 7 158679989.18807      -323.960 7        42.690    39408071.118 6 166748543.85906      -340.310 6        39.742
C11        45.000                                                                                                                                    24675060.029 7 128489575.36107      2422.911 7        42.916    24675061.782 7  99356330.58007      1873.499 7        46.569    24675058.641 7 104408328.51307      1968.840 7        44.134
R16        46.000    19233148.359 8 102740219.77408     -1520.292 8        52.301                                                                    19233148.962 8  79909172.18908     -1182.454 8        48.123
R17        47.000    21707510.463 8 116161508.76408     -4117.348 8        48.490                                                                    21707511.484 7  90347971.47607     -3202.388 7        44.468
C35        48.000                                                                                                                                    24552018.845 7 127848967.81307     -3306.144 7        43.363                                                                    24552018.838 7 103887822.87507     -2686.474 7        44.205
C24        49.000                                                                                                                                    22145023.977 8 115315015.30308     -2381.321 8        50.277                                                                    22145021.834 8  93702916.48708     -1935.004 8        49.727
R19        50.000    20279228.236 6 108480429.56806      2060.489 6        40.589                                                                    20279228.239 7  84373773.57107      1602.574 7        43.839
S48        51.000    77174560.223 6 405555666.23206      -512.111 6        38.183
C08        52.000                                                                                                                                    38117052.026 6 198485574.06906       483.466 6        41.969    38117046.600 7 153481661.08807       373.958 7        45.046    38117045.583 7 161285801.66307       392.936 7        42.444
C34        53.000                                                                                                                                    22667723.736 8 118037033.08008      1655.964 8        48.679                                                                    22667725.178 8  95914867.62208      1345.614 8        48.047
C60        54.000                                                                                                                                    40592164.985 6 211374226.08206      -402.309 6        37.849                                                                    40592151.514 6 171758835.19306      -327.063 6        40.207
C25        55.000                                                                                                                                    22524395.419 8 117290660.95208       879.458 8        48.547                                                                    22524395.017 8  95308357.99908       714.700 8        48.666
C26        56.000                                                                                                                                    25965083.820 6 135207060.02906     -3924.405 6        41.681                                                                    25965086.802 6 109866847.16806     -3188.850 6        40.784
C02        57.000                                                                                                                                    40783889.160 5 212372433.48005      -383.660 5        33.317    40783886.421 6 164219822.66506      -296.746 6        39.859    40783887.405 5 172569994.99005      -311.449 5        33.892
I03        58.000    85798675.766 6 260907142.59206      1091.066 6        41.569
E30        59.000    27374309.922 6 143853108.37106      2155.250 6        39.057                                                                    27374315.995 7 107422871.47707      1609.505 7        42.724    27374314.794 7 110225193.34107      1651.506 7        43.056
> 2025 01 02 16 30 45.0000000  0 57
E24         1.000                                                                                                                                    28938122.571 4                     -2411.243 4        24.045    28938122.957 4                     -2472.592 4        25.744
E11         2.000    24213166.523 7 127241234.38407     -1506.515 7        43.363                                                                    24213163.605 7  95017926.48907     -1124.985 7        45.353    24213163.328 7  97496641.63707     -1154.378 7        45.914
G16         3.000    24043934.906 6 126351836.20606      3048.670 6        39.033                                    24043935.750 3  98456036.08203      2375.563 3        19.910
G05         4.000    23125491.686 7 121525356.00507       792.134 7        42.936                                    23125489.796 6  94695101.61706       617.244 6        39.063    23125489.894 6  94695100.62306       617.169 6        40.102
S21         5.000    38454525.287 7 202079523.72107      -478.224 7        42.601
G26         6.000    21651866.457 7 113781532.05207      1921.477 7        45.398                                    21651867.698 7  88661057.92007      1497.252 7        44.981    21651867.687 7  88661044.92507      1497.257 7        42.804
G25         7.000    21922120.565 7 115201692.24407     -3491.617 7        44.521                                    21922120.529 7  89767637.48707     -2720.740 7        43.308    21922120.431 6  89767638.48606     -2720.807 6        41.800
G04         8.000    25194080.819 6 132395750.28106     -1046.086 6        37.970                                    25194081.934 3 103165497.41603      -815.137 3        20.548    25194081.742 6 103165506.40506      -815.128 6        37.664
E36         9.000    24138321.883 7 126847904.90907      1333.152 7        47.721                                                                    24138324.135 8  94724221.07208       995.508 8        49.579    24138323.692 8  97195275.82908      1021.481 8        50.272
R08        10.000    24399545.845 6 130658464.39906     -2654.399 6        39.399                                                                    24399545.526 6 101623247.64506     -2064.548 6        39.486
G20        11.000    23816744.975 6 125157953.97606     -1632.272 6        39.556                                    23816741.713 3  97525738.10803     -1271.900 3        22.381
S27        12.000    39247099.691 6 206244960.32206      -466.245 6        36.665
E08        13.000    28858163.337 5 151650732.19205     -3091.033 5        34.471                                                                    28858173.138 6 113245755.56906     -2308.196 6        36.393    28858171.494 6 116199982.07906     -2368.368 6        36.673
S36        14.000    38225645.841 7 200877591.42207      -477.888 7        44.194
C13        15.000                                                                                                                                    38263580.849 7 199248543.60407       646.099 7        43.672    38263584.378 7 154071641.11407       499.538 7        44.483    38263581.884 7 161905780.79907       525.009 7        42.381
G18        16.000    21667043.283 8 113861283.65408      2061.114 8        48.065                                    21667041.460 6  88723168.14206      1606.060 6        37.974    21667042.066 7  88723176.15007      1606.072 7        45.565
R01        18.000    23716203.644 6 126776699.63606       304.471 6        37.350                                                                    23716205.207 5  98603974.61205       236.935 5        33.473
E02        19.000    23437275.458 8 123163883.83808       429.342 8        48.343                                                                    23437275.901 8  91973134.53108       320.615 8        51.130    23437275.236 8  94372419.39408       328.960 8        51.147
E10        21.000    26133672.743 7 137333588.77607     -2785.641 7        42.404                                                                    26133673.714 7 102554435.07407     -2080.307 7        45.559    26133673.289 7 105229753.39107     -2134.492 7        45.953
I06        22.000    38728113.560 6 151977604.91406      -384.809 6        41.194
S28        23.000    40932956.652 5 215104111.55805      -476.770 5        34.090
E29        24.000    28915305.676 5 151950966.53205       401.641 5        33.132                                                                    28915307.180 6 113469876.15806       299.699 6        37.781    28915306.525 6 116429960.57006       307.477 6        37.917
S23        25.000    38176702.492 7 200619850.28207      -481.845 7        44.670
S45        26.000    63434238.681 6 333350596.12206      -539.554 6        36.355
R09        27.000    20785941.267 8 110995944.23108      2635.769 8        49.894                                                                    20785942.020 7  86330283.32007      2049.977 7        46.965
R18        28.000    19150246.492 8 102225601.28408     -1265.182 8        51.033                                                                    19150247.657 7  79508950.19307      -984.020 7        46.925
C38        29.000                                                                                                                                    38659827.598 7 201311970.77007      -132.109 7        44.698                                                                    38659826.465 7 163582507.46607      -107.422 7        43.128
C44        30.000                                                                                                                                    21501260.161 8 111962915.39308     -1337.940 8        51.047                                                                    21501259.121 8  90979122.93808     -1087.142 8        49.828
E12        31.000    28412038.579 5 149306450.47405     -3393.420 5        33.844                                                                    28412036.257 6 111495187.90506     -2533.946 6        37.047    28412036.748 6 114403741.11906     -2600.083 6        37.955
G11        32.000    25691953.620 6 135012337.34306     -4055.572 6        36.499                                    25691949.982 2 105204521.49202     -3160.186 2        17.774    25691950.525 6 105204512.48406     -3160.162 6        36.635
I02        33.000    38127897.551 6 149622087.62906      -835.505 6        40.827
R15        34.000    22414158.241 7 119774589.94907     -4542.911 7        46.459                                                                    22414162.033 7  93158078.96907     -3533.413 7        42.639
E34        35.000    27692205.376 6 145523603.76306      2755.351 6        38.886                                                                    27692214.565 6 108670297.74906      2057.531 6        41.576    27692213.303 6 111505168.13206      2111.273 6        41.669
G29        36.000    20640465.031 8 108466665.75308     -1595.655 8        48.393                                    20640461.995 8  84519587.94508     -1243.367 8        50.066    20640462.662 7  84519597.95207     -1243.408 7        45.219
G31        37.000    21705573.516 7 114063769.20907     -1059.921 7        46.987                                    21705570.890 7  88880953.36807      -825.911 7        45.991    21705571.523 7  88880959.37407      -825.905 7        43.198
C10        38.000                                                                                                                                    41081835.320 5 213923917.83905     -1155.237 5        35.071    41081834.735 6 165419549.97606      -893.321 6        37.875    41081832.347 5 173830700.11005      -938.644 5        35.348
E25        39.000    24268679.356 7 127532976.26807     -2146.607 7        46.595                                                                    24268681.035 8  95235791.66208     -1602.932 8        49.666    24268680.468 8  97720188.15908     -1644.760 8        50.124
C12        40.000                                                                                                                                    21715256.727 7 113077237.08607       151.880 7        46.818    21715255.068 8  87438585.38308       117.461 8        52.072    21715254.184 8  91884587.73408       123.386 8        49.542
E07        41.000    28190505.286 6 148142073.06506     -1762.931 6        36.393                                                                    28190514.885 6 110625583.16106     -1316.467 6        39.877    28190513.851 6 113511464.95106     -1350.740 6        40.343
S44        42.000    40592550.235 6 213315450.67606      -406.258 6        37.043
G28        43.000    22069736.938 7 115977431.15807     -2670.397 7        46.464                                    22069735.667 5  90372112.05905     -2080.822 5        35.443    22069735.768 7  90372112.05407     -2080.739 7        45.050
C05        44.000                                                                                                                                    39408475.181 6 205210266.44206      -419.091 6        37.883    39408472.331 7 158681609.12007      -324.017 7        42.639    39408473.403 6 166750246.17706      -340.554 6        39.474
C11        45.000                                                                                                                                    24672734.151 7 128477463.17807      2421.833 7        42.872    24672735.376 7  99346964.71207      1872.666 7        46.564    24672732.668 7 104398486.41707      1967.923 7        43.843
R16        46.000    19234573.093 8 102747831.26608     -1524.372 8        51.981                                                                    19234574.357 7  79915092.24007     -1185.627 7        47.916
R17        47.000    21711357.902 8 116182098.44108     -4118.600 8        48.424                                                                    21711359.115 7  90363985.68407     -3203.392 7        44.698
C35        48.000                                                                                                                                    24555193.692 7 127865499.80007     -3306.741 7        43.611                                                                    24555193.680 7 103901256.47807     -2686.997 7        44.175
C24        49.000                                                                                                                                    22147311.679 8 115326927.53808     -2383.664 8        50.506                                                                    22147309.421 8  93712596.15608     -1936.951 8        49.578
R19        50.000    20277303.342 6 108470134.94806      2057.263 6        41.225                                                                    20277304.771 7  84365766.67107      1600.121 7        43.892
S48        51.000    77175024.217 6 405558227.11006      -512.366 6        38.222
C08        52.000                                                                                                                                    38116588.375 7 198483159.32807       482.183 7        42.203    38116582.903 7 153479793.86407       372.916 7        45.166    38116581.805 7 161283839.48807       391.890 7        42.246
C34        53.000                                                                                                                                    22666134.858 8 118028757.34108      1654.279 8        49.132                                                                    22666135.893 7  95908142.92007      1344.260 7        47.805
C60        54.000                                                                                                                                    40592551.239 6 211376238.41506      -402.376 6        37.939                                                                    40592537.880 6 171760470.38606      -327.107 6        39.982
C25        55.000                                                                                                                                    22523552.459 8 117286269.48208       877.007 8        48.847                                                                    22523551.711 8  95304789.58108       712.686 8        48.416
C26        56.000                                                                                                                                    25968852.043 6 135226682.78806     -3924.802 6        41.907                                                                    25968855.192 6 109882792.26906     -3189.275 6        40.753
C02        57.000                                                                                                                                    40784257.658 5 212374351.77205      -383.761 5        33.683    40784254.878 6 164221306.00806      -296.744 6        39.622    40784255.701 5 172571553.78505      -311.955 5        33.425
I03        58.000    85797284.982 6 260901687.30506      1090.857 6        41.633
E30        59.000    27372259.026 6 143842331.80406      2155.151 6        38.940                                                                    27372265.342 7 107414824.08507      1609.354 7        42.610    27372263.996 7 110216936.01207      1651.272 7        43.054
> 2025 01 02 16 30 50.0000000  0 57
E24         1.000    28941193.116 3                     -3225.349 3        18.627                                                                    28941192.908 4                     -2410.382 4        24.226    28941193.240 4                     -2472.583 4        25.759
E11         2.000    24214600.489 7 127248771.06807     -1508.508 7        43.141                                                                    24214597.770 7  95023554.54007     -1126.500 7        45.380    24214597.421 7  97502416.50207     -1155.923 7        45.889
G16         3.000    24041033.692 6 126336592.69806      3048.222 6        39.826                                    24041034.941 3  98444158.10503      2375.217 3        19.881
G05         4.000    23124739.717 7 121521402.48107       789.133 7        42.538                                    23124737.482 6  94692020.95806       614.904 6        38.961    23124737.490 6  94692019.95806       615.000 6        39.685
S21         5.000    38454977.404 7 202081913.76507      -478.112 7        42.500
G26         6.000    21650039.073 7 113771928.66907      1919.674 7        45.866                                    21650040.204 7  88653574.78307      1495.847 7        45.028    21650040.599 7  88653561.79007      1495.907 7        43.128
G25         7.000    21925443.163 7 115219153.87507     -3493.215 7        45.083                                    21925443.374 7  89781243.94907     -2721.986 7        43.340    21925443.555 6  89781244.96106     -2722.021 6        41.580
G04         8.000    25195077.757 6 132400987.89006     -1048.813 6        37.236                                    25195078.677 3 103169578.62903      -817.268 3        20.095    25195079.183 6 103169587.54306      -817.169 6        36.064
E36         9.000    24137054.038 7 126841243.64207      1331.154 7        47.387                                                                    24137056.519 8  94719246.75408       994.021 8        49.719    24137056.103 8  97190171.74708      1019.984 8        50.264
R08        10.000    24402024.996 6 130671743.54506     -2657.517 6        38.411                                                                    24402025.488 6 101633575.86506     -2066.942 6        39.631
G20        11.000    23818299.656 6 125166122.66906     -1635.272 6        39.934                                    23818296.125 3  97532103.32403     -1274.231 3        22.019
S27        12.000    39247541.805 6 206247289.63706      -465.645 6        36.862
E08        13.000    28861104.139 5 151666187.26205     -3091.303 5        34.762                                                                    28861113.958 5 113257296.65705     -2308.258 5        35.586    28861112.455 6 116211824.24706     -2368.406 6        36.567
S36        14.000    38226100.605 7 200879980.24907      -477.713 7        44.287
C13        15.000                                                                                                                                    38262961.211 7 199245315.05007       645.136 7        43.657    38262964.048 7 154069144.60007       498.796 7        44.477    38262961.862 7 161903157.32907       524.301 7        42.639
G18        16.000    21665083.046 8 113850983.15008      2058.860 8        48.042                                    21665081.342 6  88715141.78806      1604.301 6        38.000    21665081.821 7  88715149.80207      1604.315 7        45.762
R01        18.000    23715919.984 6 126775187.16306       300.494 6        37.939                                                                    23715922.311 5  98602798.27405       233.577 5        34.395
E02        19.000    23436867.428 8 123161740.03708       428.028 8        48.247                                                                    23436867.925 8  91971533.65008       319.585 8        51.173    23436867.235 8  94370776.74708       327.949 8        51.197
E10        21.000    26136323.591 7 137347520.10507     -2787.067 7        42.064                                                                    26136324.698 7 102564838.33007     -2081.261 7        45.594    26136324.211 7 105240428.03507     -2135.563 7        45.941
I06        22.000    38728603.848 6 151979528.29206      -384.681 6        41.282
S28        23.000    40933405.983 5 215106494.60105      -476.456 5        34.109
E29        24.000    28914924.428 5 151948962.89205       399.519 5        32.826                                                                    28914925.541 6 113468380.09206       298.168 6        37.422    28914925.076 6 116428425.44606       305.977 6        38.021
S23        25.000    38177160.417 7 200622258.72507      -481.827 7        44.787
S45        26.000    63434696.012 6 333351592.99116      -539.736 6        36.786
R09        27.000    20783474.207 8 110982771.00908      2633.327 8        49.857                                                                    20783475.026 7  86320037.49007      2048.236 7        47.352
R18        28.000    19151433.117 8 102231935.34908     -1268.667 8        51.221                                                                    19151434.174 7  79513876.68207      -986.689 7        47.377
C38        29.000                                                                                                                                    38659954.741 7 201312633.18107      -133.043 7        44.588                                                                    38659953.663 7 163583045.74007      -108.161 7        43.549
C44        30.000                                                                                                                                    21502545.404 8 111969608.96508     -1339.721 8        51.074                                                                    21502544.581 8  90984562.01008     -1088.556 8        50.102
E12        31.000    28415267.156 5 149323418.06905     -3394.053 5        33.485                                                                    28415265.263 6 111507858.48506     -2534.310 6        36.964    28415265.542 6 114416742.25106     -2600.535 6        38.123
G11        32.000    25695811.960 6 135032615.43206     -4056.176 6        36.526                                    25695808.970 2 105220322.63102     -3160.677 2        17.887    25695809.573 6 105220313.62606     -3160.509 6        36.839
I02        33.000    38128962.386 6 149626264.61306      -835.604 6        40.758
R15        34.000    22418409.750 7 119797307.75207     -4544.348 7        46.325                                                                    22418413.303 7  93175748.33307     -3534.393 7        43.153
E34        35.000    27689583.702 6 145509826.82406      2755.049 6        38.423                                                                    27689592.901 6 108660009.80606      2057.412 6        41.776    27689591.467 6 111494611.80506      2111.010 6        41.528
G29        36.000    20641984.086 8 108474647.93308     -1597.421 8        48.624                                    20641980.956 8  84525807.83008     -1244.746 8        50.074    20641981.569 7  84525817.82707     -1244.677 7        45.496
G31        37.000    21706583.438 7 114069076.23907     -1063.207 7        47.424                                    21706580.784 7  88885088.72407      -828.474 7        45.982    21706580.883 7  88885094.72307      -828.429 7        42.821
C10        38.000                                                                                                                                    41082944.408 5 213929693.57905     -1155.426 5        34.871    41082943.797 6 165424016.11606      -893.441 6        37.682    41082941.637 5 173835393.35105      -938.874 5        35.519
E25        39.000    24270722.303 7 127543711.69607     -2147.780 7        46.377                                                                    24270723.921 8  95243808.38308     -1603.910 8        49.714    24270723.399 8  97728414.00608     -1645.731 8        50.209
C12        40.000                                                                                                                                    21715111.748 7 113076482.37407       149.836 7        46.718    21715110.154 8  87438001.79808       115.821 8        52.064    21715109.248 8  91883974.46408       121.814 8        49.846
E07        41.000    28192183.521 5 148150891.33605     -1764.886 5        35.800                                                                    28192192.982 6 110632168.22906     -1317.700 6        39.751    28192191.963 6 113518221.81306     -1352.216 6        40.250
S44        42.000    40592939.789 6 213317481.24506      -406.281 6        37.297
G28        43.000    22072278.966 7 115990788.44807     -2672.829 7        46.789                                    22072277.445 5  90382520.33705     -2082.723 5        35.490    22072277.470 7  90382520.34507     -2082.736 7        44.898
C05        44.000                                                                                                                                    39408877.261 6 205212361.02706      -419.124 6        37.841    39408874.625 7 158683228.78307      -324.039 7        42.586    39408875.653 6 166751948.17806      -340.395 6        39.982
C11        45.000                                                                                                                                    24670408.593 7 128465355.64407      2420.912 7        42.965    24670409.775 7  99337602.42307      1872.015 7        46.406    24670407.472 7 104388648.05907      1967.340 7        44.150
R16        46.000    19236001.286 8 102755462.51708     -1528.353 8        51.861                                                                    19236002.621 8  79921027.65708     -1188.656 8        48.055
R17        47.000    21715206.520 7 116202693.88007     -4119.672 7        47.876                                                                    21715207.513 7  90380004.38207     -3204.245 7        45.028
C35        48.000                                                                                                                                    24558368.855 7 127882034.36907     -3307.325 7        43.727                                                                    24558369.108 7 103914692.15907     -2687.399 7        44.382
C24        49.000                                                                                                                                    22149601.171 8 115338850.63008     -2385.800 8        50.604                                                                    22149599.142 8  93722284.63808     -1938.583 8        49.716
R19        50.000    20275381.813 6 108459855.29106      2054.136 6        40.727                                                                    20275382.583 7  84357771.38907      1597.823 7        44.885
S48        51.000    77175489.498 6 405560788.13006      -512.245 6        38.474
C08        52.000                                                                                                                                    38116125.261 6 198480749.91406       481.297 6        41.931    38116120.184 7 153477930.76407       372.115 7        45.177    38116119.092 7 161281881.65207       391.168 7        42.387
C34        53.000                                                                                                                                    22664546.869 8 118020489.23708      1652.773 8        49.159                                                                    22664548.082 8  95901424.42008      1343.058 8        48.044
C60        54.000                                                                                                                                    40592937.708 6 211378250.54506      -402.587 6        38.102                                                                    40592924.299 6 171762105.37506      -326.862 6        40.095
C25        55.000                                                                                                                                    22522711.519 8 117281889.62908       874.655 8        48.826                                                                    22522710.583 8  95301230.59508       710.835 8        48.589
C26        56.000                                                                                                                                    25972620.920 6 135246307.10706     -3925.117 6        41.852                                                                    25972623.904 6 109898738.60806     -3189.432 6        41.080
C02        57.000                                                                                                                                    40784627.126 5 212376269.75505      -383.529 5        33.210    40784623.251 6 164222789.12806      -296.727 6        39.568    40784624.297 5 172573112.29605      -311.635 5        33.754
I03        58.000    85795894.644 6 260896231.70406      1091.058 6        41.664
E30        59.000    27370208.685 6 143831555.97906      2154.835 6        38.952                                                                    27370214.688 7 107406777.22907      1609.273 7        42.620    27370213.559 7 110208679.23007      1651.235 7        42.961
> 2025 01 02 16 30 55.0000000  0 57
E24         1.000    28944262.487 3                     -3227.355 3        18.239                                                                    28944266.035 4                     -2411.294 4        24.015    28944264.779 4                     -2473.365 4        25.173
E11         2.000    24216036.552 7 127256318.28807     -1510.506 7        43.268                                                                    24216033.992 7  95029190.45007     -1127.978 7        45.226    24216033.585 7  97508199.43907     -1157.511 7        45.893
G16         3.000    24038133.225 6 126321351.48906      3047.995 6        39.054                                    24038134.401 3  98432281.92003      2375.043 3        19.731
G05         4.000    23123990.122 7 121517464.20807       786.127 7        42.483                                    23123987.935 6  94688952.18206       612.560 6        38.865    23123988.398 6  94688951.19606       612.450 6        39.309
S21         5.000    38455429.995 7 202084303.60507      -477.960 7        42.504
G26         6.000    21648213.469 7 113762334.41407      1917.927 7        45.830                                    21648214.459 7  88646098.75907      1494.484 7        45.022    21648214.828 7  88646085.76607      1494.463 7        42.912
G25         7.000    21928767.603 7 115236623.28007     -3494.787 7        45.329                                    21928767.600 7  89794856.47407     -2723.213 7        43.388    21928768.209 6  89794857.47206     -2723.138 6        41.297
G04         8.000    25196077.090 6 132406239.58706     -1051.697 6        37.285                                    25196077.941 3 103173670.74603      -819.482 3        19.731    25196078.022 6 103173679.71606      -819.618 6        36.442
E36         9.000    24135788.231 7 126834592.13907      1329.261 7        47.291                                                                    24135790.748 8  94714279.72808       992.667 8        49.500    24135790.372 8  97185075.14608      1018.524 8        50.315
R08        10.000    24404507.269 6 130685038.37506     -2660.493 6        38.150                                                                    24404507.086 6 101643916.25806     -2069.231 6        38.592
G20        11.000    23819857.129 6 125174306.03006     -1638.077 6        39.892                                    23819853.408 3  97538479.98803     -1276.429 3        22.114
S27        12.000    39247987.492 6 206249619.03706      -465.766 6        36.801
E08        13.000    28864044.150 5 151681643.71505     -3091.355 5        35.071                                                                    28864055.331 5 113268838.80705     -2308.333 5        35.957    28864053.632 6 116223667.50206     -2368.600 6        36.393
S36        14.000    38226554.935 7 200882368.98307      -477.869 7        44.160
C13        15.000                                                                                                                                    38262341.972 7 199242091.24207       644.329 7        43.670    38262344.666 7 154066651.74607       498.279 7        44.515    38262342.569 7 161900537.73007       523.736 7        42.324
G18        16.000    21663125.141 8 113840694.00708      2056.704 8        48.308                                    21663123.425 6  88707124.29006      1602.625 6        38.048    21663123.647 7  88707132.29807      1602.602 7        45.532
R01        18.000    23715642.091 6 126773694.83706       296.513 6        38.742                                                                    23715643.794 5  98601637.56705       230.793 5        34.243
E02        19.000    23436460.821 8 123159603.03608       426.698 8        48.202                                                                    23436461.225 8  91969937.84308       318.647 8        50.957    23436460.571 8  94369139.31108       326.974 8        51.176
E10        21.000    26138975.590 6 137361458.09506     -2788.397 6        41.862                                                                    26138976.915 7 102575246.55507     -2082.145 7        45.490    26138976.469 7 105251107.78207     -2136.444 7        45.881
I06        22.000    38729094.150 6 151981451.31606      -384.636 6        41.128
S28        23.000    40933862.572 5 215108877.06805      -476.477 5        34.376
E29        24.000    28914544.988 5 151946969.84405       397.444 5        32.952                                                                    28914546.453 6 113466891.84406       297.000 6        37.546    28914546.023 6 116426898.37106       304.472 6        38.288
S23        25.000    38177618.356 7 200624667.10607      -481.639 7        44.719
S45        26.000    63435153.794 6 333354289.73306      -539.339 6        36.779
R09        27.000    20781009.416 8 110969609.62908      2631.065 8        50.014                                                                    20781009.966 7  86309800.89107      2046.354 7        46.934
R18        28.000    19152623.034 8 102238286.81808     -1272.039 8        51.136                                                                    19152624.078 7  79518816.72807      -989.380 7        47.409
C38        29.000                                                                                                                                    38660082.575 7 201313300.71107      -134.075 7        44.652                                                                    38660081.806 7 163583588.14907      -108.715 7        43.390
C44        30.000                                                                                                                                    21503832.737 8 111976311.90408     -1341.553 8        51.291                                                                    21503831.772 8  90990008.70308     -1089.981 8        49.955
E12        31.000    28418496.504 5 149340388.33305     -3394.223 5        33.701                                                                    28418494.441 6 111520531.11306     -2534.844 6        36.805    28418494.805 6 114429745.44606     -2600.816 6        37.943
G11        32.000    25699670.934 6 135052895.98506     -4056.232 6        36.465                                    25699668.221 3 105236125.66203     -3160.702 3        18.179    25699668.064 6 105236116.65206     -3160.837 6        36.510
I02        33.000    38130026.867 6 149630442.05006      -835.600 6        40.756
R15        34.000    22422663.106 7 119820032.91707     -4545.769 7        46.420                                                                    22422665.879 7  93193423.47007     -3535.642 7        42.834
E34        35.000    27686962.350 6 145496051.46806      2754.832 6        38.676                                                                    27686971.474 6 108649723.04606      2057.298 6        41.533    27686970.101 6 111484056.69206      2110.849 6        41.464
G29        36.000    20643504.890 8 108482639.36108     -1599.230 8        48.555                                    20643501.675 8  84532034.92108     -1246.154 8        50.073    20643502.108 7  84532044.91707     -1246.089 7        45.174
G31        37.000    21707596.440 7 114074400.00007     -1066.473 7        47.478                                    21707593.848 7  88889237.11807      -831.020 7        45.959    21707594.496 7  88889243.12107      -831.002 7        43.090
C10        38.000                                                                                                                                    41084053.708 5 213935469.28005     -1155.235 5        35.195    41084053.023 6 165428482.25506      -893.108 6        37.512    41084050.633 5 173840086.58405      -938.448 5        35.129
E25        39.000    24272766.390 7 127554453.66707     -2149.036 7        46.595                                                                    24272767.997 8  95251829.97808     -1604.831 8        49.522    24272767.601 8  97736644.86308     -1646.646 8        50.169
C12        40.000                                                                                                                                    21714969.076 7 113075738.07507       147.796 7        46.905    21714967.167 8  87437426.26508       114.297 8        52.001    21714966.304 8  91883369.67208       120.232 8        49.650
E07        41.000    28193863.006 6 148159719.25306     -1766.780 6        36.219                                                                    28193872.765 6 110638760.47806     -1318.978 6        39.583    28193871.487 6 113524986.03706     -1353.579 6        40.248
S44        42.000    40593323.687 6 213319511.67906      -405.953 6        37.006
G28        43.000    22074823.226 7 116004158.63307     -2675.318 7        46.839                                    22074821.642 5  90392938.66005     -2084.667 5        35.471    22074821.911 7  90392938.67007     -2084.692 7        44.775
C05        44.000                                                                                                                                    39409279.403 6 205214455.28606      -418.625 6        38.120    39409276.829 7 158684848.20107      -323.799 7        42.518    39409277.808 6 166753649.95906      -340.295 6        39.631
C11        45.000                                                                                                                                    24668084.499 7 128453252.81007      2420.066 7        43.230    24668085.717 7  99328243.78007      1871.332 7        46.323    24668083.071 7 104378813.54607      1966.628 7        43.894
R16        46.000    19237434.081 8 102763113.51008     -1532.159 8        52.086                                                                    19237434.904 7  79926978.43107     -1191.663 7        47.824
R17        47.000    21719056.501 7 116223295.20607     -4120.826 7        47.595                                                                    21719057.830 7  90396027.62307     -3205.085 7        45.126
C35        48.000                                                                                                                                    24561544.635 7 127898571.58107     -3307.777 7        44.060                                                                    24561545.152 7 103928130.00407     -2687.654 7        44.424
C24        49.000                                                                                                                                    22151893.077 8 115350784.67808     -2387.904 8        50.774                                                                    22151890.901 8  93731982.02808     -1940.257 8        49.660
R19        50.000    20273462.843 6 108449590.65306      2051.442 6        40.667                                                                    20273463.619 7  84349787.81707      1595.492 7        44.865
S48        51.000    77175951.126 6 405563348.62706      -512.156 6        38.450
C08        52.000                                                                                                                                    38115663.327 6 198478345.88706       480.144 6        41.805    38115658.521 7 153476071.80807       371.388 7        45.436    38115657.556 7 161279928.18507       390.367 7        42.311
C34        53.000                                                                                                                                    22662960.206 8 118012228.88508      1651.277 8        48.996                                                                    22662961.679 7  95894712.22307      1341.935 7        47.959
C60        54.000                                                                                                                                    40593324.638 6 211380262.51506      -402.351 6        38.120                                                                    40593310.652 6 171763740.28906      -326.981 6        39.859
C25        55.000                                                                                                                                    22521872.555 8 117277521.50908       872.433 8        49.085                                                                    22521871.694 8  95297681.14908       709.089 8        48.463
C26        56.000                                                                                                                                    25976389.831 6 135265933.04606     -3925.435 6        41.967                                                                    25976393.032 6 109914686.27406     -3189.472 6        41.437
C02        57.000                                                                                                                                    40784994.505 5 212378187.50905      -383.655 5        33.419    40784991.574 6 164224272.05106      -296.540 6        39.453    40784992.423 5 172574670.62805      -311.723 5        33.719
I03        58.000    85794504.686 6 260890775.86606      1091.180 6        41.368
E30        59.000    27368157.996 6 143820780.94606      2154.701 6        39.108                                                                    27368164.259 7 107398730.96407      1609.150 7        42.457    27368162.986 7 110200423.05207      1651.245 7        43.010
> 2025 01 02 16 31  0.0000000  0 57
E24         1.000                                                                                                                                    28947336.273 4                     -2411.159 4        24.000    28947337.218 4                     -2474.520 4        24.782
E11         2.000    24217474.846 7 127263875.87307     -1512.599 7        42.971                                                                    24217472.147 7  95034834.11107     -1129.467 7        45.266    24217471.766 7  97513990.31907     -1158.943 7        45.931
G16         3.000    24035233.007 6 126306112.58706      3047.582 6        38.577                                    24035234.392 3  98420407.51003      2374.717 3        19.672
G05         4.000    23123243.798 7 121513541.00807       783.180 7        43.069                                    23123241.237 6  94685895.15006       610.270 6        38.835    23123242.144 6  94685894.15706       610.325 6        39.468
S21         5.000    38455887.777 7 202086693.01807      -477.876 7        42.476
G26         6.000    21646389.272 7 113752749.16207      1916.192 7        45.708                                    21646390.408 7  88638629.74707      1493.134 7        45.020    21646391.042 7  88638616.75907      1493.056 7        42.978
G25         7.000    21932093.262 7 115254100.26407     -3496.087 7        45.254                                    21932093.271 7  89808474.90407     -2724.225 7        43.475    21932093.911 6  89808475.92106     -2724.272 6        41.356
G04         8.000    25197079.535 6 132411505.38806     -1054.434 6        37.486                                    25197079.907 3 103177773.87903      -821.601 3        19.075    25197080.713 6 103177782.83006      -821.710 6        36.567
E36         9.000    24134524.501 7 126827950.25407      1327.492 7        47.020                                                                    24134526.860 8  94709319.89408       991.321 8        49.633    24134526.444 8  97179985.92208      1017.170 8        50.340
R08        10.000    24406993.775 6 130698348.86006     -2663.635 6        38.084                                                                    24406994.287 6 101654268.90306     -2071.736 6        39.571
G20        11.000    23821416.915 6 125182503.93006     -1641.089 6        39.745                                    23821413.423 3  97544867.96403     -1278.773 3        22.038
S27        12.000    39248427.781 6 206251947.70206      -465.539 6        36.696
E08        13.000    28866986.370 5 151697101.41705     -3091.429 5        35.057                                                                    28866996.956 6 113280381.89406     -2308.841 6        36.507    28866995.681 6 116235511.70606     -2368.800 6        37.119
S36        14.000    38227008.832 7 200884757.24007      -477.559 7        44.272
C13        15.000                                                                                                                                    38261723.653 7 199238872.03407       643.452 7        43.725    38261726.462 7 154064162.46107       497.563 7        44.459    38261724.388 7 161897921.86907       522.938 7        42.578
G18        16.000    21661169.578 8 113830416.09308      2054.477 8        48.041                                    21661167.644 6  88699115.53606      1600.887 6        38.009    21661167.948 7  88699123.54107      1600.979 7        45.947
R01        18.000    23715366.755 6 126772222.28106       292.748 6        38.276                                                                    23715368.420 5  98600492.22405       227.822 5        33.940
E02        19.000    23436055.507 8 123157472.71308       425.436 8        48.138                                                                    23436055.904 8  91968347.03208       317.670 8        51.058    23436055.194 8  94367506.99608       326.000 8        51.222
E10        21.000    26141629.255 7 137375402.58007     -2789.454 7        42.066                                                                    26141630.358 7 102585659.65807     -2082.966 7        45.552    26141630.135 7 105261792.52707     -2137.404 7        45.958
I06        22.000    38729584.067 6 151983373.86906      -384.451 6        41.213
S28        23.000    40934312.761 5 215111258.99405      -476.287 5        34.352
E29        24.000    28914167.310 5 151944987.33905       395.555 5        33.473                                                                    28914168.889 6 113465411.40006       295.549 6        38.508    28914168.543 6 116425379.31206       302.990 6        38.544
S23        25.000    38178077.628 7 200627075.08007      -481.514 7        44.695
S45        26.000    63435614.559 6 333356986.15406      -539.358 6        36.590
R09        27.000    20778547.174 8 110956459.86108      2628.835 8        50.020                                                                    20778547.852 7  86299573.29207      2044.691 7        47.362
R18        28.000    19153815.878 8 102244655.49808     -1275.408 8        50.660                                                                    19153816.943 7  79523770.15007      -991.989 7        47.090
C38        29.000                                                                                                                                    38660212.044 7 201313973.18107      -134.931 7        44.591                                                                    38660210.986 7 163584134.60807      -109.535 7        43.526
C44        30.000                                                                                                                                    21505121.660 8 111983024.04308     -1343.286 8        51.405                                                                    21505120.746 8  90995462.88208     -1091.487 8        50.121
E12        31.000    28421726.547 5 149357361.11105     -3394.649 5        33.156                                                                    28421724.320 6 111533205.60406     -2535.103 6        36.987    28421724.675 6 114442750.60306     -2601.185 6        38.024
G11        32.000    25703531.144 6 135073178.88206     -4056.939 6        36.215                                    25703527.831 3 105251930.51303     -3161.238 3        18.298    25703527.588 6 105251921.52306     -3161.137 6        36.673
I02        33.000    38131091.100 6 149634619.93406      -835.603 6        40.586
R15        34.000    22426917.020 7 119842765.30507     -4547.159 7        47.034                                                                    22426920.103 7  93211104.18407     -3536.609 7        43.041
E34        35.000    27684341.212 6 145482277.55106      2754.856 6        38.604                                                                    27684350.186 6 108639437.36906      2057.056 6        41.600    27684349.033 6 111473502.68106      2110.781 6        41.788
G29        36.000    20645027.236 8 108490639.88808     -1600.970 8        48.415                                    20645024.115 8  84538269.10108     -1247.509 8        50.049    20645024.328 7  84538279.10107     -1247.462 7        44.886
G31        37.000    21708612.715 7 114079740.34807     -1069.671 7        47.615                                    21708610.068 7  88893398.43307      -833.512 7        45.967    21708610.923 7  88893404.43907      -833.499 7        43.200
C10        38.000                                                                                                                                    41085163.204 5 213941244.88505     -1155.289 5        35.214    41085162.405 6 165432948.30606      -893.117 6        37.410    41085159.725 5 173844779.72305      -938.647 5        35.133
E25        39.000    24274811.837 7 127565202.03607     -2150.271 7        46.363                                                                    24274813.412 8  95259856.36308     -1605.714 8        49.587    24274812.917 8  97744880.62708     -1647.564 8        50.198
C12        40.000                                                                                                                                    21714828.353 7 113075004.07007       145.834 7        46.925    21714826.190 8  87436858.69908       112.751 8        51.987    21714825.357 8  91882773.25408       118.505 8        49.878
E07        41.000    28195544.863 5 148168556.67105     -1768.452 5        35.771                                                                    28195554.559 6 110645359.85806     -1320.539 6        39.580    28195553.166 6 113531757.56706     -1354.985 6        40.384
S44        42.000    40593712.365 6 213321541.85106      -406.069 6        37.285
G28        43.000    22077369.777 7 116017541.57807     -2677.786 7        46.439                                    22077368.320 5  90403366.92405     -2086.585 5        35.505    22077368.382 7  90403366.92207     -2086.613 7        44.585
C05        44.000                                                                                                                                    39409681.098 6 205216549.16906      -418.803 6        37.807    39409679.190 7 158686467.32507      -323.777 7        42.639    39409679.923 6 166755351.40506      -340.108 6        39.853
C11        45.000                                                                                                                                    24665761.167 7 128441154.56407      2419.184 7        42.921    24665762.510 7  99318888.68607      1870.715 7        46.247    24665759.680 7 104368982.77207      1965.826 7        44.021
R16        46.000    19238870.150 8 102770784.16008     -1536.045 8        52.038                                                                    19238870.942 7  79932944.49407     -1194.707 7        47.965
R17        47.000    21722907.743 8 116243902.12408     -4121.897 8        48.174                                                                    21722908.069 7  90412055.23207     -3205.958 7        44.928
C35        48.000                                                                                                                                    24564721.066 7 127915111.30407     -3308.135 7        44.175                                                                    24564721.311 7 103941569.90007     -2688.128 7        44.581
C24        49.000                                                                                                                                    22154187.003 8 115362729.53408     -2389.978 8        50.704                                                                    22154184.817 8  93741688.21008     -1942.030 8        49.883
R19        50.000    20271546.479 6 108439341.09006      2048.503 6        40.982                                                                    20271547.248 7  84341815.94107      1593.208 7        44.512
S48        51.000    77176411.077 6 405565908.76506      -512.242 6        38.291
C08        52.000                                                                                                                                    38115202.019 6 198475947.17106       479.192 6        41.487    38115198.031 7 153474216.99307       370.587 7        45.436    38115196.868 7 161277979.05007       389.471 7        42.533
C34        53.000                                                                                                                                    22661375.366 8 118003976.12308      1649.890 8        48.829                                                                    22661376.844 8  95888006.19808      1340.677 8        48.159
C60        54.000                                                                                                                                    40593710.673 6 211382274.23606      -402.353 6        38.018                                                                    40593696.982 6 171765374.98506      -326.909 6        40.052
C25        55.000                                                                                                                                    22521035.750 8 117273164.96308       870.187 8        49.163                                                                    22521035.101 8  95294141.12108       707.157 8        48.719
C26        56.000                                                                                                                                    25980159.120 7 135285560.46307     -3925.587 7        42.002                                                                    25980162.367 6 109930635.17906     -3189.933 6        41.664
C02        57.000                                                                                                                                    40785361.522 5 212380104.91305      -383.366 5        33.719    40785359.713 6 164225754.70806      -296.522 6        39.592    40785360.362 5 172576228.68605      -311.466 5        33.647
I03        58.000    85793114.336 6 260885319.68706      1091.202 6        41.251
E30        59.000    27366107.934 6 143810006.54806      2154.840 6        38.889                                                                    27366113.937 7 107390685.19807      1609.172 7        42.667    27366112.653 7 110192167.39807      1651.084 7        43.094
> 2025 01 02 16 31  5.0000000  0 58
E24         1.000                                                                                                                                    28950408.407 4                     -2411.022 4        25.068    28950408.583 4                     -2474.019 4        26.024
E11         2.000    24218915.188 7 127271443.98607     -1514.614 7        42.955                                                                    24218912.289 7  95040485.62207     -1131.030 7        45.300    24218911.863 7  97519789.26407     -1160.613 7        45.877
G16         3.000    24032333.873 6 126290876.01906      3047.185 6        39.099                                    24032335.041 3  98408534.95103      2374.400 3        20.048
G05         4.000    23122500.141 7 121509632.95807       780.030 7        43.553                                    23122497.485 6  94682849.92406       607.815 6        39.015    23122498.126 6  94682848.93306       607.842 6        39.465
S21         5.000    38456343.874 7 202089082.16307      -477.863 7        42.554
G26         6.000    21644566.703 7 113743173.07007      1914.257 7        45.586                                    21644568.110 7  88631167.87607      1491.625 7        45.046    21644568.728 7  88631154.88407      1491.701 7        42.969
G25         7.000    21935420.178 7 115271585.01207     -3497.751 7        44.981                                    21935420.494 7  89822099.39007     -2725.520 7        43.492    21935421.604 6  89822100.39806     -2725.515 6        41.595
G04         8.000    25198084.127 6 132416785.44106     -1057.301 6        36.076                                    25198084.676 3 103181888.10303      -823.887 3        19.284    25198085.302 6 103181897.07806      -823.928 6        36.945
E36         9.000    24133262.540 7 126821318.14707      1325.383 7        47.243                                                                    24133264.845 8  94704367.35608       989.806 8        49.693    24133264.431 8  97174904.19108      1015.545 8        50.371
R08        10.000    24409482.600 6 130711674.79806     -2666.830 6        38.583                                                                    24409482.419 6 101664633.43006     -2073.999 6        39.369
G20        11.000    23822980.033 6 125190716.51006     -1643.932 6        39.297                                    23822976.376 3  97551267.38203     -1280.993 3        22.476
S27        12.000    39248874.442 6 206254276.32706      -465.726 6        36.238
E08        13.000    28869927.475 5 151712560.51205     -3092.039 5        34.990                                                                    28869938.663 6 113291925.98106     -2308.910 6        36.552    28869937.305 6 116247356.96406     -2369.186 6        37.422
S36        14.000    38227462.312 7 200887145.75807      -477.655 7        44.119
C13        15.000                                                                                                                                    38261106.436 7 199235657.64707       642.412 7        43.746    38261109.288 7 154061676.90707       496.684 7        44.346    38261107.221 7 161895309.92307       521.989 7        42.512
G18        16.000    21659215.483 8 113820149.55408      2052.147 8        48.047                                    21659214.006 6  88691115.65206      1599.074 6        38.042    21659214.436 7  88691123.66107      1599.067 7        45.955
R01        18.000    23715094.432 6 126770769.69606       288.428 6        38.330                                                                    23715093.872 5  98599362.46405       224.576 5        34.586
E02        19.000    23435651.451 8 123155349.21008       423.905 8        48.041                                                                    23435651.778 8  91966761.30808       316.570 8        51.143    23435651.104 8  94365879.91108       324.851 8        51.235
E10        21.000    26144284.512 7 137389353.71507     -2790.896 7        42.381                                                                    26144285.208 7 102596077.72907     -2084.163 7        45.637    26144285.055 7 105272482.37107     -2138.501 7        45.985
I06        22.000    38730073.938 6 151985296.05806      -384.345 6        41.380
S28        23.000    40934768.446 5 215113640.98705      -476.253 5        34.090
E29        24.000    28913792.341 5 151943015.59605       393.205 5        32.868                                                                    28913793.402 6 113463939.02906       293.736 6        37.595    28913792.930 6 116423868.51606       301.169 6        37.316
S23        25.000    38178534.860 7 200629482.79407      -481.467 7        44.623
S45        26.000    63436069.936 6 333359682.25606      -539.357 6        36.575
R09        27.000    20776086.757 8 110943321.90308      2626.354 8        49.874                                                                    20776087.649 7  86289354.90207      2042.733 7        47.473
R18        28.000    19155012.171 8 102251041.62108     -1278.963 8        50.688                                                                    19155013.495 7  79528737.15007      -994.746 7        47.674
C38        29.000                                                                                                                                    38660342.205 7 201314650.75207      -136.104 7        44.635                                                                    38660341.236 7 163584685.19407      -110.461 7        43.572
C44        30.000                                                                                                                                    21506412.408 8 111989745.53008     -1345.290 8        51.421                                                                    21506411.563 8  91000924.65308     -1093.175 8        50.170
E12        31.000    28424957.098 5 149374336.60505     -3395.506 5        33.623                                                                    28424954.516 6 111545882.09106     -2535.511 6        36.858    28424955.115 6 114455757.75806     -2601.530 6        38.216
G11        32.000    25707391.398 6 135093464.21106     -4056.969 6        36.098                                    25707388.062 2 105267737.25502     -3161.267 2        17.623    25707389.040 6 105267728.25506     -3161.464 6        36.113
I02        33.000    38132155.654 6 149638798.01806      -835.531 6        41.015
R15        34.000    22431172.311 7 119865505.01407     -4548.730 7        46.770                                                                    22431175.744 7  93228790.61607     -3537.819 7        43.263
E34        35.000    27681720.644 6 145468505.25106      2754.204 6        38.724                                                                    27681729.395 6 108629152.89106      2056.710 6        41.623    27681728.322 6 111462949.90006      2110.418 6        41.986
G29        36.000    20646551.408 8 108498649.64708     -1602.940 8        48.548                                    20646548.325 8  84544510.47808     -1249.044 8        50.051    20646548.845 7  84544520.47907     -1249.058 7        45.029
G31        37.000    21709632.004 7 114085097.40807     -1073.092 7        47.539                                    21709629.478 7  88897572.77607      -836.181 7        45.986    21709630.232 7  88897578.78607      -836.171 7        43.067
C10        38.000                                                                                                                                    41086272.663 5 213947020.43005     -1155.181 5        34.967    41086271.041 6 165437414.33106      -893.162 6        37.338    41086268.711 5 173849472.84705      -938.742 5        35.500
E25        39.000    24276858.398 7 127575956.95407     -2151.687 7        46.361                                                                    24276859.983 8  95267887.62508     -1606.762 8        49.692    24276859.461 8  97753121.40708     -1648.699 8        50.217
C12        40.000                                                                                                                                    21714689.408 7 113074280.50507       143.596 7        46.874    21714687.235 8  87436299.20608       110.989 8        51.978    21714686.395 8  91882185.30308       116.707 8        49.918
E07        41.000    28197228.971 5 148177403.70305     -1770.436 5        35.590                                                                    28197238.128 6 110651966.41406     -1322.047 6        39.862    28197236.752 6 113538536.46706     -1356.604 6        40.300
S44        42.000    40594094.872 6 213323571.88006      -405.997 6        37.214
G28        43.000    22079918.898 7 116030937.40707     -2680.539 7        46.562                                    22079917.382 5  90413805.23105     -2088.732 5        35.514    22079917.812 7  90413805.22307     -2088.603 7        44.400
C05        44.000                                                                                                                                    39410083.472 6 205218642.77306      -418.903 6        37.807    39410080.992 7 158688086.23007      -323.782 7        42.525    39410081.855 6 166757052.62206      -340.226 6        39.844
C11        45.000                                                                                                                                    24663438.382 7 128429061.06107      2418.276 7        43.134    24663440.361 7  99309537.26507      1869.879 7        46.336    24663437.191 7 104359155.85607      1964.924 7        43.945
R16        46.000    19240309.471 8 102778474.47908     -1540.136 8        51.802                                                                    19240310.537 8  79938925.85808     -1197.858 8        48.097
R17        47.000    21726760.171 8 116264514.92708     -4123.242 8        48.085                                                                    21726759.835 7  90428087.41407     -3206.904 7        44.551
C35        48.000                                                                                                                                    24567898.065 7 127931653.67207     -3308.808 7        44.063                                                                    24567897.972 7 103955011.93307     -2688.685 7        44.731
C24        49.000                                                                                                                                    22156482.840 8 115374685.33608     -2392.256 8        50.544                                                                    22156480.796 8  93751403.28108     -1943.993 8        49.919
R19        50.000    20269634.089 6 108429106.78406      2045.489 6        40.472                                                                    20269633.891 7  84333855.93307      1590.850 7        44.289
S48        51.000    77176876.126 6 405568469.18706      -511.932 6        38.273
C08        52.000                                                                                                                                    38114742.195 6 198473553.85706       478.266 6        41.597    38114738.548 7 153472366.34707       369.674 7        45.508    38114737.310 7 161276034.30207       388.433 7        42.571
C34        53.000                                                                                                                                    22659791.969 8 117995731.11908      1648.186 8        48.778                                                                    22659793.526 8  95881306.47108      1339.318 8        48.148
C60        54.000                                                                                                                                    40594097.012 6 211384285.80406      -402.142 6        38.009                                                                    40594083.286 6 171767009.55606      -326.921 6        40.217
C25        55.000                                                                                                                                    22520201.256 8 117268820.15208       867.686 8        49.118                                                                    22520200.709 8  95290610.62008       705.026 8        48.772
C26        56.000                                                                                                                                    25983928.711 6 135305189.48706     -3925.946 6        41.974                                                                    25983932.023 7 109946585.36007     -3190.300 7        42.089
C02        57.000                                                                                                                                    40785731.366 5 212382022.06405      -383.656 5        33.503    40785728.430 6 164227237.18506      -296.459 6        39.688    40785728.917 5 172577786.51905      -311.524 5        34.152
I03        58.000    85791723.582 6 260879863.26806      1091.280 6        41.387
E30        59.000    27364057.696 6 143799232.98706      2154.597 6        38.892                                                                    27364063.694 7 107382640.04407      1608.995 7        42.480    27364062.498 7 110183912.36907      1650.947 7        43.177
G09        60.000    25558633.983 5 134311531.38015       -93.003 5        35.690
> 2025 01 02 16 31 10.0000000  0 58
E24         1.000    28953480.213 3                     -3230.559 3        19.761                                                                    28953481.436 4                     -2411.179 4        24.857    28953480.708 4                     -2473.978 4        25.865
E11         2.000    24220357.430 7 127279023.28107     -1516.953 7        43.192                                                                    24220354.629 7  95046145.50607     -1132.883 7        45.300    24220354.171 7  97525596.78907     -1162.368 7        45.932
G16         3.000    24029435.039 6 126275642.47106      3046.254 6        39.057                                    24029436.178 3  98396664.73503      2373.681 3        19.612
G05         4.000    23121759.219 7 121505740.89607       776.660 7        43.750                                    23121756.819 6  94679817.15406       605.189 6        39.039    23121757.100 6  94679816.14106       605.294 6        39.781
S21         5.000    38456797.900 7 202091471.99507      -478.165 7        42.504
G26         6.000    21642746.430 7 113733606.85407      1912.125 7        45.445                                    21642747.690 7  88623713.70007      1489.963 7        44.992    21642747.857 7  88623700.70807      1490.017 7        42.991
G25         7.000    21938748.945 7 115289078.20307     -3499.709 7        45.440                                    21938749.416 7  89835730.44907     -2727.048 7        43.492    21938750.439 7  89835731.45407     -2727.045 7        42.258
G04         8.000    25199091.881 6 132422080.36206     -1060.629 6        37.221                                    25199092.294 3 103186013.95603      -826.490 3        18.955    25199092.944 6 103186022.95306      -826.268 6        36.575
E36         9.000    24132002.625 7 126814696.51607      1323.086 7        47.384                                                                    24132004.778 8  94699422.64408       988.082 8        49.712    24132004.312 8  97169830.48308      1013.846 8        50.296
R08        10.000    24411976.124 6 130725017.15006     -2670.322 6        38.444                                                                    24411973.421 6 101675010.71006     -2076.799 6        38.408
G20        11.000    23824545.607 6 125198944.49206     -1647.173 6        39.045                                    23824542.427 3  97557678.80603     -1283.533 3        22.514
S27        12.000    39249315.881 6 206256605.06806      -465.803 6        36.839
E08        13.000    28872870.000 5 151728021.66805     -3092.622 5        34.729                                                                    28872880.781 6 113303471.66006     -2309.495 6        36.635    28872879.669 6 116259203.81406     -2369.602 6        37.792
S36        14.000    38227917.090 7 200889533.94107      -477.759 7        44.188
C13        15.000                                                                                                                                    38260490.349 7 199232448.71207       641.078 7        43.807    38260492.991 7 154059195.55807       495.775 7        44.327    38260490.946 7 161892702.39607       521.158 7        42.527
G18        16.000    21657264.329 7 113809895.10107      2049.559 7        47.460                                    21657262.661 6  88683125.18306      1597.057 6        38.003    21657262.695 7  88683133.19007      1597.075 7        45.342
R01        18.000    23714826.831 6 126769337.87806       284.270 6        38.234                                                                    23714828.473 5  98598248.83105       220.926 5        34.457
E02        19.000    23435248.716 8 123153233.23108       422.341 8        48.259                                                                    23435249.153 8  91965181.20908       315.341 8        51.094    23435248.457 8  94364258.58708       323.616 8        51.237
E10        21.000    26146940.604 7 137403312.21107     -2792.643 7        42.618                                                                    26146941.398 7 102606501.27607     -2085.370 7        45.601    26146941.368 7 105283177.83407     -2139.704 7        46.045
I06        22.000    38730563.881 6 151987218.42706      -384.488 6        41.302
S28        23.000    40935219.807 5 215116023.54405      -476.928 5        34.109
E29        24.000    28913419.253 5 151941055.23705       390.655 5        33.234                                                                    28913420.219 6 113462475.11106       291.855 6        37.724    28913420.051 6 116422366.39606       299.589 6        37.705
S23        25.000    38178991.699 7 200631891.17907      -481.929 7        44.749
S45        26.000    63436532.512 6 333362378.85306      -539.569 6        36.756
R09        27.000    20773628.819 8 110930196.54908      2623.681 8        49.650                                                                    20773629.071 7  86279146.31507      2040.561 7        47.474
R18        28.000    19156211.998 8 102257445.87308     -1282.778 8        50.890                                                                    19156213.254 7  79533718.24907      -997.765 7        47.688
C38        29.000                                                                                                                                    38660473.397 7 201315334.11207      -137.366 7        44.402                                                                    38660472.332 7 163585240.48507      -111.470 7        43.498
C44        30.000                                                                                                                                    21507705.020 8 111996477.06008     -1347.450 8        51.350                                                                    21507704.270 8  91006394.56808     -1094.738 8        50.087
E12        31.000    28428188.039 5 149391315.44805     -3396.168 5        33.748                                                                    28428185.649 6 111558561.09706     -2536.144 6        36.786    28428185.906 6 114468767.53106     -2602.500 6        38.063
G11        32.000    25711252.003 6 135113752.87106     -4058.104 6        36.015                                    25711248.906 2 105283546.58702     -3162.141 2        17.283    25711249.352 6 105283537.62206     -3162.188 6        36.476
I02        33.000    38133220.563 6 149642977.11606      -835.953 6        41.089
R15        34.000    22435428.824 7 119888252.62007     -4550.465 7        46.501                                                                    22435432.306 7  93246483.18407     -3539.249 7        43.445
E34        35.000    27679100.203 6 145454735.22206      2753.757 6        38.733                                                                    27679109.002 6 108618870.11906      2056.305 6        41.423    27679107.986 7 111452398.88807      2109.927 7        42.150
G29        36.000    20648077.647 8 108506669.33008     -1605.054 8        48.679                                    20648074.414 8  84550759.58408     -1250.691 8        49.934    20648075.133 7  84550769.59207     -1250.775 7        45.136
G31        37.000    21710654.455 7 114090471.94607     -1076.745 7        47.005                                    21710652.200 7  88901760.73507      -839.024 7        45.908    21710652.697 7  88901766.75107      -839.095 7        43.170
C10        38.000                                                                                                                                    41087381.718 5 213952796.69205     -1155.226 5        34.948    41087380.164 6 165441880.90306      -893.567 6        37.293    41087378.035 5 173854166.53305      -938.585 5        35.014
E25        39.000    24278906.221 7 127586719.10707     -2153.252 7        46.446                                                                    24278907.921 8  95275924.30208     -1607.980 8        49.666    24278907.445 8  97761367.73808     -1649.928 8        50.186
C12        40.000                                                                                                                                    21714552.504 7 113073568.05307       141.241 7        47.077    21714550.622 8  87435748.29508       109.234 8        51.906    21714549.602 8  91881606.37708       114.902 8        49.835
E07        41.000    28198913.830 6 148186261.06006     -1772.390 6        36.034                                                                    28198923.545 6 110658580.67806     -1323.622 6        39.841    28198922.277 6 113545323.28506     -1358.247 6        40.164
S44        42.000    40594482.575 6 213325602.50406      -406.206 6        37.108
G28        43.000    22082470.907 7 116044346.78607     -2683.394 7        46.134                                    22082469.100 5  90424254.09305     -2090.955 5        35.462    22082469.360 7  90424254.10007     -2090.966 7        44.515
C05        44.000                                                                                                                                    39410485.337 6 205220736.75506      -418.850 6        38.057    39410482.942 7 158689705.44707      -324.045 7        42.561    39410483.876 6 166758754.17006      -340.315 6        39.670
C11        45.000                                                                                                                                    24661117.653 7 128416972.96907      2416.875 7        42.874    24661119.183 7  99300190.01607      1868.913 7        46.362    24661115.943 7 104349333.29807      1964.106 7        43.989
R16        46.000    19241752.929 8 102786185.34608     -1544.345 8        51.912                                                                    19241753.754 7  79944923.20307     -1201.167 7        47.640
R17        47.000    21730613.184 8 116285134.16008     -4124.594 8        48.056                                                                    21730613.476 7  90444124.60007     -3208.070 7        44.485
C35        48.000                                                                                                                                    24571075.576 7 127948199.35507     -3309.604 7        44.035                                                                    24571075.329 7 103968456.64707     -2689.104 7        44.462
C24        49.000                                                                                                                                    22158780.873 8 115386652.76208     -2394.786 8        50.844                                                                    22158779.014 8  93761127.79008     -1945.789 8        49.806
R19        50.000    20267723.065 6 108418888.21006      2042.011 6        40.234                                                                    20267724.051 7  84325908.16907      1588.285 7        44.515
S48        51.000    77177336.631 6 405571029.41906      -512.107 6        38.414
C08        52.000                                                                                                                                    38114284.333 6 198471166.71306       476.595 6        41.688    38114279.954 7 153470520.45707       368.648 7        45.485    38114278.876 7 161274094.54307       387.545 7        42.499
C34        53.000                                                                                                                                    22658210.534 8 117987494.56208      1646.275 8        48.710                                                                    22658211.734 8  95874613.60008      1337.911 8        48.114
C60        54.000                                                                                                                                    40594483.101 6 211386297.96106      -402.578 6        37.860                                                                    40594469.697 6 171768644.60106      -326.979 6        39.838
C25        55.000                                                                                                                                    22519369.206 8 117264487.80208       865.174 8        49.141                                                                    22519368.702 8  95287090.23308       703.186 8        48.626
C26        56.000                                                                                                                                    25987698.577 6 135324820.83106     -3926.674 6        41.897                                                                    25987701.871 7 109962537.41507     -3190.622 7        42.083
C02        57.000                                                                                                                                    40786099.948 5 212383939.71705      -383.595 5        33.820    40786096.033 6 164228720.02906      -296.656 6        39.553    40786096.726 5 172579344.75905      -311.486 5        33.671
I03        58.000    85790333.381 6 260874407.15306      1091.132 6        41.552
E30        59.000    27362008.041 6 143788460.94906      2154.101 6        39.126                                                                    27362013.893 7 107374596.02707      1608.487 7        42.707    27362012.675 7 110175658.49407      1650.631 7        43.164
G09        60.000    25558725.082 6 134312003.76506       -96.295 6        36.068                                                                                                    25558725.153 5 104658700.70515       -74.794 5        35.190
> 2025 01 02 16 31 15.0000000  0 58
E24         1.000    28956551.163 3                     -3227.413 3        19.493                                                                    28956554.232 4                     -2411.944 4        24.917    28956553.746 4                     -2473.631 4        25.880
E11         2.000    24221801.879 7 127286613.61607     -1519.093 7        43.209                                                                    24221798.886 7  95051813.60707     -1134.362 7        45.261    24221798.624 7  97531412.76407     -1164.099 7        45.937
G16         3.000    24026536.510 6 126260411.73506      3045.866 6        39.141                                    24026537.985 3  98384796.69603      2373.378 3        20.143
G05         4.000    23121021.274 7 121501864.56007       773.636 7        43.156                                    23121019.238 6  94676796.63806       602.831 6        39.039    23121019.448 6  94676795.64406       602.786 6        40.291
S21         5.000    38457252.641 7 202093862.21707      -478.190 7        42.563
G26         6.000    21640928.249 7 113724050.28607      1910.289 7        45.616                                    21640929.112 7  88616267.04007      1488.531 7        45.002    21640929.449 7  88616254.04907      1488.556 7        43.191
G25         7.000    21942079.401 7 115306579.60507     -3501.240 7        45.192                                    21942079.885 7  89849367.91107     -2728.240 7        43.477    21942080.197 7  89849368.90607     -2728.281 7        42.290
G04         8.000    25200102.110 6 132427390.00106     -1063.306 6        36.854                                    25200102.849 3 103190151.32703      -828.546 3        18.806    25200103.845 6 103190160.33106      -828.760 6        36.885
E36         9.000    24130744.383 7 126808085.16207      1321.172 7        47.751                                                                    24130746.637 8  94694485.60108       986.657 8        49.676    24130746.166 8  97164764.64708      1012.391 8        50.390
R08        10.000    24414469.224 6 130738375.81006     -2673.463 6        39.321                                                                    24414468.893 6 101685400.72406     -2079.311 6        38.838
G20        11.000    23826114.208 6 125207187.62806     -1650.104 6        39.820                                    23826111.274 3  97564102.02803     -1285.810 3        22.590
S27        12.000    39249757.132 6 206258934.19306      -465.728 6        36.499
E08        13.000    28875813.047 5 151743484.68105     -3092.903 5        33.988                                                                    28875823.344 6 113315018.67006     -2309.409 6        36.518    28875822.304 6 116271052.06406     -2369.691 6        36.938
S36        14.000    38228370.544 7 200891921.87007      -477.571 7        44.251
C13        15.000                                                                                                                                    38259875.146 7 199229244.95507       640.233 7        43.856    38259878.016 7 154056718.22107       495.093 7        44.144    38259875.683 7 161890099.10107       520.255 7        42.472
G18        16.000    21655315.356 7 113799652.54407      2047.307 7        47.953                                    21655313.539 6  88675143.98106      1595.305 6        37.970    21655313.632 7  88675151.98807      1595.248 7        45.397
R01        18.000    23714562.530 6 126767926.55706       280.193 6        38.042                                                                    23714562.977 5  98597151.12805       217.997 5        34.186
E02        19.000    23434847.532 8 123151124.58308       420.978 8        48.403                                                                    23434847.856 8  91963606.57508       314.310 8        51.073    23434847.141 8  94362642.87408       322.572 8        51.269
E10        21.000    26149597.999 7 137417277.81207     -2793.814 7        42.576                                                                    26149598.938 7 102616930.14607     -2086.287 7        45.496    26149598.974 7 105293878.76607     -2140.713 7        46.094
I06        22.000    38731053.562 6 151989140.81506      -384.417 6        41.123
S28        23.000    40935674.294 5 215118406.45705      -476.679 5        33.958
E29        24.000    28913048.415 5 151939106.33605       388.833 5        32.671                                                                    28913049.306 6 113461019.89106       290.217 6        37.089    28913049.101 6 116420873.19506       297.790 6        37.357
S23        25.000    38179453.139 7 200634299.60407      -481.780 7        44.719
S45        26.000    63436987.669 6 333365075.75106      -539.340 6        36.518
R09        27.000    20771173.243 8 110917083.51708      2621.285 8        50.017                                                                    20771173.729 7  86268947.30607      2038.845 7        47.425
R18        28.000    19157415.138 8 102263868.03308     -1286.240 8        51.075                                                                    19157416.223 7  79538713.26007     -1000.344 7        47.603
C38        29.000                                                                                                                                    38660605.810 7 201316023.05607      -138.326 7        44.366                                                                    38660604.696 7 163585800.32707      -112.435 7        43.583
C44        30.000                                                                                                                                    21508999.761 8 112003218.41708     -1349.263 8        51.321                                                                    21508998.880 8  91011872.48508     -1096.353 8        50.114
E12        31.000    28431419.647 5 149408297.45905     -3396.931 5        34.376                                                                    28431417.439 6 111571242.45206     -2536.543 6        36.650    28431417.524 6 114481779.70406     -2602.701 6        38.366
G11        32.000    25715112.840 5 135134044.37805     -4058.413 5        35.700                                    25715110.295 2 105299358.16202     -3162.390 2        17.170    25715110.553 6 105299349.17706     -3162.587 6        36.386
I02        33.000    38134286.049 6 149647157.00006      -836.035 6        41.240
R15        34.000    22439687.535 7 119911008.00307     -4551.884 7        46.563                                                                    22439691.066 7  93264181.81507     -3540.425 7        43.862
E34        35.000    27676480.066 6 145440967.31306      2753.423 6        38.688                                                                    27676488.995 6 108608588.91706      2055.946 6        41.385    27676488.085 7 111441849.47507      2109.794 7        42.277
G29        36.000    20649605.622 8 108514698.74808     -1606.914 8        48.594                                    20649602.359 8  84557016.27608     -1252.143 8        49.911    20649602.996 7  84557026.27807     -1252.132 7        45.535
G31        37.000    21711680.641 7 114095863.70507     -1080.200 7        46.654                                    21711678.223 7  88905962.11307      -841.712 7        45.874    21711678.604 7  88905968.11007      -841.572 7        43.503
C10        38.000                                                                                                                                    41088489.976 5 213958573.53405     -1155.408 5        34.705    41088489.289 6 165446347.91206      -893.495 6        37.248    41088487.216 5 173858860.68605      -938.847 5        35.076
E25        39.000    24280955.661 7 127597488.29507     -2154.617 7        46.671                                                                    24280957.230 8  95283966.22608     -1608.883 8        49.705    24280956.788 8  97769619.45108     -1650.900 8        50.286
C12        40.000                                                                                                                                    21714418.154 7 113072866.51907       139.187 7        47.069    21714415.740 8  87435205.83408       107.638 8        51.848    21714414.809 8  91881036.34508       113.083 8        49.892
E07        41.000    28200601.626 5 148195128.58505     -1774.670 5        35.876                                                                    28200611.000 6 110665202.51306     -1325.136 6        39.850    28200609.542 6 113552117.85006     -1359.631 6        40.157
S44        42.000    40594868.096 6 213327633.48206      -406.284 6        37.168
G28        43.000    22085024.922 7 116057769.50707     -2685.865 7        46.446                                    22085023.430 5  90434713.35605     -2092.883 5        35.405    22085023.894 7  90434713.36107     -2092.910 7        45.073
C05        44.000                                                                                                                                    39410887.385 6 205222831.00406      -418.900 6        37.796    39410885.325 7 158691324.85007      -323.967 7        42.502    39410886.112 6 166760455.90806      -340.329 6        39.793
C11        45.000                                                                                                                                    24658796.786 7 128404890.11707      2415.989 7        43.164    24658798.469 7  99290846.82007      1868.200 7        46.124    24658795.618 7 104339515.03707      1963.174 7        43.992
R16        46.000    19243200.507 8 102793916.58308     -1548.293 8        51.832                                                                    19243201.254 7  79950936.38007     -1204.231 7        47.735
R17        47.000    21734467.363 7 116305759.69407     -4125.783 7        47.916                                                                    21734467.743 7  90460166.67107     -3208.932 7        44.531
C35        48.000                                                                                                                                    24574253.614 7 127964748.16307     -3310.124 7        43.962                                                                    24574253.352 7 103981903.92607     -2689.719 7        44.451
C24        49.000                                                                                                                                    22161081.586 8 115398631.61608     -2396.956 8        50.824                                                                    22161079.414 8  93770861.60008     -1947.692 8        49.812
R19        50.000    20265815.194 6 108408685.21106      2038.957 6        40.439                                                                    20265816.562 7  84317972.50907      1585.909 7        44.217
S48        51.000    77177799.480 6 405573590.08906      -512.105 6        38.171
C08        52.000                                                                                                                                    38113827.351 6 198468785.46906       475.577 6        41.704    38113822.553 7 153468679.12607       367.755 7        45.384    38113821.437 7 161272159.58907       386.541 7        42.508
C34        53.000                                                                                                                                    22656630.487 8 117979266.24108      1644.839 8        49.114                                                                    22656631.599 8  95867927.43608      1336.546 8        48.109
C60        54.000                                                                                                                                    40594869.954 6 211388310.48106      -402.639 6        38.165                                                                    40594856.295 6 171770279.95206      -327.056 6        40.057
C25        55.000                                                                                                                                    22518539.683 8 117260167.68708       862.762 8        49.047                                                                    22518539.036 8  95283579.80208       701.039 8        48.651
C26        56.000                                                                                                                                    25991468.903 6 135344454.26406     -3926.838 6        41.850                                                                    25991472.388 7 109978491.18907     -3190.915 7        42.146
C02        57.000                                                                                                                                    40786467.149 5 212385857.66005      -383.693 5        33.922    40786464.289 6 164230203.09906      -296.597 6        39.408    40786464.937 5 172580903.28305      -311.925 5        33.808
I03        58.000    85788943.063 6 260868951.17106      1091.210 6        41.356
E30        59.000    27359958.563 6 143777690.24206      2153.817 6        39.393                                                                    27359964.229 7 107366552.98807      1608.455 7        42.665    27359962.969 7 110167405.64307      1650.415 7        43.200
G09        60.000    25558818.111 5 134312491.19305       -99.216 5        35.748                                                                                                    25558817.775 5 104659080.43205       -77.036 5        35.157
> 2025 01 02 16 31 20.0000000  0 58
E24         1.000                                                                                                                                    28959627.243 4                     -2412.232 4        24.617    28959626.256 4                     -2474.998 4        26.072
E11         2.000    24223247.998 7 127294215.10407     -1521.387 7        43.433                                                                    24223245.377 7  95057490.05307     -1136.131 7        45.242    24223245.176 7  97537237.28207     -1165.696 7        45.985
G16         3.000    24023638.504 6 126245183.99306      3045.270 6        39.033                                    24023640.088 3  98372930.99903      2372.926 3        20.071
G05         4.000    23120286.788 7 121498004.17107       770.534 7        42.482                                    23120284.694 6  94673788.54906       600.413 6        38.988    23120285.585 6  94673787.55606       600.424 6        40.169
S21         5.000    38457707.486 7 202096252.94807      -478.142 7        42.573
G26         6.000    21639111.429 7 113714503.55607      1908.339 7        45.926                                    21639112.409 7  88608828.04707      1487.013 7        45.070    21639112.738 7  88608815.05107      1487.014 7        42.887
G25         7.000    21945411.635 7 115324089.37307     -3502.790 7        45.418                                    21945411.874 7  89863011.88507     -2729.446 7        43.409    21945412.064 6  89863012.89306     -2729.498 6        41.356
G04         8.000    25201115.587 6 132432714.42106     -1066.290 6        36.794                                    25201116.275 3 103194300.20903      -830.893 3        19.284    25201116.653 6 103194309.21006      -830.913 6        36.643
E36         9.000    24129488.248 7 126801484.23407      1319.147 7        47.978                                                                    24129490.497 8  94689556.35308       985.063 8        49.669    24129490.076 8  97159706.80408      1010.796 8        50.395
R08        10.000    24416965.805 6 130751750.78906     -2676.721 6        37.074                                                                    24416967.021 6 101695803.47506     -2081.761 6        39.739
G20        11.000    23827685.814 6 125215446.07706     -1653.328 6        39.607                                    23827683.040 3  97570537.17603     -1288.307 3        22.609
S27        12.000    39250201.924 6 206261264.01306      -465.904 6        36.904
E08        13.000    28878756.474 5 151758949.67605     -3093.378 5        35.010                                                                    28878766.531 6 113326567.22706     -2310.120 6        36.163    28878765.106 6 116282901.88006     -2370.322 6        36.707
S36        14.000    38228826.890 7 200894309.78207      -477.674 7        44.191
C13        15.000                                                                                                                                    38259261.181 7 199226046.69207       638.985 7        43.843    38259263.737 7 154054245.11707       494.132 7        44.184    38259261.551 7 161887500.25107       519.326 7        42.303
G18        16.000    21653368.656 7 113789422.03207      2044.911 7        47.900                                    21653366.688 6  88667172.16706      1593.433 6        38.033    21653367.086 7  88667180.16907      1593.429 7        45.174
R01        18.000    23714302.639 6 126766535.87006       276.046 6        38.477                                                                    23714304.918 5  98596069.49505       214.615 5        33.192
E02        19.000    23434447.757 8 123149023.40808       419.450 8        48.438                                                                    23434447.937 8  91962037.52608       313.230 8        51.071    23434447.275 8  94361032.89308       321.403 8        51.271
E10        21.000    26152257.011 7 137431250.70807     -2795.297 7        42.643                                                                    26152257.846 7 102627364.45207     -2087.356 7        45.389    26152257.838 7 105304585.27607     -2141.912 7        46.078
I06        22.000    38731543.280 6 151991063.31306      -384.568 6        41.161
S28        23.000    40936129.604 5 215120789.82005      -476.694 5        34.090
E29        24.000    28912679.729 5 151937168.92005       386.152 5        32.054                                                                    28912680.522 6 113459573.24606       288.466 6        36.665    28912680.377 6 116419388.79206       296.140 6        38.201
S23        25.000    38179910.989 7 200636708.47907      -481.814 7        44.909
S45        26.000    63437447.030 6 333366073.16416      -539.699 6        36.616
R09        27.000    20768720.014 8 110903982.93208      2618.842 8        50.235                                                                    20768720.340 7  86258757.96507      2036.896 7        47.307
R18        28.000    19158621.667 8 102270308.23408     -1289.859 8        50.988                                                                    19158622.410 7  79543722.30807     -1003.242 7        47.461
C38        29.000                                                                                                                                    38660739.040 7 201316717.73307      -139.572 7        44.047                                                                    38660738.059 7 163586364.80807      -113.267 7        43.407
C44        30.000                                                                                                                                    21510296.271 8 112009969.73908     -1351.258 8        51.158                                                                    21510295.446 8  91017358.48708     -1097.974 8        50.011
E12        31.000    28434651.634 5 149425282.75505     -3397.363 5        34.605                                                                    28434649.453 6 111583926.31106     -2537.095 6        36.964    28434649.609 6 114494794.43006     -2603.223 6        38.342
G11        32.000    25718975.570 5 135154339.10505     -4059.257 5        35.557                                    25718972.332 2 105315172.26102     -3163.071 2        16.943    25718972.383 5 105315163.27405     -3163.109 5        35.857
I02        33.000    38135351.237 6 149651337.82706      -836.269 6        41.132
R15        34.000    22443947.720 7 119933771.30107     -4553.471 7        46.693                                                                    22443950.741 7  93281886.57107     -3541.539 7        44.050
E34        35.000    27673860.583 6 145427201.66006      2752.906 6        38.706                                                                    27673869.525 6 108598309.40606      2055.565 6        41.344    27673868.371 7 111431301.80407      2109.420 7        42.339
G29        36.000    20651135.132 8 108522738.03708     -1608.844 8        48.651                                    20651132.177 8  84563280.66308     -1253.647 8        49.925    20651132.446 7  84563290.66707     -1253.691 7        45.114
G31        37.000    21712710.023 7 114101272.78407     -1083.602 7        47.354                                    21712707.510 7  88910176.98507      -844.367 7        45.944    21712708.213 7  88910182.99507      -844.375 7        43.668
C10        38.000                                                                                                                                    41089600.019 5 213964350.97905     -1155.412 5        34.219    41089598.901 6 165450815.38506      -893.447 6        37.301    41089596.875 5 173863555.33305      -938.825 5        34.829
E25        39.000    24283006.127 7 127608264.67507     -2156.057 7        46.843                                                                    24283007.986 8  95292013.52308     -1610.071 8        49.551    24283007.438 8  97777876.67308     -1651.985 8        50.226
C12        40.000                                                                                                                                    21714285.094 7 113072176.05807       137.034 7        47.056    21714283.107 8  87434671.93408       105.928 8        51.925    21714282.197 8  91880475.28708       111.393 8        49.733
E07        41.000    28202290.815 6 148204006.33806     -1776.508 6        36.741                                                                    28202300.251 6 110671832.00606     -1326.684 6        39.946    28202299.021 6 113558920.29106     -1361.279 6        40.131
S44        42.000    40595256.537 6 213329664.97506      -406.351 6        37.267
G28        43.000    22087582.164 7 116071205.73307     -2688.559 7        46.565                                    22087580.241 5  90445183.14005     -2094.979 5        35.400    22087580.447 7  90445183.14607     -2095.025 7        44.411
C05        44.000                                                                                                                                    39411289.840 6 205224925.59406      -418.960 6        37.645    39411287.566 7 158692944.52307      -323.983 7        42.533    39411288.370 6 166762157.93806      -340.353 6        39.426
C11        45.000                                                                                                                                    24656477.790 7 128392812.63807      2414.948 7        43.431    24656478.617 7  99281507.77707      1867.365 7        45.780    24656476.237 7 104329701.11507      1962.373 7        43.960
R16        46.000    19244651.465 8 102801668.04608     -1552.377 8        51.908                                                                    19244652.360 8  79956965.30608     -1207.370 8        48.012
R17        47.000    21738323.166 8 116326391.63608     -4127.037 8        48.428                                                                    21738323.054 7  90476213.73707     -3209.890 7        44.147
C35        48.000                                                                                                                                    24577432.095 7 127981300.24707     -3310.782 7        44.011                                                                    24577431.924 7 103995353.85207     -2690.241 7        44.211
C24        49.000                                                                                                                                    22163384.148 8 115410622.03308     -2399.267 8        50.616                                                                    22163382.077 8  93780604.78808     -1949.517 8        49.705
R19        50.000    20263911.409 6 108398498.08706      2035.801 6        40.374                                                                    20263912.467 7  84310049.22407      1583.437 7        44.886
S48        51.000    77178264.555 6 405574551.37916      -512.186 6        38.246
C08        52.000                                                                                                                                    38113371.066 6 198466410.25106       474.380 6        41.666    38113366.411 7 153466842.46007       366.886 7        45.476    38113365.322 7 161270229.53307       385.671 7        42.447
C34        53.000                                                                                                                                    22655052.035 8 117971046.31408      1643.135 8        48.892                                                                    22655053.077 8  95861248.08208      1335.257 8        48.029
C60        54.000                                                                                                                                    40595256.455 6 211390323.51106      -402.604 6        38.093                                                                    40595242.858 6 171771915.68806      -327.101 6        39.877
C25        55.000                                                                                                                                    22517712.295 8 117255859.96508       860.269 8        48.758                                                                    22517711.833 8  95280079.42708       699.156 8        48.576
C26        56.000                                                                                                                                    25995239.992 6 135364089.93206     -3927.309 6        41.433                                                                    25995243.174 7 109994446.76107     -3191.337 7        42.144
C02        57.000                                                                                                                                    40786835.861 5 212387775.99305      -383.585 5        33.976    40786833.037 6 164231686.47106      -296.636 6        39.763    40786833.797 5 172582462.03805      -311.671 5        34.057
I03        58.000    85787553.049 6 260863495.41706      1091.164 6        41.385
E30        59.000    27357909.218 6 143766920.97206      2153.528 6        39.468                                                                    27357914.704 7 107358511.03707      1608.303 7        42.538    27357913.772 7 110159153.90507      1650.221 7        43.183
G09        60.000    25558913.935 6 134312993.97406      -102.096 6        36.299                                                                                                    25558913.792 5 104659472.15505       -79.589 5        35.024
> 2025 01 02 16 31 25.0000000  0 58
E24         1.000                                                                                                                                    28962700.902 4                     -2411.896 4        24.632    28962700.313 4                     -2474.698 4        25.774
E11         2.000    24224696.687 7 127301827.02407     -1523.572 7        43.355                                                                    24224693.993 7  95063174.28007     -1137.772 7        45.421    24224693.630 7  97543069.78907     -1167.391 7        45.986
G16         3.000    24020741.169 6 126229958.55806      3044.899 6        38.643                                    24020742.619 3  98361067.08403      2372.633 3        20.048
G05         4.000    23119555.253 7 121494158.97407       767.401 7        42.574                                    23119553.020 6  94670792.30106       597.976 6        38.982    23119552.906 6  94670791.30606       597.992 6        40.162
S21         5.000    38458161.132 7 202098643.41107      -478.150 7        42.550
G26         6.000    21637296.197 7 113704965.96107      1906.570 7        45.785                                    21637297.453 7  88601396.17607      1485.637 7        45.183    21637297.649 7  88601383.18707      1485.642 7        43.310
G25         7.000    21948745.050 7 115341606.80307     -3504.319 7        45.476                                    21948745.227 7  89876661.83607     -2730.638 7        43.446    21948745.858 6  89876662.84606     -2730.662 6        41.139
G04         8.000    25202131.292 6 132438053.02506     -1069.152 6        38.009                                    25202132.362 3 103198460.18603      -833.130 3        18.776    25202132.799 6 103198469.18306      -833.099 6        36.964
E36         9.000    24128233.743 7 126794893.03507      1317.169 7        47.741                                                                    24128236.225 8  94684634.36608       983.620 8        49.780    24128235.789 8  97154656.41908      1009.262 8        50.424
R08        10.000    24419467.017 6 130765141.60106     -2679.792 6        38.273                                                                    24419467.287 6 101706218.62906     -2084.223 6        40.877
G20        11.000    23829259.870 6 125223719.11706     -1656.171 6        40.069                                    23829257.382 3  97576983.70603     -1290.524 3        22.533
S27        12.000    39250648.116 6 206263593.10306      -465.895 6        36.805
E08        13.000    28881698.781 5 151774416.01005     -3093.500 5        34.876                                                                    28881709.689 6 113338116.70806     -2310.114 6        36.620    28881707.782 6 116294752.66406     -2370.380 6        36.601
S36        14.000    38229282.374 7 200896697.41407      -477.609 7        44.241
C13        15.000                                                                                                                                    38258647.930 7 199222853.08607       638.104 7        44.081    38258650.265 7 154051775.61307       493.492 7        44.128    38258648.340 7 161884905.18407       518.608 7        42.370
G18        16.000    21651424.086 7 113779202.87107      2042.643 7        47.605                                    21651421.980 6  88659209.19706      1591.668 6        38.060    21651422.503 7  88659217.20407      1591.619 7        45.369
R01        18.000    23714046.451 6 126765165.26206       272.083 6        38.450                                                                    23714046.671 5  98595003.43005       211.700 5        33.126
E02        19.000    23434049.168 8 123146929.01908       418.029 8        48.553                                                                    23434049.385 8  91960473.54208       312.217 8        51.197    23434048.732 8  94359428.11008       320.361 8        51.344
E10        21.000    26154917.267 7 137445230.17007     -2796.570 7        42.453                                                                    26154918.168 7 102637803.67007     -2088.382 7        45.567    26154917.972 7 105315296.81507     -2142.869 7        46.163
I06        22.000    38732033.062 6 151992985.43006      -384.480 6        41.304
S28        23.000    40936580.173 5 215123172.47405      -476.617 5        34.300
E29        24.000    28912313.008 5 151935241.88805       384.162 5        32.539                                                                    28912313.687 6 113458134.21006       287.109 6        36.938    28912313.682 6 116417912.22606       294.704 6        38.363
S23        25.000    38180369.361 7 200639117.18207      -481.821 7        44.816
S45        26.000    63437907.791 6 333368770.33406      -539.333 6        36.673
R09        27.000    20766268.476 8 110890894.27408      2616.441 8        49.863                                                                    20766269.552 7  86248577.92007      2034.980 7        47.130
R18        28.000    19159831.517 8 102276765.73908     -1293.328 8        51.329                                                                    19159832.292 7  79548744.81407     -1005.892 7        47.536
C38        29.000                                                                                                                                    38660873.351 7 201317417.45107      -140.532 7        43.714                                                                    38660872.383 7 163586933.38907      -114.202 7        43.492
C44        30.000                                                                                                                                    21511594.537 8 112016730.33908     -1353.155 8        51.070                                                                    21511593.666 8  91022852.02308     -1099.471 8        50.055
E12        31.000    28437884.181 5 149442270.61205     -3397.928 5        34.957                                                                    28437882.042 6 111596612.04006     -2537.531 6        36.979    28437882.396 6 114507811.10006     -2603.620 6        38.117
G11        32.000    25722837.925 5 135174636.26905     -4060.017 5        35.014                                    25722834.714 2 105330988.28102     -3163.669 2        16.340    25722834.748 5 105330979.26205     -3163.440 5        35.948
I02        33.000    38136416.860 6 149655519.07506      -836.318 6        41.349
R15        34.000    22448208.870 7 119956541.80207     -4554.899 7        46.580                                                                    22448211.846 7  93299596.94707     -3542.670 7        43.534
E34        35.000    27671241.241 6 145413437.57306      2752.574 6        38.826                                                                    27671250.383 6 108588031.05506      2055.523 6        41.626    27671249.147 7 111420755.32207      2109.141 7        42.315
G29        36.000    20652666.733 8 108530786.53208     -1610.761 8        48.281                                    20652663.743 8  84569552.22008     -1255.139 8        50.022    20652664.215 7  84569562.22107     -1255.193 7        45.190
G31        37.000    21713742.591 7 114106698.55607     -1086.876 7        47.457                                    21713739.994 7  88914404.87007      -846.917 7        46.013    21713740.387 7  88914410.87807      -846.956 7        43.621
C10        38.000                                                                                                                                    41090708.402 5 213970128.43505     -1155.474 5        33.641    41090708.666 6 165455282.89806      -893.452 6        37.236    41090706.543 5 173868249.98405      -938.934 5        34.390
E25        39.000    24285058.027 7 127619047.52807     -2157.382 7        46.485                                                                    24285059.839 8  95300065.64908     -1610.965 8        49.716    24285059.349 8  97786138.85908     -1653.051 8        50.344
C12        40.000                                                                                                                                    21714154.341 7 113071495.97507       134.854 7        46.811    21714152.569 8  87434146.06208       104.287 8        51.872    21714151.602 8  91879922.66108       109.616 8        49.703
E07        41.000    28203981.900 6 148212893.64506     -1778.606 6        36.790                                                                    28203991.587 6 110678468.62106     -1328.047 6        39.928    28203990.262 6 113565730.04006     -1362.811 6        40.212
S44        42.000    40595640.470 6 213331696.28506      -406.311 6        37.301
G28        43.000    22090140.838 7 116084654.73107     -2691.166 7        46.367                                    22090139.547 5  90455662.87805     -2097.011 5        35.390    22090139.643 7  90455662.87607     -2096.984 7        44.609
C05        44.000                                                                                                                                    39411691.785 6 205227019.83706      -418.907 6        37.675    39411689.690 7 158694563.93407      -323.999 7        42.444    39411690.552 6 166763859.70006      -340.392 6        39.670
C11        45.000                                                                                                                                    24654159.656 7 128380739.85607      2414.054 7        42.800    24654160.252 7  99272172.37207      1866.576 7        45.672    24654157.723 7 104319891.01107      1961.565 7        43.814
R16        46.000    19246106.449 8 102809439.33708     -1556.275 8        52.017                                                                    19246107.252 8  79963009.64008     -1210.413 8        48.019
R17        47.000    21742179.838 8 116347029.30408     -4128.182 8        48.479                                                                    21742179.994 7  90492265.25207     -3210.741 7        44.113
C35        48.000                                                                                                                                    24580611.228 7 127997854.86607     -3311.275 7        43.949                                                                    24580611.006 7 104008805.82907     -2690.653 7        44.286
C24        49.000                                                                                                                                    22165688.771 8 115422623.32308     -2401.461 8        50.417                                                                    22165686.789 8  93790356.81408     -1951.331 8        49.652
R19        50.000    20262009.564 6 108388326.01806      2032.759 6        40.679                                                                    20262011.059 7  84302137.63907      1581.014 7        44.673
S48        51.000    77178726.809 6 405577112.34506      -512.107 6        38.309
C08        52.000                                                                                                                                    38112915.953 6 198464040.37806       473.465 6        41.514    38112911.197 7 153465009.94007       366.041 7        45.315    38112910.177 7 161268303.82607       384.647 7        42.398
C34        53.000                                                                                                                                    22653474.733 8 117962834.09408      1641.515 8        48.909                                                                    22653475.936 8  95854574.98908      1333.915 8        48.002
C60        54.000                                                                                                                                    40595642.682 6 211392336.36306      -402.787 6        37.645                                                                    40595629.331 6 171773551.29406      -327.089 6        40.057
C25        55.000                                                                                                                                    22516887.253 8 117251563.95708       857.941 8        48.654                                                                    22516886.789 8  95276588.57508       697.176 8        48.526
C26        56.000                                                                                                                                    25999010.878 6 135383727.12406     -3927.695 6        41.354                                                                    25999014.294 7 110010403.56907     -3191.549 7        42.099
C02        57.000                                                                                                                                    40787204.578 5 212389694.07005      -383.553 5        33.748    40787201.226 6 164233169.66306      -296.655 6        39.390    40787202.098 5 172584020.65205      -311.803 5        33.695
I03        58.000    85786162.386 6 260858039.41506      1091.108 6        41.664
E30        59.000    27355859.834 6 143756152.50906      2153.314 6        39.483                                                                    27355865.431 7 107350469.67907      1608.021 7        42.603    27355864.586 7 110150902.75707      1650.156 7        43.242
G09        60.000    25559012.932 6 134313511.55006      -104.982 6        36.726                                    25559012.750 4 104659884.45914       -81.799 4        29.365    25559011.765 5 104659875.43905       -81.895 5        35.333
> 2025 01 02 16 31 30.0000000  0 58
E24         1.000    28965772.766 3                     -3231.974 3        19.910                                                                    28965774.409 4                     -2413.214 4        24.526    28965774.218 4                     -2474.944 4        24.812
E11         2.000    24226147.218 7 127309449.67107     -1525.766 7        43.589                                                                    24226144.487 7  95068866.51907     -1139.347 7        45.433    24226144.140 7  97548910.52007     -1169.047 7        46.123
G16         3.000    24017844.785 6 126214735.72006      3044.279 6        38.360                                    24017845.764 3  98349205.20503      2372.154 3        20.071
G05         4.000    23118826.455 7 121490329.16607       764.409 7        43.558                                    23118824.262 6  94667808.04506       595.642 6        39.180    23118824.339 6  94667807.05406       595.662 6        39.994
S21         5.000    38458616.504 7 202101034.02007      -478.265 7        42.569
G26         6.000    21635483.222 7 113695437.80007      1904.585 7        45.862                                    21635484.273 7  88593971.64807      1484.090 7        45.431    21635484.438 7  88593958.65907      1484.050 7        42.954
G25         7.000    21952079.485 7 115359132.17107     -3505.840 7        45.386                                    21952080.074 7  89890317.96807     -2731.823 7        43.551    21952081.170 6  89890318.97606     -2731.854 6        40.996
G04         8.000    25203149.742 6 132443405.88206     -1072.167 6        38.405                                    25203150.743 3 103202631.22703      -835.446 3        18.836    25203151.475 6 103202640.21206      -835.528 6        36.151
E36         9.000    24126981.431 8 126788311.85808      1315.156 8        48.052                                                                    24126983.843 8  94679719.86008       982.110 8        49.705    24126983.408 8  97149613.70808      1007.742 8        50.481
R08        10.000    24421971.845 6 130778548.04506     -2683.015 6        38.949                                                                    24421970.273 6 101716645.88706     -2086.753 6        39.844
G20        11.000    23830837.279 6 125232007.03306     -1659.165 6        40.098                                    23830834.523 3  97583441.83403     -1292.846 3        22.648
S27        12.000    39251088.911 6 206265922.15706      -465.880 6        36.749
E08        13.000    28884641.323 5 151789883.83405     -3093.647 5        34.824                                                                    28884653.411 6 113349667.38006     -2310.284 6        37.350    28884651.292 6 116306604.65406     -2370.702 6        37.032
S36        14.000    38229735.971 7 200899085.17707      -477.716 7        44.265
C13        15.000                                                                                                                                    38258035.359 7 199219664.46907       637.153 7        44.104    38258037.854 7 154049309.99107       492.761 7        44.357    38258036.060 7 161882314.19507       517.790 7        42.464
G18        16.000    21649481.707 7 113768995.36007      2040.279 7        47.504                                    21649479.529 6  88651255.30606      1589.825 6        38.201    21649480.183 7  88651263.31707      1589.810 7        45.883
R01        18.000    23713793.186 6 126763814.89606       267.930 6        38.330                                                                    23713793.517 5  98593953.16205       208.478 5        33.299
E02        19.000    23433651.901 8 123144841.69008       416.680 8        48.714                                                                    23433652.179 8  91958914.83408       311.158 8        51.130    23433651.510 8  94357828.73608       319.278 8        51.387
E10        21.000    26157578.805 7 137459216.46707     -2798.061 7        42.561                                                                    26157579.755 7 102648247.98607     -2089.438 7        45.461    26157579.504 7 105326013.58407     -2143.914 7        46.088
I06        22.000    38732522.750 6 151994907.34506      -384.361 6        41.354
S28        23.000    40937030.390 5 215125555.09605      -476.699 5        34.005
E29        24.000    28911948.383 5 151933325.87405       382.129 5        32.880                                                                    28911949.572 6 113456703.36206       285.398 6        37.391    28911949.286 6 116416444.08606       292.687 6        38.685
S23        25.000    38180825.838 7 200641525.73507      -481.862 7        44.825
S45        26.000    63438368.099 6 333371467.45406      -539.477 6        36.896
R09        27.000    20763819.960 8 110877817.59608      2614.113 8        50.360                                                                    20763820.326 7  86238407.17507      2033.181 7        46.996
R18        28.000    19161044.519 8 102283240.85608     -1296.827 8        50.907                                                                    19161045.698 7  79553781.02207     -1008.613 7        47.392
C38        29.000                                                                                                                                    38661009.039 7 201318122.47807      -141.604 7        43.543                                                                    38661007.795 7 163587506.29407      -115.016 7        43.479
C44        30.000                                                                                                                                    21512894.713 8 112023500.46708     -1355.040 8        51.230                                                                    21512893.830 8  91028353.32508     -1101.038 8        50.032
E12        31.000    28441117.458 5 149459261.36305     -3398.690 5        34.895                                                                    28441115.342 6 111609299.94706     -2537.799 6        36.994    28441115.650 6 114520829.99306     -2604.016 6        38.405
G11        32.000    25726700.658 5 135194935.98405     -4060.147 5        34.886                                    25726697.561 2 105346806.23802     -3163.760 2        16.189    25726697.421 5 105346797.22205     -3163.713 5        35.871
I02        33.000    38137482.648 6 149659700.86306      -836.477 6        41.209
R15        34.000    22452470.962 7 119979319.87407     -4556.393 7        45.982                                                                    22452474.345 7  93317313.21607     -3543.831 7        43.391
E34        35.000    27668622.235 6 145399675.33206      2752.005 6        39.075                                                                    27668631.478 6 108577754.10406      2055.166 6        41.492    27668630.232 7 111410210.26707      2108.743 7        42.555
G29        36.000    20654200.397 8 108538844.43508     -1612.571 8        48.314                                    20654197.107 8  84575831.11108     -1256.547 8        50.125    20654197.628 7  84575841.11307     -1256.580 7        45.118
G31        37.000    21714778.442 7 114112141.28307     -1090.274 7        47.449                                    21714775.721 7  88918645.96607      -849.567 7        46.121    21714775.866 7  88918651.97807      -849.627 7        43.228
C10        38.000                                                                                                                                    41091817.883 5 213975906.13205     -1155.730 5        33.814    41091817.794 6 165459750.55006      -893.538 6        37.282    41091816.142 5 173872944.82405      -938.991 5        34.600
E25        39.000    24287111.290 7 127629837.14307     -2158.674 7        46.887                                                                    24287113.053 8  95308122.83108     -1612.011 8        49.744    24287112.506 8  97794406.22608     -1654.028 8        50.356
C12        40.000                                                                                                                                    21714025.875 7 113070826.49607       132.801 7        46.803    21714024.093 8  87433628.38508       102.717 8        51.943    21714022.972 8  91879378.66908       107.959 8        49.790
E07        41.000    28205674.990 6 148221790.76106     -1780.391 6        37.108                                                                    28205684.652 6 110685112.58206     -1329.542 6        39.874    28205683.567 6 113572547.31906     -1364.089 6        40.293
S44        42.000    40596030.414 6 213333727.69506      -406.242 6        37.251
G28        43.000    22092702.681 7 116098116.77707     -2693.787 7        46.482                                    22092701.322 5  90466152.78505     -2099.053 5        35.676    22092701.767 7  90466152.77707     -2099.016 7        44.495
C05        44.000                                                                                                                                    39412094.312 6 205229114.03006      -418.766 6        37.739    39412091.738 7 158696183.29807      -323.935 7        42.624    39412092.762 6 166765561.41006      -340.367 6        39.622
C11        45.000                                                                                                                                    24651841.354 7 128368672.02807      2413.029 7        43.027    24651842.559 7  99262840.79607      1865.921 7        45.455    24651840.175 7 104310084.95507      1960.891 7        43.939
R16        46.000    19247564.935 8 102817230.47208     -1560.341 8        52.075                                                                    19247565.550 7  79969069.41507     -1213.585 7        47.986
R17        47.000    21746037.177 8 116367672.91708     -4129.292 8        48.270                                                                    21746037.575 7  90508321.42907     -3211.786 7        44.039
C35        48.000                                                                                                                                    24583790.743 7 128014412.32907     -3311.890 7        43.962                                                                    24583790.781 7 104022260.13307     -2691.038 7        44.296
C24        49.000                                                                                                                                    22167995.737 8 115434635.75908     -2403.634 8        50.212                                                                    22167993.616 8  93800117.90508     -1953.164 8        49.716
R19        50.000    20260111.364 6 108378169.34306      2029.781 6        40.312                                                                    20260112.134 7  84294238.00307      1578.756 7        44.257
S48        51.000    77179189.605 6 405579673.80806      -512.652 6        38.330
C08        52.000                                                                                                                                    38112461.549 6 198461676.12506       472.266 6        41.793    38112457.281 7 153463181.76807       365.160 7        45.314    38112455.996 7 161266382.69407       383.928 7        42.411
C34        53.000                                                                                                                                    22651898.999 8 117954629.84408      1640.025 8        48.946                                                                    22651900.362 7  95847908.38707      1332.672 7        47.993
C60        54.000                                                                                                                                    40596029.383 6 211394349.28806      -402.681 6        37.890                                                                    40596015.845 6 171775186.98506      -327.201 6        39.871
C25        55.000                                                                                                                                    22516064.700 8 117247279.92408       855.508 8        48.811                                                                    22516064.024 8  95273107.46608       695.224 8        48.631
C26        56.000                                                                                                                                    26002782.526 6 135403366.13006     -3928.124 6        41.554                                                                    26002785.670 7 110026361.85807     -3191.784 7        42.142
C02        57.000                                                                                                                                    40787572.883 5 212391612.15505      -383.736 5        33.766    40787569.281 6 164234652.83606      -296.724 6        39.465    40787570.398 5 172585579.25905      -311.753 5        33.485
I03        58.000    85784772.161 6 260852583.34906      1091.095 6        41.585
E30        59.000    27353811.228 6 143745385.09106      2153.261 6        39.901                                                                    27353816.550 7 107342429.11507      1608.014 7        42.682    27353815.574 7 110142652.43307      1649.946 7        43.287
G09        60.000    25559113.872 6 134314044.21206      -108.034 6        37.750                                    25559113.666 5 104660299.55105       -84.190 5        30.702    25559113.204 5 104660290.56705       -84.264 5        35.833
> 2025 01 02 16 31 35.0000000  0 58
E24         1.000    28968842.567 3                     -3231.349 3        20.333                                                                    28968848.641 4                     -2412.665 4        24.707    28968847.699 4                     -2476.176 4        25.985
E11         2.000    24227599.937 7 127317083.04407     -1528.102 7        43.608                                                                    24227597.082 7  95074566.77307     -1141.097 7        45.350    24227596.732 7  97554759.48207     -1170.918 7        46.056
G16         3.000    24014948.347 6 126199515.51506      3043.361 6        38.850                                    24014949.409 3  98337345.37603      2371.433 3        20.167
G05         4.000    23118100.809 7 121486514.96807       760.917 7        43.035                                    23118098.464 6  94664835.94806       592.923 6        39.051    23118098.508 6  94664834.95306       592.850 6        39.952
S21         5.000    38459070.284 7 202103424.71207      -478.310 7        42.550
G26         6.000    21633671.647 7 113685919.07807      1902.502 7        45.594                                    21633672.894 7  88586554.48507      1482.465 7        45.263    21633672.873 7  88586541.50607      1482.430 7        43.528
G25         7.000    21955416.065 7 115376665.48707     -3507.803 7        44.480                                    21955416.495 7  89903980.29607     -2733.354 7        43.380    21955417.897 6  89903981.30006     -2733.344 6        41.428
G04         8.000    25204170.881 6 132448773.00606     -1075.351 6        37.943                                    25204172.178 3 103206813.30703      -837.927 3        19.463    25204173.123 6 103206822.27606      -837.936 6        37.074
E36         9.000    24125731.181 8 126781740.72708      1312.910 8        48.034                                                                    24125733.419 8  94674812.86208       980.388 8        49.877    24125732.991 8  97144578.69908      1005.951 8        50.545
R08        10.000    24424478.051 6 130791970.25706     -2686.271 6        38.565                                                                    24424476.894 6 101727085.40206     -2089.454 6        39.513
G20        11.000    23832416.988 6 125240309.87006     -1662.316 6        40.081                                    23832414.620 3  97589911.58503     -1295.315 3        22.743
S27        12.000    39251533.739 6 206268251.34206      -466.341 6        36.537
E08        13.000    28887585.066 6 151805353.29706     -3094.442 6        36.030                                                                    28887597.184 6 113361219.23006     -2310.876 6        37.803    28887595.108 6 116318457.84206     -2371.035 6        37.308
S36        14.000    38230190.574 7 200901473.36307      -477.912 7        44.212
C13        15.000                                                                                                                                    38257423.617 7 199216480.90807       635.988 7        44.041    38257426.775 7 154046848.27507       491.709 7        44.573    38257424.686 7 161879727.28807       516.896 7        42.445
G18        16.000    21647541.392 7 113758799.52507      2037.695 7        47.721                                    21647539.301 6  88643310.51306      1587.812 6        38.144    21647539.548 7  88643318.52407      1587.825 7        46.008
R01        18.000    23713544.104 6 126762484.85006       263.857 6        38.288                                                                    23713545.651 5  98592918.70105       205.165 5        33.341
E02        19.000    23433255.976 8 123142761.45008       415.061 8        48.823                                                                    23433256.320 8  91957361.42208       309.935 8        51.255    23433255.619 8  94356234.79908       318.030 8        51.418
E10        21.000    26160241.500 7 137473209.60507     -2799.672 7        42.529                                                                    26160242.539 7 102658697.40907     -2090.647 7        45.678    26160242.241 7 105336735.61007     -2145.181 7        46.226
I06        22.000    38733012.549 6 151996829.08506      -384.561 6        41.249
S28        23.000    40937489.371 5 215127938.15005      -477.157 5        34.109
E29        24.000    28911585.773 5 151931421.05305       379.377 5        33.413                                                                    28911587.418 6 113455281.03706       283.101 6        37.781    28911586.768 6 116414984.63906       290.461 6        38.459
S23        25.000    38181284.353 7 200643934.26507      -482.103 7        44.731
S45        26.000    63438826.110 6 333374164.62006      -539.664 6        36.681
R09        27.000    20761373.516 8 110864753.21008      2611.295 8        49.981                                                                    20761373.703 7  86228245.99707      2030.984 7        46.926
R18        28.000    19162260.642 8 102289733.55808     -1300.642 8        50.982                                                                    19162261.543 7  79558830.90407     -1011.617 7        47.757
C38        29.000                                                                                                                                    38661145.413 7 201318832.84207      -143.001 7        43.501                                                                    38661144.298 7 163588083.52607      -116.054 7        43.401
C44        30.000                                                                                                                                    21514196.687 8 112030280.16508     -1357.193 8        51.193                                                                    21514195.790 8  91033862.38008     -1102.666 8        49.926
E12        31.000    28444351.104 5 149476255.01905     -3399.529 5        35.048                                                                    28444349.123 6 111621990.03406     -2538.591 6        36.960    28444349.282 6 114533851.11806     -2604.685 6        38.297
G11        32.000    25730563.781 5 135215238.40005     -4060.882 5        34.843                                    25730561.043 2 105362626.32802     -3164.327 2        16.151    25730560.990 5 105362617.32705     -3164.428 5        35.714
I02        33.000    38138548.243 6 149663883.17106      -836.673 6        41.182
R15        34.000    22456734.670 7 120002105.33907     -4558.242 7        45.961                                                                    22456738.465 7  93335035.22607     -3545.193 7        43.972
E34        35.000    27666003.888 6 145385914.96806      2751.470 6        38.985                                                                    27666013.001 6 108567478.54406      2054.710 6        41.750    27666011.713 7 111399666.64507      2108.341 7        42.529
G29        36.000    20655735.555 8 108546911.82908     -1614.782 8        48.373                                    20655732.264 8  84582117.39408     -1258.272 8        50.017    20655732.504 7  84582127.39407     -1258.265 7        45.397
G31        37.000    21715817.239 7 114117600.98507     -1093.912 7        46.837                                    21715814.662 7  88922900.28607      -852.398 7        46.019    21715815.031 7  88922906.29007      -852.477 7        43.479
C10        38.000                                                                                                                                    41092928.776 5 213981684.01205     -1155.826 5        34.167    41092927.887 6 165464218.41206      -893.904 6        37.482    41092925.427 5 173877639.82305      -939.094 5        34.543
E25        39.000    24289166.000 7 127640633.54507     -2160.244 7        47.082                                                                    24289167.543 8  95316185.08008     -1613.135 8        49.803    24289167.014 8  97802678.80108     -1655.285 8        50.352
C12        40.000                                                                                                                                    21713899.086 7 113070167.70207       130.393 7        46.794    21713897.429 8  87433118.97308       100.835 8        52.229    21713896.528 8  91878843.35308       106.095 8        49.629
E07        41.000    28207369.932 6 148230697.74006     -1782.729 6        37.168                                                                    28207379.489 6 110691763.90406     -1331.305 6        40.052    28207378.427 6 113579372.15406     -1365.989 6        40.439
S44        42.000    40596416.717 6 213335759.21906      -406.610 6        37.059
G28        43.000    22095267.108 7 116111591.87707     -2696.639 7        46.301                                    22095265.601 5  90476652.85505     -2101.273 5        35.457    22095265.712 7  90476652.85607     -2101.268 7        44.745
C05        44.000                                                                                                                                    39412496.391 6 205231208.20006      -419.074 6        37.826    39412493.898 7 158697802.65307      -324.061 7        42.798    39412494.984 6 166767263.09106      -340.504 6        39.492
C11        45.000                                                                                                                                    24649524.958 7 128356609.20607      2411.703 7        43.191    24649525.894 7  99253513.08907      1864.931 7        45.934    24649523.566 7 104300282.93407      1959.959 7        43.841
R16        46.000    19249027.000 8 102825041.81708     -1564.587 8        51.969                                                                    19249028.012 7  79975144.91507     -1216.886 7        47.622
R17        47.000    21749895.961 7 116388322.47907     -4130.839 7        47.756                                                                    21749896.621 7  90524382.20607     -3212.861 7        44.569
C35        48.000                                                                                                                                    24586970.897 7 128030972.64807     -3312.613 7        43.736                                                                    24586971.202 7 104035716.74507     -2691.686 7        44.408
C24        49.000                                                                                                                                    22170304.647 8 115446659.32808     -2406.138 8        50.426                                                                    22170302.633 8  93809888.03508     -1955.028 8        49.577
R19        50.000    20258215.145 6 108368028.15206      2026.390 6        40.715                                                                    20258215.850 7  84286350.41107      1576.013 7        43.964
S48        51.000    77179650.799 6 405582235.89306      -512.657 6        38.126
C08        52.000                                                                                                                                    38112008.818 6 198459317.56906       470.853 6        41.547    38112004.246 7 153461357.98807       364.030 7        45.378    38112003.152 7 161264466.17707       382.766 7        42.343
C34        53.000                                                                                                                                    22650325.100 8 117946433.60308      1638.102 8        48.914                                                                    22650326.259 7  95841248.27107      1331.232 7        47.946
C60        54.000                                                                                                                                    40596415.897 6 211396362.34306      -402.878 6        37.769                                                                    40596402.466 6 171776822.76006      -327.264 6        39.850
C25        55.000                                                                                                                                    22515244.311 8 117243007.90908       852.911 8        48.600                                                                    22515243.646 8  95269636.11108       693.138 8        48.535
C26        56.000                                                                                                                                    26006554.402 6 135423006.91806     -3928.542 6        41.189                                                                    26006557.572 7 110042321.59007     -3192.196 7        42.047
C02        57.000                                                                                                                                    40787941.027 5 212393530.23405      -383.811 5        33.395    40787937.725 6 164236136.03806      -296.863 6        39.856    40787938.739 5 172587137.85605      -312.053 5        33.126
I03        58.000    85783381.545 6 260847127.23006      1090.981 6        41.349
E30        59.000    27351762.535 6 143734618.74806      2152.981 6        40.060                                                                    27351767.880 7 107334389.34607      1607.661 7        42.783    27351766.797 7 110134402.93507      1649.636 7        43.283
G09        60.000    25559217.227 6 134314591.78106      -111.505 6        37.032                                    25559217.546 5 104660726.29105       -86.889 5        30.785    25559217.535 5 104660717.28705       -86.873 5        35.619
> 2025 01 02 16 31 40.0000000  0 58
E24         1.000    28971921.534 3                     -3231.547 3        20.190                                                                    28971922.752 4                     -2412.597 4        24.376    28971921.273 4                     -2474.891 4        25.248
E11         2.000    24229054.597 7 127324727.44507     -1529.967 7        43.619                                                                    24229051.741 7  95080275.25007     -1142.470 7        45.464    24229051.390 7  97560616.88207     -1172.271 7        45.910
G16         3.000    24012052.553 6 126184298.18206      3043.131 6        38.396                                    24012053.510 3  98325487.79803      2371.247 3        20.071
G05         4.000    23117377.593 7 121482716.64107       758.125 7        42.292                                    23117375.680 6  94661876.21406       590.741 6        39.120    23117375.617 6  94661875.22306       590.711 6        39.919
S21         5.000    38459526.341 7 202105815.79407      -478.110 7        42.696
G26         6.000    21631862.153 7 113676410.15007      1900.798 7        45.791                                    21631863.376 7  88579144.94707      1481.137 7        45.311    21631863.385 7  88579131.94507      1481.234 7        43.217
G25         7.000    21958754.494 7 115394207.04107     -3509.081 7        44.205                                    21958754.579 7  89917649.04107     -2734.350 7        43.357    21958755.686 6  89917650.04106     -2734.378 6        41.535
G04         8.000    25205194.854 6 132454154.97106     -1077.723 6        38.369                                    25205196.510 3 103211006.98003      -839.782 3        19.701    25205197.437 6 103211015.99006      -839.918 6        37.077
E36         9.000    24124482.480 7 126775179.93307      1311.168 7        47.896                                                                    24124484.958 8  94669913.57508       979.127 8        49.894    24124484.492 8  97139551.60708      1004.653 8        50.462
R08        10.000    24426985.872 6 130805408.29506     -2689.259 6        37.369                                                                    24426986.669 6 101737537.01206     -2091.748 6        39.928
G20        11.000    23833999.507 6 125248627.92206     -1665.029 6        39.510                                    23833997.490 3  97596393.17503     -1297.431 3        22.724
S27        12.000    39251973.934 6 206270581.18206      -465.890 6        36.820
E08        13.000    28890530.311 5 151820824.58105     -3094.602 5        35.571                                                                    28890541.590 6 113372772.44106     -2310.843 6        38.057    28890539.192 6 116330312.47406     -2371.095 6        37.032
S36        14.000    38230644.466 7 200903861.42107      -477.638 7        44.384
C13        15.000                                                                                                                                    38256812.889 7 199213302.60907       635.226 7        43.759    38256816.407 7 154044390.61407       491.110 7        44.673    38256814.390 7 161877144.65907       516.121 7        42.605
G18        16.000    21645603.485 7 113748615.67207      2035.592 7        47.793                                    21645601.407 6  88635375.05606      1586.176 6        38.186    21645601.624 7  88635383.05907      1586.216 7        45.842
R01        18.000    23713300.610 6 126761175.37906       259.772 6        38.850                                                                    23713299.653 5  98591900.22205       202.231 5        33.413
E02        19.000    23432861.568 8 123140688.61508       413.832 8        48.694                                                                    23432861.853 8  91955813.53308       309.069 8        51.310    23432861.191 8  94354646.52908       317.109 8        51.192
E10        21.000    26162905.535 7 137487209.88307     -2800.739 7        42.622                                                                    26162906.675 7 102669152.16107     -2091.424 7        45.862    26162906.471 7 105347463.09707     -2146.040 7        46.124
I06        22.000    38733502.216 6 151998750.87906      -384.324 6        41.068
S28        23.000    40937940.772 5 215130321.48405      -476.616 5        34.414
E29        24.000    28911225.584 5 151929527.58805       377.601 5        34.105                                                                    28911227.038 6 113453867.21106       281.707 6        38.598    28911226.174 6 116413533.90506       289.126 6        38.309
S23        25.000    38181744.157 7 200646343.23207      -481.744 7        45.105
S45        26.000    63439285.207 6 333376862.17806      -539.589 6        36.820
R09        27.000    20758928.851 8 110851701.31808      2609.185 8        49.966                                                                    20758929.833 7  86218094.54407      2029.396 7        47.517
R18        28.000    19163480.218 8 102296244.13908     -1303.904 8        50.805                                                                    19163481.538 7  79563894.70907     -1014.135 7        47.876
C38        29.000                                                                                                                                    38661283.116 7 201319548.82907      -143.654 7        43.259                                                                    38661281.779 7 163588665.33107      -116.790 7        43.435
C44        30.000                                                                                                                                    21515500.716 8 112037069.71008     -1358.833 8        50.899                                                                    21515499.637 8  91039379.45808     -1104.204 8        49.990
E12        31.000    28447585.391 5 149493251.84905     -3399.745 5        34.895                                                                    28447583.554 6 111634682.48506     -2538.797 6        37.369    28447583.494 6 114546874.67506     -2604.821 6        38.030
G11        32.000    25734428.010 5 135235543.71405     -4061.456 5        34.467                                    25734425.026 2 105378448.64402     -3164.788 2        15.619    25734425.295 5 105378439.59805     -3164.773 5        35.995
I02        33.000    38139614.122 6 149668066.45806      -836.791 6        40.810
R15        34.000    22461000.623 7 120024898.54607     -4559.430 7        45.872                                                                    22461003.957 7  93352763.25707     -3546.131 7        43.970
E34        35.000    27663385.910 6 145372156.78206      2751.466 6        39.174                                                                    27663394.972 6 108557204.60606      2054.673 6        41.993    27663393.654 7 111389124.69507      2108.276 7        42.728
G29        36.000    20657272.576 8 108554988.96608     -1616.351 8        48.396                                    20657269.286 8  84588411.26908     -1259.496 8        50.032    20657269.522 7  84588421.26607     -1259.455 7        45.381
G31        37.000    21716859.305 7 114123077.94307     -1097.099 7        46.889                                    21716856.872 7  88927168.05307      -854.884 7        46.051    21716857.414 7  88927174.06407      -854.899 7        43.710
C10        38.000                                                                                                                                    41094039.492 5 213987462.51705     -1155.491 5        34.138    41094037.992 6 165468686.72706      -893.686 6        37.758    41094035.206 5 173882335.35905      -939.071 5        34.657
E25        39.000    24291221.804 7 127651437.01907     -2161.345 7        47.028                                                                    24291223.359 8  95324252.61508     -1614.006 8        49.961    24291222.833 8  97810956.78808     -1656.128 8        50.287
C12        40.000                                                                                                                                    21713775.131 7 113069519.88307       128.539 7        46.782    21713772.888 8  87432618.04608        99.371 8        52.218    21713772.099 8  91878316.95508       104.408 8        49.660
E07        41.000    28209066.841 6 148239614.85106     -1784.526 6        37.176                                                                    28209076.474 6 110698422.78006     -1332.554 6        40.153    28209075.224 6 113586204.74706     -1367.205 6        40.582
S44        42.000    40596800.865 6 213337791.14206      -406.327 6        37.350
G28        43.000    22097833.674 7 116125080.31807     -2698.941 7        46.019                                    22097832.375 5  90487163.32405     -2103.069 5        35.405    22097832.544 7  90487163.33107     -2103.194 7        44.453
C05        44.000                                                                                                                                    39412898.586 6 205233302.65806      -418.927 6        37.633    39412896.008 7 158699422.22007      -323.901 7        42.783    39412896.996 6 166768965.01606      -340.316 6        39.559
C11        45.000                                                                                                                                    24647209.395 7 128344551.66507      2411.027 7        42.603    24647210.706 7  99244189.48307      1864.308 7        46.279    24647207.972 7 104290485.22807      1959.143 7        43.903
R16        46.000    19250492.909 8 102832873.47208     -1568.297 8        51.608                                                                    19250493.964 7  79981236.19707     -1219.789 7        47.525
R17        47.000    21753756.282 7 116408978.36407     -4131.781 7        47.866                                                                    21753756.690 7  90540447.88007     -3213.642 7        44.330
C35        48.000                                                                                                                                    24590151.874 7 128047536.09407     -3313.032 7        43.517                                                                    24590152.201 7 104049175.90307     -2692.026 7        44.393
C24        49.000                                                                                                                                    22172616.080 8 115458694.35608     -2408.114 8        50.113                                                                    22172613.886 8  93819667.48308     -1956.773 8        49.609
R19        50.000    20256322.415 6 108357902.62306      2023.475 6        40.639                                                                    20256323.311 7  84278475.02507      1573.841 7        44.196
S48        51.000    77180113.665 6 405584797.87406      -512.362 6        38.279
C08        52.000                                                                                                                                    38111557.574 6 198456964.97506       469.978 6        41.490    38111552.474 7 153459538.81707       363.396 7        45.378    38111551.299 7 161262554.50707       381.919 7        42.271
C34        53.000                                                                                                                                    22648752.602 8 117938245.67008      1636.811 8        48.700                                                                    22648753.900 7  95834594.92807      1329.997 7        47.961
C60        54.000                                                                                                                                    40596802.505 6 211398375.82606      -402.711 6        37.395                                                                    40596789.083 6 171778458.86606      -327.185 6        39.892
C25        55.000                                                                                                                                    22514426.192 8 117238748.21708       850.807 8        48.456                                                                    22514425.616 8  95266174.77708       691.336 8        48.585
C26        56.000                                                                                                                                    26010326.792 6 135442649.81806     -3928.656 6        40.799                                                                    26010329.617 6 110058283.04306     -3192.299 6        41.876
C02        57.000                                                                                                                                    40788308.809 5 212395448.72105      -383.817 5        33.240    40788306.253 6 164237619.52406      -296.691 6        39.832    40788307.125 5 172588696.80005      -311.914 5        33.527
I03        58.000    85781991.143 6 260841671.26606      1091.247 6        41.142
E30        59.000    27349713.378 6 143723853.79306      2152.853 6        40.072                                                                    27349719.360 7 107326350.61407      1607.732 7        42.828    27349718.077 7 110126154.49107      1649.594 7        43.331
G09        60.000    25559324.486 6 134315154.59006      -114.122 6        36.450                                    25559324.521 5 104661164.88105       -88.943 5        30.347    25559324.243 5 104661155.90605       -88.871 5        35.405
