     3.04           OBSERVATION DATA    M                   RINEX VERSION / TYPE
ssrcrin-15.6.1x                         20250102 200000 UTC PGM / RUN BY / DATE 
(00000000023479385599111004) Septentrio proprietary         COMMENT             
rref                                                        MARKER NAME         
01                                                          MARKER NUMBER       
geodetic                                                    MARKER TYPE         
NFB                 CLIMERS@TUW                             OBSERVER / AGENCY   
3297213             SEPT ASTERX SB3 PROB4.14.4              REC # / TYPE / VERS 
Unknown             Unknown                                 ANT # / TYPE        
  4127832.0463  1207193.4214  4695247.5523                  APPROX POSITION XYZ 
        0.0000        0.0000        0.0000                  ANTENNA: DELTA H/E/N
G   23 X1  C1C L1C D1C S1C C1W S1W C2W L2W D2W S2W C2L L2L  SYS / # / OBS TYPES 
       D2L S2L C5Q L5Q D5Q S5Q C1L L1L D1L S1L              SYS / # / OBS TYPES 
E   21 X1  C1C L1C D1C S1C C6C L6C D6C S6C C5Q L5Q D5Q S5Q  SYS / # / OBS TYPES 
       C7Q L7Q D7Q S7Q C8Q L8Q D8Q S8Q                      SYS / # / OBS TYPES 
S    9 X1  C1C L1C D1C S1C C5I L5I D5I S5I                  SYS / # / OBS TYPES 
R   17 X1  C1C L1C D1C S1C C2P L2P D2P S2P C2C L2C D2C S2C  SYS / # / OBS TYPES 
       C3Q L3Q D3Q S3Q                                      SYS / # / OBS TYPES 
C   25 X1  C1P L1P D1P S1P C5P L5P D5P S5P C2I L2I D2I S2I  SYS / # / OBS TYPES 
       C7I L7I D7I S7I C6I L6I D6I S6I C7D L7D D7D S7D      SYS / # / OBS TYPES 
J   17 X1  C1C L1C D1C S1C C2L L2L D2L S2L C5Q L5Q D5Q S5Q  SYS / # / OBS TYPES 
       C1L L1L D1L S1L                                      SYS / # / OBS TYPES 
I    5 X1  C5A L5A D5A S5A                                  SYS / # / OBS TYPES 
SEPTENTRIO RECEIVERS OUTPUT ALIGNED CARRIER PHASES.         COMMENT             
NO FURTHER PHASE SHIFT APPLIED IN THE RINEX ENCODER.        COMMENT             
G L1C                                                       SYS / PHASE SHIFT   
G L2W                                                       SYS / PHASE SHIFT   
G L2L  0.00000                                              SYS / PHASE SHIFT   
G L5Q  0.00000                                              SYS / PHASE SHIFT   
G L1L  0.00000                                              SYS / PHASE SHIFT   
E L1C  0.00000                                              SYS / PHASE SHIFT   
E L6C  0.00000                                              SYS / PHASE SHIFT   
E L5Q  0.00000                                              SYS / PHASE SHIFT   
E L7Q  0.00000                                              SYS / PHASE SHIFT   
E L8Q  0.00000                                              SYS / PHASE SHIFT   
S L1C                                                       SYS / PHASE SHIFT   
S L5I                                                       SYS / PHASE SHIFT   
R L1C                                                       SYS / PHASE SHIFT   
R L2P  0.00000                                              SYS / PHASE SHIFT   
R L2C                                                       SYS / PHASE SHIFT   
R L3Q  0.00000                                              SYS / PHASE SHIFT   
C L1P  0.00000                                              SYS / PHASE SHIFT   
C L5P  0.00000                                              SYS / PHASE SHIFT   
C L2I                                                       SYS / PHASE SHIFT   
C L7I                                                       SYS / PHASE SHIFT   
C L6I                                                       SYS / PHASE SHIFT   
C L7D                                                       SYS / PHASE SHIFT   
J L1C                                                       SYS / PHASE SHIFT   
J L2L  0.00000                                              SYS / PHASE SHIFT   
J L5Q  0.00000                                              SYS / PHASE SHIFT   
J L1L  0.00000                                              SYS / PHASE SHIFT   
I L5A                                                       SYS / PHASE SHIFT   
  2025     1     2    20     0    0.0000000     GPS         TIME OF FIRST OBS   
 C1C    0.000 C2C    0.000 C2P    0.000                     GLONASS COD/PHS/BIS 
DBHZ                                                        SIGNAL STRENGTH UNIT
    18                                                      LEAP SECONDS        
 24 R01  1 R02 -4 R03  5 R04  6 R05  1 R06 -4 R07  5 R08  6 GLONASS SLOT / FRQ #
    R09 -2 R10 -7 R11  0 R12 -1 R13 -2 R14 -7 R15  0 R16 -1 GLONASS SLOT / FRQ #
    R17  4 R18 -3 R19  3 R20  2 R21  4 R22 -3 R23  3 R24  2 GLONASS SLOT / FRQ #
                                                            END OF HEADER       
> 2025 01 02 20 00  0.0000000  0 60
G23         1.000    20905393.861 7 109858668.62307     -1399.994 7        46.537                                    20905390.038 6  85604180.57406     -1090.901 6        38.252    20905390.040 7  85604178.57407     -1090.904 7        47.041
C37         2.000                                                                                                                                    25171335.555 7 131073743.71807       -77.723 7        42.973                                                                    25171339.615 7 106508173.69607       -63.153 7        44.160
G16         3.000    21515342.621 7 113064093.99907     -3034.728 7        47.993                                    21515337.666 6  88101976.14306     -2364.722 6        36.529
G21         4.000    23763123.225 6 124876087.00106      2549.828 6        36.635                                    23763119.125 2  97306040.26602      1986.861 2        17.208
S21         5.000    38358393.589 7 201574405.37007      -449.153 7        42.243
G26         6.000    23648537.976 6 124274132.87906     -4012.222 6        40.863                                    23648537.958 6  96837115.80706     -3126.408 6        36.382    23648538.272 6  96837102.80906     -3126.436 6        39.039
G10         7.000    21183515.135 8 111320188.17908      1391.754 8        50.277                                    21183513.308 8  86743019.73208      1084.484 8        51.114    21183513.120 7  86743013.73507      1084.455 7        44.427
E15         8.000    25608945.257 7 134576015.73007      1674.228 7        42.891                                                                    25608946.424 7 100495142.06807      1250.235 7        45.813    25608945.975 7 103116742.63807      1282.875 7        46.986
E36         9.000    25345207.169 7 133190151.73607     -2577.467 7        44.120                                                                    25345207.925 7  99460320.82107     -1924.750 7        46.583    25345207.534 7 102054925.27307     -1975.011 7        47.696
G27        10.000    20094938.173 8 105599763.92208       364.965 8        50.235                                    20094936.205 8  82285600.65408       284.389 8        53.240    20094936.712 7  82285602.65907       284.446 7        46.634
G15        11.000    23662280.108 6 124346140.93806     -1261.068 6        40.443                                    23662276.061 5  96893089.10905      -982.648 5        32.192    23662276.357 6  96893092.10406      -982.850 6        36.102
G13        12.000    25002521.917 5 131389126.35805     -1774.837 5        33.317                                    25002519.783 1 102381122.76801     -1382.966 1         8.952
C23        13.000                                                                                                                                    24668178.492 7 128453727.87707     -2581.594 7        45.165                                                                    24668170.711 7 104379167.39007     -2097.680 7        45.366
S36        14.000    38127810.294 7 200363528.50707      -448.489 7        44.116
C13        15.000                                                                                                                                    38281721.479 7 199343028.54707     -1357.074 7        42.982    38281723.314 7 154144708.45307     -1049.300 7        44.095    38281721.623 7 161982562.04107     -1102.704 7        42.118
G18        16.000    23061459.808 7 121189013.13407     -3336.658 7        43.346                                    23061456.120 5  94433093.11105     -2599.997 5        30.491    23061456.855 7  94433101.11507     -2600.026 7        42.053
R10        17.000    21452555.912 7 114354226.49807     -3729.417 7        43.712
E27        18.000    25656726.678 7 134827022.42307      1182.231 7        43.236                                                                    25656726.761 7 100682519.63307       882.844 7        46.294    25656726.401 7 103309017.51807       905.905 7        46.958
E02        19.000    26366286.846 6 138555949.35106     -3567.566 6        41.495                                                                    26366286.458 7 103467211.71507     -2664.100 7        44.504    26366285.924 7 106166341.80107     -2733.568 7        45.485
E05        20.000    26510920.175 6 139315831.81706      2334.697 6        36.174                                                                    26510921.379 6 104034549.06806      1743.343 6        41.004    26510920.811 6 106748496.55406      1788.848 6        41.702
R11        21.000    21055167.652 8 112512453.84008        86.331 8        49.160                                                                    21055166.954 7  87509689.58207        67.180 7        46.166
I06        22.000    38557761.361 6 151309160.34406      -265.735 6        41.397
S28        23.000    40824435.027 5 214533860.46405      -441.133 5        33.569
E04        24.000    28134615.821 5 147848385.56905     -1224.727 5        35.552                                                                    28134615.728 6 110406260.13406      -914.670 6        40.527    28134615.238 6 113286419.54706      -938.566 6        41.163
S23        25.000    38084996.529 7 200137962.03607      -449.094 7        44.659
S45        26.000    63340023.753 6 332855557.87106      -498.393 6        37.750
R09        27.000    23880599.597 7 127521236.97907     -4912.100 7        42.008                                                                    23880601.774 6  99183284.90506     -3820.595 6        39.832
S27        28.000    39093894.224 6 205439803.56806      -417.459 6        36.060
C38        29.000                                                                                                                                    40203993.866 6 209352865.61406     -1705.746 6        40.026                                                                    40203991.768 6 170116396.82006     -1385.970 6        39.384
C44        30.000                                                                                                                                    26790037.352 5 139502954.50505     -3286.670 5        30.830                                                                    26790037.073 5 113357658.22005     -2670.386 5        33.617
C43        31.000                                                                                                                                    21581777.183 8 112382082.57308       273.260 8        51.323                                                                    21581775.854 8  91319689.82708       222.123 8        49.448
C42        32.000                                                                                                                                    24003510.918 7 124992593.38907      2352.302 7        45.425                                                                    24003518.445 7 101566760.87907      1911.469 7        46.563
I02        33.000    39941703.433 6 156739873.86006      -998.686 6        39.538
R03        34.000    23147532.038 7 123910587.05007     -3428.211 7        43.096                                                                    23147529.715 6  96374902.80206     -2666.466 6        39.399
E34        35.000    23219286.495 8 122018379.99808      -417.178 8        48.638                                                                    23219286.251 8  91117732.15808      -311.554 8        50.613    23219286.160 8  93494705.27408      -319.671 8        51.653
G30        36.000    25683591.638 5 134968191.57405        82.437 5        35.790                                    25683590.687 4 105170026.46004        64.241 4        27.102    25683591.875 5 105170019.46005        64.057 5        33.323
R21        37.000    22046737.714 7 117976583.37107      2440.064 7        47.745                                                                    22046737.405 6  91759581.87906      1897.741 6        41.709
C22        38.000                                                                                                                                    25789821.925 6 134294394.74106     -2860.210 6        40.548                                                                    25789815.579 6 109125179.90406     -2324.081 6        40.555
R05        39.000    21765391.889 7 116348510.63007      3212.300 7        45.994                                                                    21765392.382 7  90493292.81207      2498.452 7        43.316
C12        40.000                                                                                                                                    24812851.858 7 129207217.92207     -2989.306 7        42.063    24812847.836 7  99911311.32507     -2311.449 7        46.782    24812846.669 7 104991519.70207     -2428.925 7        44.024
R04        41.000    20932788.512 8 112094162.83308      -125.447 8        49.472                                                                    20932787.138 7  87184355.97607       -97.631 7        45.434
S44        42.000    40389629.461 6 212249126.54306      -437.940 6        38.156
G08        43.000    21854724.965 7 114847439.53107      2239.880 7        45.223                                    21854724.102 7  89491549.67807      1745.361 7        43.261    21854724.713 7  89491547.68707      1745.440 7        42.531
C05        44.000                                                                                                                                    39158192.591 6 203907021.81306      -381.865 6        37.459    39158188.993 7 157673866.69107      -295.136 7        42.830    39158191.099 6 165691260.37506      -310.163 6        40.052
C11        45.000                                                                                                                                    21576268.874 8 112353442.06108      -963.829 8        49.282    21576265.710 8  86878869.11508      -745.251 8        52.370    21576264.665 8  91296414.82708      -783.059 8        49.259
E09        46.000    27306149.140 6 143494798.29606       960.199 6        38.838                                                                    27306149.534 7 107155216.61207       717.214 7        42.195    27306149.271 7 109950567.26207       735.865 7        43.534
G07        47.000    25140893.654 6 132116284.82806     -1202.642 6        39.324                                    25140891.725 4 102947736.24004      -937.120 4        29.393    25140891.772 5 102947744.22405      -936.964 5        34.938
C21        48.000                                                                                                                                    23575755.153 7 122765170.20007      -245.419 7        47.660                                                                    23575749.422 8  99756744.47608      -199.364 8        48.042
E06        49.000    27438439.997 6 144189997.12406       -85.513 6        36.960                                                                    27438440.447 6 107674353.08706       -63.810 6        40.112    27438440.683 6 110483246.48706       -65.415 6        41.335
R19        50.000    22265745.814 6 119106982.28306     -3449.505 6        38.114                                                                    22265745.067 6  92638875.63106     -2682.830 6        40.276
S48        51.000    77100997.216 6 405169986.25106      -485.658 6        37.652
C08        52.000                                                                                                                                    38731446.694 6 201684908.30106     -1603.058 6        39.099    38731440.260 7 155955594.16507     -1239.507 7        43.536    38731439.646 6 163885526.74006     -1302.528 6        40.389
C34        53.000                                                                                                                                    22361642.054 8 116443219.87508     -2173.092 8        48.979                                                                    22361641.982 8  94619770.86808     -1765.768 8        48.642
C60        54.000                                                                                                                                    40389631.758 6 210319608.41806      -433.930 6        40.012                                                                    40389615.907 6 170901878.21806      -352.615 6        39.697
C25        55.000                                                                                                                                    26258867.427 6 136737021.28806     -3623.751 6        39.330                                                                    26258867.881 6 111110115.34906     -2944.502 6        39.856
I09        56.000    38502929.918 7 151093786.92307       382.951 7        42.516
C02        57.000                                                                                                                                    40495586.751 5 210871186.92205      -387.605 5        34.919    40495579.786 6 163058970.06206      -299.690 6        38.652    40495583.341 5 171350114.38005      -314.791 5        34.857
I03        58.000    81068199.319 6 242343775.01406      1092.531 6        40.162
E30        59.000    24314960.772 8 127776201.24808     -1627.934 8        48.171                                                                    24314960.326 8  95417413.23308     -1215.620 8        49.787    24314959.891 8  97906546.39008     -1247.425 8        50.610
R20        60.000    19505200.945 6 104303278.80606      -283.313 6        40.143                                                                    19505201.980 7  81124841.58507      -220.348 7        47.541
> 2025 01 02 20 00  5.0000000  0 60
G23         1.000    20906727.327 7 109865676.28207     -1403.250 7        46.735                                    20906723.539 6  85609641.08606     -1093.441 6        38.381    20906723.496 7  85609639.08107     -1093.379 7        46.999
C37         2.000                                                                                                                                    25171411.436 7 131074139.32507       -80.643 7        42.703                                                                    25171415.585 7 106508495.15407       -65.499 7        44.364
G16         3.000    21518231.094 7 113079273.58407     -3037.290 7        47.821                                    21518226.258 6  88113804.39206     -2366.720 6        36.692
G21         4.000    23760697.439 6 124863340.21106      2548.731 6        36.639                                    23760693.538 2  97296107.71902      1986.041 2        17.472
S21         5.000    38358822.029 7 201576650.96407      -449.192 7        42.193
G26         6.000    23652355.791 6 124294195.39206     -4012.935 6        41.066                                    23652355.722 6  96852748.92306     -3126.962 6        36.620    23652355.880 6  96852735.91206     -3126.796 6        39.228
G10         7.000    21182192.422 8 111313236.22608      1388.944 8        50.555                                    21182190.387 8  86737602.62708      1082.293 8        51.260    21182190.428 7  86737596.63707      1082.240 7        44.349
E15         8.000    25607352.758 7 134567646.48207      1673.290 7        42.948                                                                    25607353.820 7 100488892.31807      1249.504 7        45.892    25607353.498 7 103110329.85107      1282.170 7        47.001
E36         9.000    25347659.961 7 133203040.55207     -2578.013 7        44.080                                                                    25347660.527 7  99469945.59007     -1925.243 7        46.491    25347660.246 7 102064801.11707     -1975.471 7        47.767
G27        10.000    20094591.870 8 105597945.27208       362.320 8        50.101                                    20094590.128 8  82284183.52608       282.330 8        53.384    20094590.458 7  82284185.52907       282.253 7        46.310
G15        11.000    23663481.891 6 124352455.02606     -1264.761 6        40.505                                    23663477.693 5  96898009.17305      -985.528 5        32.383    23663478.703 5  96898012.17705      -985.320 5        35.900
G13        12.000    25004212.373 5 131398008.57005     -1778.173 5        32.982                                    25004209.998 1 102388043.96601     -1385.580 1        10.889
C23        13.000                                                                                                                                    24670658.614 7 128466640.33907     -2583.505 7        45.014                                                                    24670650.411 7 104389659.81607     -2099.364 7        45.478
S36        14.000    38128236.386 7 200365769.80107      -448.604 7        44.045
C13        15.000                                                                                                                                    38283024.870 7 199349814.58507     -1357.603 7        42.836    38283026.437 7 154149955.84507     -1049.704 7        43.991    38283024.759 7 161988076.23507     -1102.979 7        42.193
G18        16.000    23064635.029 7 121205698.33807     -3337.589 7        42.815                                    23064631.182 5  94446094.56605     -2600.719 5        30.423    23064631.652 7  94446102.56207     -2600.719 7        42.184
R10        17.000    21456056.139 7 114372880.30807     -3732.290 7        44.161
E27        18.000    25655602.316 7 134821116.32807      1180.086 7        43.297                                                                    25655602.941 7 100678109.22707       881.215 7        46.208    25655602.488 7 103304492.06307       904.233 7        47.074
E02        19.000    26369681.522 6 138573788.42306     -3568.157 6        41.113                                                                    26369681.118 7 103480533.09807     -2664.671 7        44.454    26369680.422 7 106180010.69507     -2734.084 7        45.485
E05        20.000    26508698.862 6 139304159.54006      2334.160 6        36.098                                                                    26508700.257 6 104025832.75406      1743.141 6        40.896    26508699.547 6 106739552.84806      1788.556 6        41.616
R11        21.000    21055089.968 8 112512033.34908        81.676 8        49.097                                                                    21055087.988 7  87509362.53907        63.491 7        46.611
I06        22.000    38558099.979 6 151310488.73906      -265.735 6        41.497
S28        23.000    40824851.170 5 214536067.44305      -441.259 5        33.653
E04        24.000    28135782.497 6 147854515.15706     -1227.324 6        36.280                                                                    28135782.186 6 110410837.40706      -916.419 6        40.348    28135781.621 6 113291116.22606      -940.224 6        41.049
S23        25.000    38085423.569 7 200140207.96007      -449.274 7        44.664
S45        26.000    63340447.051 6 332856349.84216      -498.553 6        37.592
R09        27.000    23885199.644 7 127545796.43507     -4911.862 7        42.351                                                                    23885201.081 6  99202386.66206     -3820.275 6        39.934
S27        28.000    39094290.347 5 205441890.91705      -417.421 5        35.795
C38        29.000                                                                                                                                    40205631.711 6 209361394.10706     -1705.806 6        39.997                                                                    40205629.697 6 170123326.92506     -1386.079 6        39.652
C44        30.000                                                                                                                                    26793192.295 5 139519387.17905     -3286.482 5        31.057                                                                    26793192.721 5 113371011.14205     -2670.799 5        33.234
C43        31.000                                                                                                                                    21581515.587 8 112380719.98508       271.659 8        51.281                                                                    21581514.194 8  91318582.61908       220.825 8        49.658
C42        32.000                                                                                                                                    24001252.914 7 124980835.87307      2350.563 7        45.455                                                                    24001260.609 7 101557206.94307      1910.060 7        46.580
I02        33.000    39942976.293 6 156744867.37306      -998.651 6        39.456
R03        34.000    23150734.710 7 123927735.96907     -3431.438 7        42.929                                                                    23150733.290 6  96388240.85606     -2668.780 6        39.192
E34        35.000    23219683.905 8 122020469.24808      -418.650 8        48.786                                                                    23219683.811 8  91119292.30908      -312.648 8        50.506    23219683.723 8  93496306.12108      -320.762 8        51.661
G30        36.000    25683513.963 5 134967786.40205        79.561 5        35.462                                    25683513.614 4 105169710.74804        61.997 4        27.269    25683515.231 5 105169703.72805        61.918 5        32.820
R21        37.000    22044458.115 7 117964385.15807      2439.110 7        47.884                                                                    22044457.703 6  91750094.37906      1897.093 6        41.847
C22        38.000                                                                                                                                    25792569.219 6 134308700.69406     -2862.294 6        40.849                                                                    25792562.792 6 109136804.66806     -2325.658 6        40.493
R05        39.000    21762388.645 7 116332454.87807      3209.887 7        46.655                                                                    21762388.676 7  90480805.01707      2496.607 7        44.038
C12        40.000                                                                                                                                    24815722.032 6 129222165.72106     -2989.927 6        41.876    24815718.147 7  99922869.89907     -2311.989 7        46.736    24815717.318 7 105003666.00907     -2429.560 7        44.218
R04        41.000    20932907.870 8 112094801.45308      -130.143 8        49.123                                                                    20932906.307 7  87184852.66507      -101.109 7        45.160
S44        42.000    40390049.530 6 212251316.44706      -438.176 6        38.027
G08        43.000    21852594.157 7 114836243.08107      2238.516 7        45.263                                    21852593.481 7  89482825.17307      1744.295 7        43.228    21852594.013 7  89482823.17507      1744.372 7        42.271
C05        44.000                                                                                                                                    39158559.617 6 203908930.71206      -381.915 6        37.316    39158555.613 7 157675342.78207      -295.348 7        42.739    39158557.745 6 165692811.51706      -310.243 6        40.396
C11        45.000                                                                                                                                    21577195.531 8 112358264.51508      -965.326 8        49.295    21577191.775 8  86882598.14208      -746.439 8        52.264    21577190.816 8  91300333.47208      -784.345 8        49.473
E09        46.000    27305236.629 6 143490001.10106       958.251 6        39.099                                                                    27305236.746 7 107151634.30107       715.659 7        42.021    27305236.429 7 109946891.49707       734.372 7        43.644
G07        47.000    25142039.478 6 132122303.74306     -1205.249 6        39.994                                    25142037.127 4 102952426.29704      -939.157 4        29.194    25142037.315 5 102952434.28005      -938.975 5        35.043
C21        48.000                                                                                                                                    23575992.358 7 122766404.72307      -248.525 7        47.904                                                                    23575986.447 8  99757747.62908      -201.852 8        48.209
E06        49.000    27438522.981 6 144190430.41606       -88.015 6        37.214                                                                    27438522.820 6 107674676.65606       -65.716 6        40.026    27438523.205 6 110483578.50506       -67.305 6        41.456
R19        50.000    22268968.794 6 119124231.24906     -3450.068 6        37.474                                                                    22268969.094 6  92652291.50306     -2683.517 6        39.940
S48        51.000    77101437.492 6 405172414.72006      -485.746 6        37.645
C08        52.000                                                                                                                                    38732986.121 6 201692923.85006     -1603.506 6        38.958    38732979.735 7 155961792.29507     -1239.852 7        43.211    38732979.001 6 163892040.02406     -1302.857 6        40.617
C34        53.000                                                                                                                                    22363729.513 8 116454088.22808     -2174.420 8        49.137                                                                    22363729.134 8  94628602.29608     -1766.873 8        48.858
C60        54.000                                                                                                                                    40390048.674 6 210321778.41706      -434.140 6        40.050                                                                    40390032.707 6 170903641.51106      -352.766 6        39.946
C25        55.000                                                                                                                                    26262346.952 6 136755139.03706     -3623.454 6        39.363                                                                    26262347.155 6 111124837.46406     -2944.276 6        39.649
I09        56.000    38502441.633 7 151091871.99707       382.915 7        42.508
C02        57.000                                                                                                                                    40495959.210 5 210873125.33005      -387.777 5        34.395    40495951.995 6 163060468.95406      -299.763 6        38.622    40495955.563 5 171351689.50505      -315.100 5        35.043
I03        58.000    81066807.142 6 242338312.64006      1092.318 6        40.150
E30        59.000    24316510.697 8 127784346.71008     -1630.311 8        48.141                                                                    24316510.345 8  95423495.88508     -1217.437 8        49.658    24316509.950 8  97912787.72108     -1249.249 8        50.717
R20        60.000    19505465.760 6 104304700.01406      -285.326 6        40.052                                                                    19505467.827 7  81125946.98207      -221.933 7        47.805
> 2025 01 02 20 00 10.0000000  0 60
G23         1.000    20908063.834 7 109872699.38607     -1406.266 7        46.672                                    20908059.968 6  85615113.63406     -1095.792 6        38.255    20908059.959 7  85615111.63607     -1095.797 7        47.089
C37         2.000                                                                                                                                    25171490.131 7 131074548.53707       -83.208 7        43.022                                                                    25171494.149 7 106508827.68307       -67.618 7        44.096
G16         3.000    21521121.959 7 113094465.29707     -3039.676 7        47.372                                    21521117.180 6  88125642.08606     -2368.575 6        36.609
G21         4.000    23758272.465 6 124850598.36306      2547.509 6        36.594                                    23758268.703 2  97286179.01002      1985.056 2        17.811
S21         5.000    38359248.886 7 201578896.28807      -449.180 7        42.191
G26         6.000    23656174.266 6 124314260.82406     -4013.509 6        41.328                                    23656174.005 6  96868384.32506     -3127.413 6        36.662    23656174.090 6  96868371.31806     -3127.397 6        39.222
G10         7.000    21180872.080 8 111306297.65608      1386.242 8        50.499                                    21180870.020 8  86732195.95308      1080.189 8        51.111    21180870.177 7  86732189.95307      1080.183 7        44.370
E15         8.000    25605760.777 7 134559281.45107      1672.559 7        42.950                                                                    25605762.018 7 100482645.70007      1248.961 7        45.728    25605761.675 7 103103920.28407      1281.540 7        47.115
E36         9.000    25350113.150 7 133215931.76607     -2578.582 7        43.884                                                                    25350113.593 7  99479572.13407     -1925.561 7        46.447    25350113.387 7 102074678.78907     -1975.770 7        47.791
G27        10.000    20094248.430 8 105596139.14108       359.897 8        50.257                                    20094246.444 8  82282776.15208       280.439 8        53.212    20094246.590 7  82282778.15207       280.423 7        46.123
G15        11.000    23664686.338 6 124358786.10506     -1267.989 6        40.207                                    23664682.558 5  96902942.48405      -988.049 5        32.198    23664683.346 6  96902945.47606      -988.028 6        36.064
G13        12.000    25005904.310 5 131406905.69405     -1781.262 5        30.951                                    25005903.026 1 102394976.76301     -1387.854 1         9.810
C23        13.000                                                                                                                                    24673139.767 7 128479561.77907     -2585.275 7        44.820                                                                    24673131.880 7 104400159.54007     -2100.616 7        45.208
S36        14.000    38128661.673 7 200368011.87507      -448.421 7        44.068
C13        15.000                                                                                                                                    38284328.496 7 199356602.18607     -1357.756 7        42.682    38284330.031 7 154155204.44307     -1049.841 7        44.047    38284328.171 6 161993591.72706     -1103.182 6        41.974
G18        16.000    23067810.619 7 121222386.98207     -3338.178 7        42.817                                    23067807.040 5  94459098.70105     -2601.176 5        30.309    23067807.414 7  94459106.69507     -2601.171 7        42.372
R10        17.000    21459557.683 7 114391547.78707     -3734.920 7        43.649
E27        18.000    25654480.330 7 134815219.84507      1178.246 7        43.153                                                                    25654480.865 7 100673706.00007       879.947 7        46.164    25654480.349 7 103299973.97107       902.869 7        47.126
E02        19.000    26373076.729 6 138591630.54806     -3568.769 6        40.877                                                                    26373076.414 7 103493856.75007     -2665.008 7        44.566    26373075.633 7 106193681.92407     -2734.503 7        45.375
E05        20.000    26506477.906 5 139292488.14505      2333.958 5        35.962                                                                    26506479.201 6 104017117.08606      1743.108 6        41.068    26506478.600 6 106730609.82406      1788.563 6        41.750
R11        21.000    21055015.081 8 112511635.72408        77.151 8        48.987                                                                    21055013.669 7  87509053.25607        60.046 7        46.436
I06        22.000    38558438.240 6 151311816.92006      -265.813 6        41.411
S28        23.000    40825276.167 5 214538274.55905      -441.882 5        33.665
E04        24.000    28136950.895 6 147860656.11606     -1229.519 6        36.359                                                                    28136950.953 6 110415423.19706      -918.188 6        40.501    28136950.339 6 113295821.65606      -941.930 6        41.039
S23        25.000    38085850.824 7 200142453.95307      -449.365 7        44.621
S45        26.000    63340874.422 6 332858841.62606      -498.407 6        37.735
R09        27.000    23889798.949 7 127570354.66407     -4911.643 7        42.663                                                                    23889800.495 6  99221487.42906     -3820.179 6        39.919
S27        28.000    39094686.748 5 205443977.77805      -417.497 5        35.529
C38        29.000                                                                                                                                    40207269.553 6 209369922.89406     -1705.604 6        39.850                                                                    40207267.597 6 170130257.27106     -1386.086 6        39.562
C44        30.000                                                                                                                                    26796348.728 5 139535820.29205     -3286.579 5        31.268                                                                    26796348.489 5 113384364.42205     -2671.195 5        33.006
C43        31.000                                                                                                                                    21581255.285 8 112379364.57908       270.248 8        51.262                                                                    21581253.952 8  91317481.24308       219.779 8        49.431
C42        32.000                                                                                                                                    23998996.180 7 124969086.07107      2349.105 7        44.769                                                                    23999004.417 7 101547659.27207      1908.925 7        46.562
I02        33.000    39944248.737 6 156749860.88006      -998.698 6        39.604
R03        34.000    23153941.239 7 123944900.15107     -3434.447 7        43.390                                                                    23153940.803 6  96401590.76406     -2671.247 6        40.391
E34        35.000    23220082.636 8 122022564.94908      -419.850 8        48.701                                                                    23220082.563 8  91120857.28108      -313.528 8        50.518    23220082.538 8  93497911.92708      -321.737 8        51.699
G30        36.000    25683439.739 5 134967394.89905        76.777 5        35.581                                    25683439.046 4 105169405.67604        59.823 4        26.371    25683439.163 5 105169398.70005        59.974 5        32.491
R21        37.000    22042179.478 7 117952191.14707      2438.321 7        47.999                                                                    22042179.054 6  91740610.15906      1896.464 6        41.533
C22        38.000                                                                                                                                    25795317.935 6 134323016.15606     -2864.097 6        41.023                                                                    25795311.843 6 109148437.17906     -2327.160 6        40.045
R05        39.000    21759387.481 7 116316410.40407      3207.615 7        47.622                                                                    21759387.490 7  90468325.97607      2494.778 7        43.865
C12        40.000                                                                                                                                    24818592.810 6 129237116.12906     -2990.356 6        41.518    24818589.029 7  99934430.49007     -2312.292 7        46.802    24818588.361 7 105015814.43107     -2429.841 7        44.108
R04        41.000    20933031.392 8 112095463.11008      -134.738 8        49.353                                                                    20933030.042 7  87185367.30407      -104.779 7        44.813
S44        42.000    40390464.121 6 212253506.38206      -438.009 6        37.902
G08        43.000    21850465.174 7 114825053.39507      2237.154 7        45.630                                    21850464.152 7  89474105.94707      1743.238 7        43.200    21850465.207 7  89474103.95407      1743.207 7        42.203
C05        44.000                                                                                                                                    39158926.281 6 203910839.53206      -381.883 6        37.414    39158922.089 7 157676818.79307      -295.250 7        42.883    39158924.137 6 165694362.59406      -310.166 6        40.145
C11        45.000                                                                                                                                    21578122.937 8 112363093.82308      -966.605 8        49.150    21578119.210 8  86886332.46608      -747.459 8        52.355    21578118.217 8  91304257.69008      -785.388 8        49.294
E09        46.000    27304325.700 6 143485213.80206       956.446 6        39.240                                                                    27304325.574 6 107148059.37606       714.144 6        41.959    27304325.493 7 109943223.31407       732.851 7        43.831
G07        47.000    25143187.073 6 132128334.78806     -1207.620 6        38.456                                    25143184.854 4 102957125.79604      -940.998 4        28.739    25143184.318 5 102957133.78105      -940.680 5        32.868
C21        48.000                                                                                                                                    23576232.084 7 122767653.97207      -251.442 7        47.907                                                                    23576226.275 8  99758762.75408      -204.149 8        48.042
E06        49.000    27438607.638 6 144190875.30906       -90.344 6        37.342                                                                    27438607.807 6 107675008.87606       -67.367 6        40.026    27438607.848 6 110483919.39706       -69.211 6        41.528
R19        50.000    22272193.876 6 119141483.23206     -3450.934 6        37.164                                                                    22272194.752 6  92665709.69706     -2684.033 6        39.913
S48        51.000    77101872.581 6 405173243.48816      -486.130 6        37.467
C08        52.000                                                                                                                                    38734525.162 6 201700940.71606     -1603.500 6        38.928    38734519.172 7 155967991.44307     -1239.936 7        43.367    38734518.454 6 163898554.38906     -1302.866 6        40.353
C34        53.000                                                                                                                                    22365817.772 8 116464962.45108     -2175.536 8        48.964                                                                    22365817.485 8  94637438.49808     -1767.671 8        48.649
C60        54.000                                                                                                                                    40390465.255 6 210323948.44206      -433.949 6        39.988                                                                    40390449.552 6 170905404.84806      -352.639 6        39.586
C25        55.000                                                                                                                                    26265825.665 6 136773254.72406     -3623.129 6        39.399                                                                    26265825.990 6 111139557.91806     -2943.909 6        39.303
I09        56.000    38501954.257 7 151089957.80707       382.581 7        42.567
C02        57.000                                                                                                                                    40496331.665 5 210875063.75405      -387.917 5        34.310    40496324.276 6 163061967.84806      -299.718 6        38.790    40496327.835 5 171353264.64105      -315.184 5        34.986
I03        58.000    81065415.497 6 242332850.32906      1092.393 6        40.410
E30        59.000    24318062.971 8 127792503.29808     -1632.463 8        48.066                                                                    24318062.525 8  95429586.84608     -1219.059 8        49.651    24318062.123 8  97919037.57408     -1250.825 8        50.694
R20        60.000    19505733.186 6 104306131.11606      -287.204 6        40.079                                                                    19505735.131 7  81127060.06507      -223.421 7        47.814
> 2025 01 02 20 00 15.0000000  0 60
G23         1.000    20909403.281 7 109879737.95707     -1409.210 7        46.787                                    20909399.403 6  85620598.23606     -1098.086 6        38.300    20909399.649 7  85620596.23807     -1098.107 7        47.082
C37         2.000                                                                                                                                    25171571.567 7 131074971.39307       -85.834 7        43.300                                                                    25171575.359 7 106509171.28007       -69.935 7        44.239
G16         3.000    21524014.947 7 113109669.13307     -3041.940 7        47.466                                    21524010.365 6  88137489.22806     -2370.343 6        36.654
G21         4.000    23755849.381 6 124837861.40106      2546.939 6        36.026                                    23755845.003 2  97276254.12102      1984.625 2        17.660
S21         5.000    38359677.974 7 201581141.69107      -449.181 7        42.209
G26         6.000    23659993.051 6 124334329.19706     -4013.878 6        41.235                                    23659992.837 6  96884022.00906     -3127.698 6        36.681    23659992.927 6  96884009.01406     -3127.733 6        39.174
G10         7.000    21179554.072 8 111299372.49408      1383.730 8        50.440                                    21179552.197 8  86726799.72408      1078.231 8        51.159    21179552.435 7  86726793.72607      1078.276 7        44.572
E15         8.000    25604170.330 7 134550920.65807      1671.751 7        43.302                                                                    25604171.063 7 100476402.25407      1248.362 7        45.779    25604170.633 7 103097513.96007      1280.983 7        47.097
E36         9.000    25352566.587 7 133228825.38707     -2578.965 7        44.193                                                                    25352567.147 7  99489200.48107     -1925.843 7        46.398    25352566.952 7 102084558.31107     -1976.123 7        47.671
G27        10.000    20093907.165 8 105594345.55208       357.436 8        50.545                                    20093905.134 8  82281378.55308       278.521 8        53.313    20093905.782 7  82281380.55107       278.592 7        46.402
G15        11.000    23665894.092 6 124365134.26806     -1271.227 6        39.865                                    23665890.634 5  96907889.10705      -990.566 5        32.174    23665891.325 5  96907892.12905      -990.769 5        35.519
G13        12.000    25007600.542 5 131415817.76105     -1783.920 5        31.487                                    25007598.795 1 102401921.22501     -1390.033 1         9.619
C23        13.000                                                                                                                                    24675623.156 7 128492492.20507     -2586.914 7        45.005                                                                    24675614.967 7 104410666.56407     -2102.243 7        45.368
S36        14.000    38129087.702 7 200370253.69107      -448.274 7        44.004
C13        15.000                                                                                                                                    38285632.585 7 199363391.35407     -1357.930 7        42.919    38285633.827 7 154160454.26007     -1049.940 7        44.184    38285631.921 7 161999108.47807     -1103.583 7        42.142
G18        16.000    23070987.194 7 121239079.09507     -3338.775 7        43.663                                    23070983.515 5  94472105.53705     -2601.640 5        30.438    23070983.651 7  94472113.53107     -2601.536 7        42.705
R10        17.000    21463061.805 7 114410229.06207     -3737.594 7        42.692
E27        18.000    25653360.518 7 134809333.00307      1176.447 7        43.433                                                                    25653360.665 7 100669309.99407       878.550 7        46.225    25653360.182 7 103295463.28307       901.482 7        47.075
E02        19.000    26376472.638 6 138609475.73006     -3569.357 6        41.218                                                                    26376472.306 7 103507182.68607     -2665.364 7        44.582    26376471.559 7 106207355.50707     -2734.963 7        45.272
E05        20.000    26504257.016 6 139280817.69206      2333.999 6        36.057                                                                    26504258.522 6 104008402.13806      1742.955 6        40.992    26504257.775 6 106721667.53806      1788.397 6        41.778
R11        21.000    21054944.672 8 112511260.94408        72.677 8        48.925                                                                    21054943.886 7  87508761.77307        56.589 7        46.616
I06        22.000    38558776.655 6 151313144.84806      -265.472 6        41.452
S28        23.000    40825695.135 5 214540481.44005      -441.462 5        33.449
E04        24.000    28138121.989 6 147866808.40206     -1231.457 6        36.087                                                                    28138121.814 6 110420017.44906      -919.620 6        40.558    28138121.187 6 113300535.76606      -943.529 6        40.987
S23        25.000    38086279.384 7 200144699.92507      -449.153 7        44.688
S45        26.000    63341298.260 6 332861333.36606      -498.341 6        37.856
R09        27.000    23894397.637 7 127594911.72407     -4911.255 7        43.029                                                                    23894399.418 6  99240587.32406     -3819.759 6        40.257
S27        28.000    39095082.334 5 205446065.16005      -417.544 5        35.695
C38        29.000                                                                                                                                    40208907.336 6 209378452.01206     -1705.797 6        39.949                                                                    40208905.375 6 170137187.85506     -1386.142 6        39.577
C44        30.000                                                                                                                                    26799504.717 5 139552253.86205     -3286.636 5        30.619                                                                    26799504.331 5 113397718.01805     -2670.866 5        31.789
C43        31.000                                                                                                                                    21580996.273 8 112378016.36508       268.973 8        51.329                                                                    21580995.009 8  91316385.70208       218.423 8        49.549
C42        32.000                                                                                                                                    23996741.533 7 124957344.02407      2347.696 7        44.599                                                                    23996749.515 7 101538117.88707      1907.573 7        46.746
I02        33.000    39945520.728 6 156754854.21506      -998.536 6        39.562
R03        34.000    23157151.518 7 123962079.48307     -3437.434 7        43.727                                                                    23157150.283 6  96414952.49306     -2673.536 6        40.667
E34        35.000    23220482.722 8 122024667.15008      -421.079 8        48.761                                                                    23220482.673 8  91122427.10708      -314.402 8        50.471    23220482.583 8  93499522.70108      -322.631 8        51.691
G30        36.000    25683368.135 6 134967017.07106        74.203 6        36.053                                    25683366.963 4 105169111.25904        57.824 4        26.671    25683367.221 5 105169104.25905        57.891 5        32.617
R21        37.000    22039901.425 7 117940001.24607      2437.604 7        47.451                                                                    22039900.535 6  91731129.14606      1895.796 6        41.032
C22        38.000                                                                                                                                    25798069.142 6 134337341.15706     -2865.947 6        41.092                                                                    25798062.814 6 109160077.40006     -2329.045 6        40.138
R05        39.000    21756389.099 7 116300377.48607      3205.514 7        47.855                                                                    21756388.580 7  90455855.92907      2493.045 7        43.837
C12        40.000                                                                                                                                    24821464.434 6 129252069.20206     -2990.771 6        41.354    24821460.644 7  99945993.15207     -2312.748 7        46.643    24821459.765 7 105027965.01007     -2430.417 7        44.143
R04        41.000    20933159.955 8 112096147.83408      -139.258 8        49.681                                                                    20933157.782 7  87185899.85707      -108.292 7        44.030
S44        42.000    40390882.495 6 212255696.38806      -438.148 6        38.204
G08        43.000    21848337.277 7 114813870.49507      2235.987 7        45.302                                    21848336.116 7  89465392.00007      1742.326 7        43.270    21848336.788 7  89465390.01107      1742.268 7        42.184
C05        44.000                                                                                                                                    39159292.789 6 203912748.31006      -381.847 6        37.577    39159288.476 7 157678294.77807      -295.098 7        42.974    39159290.957 6 165695913.60806      -310.149 6        40.243
C11        45.000                                                                                                                                    21579051.532 8 112367930.01308      -967.850 8        49.241    21579047.823 8  86890072.11808      -748.465 8        52.408    21579046.928 8  91308187.47708      -786.620 8        49.360
E09        46.000    27303416.637 6 143480436.43706       954.618 6        39.697                                                                    27303416.523 6 107144491.86206       712.723 6        41.986    27303416.377 7 109939562.73907       731.397 7        43.812
G07        47.000    25144336.682 6 132134377.90206     -1209.859 6        38.643                                    25144334.794 4 102961834.70204      -942.746 4        28.701    25144334.875 5 102961842.70505      -942.785 5        33.575
C21        48.000                                                                                                                                    23576474.432 7 122768917.96607      -254.267 7        47.961                                                                    23576469.084 8  99759789.84208      -206.685 8        48.119
E06        49.000    27438694.525 6 144191331.79406       -92.236 6        37.652                                                                    27438694.748 6 107675349.77106       -68.959 6        40.052    27438694.733 6 110484269.19706       -70.941 6        41.673
R19        50.000    22275420.344 6 119158738.45206     -3451.490 6        37.161                                                                    22275420.794 6  92679130.44806     -2684.457 6        40.567
S48        51.000    77102310.022 6 405175672.67006      -485.804 6        37.554
C08        52.000                                                                                                                                    38736064.863 6 201708958.82806     -1603.787 6        38.772    38736058.995 7 155974191.56107     -1240.114 7        43.372    38736058.313 6 163905069.76006     -1303.349 6        40.355
C34        53.000                                                                                                                                    22367907.035 8 116475842.59008     -2176.574 8        48.883                                                                    22367906.887 8  94646279.48308     -1768.699 8        48.723
C60        54.000                                                                                                                                    40390882.131 6 210326118.53106      -433.998 6        40.021                                                                    40390866.155 6 170907168.20406      -352.673 6        39.625
C25        55.000                                                                                                                                    26269304.871 6 136791368.36406     -3622.443 6        39.607                                                                    26269304.672 6 111154276.71206     -2943.550 6        39.273
I09        56.000    38501466.230 7 151088044.35207       382.634 7        42.478
C02        57.000                                                                                                                                    40496704.214 5 210877002.22305      -387.594 5        34.805    40496696.592 6 163063466.80906      -299.718 6        38.871    40496699.918 5 171354839.76605      -315.089 5        35.419
I03        58.000    81064023.311 6 242327388.12106      1092.463 6        40.224
E30        59.000    24319617.275 8 127800671.04908     -1634.598 8        48.063                                                                    24319616.737 8  95435686.14108     -1220.687 8        49.550    24319616.363 8  97925295.98108     -1252.518 8        50.696
R20        60.000    19506002.920 6 104307572.03706      -288.991 6        40.377                                                                    19506004.737 7  81128180.78207      -224.867 7        47.764
> 2025 01 02 20 00 20.0000000  0 60
G23         1.000    20910745.621 7 109886792.06407     -1412.351 7        46.557                                    20910741.743 6  85626094.93906     -1100.536 6        38.282    20910741.818 7  85626092.94107     -1100.474 7        46.846
C37         2.000                                                                                                                                    25171654.866 7 131075407.98307       -88.644 7        43.077                                                                    25171659.134 7 106509526.03607       -71.952 7        44.202
G16         3.000    21526910.661 7 113124885.10207     -3044.403 7        47.334                                    21526905.901 6  88149345.82606     -2372.260 6        36.571
G21         4.000    23753425.745 6 124825129.40306      2545.855 6        36.771                                    23753422.143 2  97266333.08902      1983.806 2        17.623
S21         5.000    38360102.822 7 201583387.10807      -449.037 7        42.116
G26         6.000    23663812.582 6 124354400.55806     -4014.504 6        40.553                                    23663812.207 6  96899662.02906     -3128.183 6        36.461    23663812.037 6  96899649.03006     -3128.149 6        39.186
G10         7.000    21178238.967 8 111292460.82208      1380.962 8        50.697                                    21178236.936 8  86721414.00708      1076.072 8        51.171    21178237.047 7  86721408.00607      1076.059 7        44.480
E15         8.000    25602579.900 7 134542564.15707      1670.920 7        43.045                                                                    25602580.815 7 100470162.01407      1247.807 7        45.857    25602580.487 7 103091110.93307      1280.351 7        47.007
E36         9.000    25355020.692 7 133241721.47707     -2579.427 7        44.453                                                                    25355021.185 7  99498830.67907     -1926.169 7        46.604    25355020.983 7 102094439.72507     -1976.419 7        47.792
G27        10.000    20093568.289 8 105592564.58308       354.954 8        50.468                                    20093566.229 8  82279990.78708       276.585 8        53.248    20093566.794 7  82279992.78507       276.630 7        46.181
G15        11.000    23667105.326 6 124371499.50706     -1274.795 6        40.153                                    23667101.925 5  96912849.03505      -993.346 5        32.096    23667102.525 5  96912852.04205      -992.940 5        35.729
G13        12.000    25009299.475 5 131424744.87405     -1787.041 5        31.985                                    25009297.587 1 102408877.43601     -1392.472 1         9.143
C23        13.000                                                                                                                                    24678107.956 7 128505431.71307     -2588.807 7        44.503                                                                    24678099.939 7 104421180.96407     -2103.552 7        45.243
S36        14.000    38129516.035 7 200372495.44107      -448.266 7        44.113
C13        15.000                                                                                                                                    38286936.469 7 199370182.15107     -1358.336 7        42.663    38286937.913 7 154165705.32707     -1050.230 7        44.001    38286936.074 7 162004626.54307     -1103.611 7        42.042
G18        16.000    23074164.395 7 121255774.72707     -3339.392 7        44.023                                    23074160.760 5  94485115.11705     -2602.126 5        30.611    23074160.549 7  94485123.12307     -2602.165 7        42.286
R10        17.000    21466569.328 7 114428924.20907     -3740.342 7        43.977
E27        18.000    25652241.664 7 134803455.91207      1174.440 7        43.390                                                                    25652242.266 7 100664921.25707       877.071 7        46.236    25652241.718 7 103290960.06007       899.904 7        47.026
E02        19.000    26379869.029 6 138627324.01206     -3569.766 6        41.118                                                                    26379868.686 7 103520510.95807     -2665.824 7        44.722    26379868.096 7 106221031.46807     -2735.422 7        45.279
E05        20.000    26502036.852 6 139269148.20806      2333.959 6        36.355                                                                    26502038.013 6 103999687.93206      1742.917 6        41.125    26502037.223 6 106712726.00806      1788.338 6        41.650
R11        21.000    21054878.888 8 112510909.14308        68.149 8        48.874                                                                    21054877.674 7  87508488.15007        53.010 7        46.029
I06        22.000    38559115.436 6 151314472.64606      -265.367 6        41.442
S28        23.000    40826118.008 5 214542688.31205      -441.505 5        34.048
E04        24.000    28139294.564 6 147872972.18506     -1233.769 6        36.238                                                                    28139294.793 6 110424620.25106      -921.399 6        40.961    28139294.116 6 113305258.63906      -945.314 6        41.070
S23        25.000    38086705.436 7 200146945.82407      -449.102 7        44.629
S45        26.000    63341722.666 6 332863825.13006      -498.175 6        37.928
R09        27.000    23898996.115 7 127619467.61407     -4911.057 7        42.982                                                                    23898997.830 6  99259686.29906     -3819.626 6        40.443
S27        28.000    39095481.655 5 205448151.80705      -417.226 5        35.938
C38        29.000                                                                                                                                    40210545.114 6 209386981.50206     -1706.005 6        39.730                                                                    40210543.461 6 170144118.75606     -1386.120 6        39.300
C44        30.000                                                                                                                                    26802660.680 5 139568687.95405     -3286.868 5        31.758                                                                    26802660.142 5 113411072.05905     -2670.571 5        32.317
C43        31.000                                                                                                                                    21580738.804 8 112376675.42208       267.490 8        51.291                                                                    21580737.444 8  91315296.07108       217.423 8        49.450
C42        32.000                                                                                                                                    23994488.852 7 124945609.83007      2346.034 7        45.481                                                                    23994496.158 7 101528582.89307      1906.442 7        46.861
I02        33.000    39946793.290 6 156759847.73506      -998.651 6        39.532
R03        34.000    23160362.801 7 123979274.20507     -3440.463 7        43.268                                                                    23160362.854 6  96428326.14106     -2675.782 6        40.505
E34        35.000    23220884.182 8 122026775.89808      -422.351 8        48.747                                                                    23220883.917 8  91124001.82708      -315.394 8        50.604    23220883.893 8  93501138.49908      -323.628 8        51.651
G30        36.000    25683299.227 5 134966653.02705        71.601 5        34.886                                    25683297.563 4 105168827.58204        55.795 4        25.955    25683298.646 5 105168820.59905        55.642 5        32.449
R21        37.000    22037624.202 8 117927815.71508      2436.732 8        48.191                                                                    22037623.824 6  91721651.51306      1895.199 6        41.120
C22        38.000                                                                                                                                    25800821.588 6 134351675.73806     -2867.843 6        40.548                                                                    25800815.718 6 109171725.40306     -2330.179 6        40.019
R05        39.000    21753391.597 7 116284356.05807      3203.174 7        46.585                                                                    21753390.489 7  90443394.82207      2491.399 7        44.263
C12        40.000                                                                                                                                    24824335.873 6 129267025.01506     -2991.287 6        41.259    24824332.685 7  99957557.91307     -2313.144 7        46.313    24824331.841 7 105040117.82407     -2430.677 7        43.945
R04        41.000    20933291.368 8 112096855.72708      -143.891 8        49.421                                                                    20933290.508 7  87186450.43507      -111.812 7        44.615
S44        42.000    40391298.744 6 212257886.50906      -438.108 6        38.018
G08        43.000    21846210.454 7 114802694.47007      2234.531 7        44.924                                    21846209.386 7  89456683.41407      1741.194 7        43.202    21846209.942 6  89456681.41706      1741.228 6        41.888
C05        44.000                                                                                                                                    39159658.952 6 203914657.12206      -381.746 6        37.452    39159655.198 7 157679770.81307      -295.305 7        42.961    39159657.308 6 165697464.69706      -310.181 6        40.148
C11        45.000                                                                                                                                    21579981.450 8 112372773.16308      -969.281 8        49.089    21579977.972 8  86893817.14208      -749.516 8        52.318    21579977.060 8  91312122.93308      -787.549 8        49.251
E09        46.000    27302509.003 6 143475669.06306       952.517 6        39.907                                                                    27302509.315 7 107140931.80807       711.339 7        42.006    27302509.075 7 109935909.81307       729.890 7        43.731
G07        47.000    25145489.398 6 132140433.21706     -1212.155 6        38.787                                    25145487.087 4 102966553.11704      -944.533 4        28.739    25145486.701 5 102966561.11305      -944.578 5        34.305
C21        48.000                                                                                                                                    23576719.810 7 122770196.77707      -257.256 7        47.663                                                                    23576714.691 8  99760828.97808      -208.909 8        48.055
E06        49.000    27438783.670 6 144191799.99106       -94.772 6        38.300                                                                    27438783.762 6 107675699.40106       -70.852 6        40.255    27438784.038 6 110484627.92406       -72.612 6        41.871
R19        50.000    22278647.981 6 119175996.92606     -3452.147 6        37.735                                                                    22278646.998 6  92692553.67406     -2684.759 6        40.479
S48        51.000    77102742.356 6 405178101.39106      -485.664 6        37.546
C08        52.000                                                                                                                                    38737604.699 6 201716978.33206     -1603.933 6        38.538    38737599.015 7 155980392.74807     -1240.259 7        43.164    38737598.266 6 163911586.25606     -1303.219 6        40.291
C34        53.000                                                                                                                                    22369997.340 8 116486728.69508     -2177.756 8        48.915                                                                    22369997.420 8  94655125.33308     -1769.483 8        48.668
C60        54.000                                                                                                                                    40391298.756 6 210328288.74106      -433.982 6        39.925                                                                    40391282.955 6 170908931.68806      -352.649 6        39.604
C25        55.000                                                                                                                                    26272782.968 6 136809480.04606     -3622.081 6        39.769                                                                    26272782.776 6 111168993.90506     -2943.217 6        39.063
I09        56.000    38500978.953 7 151086131.68107       382.385 7        42.243
C02        57.000                                                                                                                                    40497076.378 5 210878940.77205      -387.607 5        34.643    40497068.939 6 163064965.82706      -299.786 6        38.811    40497072.279 5 171356415.01505      -315.145 5        35.152
I03        58.000    81062631.541 6 242321926.05806      1092.423 6        40.241
E30        59.000    24321173.621 8 127808850.02608     -1636.906 8        48.097                                                                    24321173.143 8  95441793.81508     -1222.411 8        49.757    24321172.737 8  97931562.98108     -1254.230 8        50.634
R20        60.000    19506274.125 6 104309022.94106      -291.192 6        40.088                                                                    19506276.435 8  81129309.26608      -226.391 8        48.005
> 2025 01 02 20 00 25.0000000  0 60
G23         1.000    20912090.766 7 109893861.47007     -1415.674 7        46.489                                    20912087.009 6  85631603.56706     -1103.120 6        38.252    20912086.937 7  85631601.57007     -1103.108 7        46.799
C37         2.000                                                                                                                                    25171741.297 7 131075858.04507       -91.627 7        43.204                                                                    25171745.537 7 106509891.74007       -74.318 7        44.266
G16         3.000    21529808.559 7 113140112.97407     -3047.019 7        47.360                                    21529803.643 6  88161211.69706     -2374.300 6        36.556
G21         4.000    23751003.822 6 124812402.12106      2544.825 6        36.510                                    23751000.254 2  97256415.74602      1982.967 2        16.868
S21         5.000    38360531.875 7 201585632.46407      -449.285 7        42.279
G26         6.000    23667632.672 6 124374474.69906     -4015.335 6        40.415                                    23667632.117 6  96915304.21406     -3128.827 6        36.268    23667632.577 6  96915291.21706     -3128.905 6        39.372
G10         7.000    21176926.387 8 111285562.41508      1378.136 8        50.552                                    21176924.202 8  86716038.62708      1073.871 8        51.200    21176924.186 7  86716032.64007      1073.832 7        44.903
E15         8.000    25600990.450 7 134534211.73707      1669.858 7        43.109                                                                    25600991.458 7 100463924.82307      1247.073 7        45.989    25600990.987 7 103084711.03207      1279.528 7        47.054
E36         9.000    25357475.198 7 133254619.79907     -2580.112 7        44.417                                                                    25357475.659 7  99508462.55607     -1926.680 7        46.493    25357475.466 7 102104322.86807     -1976.948 7        47.737
G27        10.000    20093231.521 8 105590796.00608       352.241 8        50.162                                    20093229.686 8  82278612.67708       274.475 8        53.297    20093229.969 7  82278614.68307       274.418 7        46.159
G15        11.000    23668320.231 6 124377881.61806     -1278.295 6        40.269                                    23668316.409 5  96917822.10805      -996.074 5        32.263    23668316.727 5  96917825.11105      -996.337 5        35.586
G13        12.000    25011001.328 5 131433686.70205     -1790.020 5        32.132                                    25010999.164 1 102415845.13401     -1394.816 1         8.095
C23        13.000                                                                                                                                    24680594.461 7 128518380.05007     -2590.775 7        44.024                                                                    24680586.425 7 104431702.52007     -2105.187 7        45.356
S36        14.000    38129942.627 7 200374736.69207      -448.640 7        44.062
C13        15.000                                                                                                                                    38288240.454 7 199376974.38707     -1358.815 7        42.627    38288242.279 7 154170957.52607     -1050.681 7        44.138    38288240.415 7 162010145.78207     -1104.051 7        42.159
G18        16.000    23077341.573 7 121272473.65907     -3340.428 7        44.038                                    23077338.465 5  94498127.26805     -2602.928 5        30.808    23077338.044 7  94498135.26807     -2602.850 7        42.190
R10        17.000    21470079.975 7 114447633.08307     -3743.345 7        44.321
E27        18.000    25651125.156 7 134797588.31207      1172.359 7        43.295                                                                    25651125.744 7 100660539.62107       875.452 7        46.357    25651125.192 7 103286464.11607       898.278 7        47.009
E02        19.000    26383265.935 6 138645175.20606     -3570.851 6        40.975                                                                    26383265.560 7 103533841.38707     -2666.525 7        44.862    26383265.103 7 106234709.63807     -2735.979 7        45.222
E05        20.000    26499816.039 6 139257479.55406      2333.409 6        36.507                                                                    26499817.548 6 103990974.32606      1742.536 6        41.428    26499816.835 6 106703785.08706      1788.025 6        41.874
R11        21.000    21054817.156 8 112510580.06008        63.161 8        49.194                                                                    21054815.776 7  87508232.19207        49.230 7        45.698
I06        22.000    38559453.691 6 151315800.09906      -265.640 6        41.182
S28        23.000    40826538.170 5 214544895.25705      -441.273 5        33.958
E04        24.000    28140469.471 6 147879147.17106     -1236.224 6        36.015                                                                    28140469.958 6 110429231.45206      -923.274 6        40.870    28140469.128 6 113309990.13806      -947.481 6        41.161
S23        25.000    38087132.440 7 200149191.25907      -449.315 7        44.728
S45        26.000    63342146.267 6 332866316.57206      -498.419 6        37.917
R09        27.000    23903594.214 7 127644022.15007     -4910.904 7        42.995                                                                    23903596.453 6  99278784.23306     -3819.694 6        40.439
S27        28.000    39095879.213 5 205450238.32605      -417.304 5        35.838
C38        29.000                                                                                                                                    40212183.415 6 209395511.11306     -1706.100 6        39.592                                                                    40212181.307 6 170151049.75306     -1386.359 6        39.492
C44        30.000                                                                                                                                    26805816.828 5 139585122.35405     -3287.150 5        30.996                                                                    26805816.112 5 113424426.37505     -2670.979 5        31.962
C43        31.000                                                                                                                                    21580482.534 8 112375341.51708       265.879 8        51.197                                                                    21580481.320 8  91314212.15408       216.067 8        49.545
C42        32.000                                                                                                                                    23992236.543 7 124933883.23707      2344.321 7        46.080                                                                    23992244.216 7 101519054.07607      1904.981 7        47.046
I02        33.000    39948065.731 6 156764840.70706      -998.788 6        39.559
R03        34.000    23163577.439 7 123996483.90507     -3443.800 7        44.149                                                                    23163576.592 6  96441711.46506     -2678.397 6        40.029
E34        35.000    23221286.496 8 122028890.98408      -423.869 8        48.673                                                                    23221286.375 8  91125581.27808      -316.592 8        50.665    23221286.350 8  93502759.14708      -324.801 8        51.683
G30        36.000    25683232.408 5 134966302.48605        68.663 5        35.124                                    25683230.860 4 105168554.43504        53.505 4        25.880    25683231.348 5 105168547.48705        53.016 5        32.216
R21        37.000    22035347.498 7 117915634.15707      2435.651 7        47.573                                                                    22035347.169 6  91712176.96706      1894.379 6        40.923
C22        38.000                                                                                                                                    25803576.359 6 134366019.66206     -2870.096 6        40.677                                                                    25803570.276 6 109183381.00506     -2332.042 6        40.119
R05        39.000    21750395.593 7 116268346.10707      3200.573 7        47.155                                                                    21750396.119 7  90430942.66807      2489.259 7        44.290
C12        40.000                                                                                                                                    24827208.437 6 129281983.29206     -2992.179 6        41.104    24827205.322 7  99969124.59707     -2313.750 7        46.111    24827204.530 7 105052272.62907     -2431.310 7        44.107
R04        41.000    20933427.880 8 112097586.53608      -148.684 8        49.474                                                                    20933427.152 7  87187018.85507      -115.663 7        45.505
S44        42.000    40391716.054 6 212260076.53306      -438.089 6        38.159
G08        43.000    21844084.760 7 114791525.09807      2232.938 7        44.491                                    21844083.907 7  89447980.00907      1739.949 7        43.234    21844084.817 7  89447978.01307      1739.997 7        42.457
C05        44.000                                                                                                                                    39160025.688 6 203916565.75006      -382.228 6        37.233    39160021.723 7 157681246.66507      -295.314 7        43.024    39160023.981 6 165699015.57706      -310.301 6        40.250
C11        45.000                                                                                                                                    21580912.444 8 112377623.06508      -970.888 8        49.014    21580909.389 8  86897567.40108      -750.811 8        52.460    21580908.362 8  91316063.86308      -788.938 8        49.351
E09        46.000    27301603.859 6 143470911.48506       950.299 6        40.172                                                                    27301604.048 7 107137379.07407       709.682 7        42.089    27301603.845 7 109932264.39407       728.213 7        43.642
G07        47.000    25146644.229 6 132146500.48706     -1214.675 6        38.703                                    25146641.731 4 102971280.84804      -946.502 4        28.815    25146641.813 5 102971288.84005      -946.702 5        34.414
C21        48.000                                                                                                                                    23576968.380 7 122771490.18007      -260.380 7        47.358                                                                    23576963.072 8  99761879.96308      -211.500 8        48.122
E06        49.000    27438874.763 6 144192279.63706       -97.170 6        38.682                                                                    27438874.897 6 107676057.58006       -72.652 6        40.460    27438875.438 6 110484995.45606       -74.539 6        41.850
R19        50.000    22281875.539 6 119193258.13906     -3452.834 6        38.210                                                                    22281872.976 6  92705979.05406     -2685.520 6        40.346
S48        51.000    77103178.272 6 405180530.10506      -485.910 6        37.603
C08        52.000                                                                                                                                    38739145.275 6 201724998.95006     -1604.291 6        38.574    38739139.480 7 155986594.80007     -1240.665 7        43.238    38739138.496 6 163918103.65106     -1303.843 6        40.446
C34        53.000                                                                                                                                    22372089.411 8 116497620.54908     -2179.192 8        48.795                                                                    22372089.131 8  94663975.84508     -1770.689 8        48.779
C60        54.000                                                                                                                                    40391715.641 6 210330458.86506      -434.270 6        40.067                                                                    40391699.701 6 170910695.08106      -352.801 6        39.733
C25        55.000                                                                                                                                    26276260.550 6 136827589.53406     -3621.984 6        39.775                                                                    26276260.687 6 111183709.31506     -2943.069 6        38.949
I09        56.000    38500491.559 7 151084219.64407       382.165 7        42.250
C02        57.000                                                                                                                                    40497447.612 5 210880879.22305      -387.934 5        34.581    40497440.786 6 163066464.76606      -300.006 6        38.607    40497444.475 5 171357990.16105      -315.331 5        35.138
I03        58.000    81061239.562 6 242316463.96306      1092.278 6        40.327
E30        59.000    24322732.276 8 127817039.98108     -1639.324 8        48.056                                                                    24322731.663 8  95447909.69708     -1224.147 8        49.770    24322731.282 8  97937838.40608     -1256.024 8        50.683
R20        60.000    19506547.892 6 104310483.68306      -293.427 6        39.529                                                                    19506549.537 7  81130445.39407      -228.187 7        47.633
> 2025 01 02 20 00 30.0000000  0 60
G23         1.000    20913439.203 7 109900946.70207     -1418.695 7        46.900                                    20913435.261 6  85637124.52806     -1105.476 6        38.153    20913435.422 7  85637122.52707     -1105.478 7        46.941
C37         2.000                                                                                                                                    25171830.614 7 131076322.13707       -94.347 7        43.206                                                                    25171834.770 7 106510268.86407       -76.662 7        44.482
G16         3.000    21532708.732 7 113155353.30907     -3049.352 7        47.747                                    21532703.785 6  88173087.28206     -2376.118 6        36.412
G21         4.000    23748583.089 6 124799680.08506      2543.780 6        36.439                                    23748579.251 2  97246502.46602      1982.182 2        17.321
S21         5.000    38360961.709 7 201587878.37507      -449.425 7        42.277
G26         6.000    23671453.269 6 124394552.08906     -4015.851 6        41.411                                    23671452.694 6  96930948.92406     -3129.236 6        36.212    23671452.858 6  96930935.92306     -3129.301 6        39.829
G10         7.000    21175616.004 8 111278677.82908      1375.563 8        50.899                                    21175614.106 8  86710674.01508      1071.868 8        51.085    21175614.081 7  86710668.01607      1071.811 7        44.895
E15         8.000    25599401.899 7 134525863.92607      1668.985 7        42.897                                                                    25599402.903 7 100457691.08307      1246.312 7        45.968    25599402.440 7 103078314.66907      1278.864 7        47.106
E36         9.000    25359930.191 7 133267520.91807     -2580.635 7        44.367                                                                    25359930.657 7  99518096.49907     -1927.051 7        46.460    25359930.501 7 102114208.13407     -1977.298 7        47.791
G27        10.000    20092897.507 8 105589040.39008       349.740 8        50.318                                    20092895.602 8  82277244.66508       272.525 8        53.149    20092896.095 7  82277246.66607       272.565 7        46.130
G15        11.000    23669537.754 6 124384281.16806     -1281.767 6        40.431                                    23669534.193 5  96922808.77305      -998.785 5        32.060    23669534.359 5  96922811.76505      -998.650 5        35.400
G13        12.000    25012706.189 5 131442643.91605     -1793.022 5        31.887                                    25012703.675 1 102422824.73901     -1397.141 1         7.875
C23        13.000                                                                                                                                    24683082.453 7 128531337.71607     -2592.507 7        44.418                                                                    24683074.889 7 104442231.69007     -2106.697 7        45.523
S36        14.000    38130368.223 7 200376978.29207      -448.571 7        43.954
C13        15.000                                                                                                                                    38289545.410 7 199383768.54907     -1359.092 7        42.569    38289546.752 7 154176211.20007     -1050.967 7        44.044    38289545.299 7 162015666.60207     -1104.456 7        42.243
G18        16.000    23080519.894 7 121289176.43507     -3341.031 7        43.772                                    23080516.867 5  94511142.41405     -2603.398 5        30.672    23080516.817 7  94511150.41207     -2603.320 7        42.049
R10        17.000    21473591.879 7 114466356.03207     -3746.041 7        44.071
E27        18.000    25650010.696 7 134791730.76607      1170.465 7        43.105                                                                    25650011.122 7 100656165.47907       873.988 7        46.243    25650010.595 7 103281975.87007       896.825 7        47.154
E02        19.000    26386663.491 6 138663029.78906     -3571.365 6        40.956                                                                    26386663.167 7 103547174.34007     -2666.835 7        44.725    26386662.756 7 106248390.42007     -2736.446 7        45.317
E05        20.000    26497595.964 6 139245812.22806      2333.198 6        36.060                                                                    26497597.320 6 103982261.70706      1742.299 6        41.418    26497596.593 6 106694845.19506      1787.797 6        41.983
R11        21.000    21054760.076 8 112510274.27908        58.738 8        49.114                                                                    21054758.756 7  87507994.35407        45.681 7        45.943
I06        22.000    38559791.391 6 151317127.61306      -265.532 6        41.142
S28        23.000    40826952.636 5 214547102.43305      -441.353 5        33.641
E04        24.000    28141646.734 6 147885333.90406     -1238.655 6        36.268                                                                    28141647.181 6 110433851.41506      -925.000 6        41.435    28141646.422 6 113314730.61606      -949.123 6        41.664
S23        25.000    38087561.868 7 200151437.06507      -449.193 7        44.558
S45        26.000    63342576.048 6 332868808.19906      -498.353 6        37.747
R09        27.000    23908192.669 7 127668575.79707     -4910.762 7        42.624                                                                    23908194.387 6  99297881.45406     -3819.493 6        40.856
S27        28.000    39096273.387 5 205452325.34505      -417.238 5        35.571
C38        29.000                                                                                                                                    40213821.596 6 209404041.44306     -1706.274 6        39.538                                                                    40213819.475 6 170157981.32606     -1386.431 6        39.357
C44        30.000                                                                                                                                    26808973.898 5 139601557.52205     -3286.931 5        32.018                                                                    26808972.263 5 113437781.28605     -2671.040 5        32.569
C43        31.000                                                                                                                                    21580227.808 8 112374015.20408       264.445 8        51.353                                                                    21580226.570 8  91313134.41908       214.815 8        49.774
C42        32.000                                                                                                                                    23989985.501 7 124922164.82807      2342.762 7        45.866                                                                    23989993.740 7 101509531.90707      1903.689 7        47.034
I02        33.000    39949338.511 6 156769833.95206      -998.617 6        39.429
R03        34.000    23166795.885 7 124013709.23307     -3446.750 7        43.854                                                                    23166794.606 6  96455108.91706     -2680.681 6        39.889
E34        35.000    23221690.168 8 122031012.92608      -425.173 8        48.715                                                                    23221690.189 8  91127165.83308      -317.420 8        50.588    23221690.136 8  93504385.04608      -325.715 8        51.801
G30        36.000    25683168.380 5 134965966.03605        65.688 5        35.833                                    25683166.853 4 105168292.28004        51.183 4        26.132    25683167.502 5 105168285.30505        51.228 5        31.879
R21        37.000    22033072.320 7 117903457.19707      2434.830 7        47.677                                                                    22033071.369 6  91702706.00206      1893.761 6        41.247
C22        38.000                                                                                                                                    25806332.613 6 134380373.45406     -2871.674 6        40.217                                                                    25806326.919 6 109195044.63406     -2333.646 6        39.973
R05        39.000    21747402.770 7 116252348.04007      3198.302 7        46.935                                                                    21747403.520 7  90418499.71607      2487.553 7        44.363
C12        40.000                                                                                                                                    24830081.788 6 129296944.61406     -2992.580 6        41.197    24830078.260 7  99980693.62807     -2314.055 7        45.834    24830077.740 7 105064429.92407     -2431.782 7        44.158
R04        41.000    20933569.131 8 112098340.66108      -153.245 8        49.486                                                                    20933567.342 7  87187605.40907      -119.174 7        45.320
S44        42.000    40392133.990 6 212262267.02906      -438.283 6        37.970
G08        43.000    21841960.534 7 114780362.92607      2231.618 7        44.847                                    21841959.815 7  89439282.21507      1738.925 7        43.067    21841960.699 7  89439280.21107      1738.984 7        42.372
C05        44.000                                                                                                                                    39160392.298 6 203918474.66106      -381.729 6        37.391    39160388.441 7 157682722.77007      -295.317 7        42.876    39160390.543 6 165700566.73806      -310.242 6        40.424
C11        45.000                                                                                                                                    21581845.540 8 112382480.23608      -972.277 8        49.310    21581842.237 8  86901323.26908      -751.776 8        52.415    21581841.130 8  91320010.71308      -790.092 8        49.570
E09        46.000    27300700.615 6 143466164.23406       948.270 6        40.145                                                                    27300700.686 7 107133834.04007       708.236 7        42.114    27300700.427 7 109928626.89507       726.648 7        43.695
G07        47.000    25147801.506 6 132152580.26106     -1217.272 6        39.619                                    25147798.661 4 102976018.31804      -948.524 4        28.758    25147798.681 5 102976026.33005      -948.718 5        34.052
C21        48.000                                                                                                                                    23577219.760 7 122772798.71607      -263.288 7        47.458                                                                    23577214.386 8  99762943.26408      -214.026 8        48.279
E06        49.000    27438967.920 6 144192771.30906       -99.810 6        38.715                                                                    27438968.439 6 107676424.72306       -74.372 6        40.105    27438968.810 6 110485372.17406       -76.321 6        41.945
R19        50.000    22285101.706 6 119210522.91806     -3453.510 6        38.015                                                                    22285100.954 6  92719407.21906     -2685.994 6        40.246
S48        51.000    77103614.193 6 405182958.85506      -485.862 6        37.580
C08        52.000                                                                                                                                    38740685.973 6 201733021.28906     -1604.789 6        38.739    38740680.094 7 155992798.17907     -1240.822 7        43.179    38740679.246 6 163924622.46106     -1303.981 6        40.672
C34        53.000                                                                                                                                    22374182.025 8 116508518.68908     -2180.321 8        48.818                                                                    22374181.922 8  94672831.48208     -1771.768 8        48.859
C60        54.000                                                                                                                                    40392132.240 6 210332629.44106      -434.245 6        40.000                                                                    40392116.627 6 170912458.83606      -352.953 6        39.967
C25        55.000                                                                                                                                    26279737.770 6 136845697.34506     -3621.545 6        39.835                                                                    26279738.080 6 111198423.37006     -2942.814 6        39.240
I09        56.000    38500004.835 6 151082308.62506       382.131 6        41.964
C02        57.000                                                                                                                                    40497820.157 5 210882818.08605      -387.928 5        34.795    40497813.357 6 163067964.01006      -299.785 6        38.763    40497816.854 5 171359565.64505      -315.382 5        35.310
I03        58.000    81059847.888 6 242311002.26606      1092.324 6        40.131
E30        59.000    24324292.947 7 127825241.47507     -1641.480 7        47.920                                                                    24324292.358 8  95454034.18508     -1225.793 8        49.693    24324291.954 8  97944122.66908     -1257.756 8        50.713
R20        60.000    19506822.927 6 104311954.77706      -295.286 6        39.739                                                                    19506824.203 7  81131589.59007      -229.696 7        47.616
> 2025 01 02 20 00 35.0000000  0 60
G23         1.000    20914790.341 7 109908047.59707     -1421.901 7        46.993                                    20914786.559 6  85642657.69006     -1107.976 6        38.123    20914786.608 7  85642655.69207     -1107.923 7        46.660
C37         2.000                                                                                                                                    25171922.578 7 131076800.09207       -97.052 7        43.058                                                                    25171926.566 7 106510657.24307       -78.902 7        44.280
G16         3.000    21535611.362 7 113170605.93607     -3051.906 7        47.822                                    21535606.257 6  88184972.44006     -2378.108 6        36.420
G21         4.000    23746162.675 6 124786963.14506      2542.641 6        36.560                                    23746159.450 2  97236593.18402      1981.281 2        17.321
S21         5.000    38361383.956 6 201590124.54006      -449.403 6        41.988
G26         6.000    23675274.597 6 124414632.58706     -4016.476 6        41.771                                    23675273.950 6  96946596.06206     -3129.721 6        36.476    23675274.383 6  96946583.03906     -3129.525 6        39.892
G10         7.000    21174308.510 8 111271806.88108      1372.704 8        51.064                                    21174306.608 8  86705320.03208      1069.641 8        51.114    21174306.482 7  86705314.03007      1069.647 7        44.462
E15         8.000    25597813.704 7 134517520.57607      1668.066 7        42.808                                                                    25597815.164 7 100451460.65107      1245.688 7        46.029    25597814.795 7 103071921.71607      1278.073 7        47.302
E36         9.000    25362385.537 7 133280424.64407     -2581.146 7        44.134                                                                    25362386.207 7  99527732.39207     -1927.520 7        46.476    25362386.013 7 102124095.40207     -1977.767 7        47.877
G27        10.000    20092565.786 8 105587297.54608       347.152 8        50.313                                    20092563.951 8  82275886.60608       270.508 8        53.147    20092564.481 7  82275888.60507       270.521 7        46.270
G15        11.000    23670759.712 6 124390697.94906     -1285.217 6        40.327                                    23670755.183 5  96927808.86605     -1001.468 5        31.902    23670755.865 5  96927811.87305     -1001.497 5        35.852
G13        12.000    25014412.616 5 131451616.22205     -1796.284 5        32.491                                    25014410.977 1 102429816.11601     -1399.637 1         8.571
C23        13.000                                                                                                                                    24685573.074 7 128544304.54807     -2594.433 7        44.760                                                                    24685565.099 7 104452768.31407     -2108.108 7        45.315
S36        14.000    38130798.751 7 200379219.40307      -448.216 7        43.956
C13        15.000                                                                                                                                    38290850.441 7 199390564.46507     -1359.452 7        42.284    38290851.699 7 154181466.23407     -1051.201 7        43.987    38290850.391 7 162021188.84707     -1104.753 7        42.116
G18        16.000    23083698.803 7 121305882.85407     -3341.755 7        43.814                                    23083695.815 5  94524160.39805     -2603.965 5        30.445    23083695.945 7  94524168.39507     -2603.943 7        42.203
R10        17.000    21477106.671 7 114485092.88407     -3748.896 7        43.812
E27        18.000    25648898.024 7 134785883.12507      1168.444 7        43.041                                                                    25648898.366 7 100651798.73507       872.520 7        46.345    25648897.807 7 103277495.21207       895.224 7        47.322
E02        19.000    26390061.485 6 138680887.62006     -3571.918 6        41.075                                                                    26390061.355 7 103560509.73707     -2667.430 7        44.612    26390061.144 7 106262073.69307     -2736.993 7        45.533
E05        20.000    26495375.564 6 139234146.09106      2333.014 6        36.091                                                                    26495377.306 6 103973549.97306      1742.316 6        41.526    26495376.571 7 106685906.19207      1787.603 7        42.004
R11        21.000    21054707.447 8 112509991.57308        54.078 8        49.658                                                                    21054706.002 7  87507774.48807        42.089 7        45.812
I06        22.000    38560129.911 6 151318455.05606      -265.480 6        41.261
S28        23.000    40827373.903 5 214549309.42505      -441.569 5        33.401
E04        24.000    28142826.588 5 147891532.20505     -1241.093 5        35.881                                                                    28142826.726 6 110438480.01106      -926.726 6        41.471    28142825.852 6 113319479.95306      -950.823 6        41.924
S23        25.000    38087990.026 7 200153683.04407      -449.413 7        44.470
S45        26.000    63342998.089 6 332869699.87816      -498.415 6        37.618
R09        27.000    23912790.272 7 127693128.30607     -4910.563 7        42.639                                                                    23912793.040 6  99316977.77506     -3819.244 6        40.574
S27        28.000    39096671.352 5 205454412.16005      -417.622 5        35.419
C38        29.000                                                                                                                                    40215459.843 6 209412572.26006     -1706.414 6        39.333                                                                    40215457.547 6 170164913.32306     -1386.422 6        39.195
C44        30.000                                                                                                                                    26812129.020 5 139617993.32405     -3287.212 5        30.551                                                                    26812128.889 5 113451136.73505     -2670.831 5        31.917
C43        31.000                                                                                                                                    21579974.648 8 112372696.29908       262.893 8        51.286                                                                    21579973.329 8  91312062.71408       213.605 8        49.543
C42        32.000                                                                                                                                    23987736.218 7 124910454.44207      2341.156 7        45.378                                                                    23987744.690 7 101500016.26807      1902.374 7        46.863
I02        33.000    39950610.769 6 156774827.38706      -998.567 6        39.348
R03        34.000    23170015.731 7 124030949.81507     -3449.832 7        43.039                                                                    23170015.580 6  96468518.28506     -2683.437 6        39.862
E34        35.000    23222095.358 8 122033141.55708      -426.537 8        48.593                                                                    23222095.282 8  91128755.39608      -318.445 8        50.560    23222095.269 8  93506016.07808      -326.821 8        51.879
G30        36.000    25683106.263 5 134965643.47405        63.014 5        35.767                                    25683105.373 4 105168040.93304        49.104 4        25.805    25683106.819 5 105168033.94605        48.999 5        33.395
R21        37.000    22030797.679 8 117891284.68708      2433.905 8        48.108                                                                    22030797.179 6  91693238.50106      1893.031 6        41.049
C22        38.000                                                                                                                                    25809090.739 6 134394736.94106     -2873.757 6        39.937                                                                    25809085.094 6 109206716.16706     -2335.221 6        40.067
R05        39.000    21744412.506 7 116236361.68107      3195.974 7        47.713                                                                    21744412.683 7  90406065.88307      2485.719 7        44.665
C12        40.000                                                                                                                                    24832955.766 6 129311908.76406     -2993.197 6        40.868    24832952.263 7  99992264.84407     -2314.529 7        46.017    24832951.411 7 105076589.50907     -2432.163 7        43.937
R04        41.000    20933714.274 8 112099118.11208      -157.926 8        49.906                                                                    20933712.603 7  87188210.08507      -122.849 7        45.622
S44        42.000    40392548.259 6 212264457.76906      -438.619 6        37.883
G08        43.000    21839838.374 7 114769207.78707      2230.260 7        44.989                                    21839837.055 7  89430589.90307      1737.866 7        43.092    21839837.985 7  89430587.91007      1737.902 7        42.709
C05        44.000                                                                                                                                    39160758.913 6 203920383.77506      -382.005 6        37.399    39160754.734 7 157684199.00207      -295.373 7        42.787    39160757.166 6 165702118.04906      -310.385 6        40.164
C11        45.000                                                                                                                                    21582780.213 8 112387344.50008      -973.683 8        49.142    21582776.397 8  86905084.63108      -752.948 8        52.393    21582775.206 8  91323963.33008      -791.178 8        49.313
E09        46.000    27299799.143 6 143461427.13406       946.217 6        39.994                                                                    27299799.236 7 107130296.60107       706.611 7        42.097    27299798.921 7 109924997.16907       725.145 7        43.676
G07        47.000    25148960.912 6 132158672.32006     -1219.815 6        38.703                                    25148957.929 4 102980765.36604      -950.500 4        28.758    25148957.485 5 102980773.36805      -950.472 5        33.713
C21        48.000                                                                                                                                    23577474.162 7 122774122.21807      -266.335 7        47.449                                                                    23577468.463 8  99764018.72408      -216.402 8        48.055
E06        49.000    27439063.854 6 144193274.80006      -102.122 6        38.441                                                                    27439064.282 6 107676800.72106       -76.282 6        40.427    27439064.448 7 110485757.96107       -78.088 7        42.057
R19        50.000    22288328.234 6 119227791.21806     -3454.127 6        38.057                                                                    22288329.544 6  92732838.14506     -2686.626 6        40.560
S48        51.000    77104048.915 6 405185387.67606      -486.026 6        37.399
C08        52.000                                                                                                                                    38742226.856 6 201741045.03806     -1604.913 6        38.949    38742220.937 7 155999002.65607     -1241.120 7        43.225    38742220.111 6 163931142.42706     -1304.173 6        40.317
C34        53.000                                                                                                                                    22376276.090 8 116519422.92908     -2181.642 8        48.997                                                                    22376275.909 8  94681692.07508     -1772.718 8        48.693
C60        54.000                                                                                                                                    40392549.196 6 210334800.25106      -434.118 6        40.033                                                                    40392533.391 6 170914222.82906      -353.028 6        39.784
C25        55.000                                                                                                                                    26283215.189 6 136863803.29706     -3621.176 6        40.150                                                                    26283215.081 6 111213135.92406     -2942.432 6        38.979
I09        56.000    38499517.634 6 151080398.48306       381.786 6        41.807
C02        57.000                                                                                                                                    40498193.363 5 210884757.19605      -387.874 5        34.776    40498185.741 6 163069463.46606      -299.930 6        38.655    40498189.470 5 171361141.34505      -315.316 5        35.100
I03        58.000    81058456.212 6 242305540.78606      1092.299 6        40.107
E30        59.000    24325855.670 7 127833454.33107     -1643.812 7        47.877                                                                    24325855.227 8  95460167.15808     -1227.556 8        49.691    24325854.804 8  97950415.63108     -1259.567 8        50.852
R20        60.000    19507100.082 6 104313436.00406      -297.439 6        39.676                                                                    19507101.486 7  81132741.64407      -231.347 7        47.476
> 2025 01 02 20 00 40.0000000  0 60
G23         1.000    20916144.555 7 109915164.32507     -1424.905 7        47.127                                    20916140.843 6  85648203.19006     -1110.314 6        38.063    20916141.236 7  85648201.19507     -1110.322 7        46.736
C37         2.000                                                                                                                                    25172017.024 7 131077292.09507       -99.763 7        43.274                                                                    25172021.019 7 106511057.04407       -81.097 7        44.504
G16         3.000    21538515.853 8 113185871.03508     -3054.230 8        48.003                                    21538511.095 6  88196867.32406     -2379.919 6        36.340
G21         4.000    23743743.637 6 124774251.47606      2541.927 6        37.331                                    23743740.392 2  97226687.99202      1980.724 2        17.509
S21         5.000    38361813.562 7 201592370.96707      -449.273 7        42.004
G26         6.000    23679096.205 6 124434716.36406     -4017.057 6        41.354                                    23679095.940 6  96962245.75106     -3130.170 6        36.669    23679096.081 6  96962232.74706     -3130.149 6        39.820
G10         7.000    21173003.552 8 111264949.78008      1370.108 8        50.721                                    21173001.740 8  86699976.83808      1067.617 8        51.060    21173001.676 7  86699970.84007      1067.616 7        44.640
E15         8.000    25596227.228 7 134509181.85007      1667.323 7        42.694                                                                    25596228.364 7 100445233.69407      1245.095 7        46.126    25596228.025 7 103065532.30607      1277.580 7        47.264
E36         9.000    25364841.588 7 133293331.16307     -2581.609 7        44.030                                                                    25364842.246 7  99537370.37507     -1927.774 7        46.658    25364842.065 7 102133984.80707     -1977.975 7        47.790
G27        10.000    20092236.835 8 105585567.67408       344.721 8        50.177                                    20092234.772 8  82274538.65508       268.615 8        53.123    20092235.432 7  82274540.65307       268.629 7        46.524
G15        11.000    23671983.713 6 124397132.17906     -1288.645 6        40.319                                    23671979.437 5  96932822.55405     -1004.143 5        31.721    23671979.815 5  96932825.56905     -1004.019 5        35.490
G13        12.000    25016123.662 5 131460603.87005     -1799.117 5        31.328                                    25016121.260 1 102436819.43601     -1401.958 1         7.500
C23        13.000                                                                                                                                    24688065.004 7 128557280.74907     -2596.079 7        44.719                                                                    24688056.966 7 104463312.53407     -2109.502 7        45.535
S36        14.000    38131221.140 7 200381460.37607      -448.301 7        43.788
C13        15.000                                                                                                                                    38292155.646 7 199397362.39007     -1359.742 7        42.354    38292157.346 7 154186722.82907     -1051.433 7        44.062    38292155.783 7 162026712.72007     -1104.933 7        42.320
G18        16.000    23086879.156 7 121322593.11207     -3342.354 7        44.147                                    23086875.586 5  94537181.38205     -2604.433 5        30.355    23086875.861 7  94537189.38107     -2604.430 7        42.470
R10        17.000    21480624.282 7 114503844.00707     -3751.636 7        44.245
E27        18.000    25647787.188 7 134780045.57007      1166.518 7        42.870                                                                    25647787.468 7 100647439.52307       871.144 7        46.508    25647786.889 7 103273022.27507       893.902 7        47.271
E02        19.000    26393460.619 6 138698748.87806     -3572.494 6        40.927                                                                    26393460.227 7 103573847.68307     -2667.791 7        44.557    26393460.129 7 106275759.58207     -2737.396 7        45.508
E05        20.000    26493155.785 5 139222481.33205      2332.634 5        35.586                                                                    26493157.540 6 103964839.28206      1742.134 6        41.588    26493156.992 6 106676968.26306      1787.588 6        41.962
R11        21.000    21054658.516 8 112509732.15508        49.627 8        49.034                                                                    21054657.702 7  87507572.72307        38.576 7        46.129
I06        22.000    38560468.085 6 151319782.58706      -265.361 6        41.278
S28        23.000    40827793.887 5 214551517.03205      -441.286 5        33.383
E04        24.000    28144008.056 5 147897742.25205     -1243.233 5        35.986                                                                    28144008.457 6 110443117.36006      -928.276 6        41.330    28144007.717 6 113324238.28806      -952.487 6        41.576
S23        25.000    38088415.675 7 200155929.55407      -449.352 7        44.466
S45        26.000    63343425.925 6 332872191.86906      -498.537 6        37.614
R09        27.000    23917388.128 7 127717679.97407     -4910.215 7        42.578                                                                    23917390.293 6  99336073.48106     -3818.975 6        40.827
S27        28.000    39097066.738 5 205456499.55505      -417.184 5        35.576
C38        29.000                                                                                                                                    40217097.958 6 209421103.75906     -1706.173 6        39.357                                                                    40217095.895 6 170171845.87806     -1386.577 6        39.150
C44        30.000                                                                                                                                    26815284.135 4 139634430.03704     -3287.525 4        29.668                                                                    26815285.178 5 113464492.86905     -2670.979 5        32.054
C43        31.000                                                                                                                                    21579722.873 8 112371385.00308       261.540 8        51.506                                                                    21579721.493 8  91310997.17708       212.502 8        49.714
C42        32.000                                                                                                                                    23985489.168 7 124898752.26007      2339.638 7        45.145                                                                    23985497.384 7 101490507.29107      1901.128 7        47.021
I02        33.000    39951883.331 6 156779820.76506      -998.654 6        39.550
R03        34.000    23173239.649 7 124048206.23407     -3452.827 7        43.754                                                                    23173238.644 6  96481939.93206     -2685.629 6        39.727
E34        35.000    23222501.943 8 122035277.06508      -427.721 8        48.599                                                                    23222501.627 8  91130350.10108      -319.405 8        50.723    23222501.609 8  93507652.38108      -327.732 8        51.842
G30        36.000    25683046.514 6 134965335.03906        60.303 6        36.015                                    25683046.884 4 105167800.59204        46.993 4        26.216    25683048.027 5 105167793.59405        47.188 5        33.742
R21        37.000    22028524.010 8 117879116.73908      2433.162 8        48.223                                                                    22028523.164 6  91683774.56006      1892.433 6        40.884
C22        38.000                                                                                                                                    25811851.370 6 134409110.29706     -2875.544 6        40.117                                                                    25811845.272 6 109218395.69806     -2336.778 6        40.215
R05        39.000    21741425.103 7 116220387.29307      3193.759 7        47.421                                                                    21741424.259 7  90393641.36507      2483.981 7        44.814
C12        40.000                                                                                                                                    24835829.847 6 129326875.98106     -2993.667 6        40.589    24835826.722 7 100003838.43707     -2314.958 7        46.200    24835825.491 7 105088751.59607     -2432.702 7        44.024
R04        41.000    20933863.786 8 112099919.04608      -162.472 8        49.208                                                                    20933862.131 7  87188833.03307      -126.326 7        45.350
S44        42.000    40392967.201 6 212266648.97206      -438.264 6        37.709
G08        43.000    21837716.774 7 114758059.89807      2228.801 7        45.186                                    21837715.673 7  89421903.23907      1736.729 7        43.103    21837716.458 7  89421901.23307      1736.797 7        42.853
C05        44.000                                                                                                                                    39161125.242 6 203922293.19806      -381.934 6        37.633    39161121.568 7 157685675.50207      -295.238 7        42.827    39161123.924 6 165703669.62206      -310.285 6        40.200
C11        45.000                                                                                                                                    21583715.188 8 112392216.05308      -975.035 8        49.266    21583711.856 8  86908851.61808      -753.880 8        52.452    21583710.833 8  91327921.87208      -792.346 8        49.552
E09        46.000    27298898.908 6 143456700.39906       944.314 6        39.369                                                                    27298899.736 7 107126766.90307       705.270 7        42.267    27298899.485 7 109921375.38907       723.659 7        43.517
G07        47.000    25150121.929 6 132164776.82606     -1222.052 6        39.036                                    25150119.509 4 102985522.11904      -952.242 4        28.720    25150120.236 5 102985530.11505      -952.201 5        34.124
C21        48.000                                                                                                                                    23577731.290 7 122775460.86107      -269.223 7        47.843                                                                    23577725.574 8  99765106.48308      -218.781 8        48.188
E06        49.000    27439161.923 6 144193790.30806      -104.182 6        37.520                                                                    27439162.559 6 107677185.67506       -77.783 6        40.555    27439162.385 6 110486152.97406       -79.864 6        41.981
R19        50.000    22291557.768 6 119245063.01706     -3454.622 6        38.216                                                                    22291557.915 6  92746271.74606     -2686.882 6        40.625
S48        51.000    77104486.861 6 405187816.98606      -485.498 6        37.497
C08        52.000                                                                                                                                    38743768.644 6 201749070.50206     -1605.131 6        39.021    38743762.345 7 156005208.45707     -1241.189 7        43.348    38743761.216 6 163937663.78206     -1304.494 6        40.675
C34        53.000                                                                                                                                    22378371.660 8 116530333.46008     -2182.659 8        49.103                                                                    22378371.153 8  94690557.78308     -1773.701 8        48.800
C60        54.000                                                                                                                                    40392966.394 6 210336971.55306      -434.224 6        40.219                                                                    40392950.253 6 170915987.16906      -352.868 6        39.985
C25        55.000                                                                                                                                    26286692.052 6 136881907.58106     -3620.678 6        40.288                                                                    26286691.833 6 111227847.11206     -2941.950 6        39.276
I09        56.000    38499031.621 6 151078489.41006       381.747 6        41.747
C02        57.000                                                                                                                                    40498565.429 5 210886696.74005      -387.886 5        34.524    40498558.119 6 163070963.24906      -299.812 6        38.838    40498561.683 5 171362717.38505      -315.242 5        35.490
I03        58.000    81057064.380 6 242300079.72406      1092.058 6        40.038
E30        59.000    24327420.809 8 127841678.70208     -1646.005 8        48.020                                                                    24327420.263 8  95466308.72908     -1229.095 8        49.821    24327419.873 8  97956717.42108     -1261.155 8        50.760
R20        60.000    19507378.465 6 104314927.63306      -299.321 6        39.700                                                                    19507380.740 7  81133901.80707      -232.800 7        47.686
> 2025 01 02 20 00 45.0000000  0 60
G23         1.000    20917501.679 7 109922296.82907     -1428.044 7        47.313                                    20917498.137 6  85653760.98506     -1112.762 6        38.087    20917498.346 7  85653758.98907     -1112.736 7        46.852
C37         2.000                                                                                                                                    25172114.188 7 131077798.08307      -102.544 7        43.583                                                                    25172118.064 7 106511468.19807       -83.305 7        44.342
G16         3.000    21541423.170 8 113201148.51808     -3056.671 8        48.019                                    21541418.284 6  88208771.85406     -2381.823 6        36.352
G21         4.000    23741326.098 6 124761545.04806      2541.137 6        36.560                                    23741322.429 2  97216786.89202      1980.118 2        17.019
S21         5.000    38362239.261 6 201594617.67406      -449.297 6        41.847
G26         6.000    23682918.251 6 124454803.36306     -4017.741 6        40.918                                    23682918.524 6  96977897.95106     -3130.709 6        36.450    23682918.166 6  96977884.93206     -3130.541 6        39.222
G10         7.000    21171701.292 8 111258106.47208      1367.332 8        50.696                                    21171699.505 8  86694644.38808      1065.450 8        51.026    21171699.585 7  86694638.39807      1065.397 7        44.528
E15         8.000    25594641.376 7 134500847.71807      1666.418 7        43.335                                                                    25594642.397 7 100439010.15807      1244.413 7        46.061    25594642.074 7 103059146.41707      1276.896 7        47.152
E36         9.000    25367298.086 7 133306240.42307     -2582.046 7        44.203                                                                    25367298.873 7  99547010.39907     -1928.128 7        46.692    25367298.590 7 102143876.32007     -1978.482 7        47.805
G27        10.000    20091909.914 8 105583850.72108       342.160 8        50.207                                    20091908.049 8  82273200.77108       266.616 8        53.094    20091908.567 7  82273202.77507       266.591 7        46.673
G15        11.000    23673211.092 6 124403583.76506     -1292.021 6        40.477                                    23673207.036 5  96937849.76205     -1006.767 5        31.577    23673207.937 5  96937852.77805     -1006.934 5        35.010
G13        12.000    25017837.419 5 131469606.79605     -1802.280 5        32.713                                    25017834.531 1 102443834.80401     -1404.348 1         7.375
C23        13.000                                                                                                                                    24690558.525 7 128570266.22907     -2598.014 7        44.969                                                                    24690550.787 7 104473864.29807     -2110.966 7        45.320
S36        14.000    38131649.991 7 200383702.16207      -448.552 7        43.790
C13        15.000                                                                                                                                    38293461.361 7 199404162.25207     -1360.160 7        42.389    38293463.190 7 154191980.90207     -1051.697 7        43.763    38293461.650 7 162032238.16307     -1105.226 7        42.061
G18        16.000    23090059.607 7 121339307.15707     -3343.059 7        44.003                                    23090056.081 5  94550205.31305     -2604.980 5        30.128    23090056.586 7  94550213.30507     -2604.871 7        42.250
R10        17.000    21484144.324 7 114522609.26207     -3754.391 7        43.592
E27        18.000    25646678.018 7 134774218.06607      1164.574 7        43.302                                                                    25646678.538 7 100643087.80907       869.641 7        46.473    25646677.999 7 103268557.04107       892.284 7        47.085
E02        19.000    26396860.380 6 138716613.48906     -3573.192 6        41.020                                                                    26396859.822 7 103587188.14007     -2668.343 7        44.510    26396859.684 7 106289448.04607     -2737.918 7        45.506
E05        20.000    26490936.661 5 139210817.88105      2332.675 5        35.843                                                                    26490938.164 6 103956129.57506      1741.937 6        41.661    26490937.480 6 106668031.34406      1787.351 6        41.547
R11        21.000    21054613.965 8 112509496.03508        44.973 8        48.768                                                                    21054613.352 7  87507389.06707        35.008 7        46.210
I06        22.000    38560806.962 6 151321110.16506      -265.415 6        41.058
S28        23.000    40828217.260 5 214553724.58805      -441.240 5        33.527
E04        24.000    28145192.268 6 147903964.00406     -1245.213 6        36.113                                                                    28145192.383 6 110447763.50006      -929.957 6        41.566    28145191.720 6 113329005.62706      -954.313 6        41.895
S23        25.000    38088844.052 7 200158176.24707      -449.406 7        44.411
S45        26.000    63343849.714 6 332874684.03606      -498.488 6        37.656
R09        27.000    23921985.670 7 127742230.70207     -4910.023 7        42.555                                                                    23921987.703 6  99355168.42506     -3818.857 6        40.753
S27        28.000    39097466.791 5 205458587.11605      -417.466 5        35.562
C38        29.000                                                                                                                                    40218736.400 6 209429635.91506     -1706.586 6        39.679                                                                    40218734.455 6 170178778.94506     -1386.482 6        38.823
C44        30.000                                                                                                                                    26818441.205 4 139650867.45004     -3287.748 4        29.223                                                                    26818442.167 5 113477849.67505     -2671.292 5        32.228
C43        31.000                                                                                                                                    21579472.506 8 112370081.27108       260.075 8        51.579                                                                    21579471.138 8  91309937.79208       211.324 8        49.611
C42        32.000                                                                                                                                    23983243.893 7 124887058.25707      2337.992 7        45.452                                                                    23983251.866 7 101481004.95607      1899.895 7        46.942
I02        33.000    39953155.683 6 156784814.23406      -998.602 6        39.423
R03        34.000    23176467.138 7 124065478.17007     -3455.948 7        44.033                                                                    23176465.534 6  96495373.63606     -2687.957 6        39.760
E34        35.000    23222909.638 8 122037419.39808      -429.060 8        48.737                                                                    23222909.329 8  91131949.90308      -320.453 8        50.687    23222909.272 8  93509293.91608      -328.779 8        51.716
G30        36.000    25682991.235 5 134965040.61705        57.427 5        35.410                                    25682991.123 4 105167571.18004        44.746 4        25.820    25682991.475 5 105167564.20105        44.552 5        33.048
R21        37.000    22026250.527 7 117866953.37407      2432.294 7        47.645                                                                    22026249.953 6  91674314.17506      1891.802 6        40.582
C22        38.000                                                                                                                                    25814613.550 6 134423493.46906     -2877.602 6        40.367                                                                    25814607.662 6 109230083.19206     -2338.262 6        40.069
R05        39.000    21738437.852 7 116204424.73807      3191.328 7        46.484                                                                    21738438.105 7  90381226.04607      2482.116 7        44.575
C12        40.000                                                                                                                                    24838704.335 6 129341846.15506     -2994.211 6        40.589    24838701.646 7 100015414.32307     -2315.387 7        46.158    24838700.268 7 105100916.08507     -2433.100 7        43.774
R04        41.000    20934017.524 8 112100743.37608      -167.165 8        49.415                                                                    20934015.786 7  87189474.17707      -129.998 7        44.739
S44        42.000    40393381.684 6 212268840.58106      -438.292 6        37.652
G08        43.000    21835596.522 7 114746919.18107      2227.443 7        45.068                                    21835595.663 7  89413222.16807      1735.670 7        43.079    21835596.272 7  89413220.17207      1735.756 7        42.591
C05        44.000                                                                                                                                    39161492.241 6 203924202.93606      -381.952 6        37.807    39161488.429 7 157687152.23807      -295.317 7        42.912    39161490.638 6 165705221.44706      -310.288 6        40.365
C11        45.000                                                                                                                                    21584652.016 8 112397094.84508      -976.318 8        49.293    21584648.626 8  86912624.21608      -755.032 8        52.234    21584647.779 8  91331886.29208      -793.402 8        49.409
E09        46.000    27298001.521 6 143451983.97506       942.269 6        39.309                                                                    27298002.228 7 107123244.89607       703.660 7        42.127    27298001.935 7 109917761.50607       722.017 7        43.321
G07        47.000    25151285.814 6 132170893.79606     -1224.730 6        38.249                                    25151283.445 4 102990288.57704      -954.333 4        28.588    25151283.556 5 102990296.54205      -954.326 5        34.205
C21        48.000                                                                                                                                    23577991.269 7 122776814.61107      -272.212 7        47.603                                                                    23577985.535 8  99766206.52008      -221.186 8        48.096
E06        49.000    27439262.025 6 144194317.78706      -106.612 6        37.444                                                                    27439262.924 6 107677579.58206       -79.607 6        40.558    27439262.659 6 110486557.16406       -81.810 6        41.659
R19        50.000    22294787.747 6 119262338.17906     -3455.171 6        37.947                                                                    22294786.898 6  92759707.97506     -2687.610 6        40.162
S48        51.000    77104919.267 6 405190246.19806      -485.644 6        37.308
C08        52.000                                                                                                                                    38745310.584 6 201757097.60306     -1605.513 6        39.363    38745303.900 7 156011415.50207     -1241.421 7        43.285    38745302.806 6 163944186.43506     -1304.417 6        40.391
C34        53.000                                                                                                                                    22380468.151 8 116541250.25708     -2183.953 8        48.786                                                                    22380467.697 8  94699428.56208     -1774.645 8        48.689
C60        54.000                                                                                                                                    40393383.051 6 210339143.24306      -434.317 6        40.203                                                                    40393367.451 6 170917751.86006      -352.808 6        39.691
C25        55.000                                                                                                                                    26290168.181 6 136900010.10406     -3620.130 6        40.327                                                                    26290168.367 6 111242556.87006     -2941.631 6        39.057
I09        56.000    38498544.907 6 151076581.32906       381.600 6        41.683
C02        57.000                                                                                                                                    40498938.456 5 210888636.71505      -387.913 5        34.900    40498930.592 6 163072463.34306      -299.956 6        38.574    40498934.209 5 171364293.78605      -315.167 5        35.067
I03        58.000    81055672.849 6 242294618.97006      1092.198 6        40.086
E30        59.000    24328988.033 8 127849914.56108     -1648.238 8        48.391                                                                    24328987.566 8  95472458.89608     -1230.851 8        49.845    24328987.114 8  97963028.02008     -1262.921 8        50.671
R20        60.000    19507659.043 6 104316429.51506      -301.354 6        40.007                                                                    19507661.319 7  81135069.93207      -234.343 7        47.288
> 2025 01 02 20 00 50.0000000  0 60
G23         1.000    20918861.786 7 109929444.94707     -1431.276 7        47.142                                    20918858.382 6  85659330.94606     -1115.280 6        37.951    20918858.417 7  85659328.94107     -1115.243 7        46.843
C37         2.000                                                                                                                                    25172213.990 7 131078317.90107      -105.418 7        43.183                                                                    25172217.891 7 106511890.58907       -85.747 7        44.367
G16         3.000    21544332.613 7 113216438.20707     -3059.259 7        47.909                                    21544327.813 6  88220685.89506     -2383.835 6        36.204
G21         4.000    23738908.684 6 124748843.74206      2539.622 6        36.836                                    23738905.352 2  97206889.77502      1978.929 2        17.623
S21         5.000    38362668.157 6 201596864.44506      -449.454 6        41.912
G26         6.000    23686741.543 6 124474893.40106     -4018.393 6        40.861                                    23686741.484 6  96993552.51706     -3131.214 6        36.159    23686741.676 6  96993539.49806     -3131.096 6        38.556
G10         7.000    21170401.860 8 111251276.81108      1364.456 8        50.693                                    21170399.868 8  86689322.58008      1063.212 8        50.880    21170399.991 7  86689316.58507      1063.206 7        45.183
E15         8.000    25593056.400 7 134492518.00107      1665.394 7        43.386                                                                    25593057.261 7 100432789.91807      1243.628 7        46.023    25593056.994 7 103052763.90607      1276.181 7        47.044
E36         9.000    25369755.166 7 133319152.23707     -2582.609 7        44.029                                                                    25369755.955 7  99556652.35107     -1928.676 7        46.435    25369755.552 7 102153769.79107     -1978.978 7        47.715
G27        10.000    20091585.689 8 105582146.53908       339.473 8        50.313                                    20091583.744 8  82271872.84108       264.524 8        52.930    20091583.946 7  82271874.84307       264.499 7        46.658
G15        11.000    23674441.974 6 124410052.57506     -1295.462 6        40.608                                    23674437.957 5  96942890.39705     -1009.459 5        31.570    23674438.526 5  96942893.40505     -1009.737 5        35.124
G13        12.000    25019552.707 5 131478624.77805     -1805.195 5        33.545                                    25019550.534 1 102450861.84501     -1406.545 1         5.571
C23        13.000                                                                                                                                    24693054.320 7 128583260.81507     -2599.933 7        44.626                                                                    24693046.165 7 104484423.46107     -2112.698 7        45.339
S36        14.000    38132075.023 7 200385945.05407      -448.765 7        43.672
C13        15.000                                                                                                                                    38294767.613 7 199410963.79907     -1360.603 7        42.273    38294769.171 7 154197240.29407     -1052.036 7        43.553    38294767.814 7 162037764.97707     -1105.623 7        42.171
G18        16.000    23093240.803 7 121356024.81807     -3343.977 7        43.437                                    23093237.381 4  94563232.05404     -2605.694 4        29.810    23093237.789 7  94563240.05107     -2605.691 7        42.150
R10        17.000    21487666.466 7 114541388.14507     -3757.350 7        43.522
E27        18.000    25645571.024 7 134768400.42607      1162.448 7        43.295                                                                    25645571.431 7 100638743.46607       868.110 7        46.238    25645570.990 7 103264099.37307       890.717 7        47.136
E02        19.000    26400260.427 6 138734481.28406     -3573.897 6        41.759                                                                    26400259.987 7 103600530.96607     -2668.848 7        44.486    26400259.806 7 106303138.95307     -2738.430 7        45.655
E05        20.000    26488717.125 5 139199155.62405      2332.212 5        35.781                                                                    26488719.000 6 103947420.76106      1741.525 6        41.569    26488718.174 6 106659095.33306      1787.046 6        41.611
R11        21.000    21054574.558 8 112509282.95608        40.205 8        48.841                                                                    21054573.316 7  87507223.36207        31.215 7        46.188
I06        22.000    38561144.948 6 151322437.64406      -265.514 6        40.903
S28        23.000    40828633.340 5 214555932.14605      -441.629 5        33.725
E04        24.000    28146378.283 5 147910197.29805     -1247.749 5        35.624                                                                    28146378.463 6 110452418.22606      -931.943 6        40.808    28146377.791 6 113333781.77006      -956.129 6        41.523
S23        25.000    38089271.092 7 200160422.99207      -449.511 7        44.464
S45        26.000    63344275.332 6 332877176.22906      -498.549 6        37.501
R09        27.000    23926583.433 7 127766780.18107     -4909.857 7        42.764                                                                    23926584.777 6  99374262.40206     -3818.714 6        40.751
S27        28.000    39097865.566 5 205460674.82105      -417.451 5        35.638
C38        29.000                                                                                                                                    40220375.083 6 209438168.54106     -1706.688 6        39.586                                                                    40220372.907 6 170185712.42106     -1386.888 6        38.934
C44        30.000                                                                                                                                    26821598.913 4 139667305.49904     -3287.614 4        29.554                                                                    26821599.136 5 113491206.95505     -2671.565 5        32.168
C43        31.000                                                                                                                                    21579223.540 8 112368784.93208       258.469 8        51.508                                                                    21579222.214 8  91308884.41008       209.961 8        49.538
C42        32.000                                                                                                                                    23980999.793 7 124875372.23807      2336.367 7        45.278                                                                    23981007.738 7 101471509.11807      1898.451 7        47.102
I02        33.000    39954428.366 6 156789807.81406      -998.807 6        39.063
R03        34.000    23179696.481 7 124082765.20007     -3458.994 7        43.609                                                                    23179694.595 6  96508819.10506     -2690.496 6        39.709
E34        35.000    23223318.538 8 122039568.38608      -430.488 8        48.832                                                                    23223318.249 8  91133554.66108      -321.512 8        50.420    23223318.188 8  93510940.53908      -329.897 8        51.740
G30        36.000    25682938.677 6 134964760.09706        54.617 6        36.068                                    25682937.750 4 105167352.59904        42.558 4        25.955    25682937.948 5 105167345.60305        42.681 5        32.970
R21        37.000    22023978.218 8 117854794.42808      2431.327 8        48.416                                                                    22023978.072 6  91664857.21706      1890.962 6        41.566
C22        38.000                                                                                                                                    25817377.736 6 134437886.27406     -2879.628 6        40.491                                                                    25817371.550 6 109241778.52506     -2340.076 6        40.150
R05        39.000    21735454.069 7 116188474.12907      3188.873 7        46.502                                                                    21735454.423 7  90368820.02807      2480.224 7        44.620
C12        40.000                                                                                                                                    24841580.158 6 129356819.17006     -2995.139 6        40.770    24841576.732 7 100026992.39907     -2315.951 7        46.100    24841575.786 7 105113082.87907     -2433.700 7        43.975
R04        41.000    20934175.758 8 112101591.02908      -171.908 8        49.205                                                                    20934174.381 7  87190133.46607      -133.722 7        44.555
S44        42.000    40393801.851 6 212271032.44906      -438.615 6        37.595
G08        43.000    21833478.105 7 114735785.51907      2225.920 7        45.299                                    21833476.991 7  89404546.59107      1734.485 7        42.933    21833477.458 7  89404544.58507      1734.557 7        42.576
C05        44.000                                                                                                                                    39161859.053 6 203926112.81806      -381.971 6        37.497    39161855.174 7 157688629.07207      -295.482 7        42.741    39161857.364 6 165706773.36606      -310.416 6        40.415
C11        45.000                                                                                                                                    21585590.826 8 112401980.70908      -977.967 8        49.319    21585586.853 8  86916402.27308      -756.275 8        52.209    21585586.010 8  91335856.45308      -794.706 8        49.510
E09        46.000    27297106.263 6 143447277.67706       940.193 6        39.204                                                                    27297106.652 6 107119730.46606       702.000 6        41.826    27297106.503 7 109914155.39707       720.290 7        43.137
G07        47.000    25152452.559 6 132177022.95306     -1227.254 6        38.631                                    25152449.801 4 102995064.52804      -956.296 4        28.531    25152451.134 5 102995072.51005      -956.221 5        35.367
C21        48.000                                                                                                                                    23578253.988 7 122778183.29007      -275.315 7        47.655                                                                    23578248.448 8  99767318.67808      -223.728 8        48.117
E06        49.000    27439365.389 6 144194857.08206      -109.096 6        38.042                                                                    27439365.620 6 107677982.30906       -81.491 6        40.565    27439365.077 6 110486970.37906       -83.525 6        41.442
R19        50.000    22298016.934 6 119279616.68706     -3456.113 6        37.274                                                                    22298017.610 6  92773146.82006     -2688.150 6        40.272
S48        51.000    77105356.180 6 405192675.37106      -485.872 6        37.395
C08        52.000                                                                                                                                    38746852.536 6 201765126.09306     -1605.961 6        39.592    38746845.592 7 156017623.65907     -1241.929 7        43.189    38746844.545 6 163950710.24106     -1304.912 6        40.579
C34        53.000                                                                                                                                    22382565.556 8 116552173.10808     -2185.263 8        48.613                                                                    22382565.334 8  94708304.26508     -1775.712 8        48.748
C60        54.000                                                                                                                                    40393800.137 6 210341315.17806      -434.467 6        40.265                                                                    40393784.622 6 170919516.73606      -353.148 6        39.781
C25        55.000                                                                                                                                    26293644.458 6 136918110.71006     -3620.060 6        40.331                                                                    26293644.357 6 111257265.08506     -2941.660 6        39.153
I09        56.000    38498059.488 6 151074674.12506       381.217 6        41.497
C02        57.000                                                                                                                                    40499310.844 5 210890576.92605      -388.018 5        34.557    40499303.606 6 163073963.65506      -300.111 6        38.793    40499306.785 5 171365870.37505      -315.530 5        35.148
I03        58.000    81054281.187 6 242289158.45306      1092.074 6        39.781
E30        59.000    24330557.445 8 127858161.74308     -1650.630 8        48.410                                                                    24330556.951 8  95478617.49908     -1232.648 8        49.585    24330556.449 8  97969347.28808     -1264.782 8        50.658
R20        60.000    19507942.254 6 104317941.43706      -303.516 6        39.423                                                                    19507944.073 7  81136245.88107      -236.075 7        47.408
> 2025 01 02 20 00 55.0000000  0 60
G23         1.000    20920225.307 7 109936608.80007     -1434.231 7        47.447                                    20920221.610 6  85664913.16806     -1117.581 6        37.970    20920221.715 7  85664911.16707     -1117.570 7        46.739
C37         2.000                                                                                                                                    25172316.214 7 131078851.69607      -108.062 7        43.170                                                                    25172320.403 7 106512324.33907       -87.792 7        44.221
G16         3.000    21547244.537 8 113231740.21208     -3061.506 8        48.024                                    21547239.720 6  88232609.53506     -2385.588 6        36.250
G21         4.000    23736493.461 6 124736147.79306      2538.674 6        36.250                                    23736489.356 2  97196996.86302      1978.173 2        17.811
S21         5.000    38363094.204 6 201599111.39006      -449.301 6        41.976
G26         6.000    23690565.387 6 124494986.59606     -4018.782 6        41.442                                    23690564.990 6  97009209.54606     -3131.518 6        36.076    23690565.206 6  97009196.53906     -3131.354 6        38.090
G10         7.000    21169104.848 8 111244460.92608      1361.911 8        50.815                                    21169102.856 8  86684011.50208      1061.227 8        50.913    21169102.710 7  86684005.50907      1061.239 7        44.941
E15         8.000    25591472.350 7 134484192.85307      1664.690 7        43.566                                                                    25591473.042 7 100426573.08507      1243.105 7        45.904    25591472.692 7 103046384.90307      1275.559 7        47.066
E36         9.000    25372212.500 7 133332066.76307     -2583.058 7        44.090                                                                    25372213.444 7  99566296.31107     -1928.951 7        46.430    25372213.089 7 102163665.33807     -1979.303 7        47.668
G27        10.000    20091264.027 8 105580455.27308       337.035 8        50.658                                    20091261.913 8  82270554.97108       262.624 8        52.975    20091262.361 7  82270556.97007       262.611 7        46.752
G15        11.000    23675676.405 6 124416538.77606     -1298.889 6        40.739                                    23675672.264 5  96947944.58505     -1012.120 5        31.774    23675673.178 5  96947947.57505     -1012.121 5        35.352
G13        12.000    25021271.694 5 131487657.96605     -1808.075 5        33.862                                    25021269.493 1 102457900.67601     -1408.857 1         7.750
C23        13.000                                                                                                                                    24695551.381 7 128596264.63007     -2601.536 7        44.965                                                                    24695543.423 7 104494990.12207     -2113.935 7        45.157
S36        14.000    38132502.694 7 200388188.52207      -448.614 7        43.888
C13        15.000                                                                                                                                    38296074.320 7 199417767.25507     -1360.804 7        42.298    38296075.639 7 154202501.15107     -1052.219 7        43.264    38296074.412 7 162043293.34107     -1105.589 7        42.074
G18        16.000    23096422.482 7 121372746.22907     -3344.590 7        43.579                                    23096419.424 4  94576261.71704     -2606.177 4        29.754    23096419.698 7  94576269.71107     -2606.148 7        42.100
R10        17.000    21491192.648 7 114560181.14107     -3759.847 7        44.102
E27        18.000    25644465.927 7 134762592.81707      1160.629 7        43.306                                                                    25644466.231 7 100634406.62307       866.700 7        46.326    25644465.839 7 103259649.38807       889.285 7        47.087
E02        19.000    26403660.951 6 138752352.39706     -3574.382 6        41.840                                                                    26403660.729 7 103613876.27707     -2669.258 7        44.602    26403660.583 7 106316832.40907     -2738.853 7        45.666
E05        20.000    26486498.410 5 139187494.72005      2332.112 5        35.657                                                                    26486499.989 6 103938712.93006      1741.583 6        41.604    26486499.245 6 106650160.35806      1786.935 6        41.437
R11        21.000    21054539.286 8 112509093.13708        35.692 8        49.086                                                                    21054538.192 7  87507075.71107        27.806 7        46.157
I06        22.000    38561483.084 6 151323765.17006      -265.393 6        40.925
S28        23.000    40829055.063 5 214558139.90505      -441.561 5        33.413
E04        24.000    28147566.635 6 147916442.28206     -1250.149 6        36.147                                                                    28147566.722 6 110457081.67506      -933.606 6        40.970    28147566.117 6 113338566.87706      -957.785 6        41.728
S23        25.000    38089698.610 7 200162669.96807      -449.530 7        44.414
S45        26.000    63344699.000 6 332879668.72406      -498.321 6        37.259
R09        27.000    23931180.498 7 127791328.66307     -4909.596 7        42.521                                                                    23931182.109 6  99393355.61306     -3818.528 6        40.529
S27        28.000    39098262.338 5 205462762.59905      -417.755 5        35.748
C38        29.000                                                                                                                                    40222013.744 6 209446701.77206     -1706.464 6        39.706                                                                    40222011.709 6 170192646.35806     -1386.668 6        38.547
C44        30.000                                                                                                                                    26824756.078 5 139683744.33805     -3287.732 5        30.030                                                                    26824755.936 5 113504564.85505     -2671.541 5        32.473
C43        31.000                                                                                                                                    21578976.054 8 112367496.12708       257.084 8        51.523                                                                    21578974.720 8  91307837.14608       208.959 8        49.457
C42        32.000                                                                                                                                    23978757.225 7 124863694.41907      2334.794 7        45.738                                                                    23978765.106 7 101462019.93407      1897.249 7        46.966
I02        33.000    39955700.543 6 156794801.29706      -998.683 6        39.261
R03        34.000    23182928.068 7 124100067.86107     -3462.049 7        43.096                                                                    23182926.632 6  96522276.75606     -2692.884 6        39.574
E34        35.000    23223728.685 8 122041724.17708      -431.788 8        48.808                                                                    23223728.510 8  91135164.50108      -322.422 8        50.502    23223728.429 8  93512592.37408      -330.827 8        51.700
G30        36.000    25682887.811 5 134964493.57605        51.987 5        34.533                                    25682886.827 4 105167144.91504        40.505 4        25.353    25682888.284 5 105167137.91805        40.342 5        32.599
R21        37.000    22021707.364 8 117842640.06908      2430.576 8        48.076                                                                    22021706.867 6  91655403.83606      1890.345 6        41.669
C22        38.000                                                                                                                                    25820143.737 6 134452288.84906     -2881.462 6        40.648                                                                    25820137.516 6 109253481.79306     -2341.385 6        40.472
R05        39.000    21732472.718 7 116172535.49107      3186.552 7        46.515                                                                    21732472.246 7  90356423.31107      2478.440 7        44.211
C12        40.000                                                                                                                                    24844456.462 6 129371795.12106     -2995.415 6        40.577    24844452.522 7 100038572.74507     -2316.204 7        45.899    24844451.929 7 105125252.06407     -2433.961 7        43.936
R04        41.000    20934338.304 8 112102462.05208      -176.409 8        49.153                                                                    20934336.903 7  87190810.93407      -137.201 7        44.659
S44        42.000    40394219.528 6 212273224.69406      -438.238 6        37.883
G08        43.000    21831360.953 7 114724659.03907      2224.675 7        45.154                                    21831359.700 7  89395876.60707      1733.512 7        43.010    21831360.297 7  89395874.61107      1733.496 7        42.861
C05        44.000                                                                                                                                    39162226.276 6 203928022.97906      -381.907 6        37.497    39162221.959 7 157690106.13307      -295.395 7        42.641    39162224.172 6 165708325.54406      -310.458 6        40.274
C11        45.000                                                                                                                                    21586530.256 8 112406873.77908      -979.223 8        49.308    21586526.591 8  86920185.90808      -757.240 8        52.141    21586525.680 8  91339832.47708      -795.644 8        49.278
E09        46.000    27296213.020 6 143442581.71606       938.288 6        39.228                                                                    27296213.141 6 107116223.74206       700.701 6        41.888    27296212.814 7 109910557.19307       718.922 7        43.086
G07        47.000    25153620.933 6 132183164.52406     -1229.477 6        38.255                                    25153618.460 4 102999850.15304      -958.033 4        28.540    25153619.054 5 102999858.14605      -958.107 5        34.552
C21        48.000                                                                                                                                    23578520.049 8 122779567.04108      -278.164 8        48.174                                                                    23578514.229 8  99768443.10108      -226.011 8        48.047
E06        49.000    27439470.099 6 144195408.35006      -111.337 6        37.943                                                                    27439470.669 6 107678393.95506       -83.221 6        40.513    27439469.896 6 110487392.76606       -85.247 6        41.108
R19        50.000    22301246.832 6 119296898.56106     -3456.420 6        36.786                                                                    22301247.756 6  92786588.28406     -2688.411 6        39.919
S48        51.000    77105792.566 6 405195105.01206      -485.757 6        37.357
C08        52.000                                                                                                                                    38748394.184 6 201773156.16406     -1606.030 6        39.748    38748387.618 7 156023833.01207     -1241.903 7        43.151    38748386.827 6 163957235.34006     -1305.082 6        40.312
C34        53.000                                                                                                                                    22384664.200 8 116563102.18708     -2186.372 8        48.522                                                                    22384664.141 8  94717185.03608     -1776.565 8        48.609
C60        54.000                                                                                                                                    40394217.670 6 210343487.50006      -434.374 6        40.298                                                                    40394201.731 6 170921281.92806      -353.056 6        39.661
C25        55.000                                                                                                                                    26297120.159 6 136936209.53006     -3619.372 6        40.281                                                                    26297120.174 6 111271971.84406     -2941.174 6        38.832
I09        56.000    38497573.387 6 151072767.91406       381.188 6        41.459
C02        57.000                                                                                                                                    40499683.705 5 210892517.47605      -387.987 5        34.486    40499676.191 6 163075464.20806      -300.129 6        38.495    40499679.589 5 171367447.22105      -315.309 5        35.248
I03        58.000    81052890.024 6 242283698.28806      1092.001 6        39.976
E30        59.000    24332128.873 8 127866420.38908     -1652.773 8        48.369                                                                    24332128.483 8  95484784.66708     -1234.182 8        49.620    24332128.048 8  97975675.33508     -1266.335 8        50.692
R20        60.000    19508227.074 6 104319463.65506      -305.310 6        39.535                                                                    19508228.857 7  81137429.82307      -237.535 7        47.725
> 2025 01 02 20 01  0.0000000  0 60
G23         1.000    20921591.454 7 109943788.16807     -1437.548 7        47.348                                    20921587.758 6  85670507.48006     -1120.166 6        37.894    20921587.847 7  85670505.48007     -1120.181 7        46.766
C37         2.000                                                                                                                                    25172421.613 7 131079399.22707      -110.953 7        43.253                                                                    25172425.551 7 106512769.25807       -90.227 7        43.966
G16         3.000    21550158.761 8 113247054.29908     -3064.154 8        48.120                                    21550153.952 6  88244542.58506     -2387.651 6        36.212
G21         4.000    23734078.096 6 124723456.86306      2537.670 6        36.170                                    23734074.398 2  97187107.81502      1977.415 2        17.283
S21         5.000    38363523.086 7 201601358.26907      -449.451 7        42.025
G26         6.000    23694389.896 6 124515082.70306     -4019.609 6        41.247                                    23694389.010 6  97024868.84806     -3132.162 6        36.083    23694390.011 6  97024855.83806     -3132.086 6        38.435
G10         7.000    21167810.408 8 111237658.60008      1358.988 8        50.880                                    21167808.429 8  86678710.98808      1058.953 8        50.934    21167808.040 7  86678704.99007      1058.952 7        45.087
E15         8.000    25589888.518 7 134475872.03207      1663.625 7        43.388                                                                    25589889.713 7 100420359.48807      1242.303 7        46.067    25589889.272 7 103040009.20407      1274.749 7        47.087
E36         9.000    25374670.456 7 133344983.76007     -2583.750 7        44.008                                                                    25374671.387 7  99575942.11107     -1929.442 7        46.588    25374671.159 7 102173562.76807     -1979.787 7        47.677
G27        10.000    20090944.523 8 105578776.68508       334.388 8        50.331                                    20090942.487 8  82269246.98108       260.562 8        52.986    20090942.722 7  82269248.98407       260.549 7        46.495
G15        11.000    23676913.870 6 124423042.05406     -1302.473 6        40.882                                    23676909.812 5  96953012.07705     -1014.928 5        31.713    23676910.531 5  96953015.07905     -1015.005 5        35.390
G13        12.000    25022993.912 5 131496706.21605     -1811.370 5        33.168                                    25022991.336 1 102464951.26001     -1411.441 1         8.286
C23        13.000                                                                                                                                    24698050.253 7 128609277.45407     -2603.599 7        44.935                                                                    24698042.434 7 104505564.11007     -2115.627 7        45.067
S36        14.000    38132930.159 7 200390431.72407      -448.714 7        43.898
C13        15.000                                                                                                                                    38297380.946 7 199424572.37807     -1361.294 7        42.516    38297382.850 7 154207763.30207     -1052.607 7        43.342    38297381.234 6 162048823.06806     -1106.180 6        41.928
G18        16.000    23099605.326 7 121389471.13407     -3345.384 7        43.638                                    23099602.155 4  94589294.10704     -2606.793 4        29.687    23099602.203 7  94589302.10807     -2606.921 7        42.360
R10        17.000    21494721.656 7 114578987.96507     -3762.914 7        44.074
E27        18.000    25643362.835 7 134756795.00707      1158.526 7        43.384                                                                    25643362.995 7 100630077.09007       865.109 7        46.398    25643362.463 7 103255206.90907       887.655 7        47.042
E02        19.000    26407062.193 6 138770226.61106     -3575.320 6        41.673                                                                    26407062.155 7 103627223.89007     -2669.782 7        44.906    26407062.000 7 106330528.22207     -2739.529 7        45.746
E05        20.000    26484279.171 5 139175834.89905      2331.604 5        34.810                                                                    26484281.242 6 103930005.92806      1741.203 6        41.738    26484280.556 6 106641226.20806      1786.538 6        41.423
R11        21.000    21054508.268 8 112508926.29908        30.953 8        49.013                                                                    21054506.639 7  87506945.94707        24.060 7        45.658
I06        22.000    38561821.258 6 151325092.54206      -265.509 6        40.799
S28        23.000    40829474.452 5 214560348.00205      -441.623 5        33.359
E04        24.000    28148757.084 5 147922698.69405     -1252.379 5        35.924                                                                    28148757.269 6 110461753.67906      -935.338 6        40.784    28148756.832 6 113343360.76506      -959.868 6        41.397
S23        25.000    38090126.451 7 200164916.96207      -449.476 7        44.548
S45        26.000    63345125.535 6 332882161.20106      -498.627 6        37.459
R09        27.000    23935777.950 7 127815875.84607     -4909.445 7        42.491                                                                    23935779.805 6  99412447.80706     -3818.555 6        40.319
S27        28.000    39098659.919 5 205464850.49005      -417.778 5        35.609
C38        29.000                                                                                                                                    40223652.538 6 209455235.39306     -1706.859 6        39.937                                                                    40223650.358 6 170199580.63506     -1387.154 6        38.468
C44        30.000                                                                                                                                    26827913.187 4 139700183.68204     -3288.008 4        29.507                                                                    26827912.909 5 113517923.15105     -2671.538 5        30.921
C43        31.000                                                                                                                                    21578729.765 8 112366214.62908       255.404 8        51.494                                                                    21578728.630 8  91306795.83608       207.478 8        49.247
C42        32.000                                                                                                                                    23976516.123 7 124852024.53107      2333.039 7        46.066                                                                    23976524.096 7 101452537.20307      1895.766 7        46.785
I02        33.000    39956973.292 6 156799794.82106      -998.970 6        39.003
R03        34.000    23186162.361 7 124117385.70607     -3465.143 7        42.645                                                                    23186162.622 6  96535746.17206     -2695.078 6        40.133
E34        35.000    23224140.093 8 122043886.51608      -433.251 8        48.809                                                                    23224139.965 8  91136779.23308      -323.508 8        50.634    23224139.944 8  93514249.22508      -331.906 8        51.616
G30        36.000    25682838.653 5 134964240.86305        49.060 5        35.767                                    25682838.829 4 105166948.01304        38.220 4        25.955    25682839.659 5 105166941.00605        38.258 5        33.198
R21        37.000    22019436.474 8 117830490.01108      2429.457 8        48.142                                                                    22019435.893 6  91645953.79106      1889.586 6        41.385
C22        38.000                                                                                                                                    25822911.646 6 134466700.94006     -2883.520 6        40.861                                                                    25822905.461 6 109265192.79506     -2343.087 6        40.541
R05        39.000    21729492.783 7 116156608.70307      3184.111 7        46.987                                                                    21729492.603 7  90344035.81407      2476.500 7        43.829
C12        40.000                                                                                                                                    24847331.857 6 129386773.79606     -2996.162 6        40.193    24847329.181 7 100050155.20107     -2316.773 7        45.843    24847328.502 7 105137423.45907     -2434.611 7        43.744
R04        41.000    20934505.648 8 112103356.26508      -181.271 8        49.210                                                                    20934504.284 7  87191506.43007      -141.048 7        44.299
S44        42.000    40394635.286 6 212275417.09806      -438.654 6        37.796
G08        43.000    21829244.711 7 114713539.52607      2223.110 7        45.195                                    21829243.701 7  89387212.05107      1732.292 7        43.001    21829244.380 7  89387210.06007      1732.211 7        42.701
C05        44.000                                                                                                                                    39162593.307 6 203929933.17506      -382.060 6        37.444    39162588.739 7 157691583.22007      -295.461 7        42.728    39162591.028 6 165709877.73806      -310.617 6        39.982
C11        45.000                                                                                                                                    21587471.030 8 112411773.82908      -980.838 8        49.226    21587467.825 8  86923974.92708      -758.426 8        52.309    21587466.655 8  91343814.17008      -797.042 8        49.074
E09        46.000    27295321.196 6 143437895.83206       936.067 6        39.213                                                                    27295321.566 7 107112724.55407       698.968 7        42.209    27295321.191 7 109906966.71807       717.195 7        43.234
G07        47.000    25154791.686 6 132189318.19506     -1231.927 6        40.031                                    25154789.439 4 103004645.21204      -959.940 4        28.682    25154789.103 5 103004653.23005      -959.925 5        34.314
C21        48.000                                                                                                                                    23578788.301 8 122780965.64708      -281.325 8        48.266                                                                    23578782.749 7  99769579.58407      -228.642 7        47.889
E06        49.000    27439577.119 6 144195971.34606      -113.972 6        38.102                                                                    27439577.740 6 107678814.36706       -85.086 6        40.837    27439576.961 6 110487824.16106       -87.242 6        41.094
R19        50.000    22304478.899 6 119314183.68006     -3457.402 6        36.639                                                                    22304478.904 6  92800032.26406     -2689.241 6        39.465
S48        51.000    77106228.554 6 405197534.69406      -486.292 6        37.353
C08        52.000                                                                                                                                    38749936.642 6 201781187.61606     -1606.492 6        40.000    38749930.102 7 156030043.43707     -1242.261 7        43.223    38749929.036 6 163963761.55006     -1305.422 6        40.167
C34        53.000                                                                                                                                    22386764.109 8 116574037.23508     -2187.778 8        48.798                                                                    22386764.127 8  94726070.65908     -1777.759 8        48.400
C60        54.000                                                                                                                                    40394634.757 6 210345659.96806      -434.531 6        40.045                                                                    40394618.938 6 170923047.23806      -353.178 6        39.592
C25        55.000                                                                                                                                    26300595.289 6 136954306.33806     -3619.291 6        40.374                                                                    26300595.438 6 111286676.95406     -2941.031 6        38.691
I09        56.000    38497087.746 6 151070862.49806       380.937 6        41.366
C02        57.000                                                                                                                                    40500055.905 5 210894458.19405      -388.277 5        34.652    40500048.802 6 163076964.88406      -300.282 6        38.598    40500052.209 5 171369024.19205      -315.668 5        34.562
I03        58.000    81051498.465 6 242278238.26806      1091.966 6        39.856
E30        59.000    24333702.718 8 127874690.23908     -1655.186 8        48.301                                                                    24333702.230 8  95490960.20508     -1236.032 8        49.760    24333701.736 8  97982011.97608     -1268.273 8        50.583
R20        60.000    19508513.732 6 104320995.86206      -307.749 6        39.790                                                                    19508515.591 7  81138621.51707      -239.232 7        47.706
> 2025 01 02 20 01  5.0000000  0 60
G23         1.000    20922960.525 7 109950983.13307     -1440.598 7        47.350                                    20922956.888 6  85676113.94506     -1122.544 6        38.018    20922957.096 7  85676111.94307     -1122.507 7        46.597
C37         2.000                                                                                                                                    25172529.628 7 131079960.59407      -113.616 7        42.991                                                                    25172533.327 7 106513225.40607       -92.265 7        43.911
G16         3.000    21553075.267 8 113262380.56208     -3066.408 8        48.048                                    21553070.497 6  88256485.12706     -2389.410 6        36.231
G21         4.000    23731664.811 6 124710770.97106      2536.832 6        36.964                                    23731660.344 2  97177222.73302      1976.757 2        17.698
S21         5.000    38363950.909 6 201603605.23706      -449.331 6        41.940
G26         6.000    23698214.146 6 124535181.84006     -4019.974 6        41.166                                    23698213.763 6  97040530.50106     -3132.445 6        36.246    23698214.288 6  97040517.50806     -3132.525 6        39.234
G10         7.000    21166518.681 8 111230869.95108      1356.340 8        51.030                                    21166516.608 8  86673421.13408      1056.887 8        51.018    21166516.605 7  86673415.13807      1056.854 7        45.105
E15         8.000    25588305.794 7 134467555.63407      1662.945 7        42.963                                                                    25588307.145 7 100414149.20407      1241.720 7        46.130    25588306.725 7 103033636.91507      1274.176 7        46.897
E36         9.000    25377129.156 7 133357903.32907     -2584.008 7        43.691                                                                    25377129.906 7  99585589.84207     -1929.718 7        46.582    25377129.734 7 102183462.17507     -1979.994 7        47.558
G27        10.000    20090627.329 8 105577110.89808       331.919 8        50.328                                    20090625.507 8  82267948.96808       258.638 8        53.060    20090625.708 7  82267950.97107       258.647 7        46.613
G15        11.000    23678154.644 6 124429562.53806     -1305.790 6        40.765                                    23678150.656 5  96958092.97705     -1017.501 5        32.012    23678151.854 6  96958095.99006     -1017.581 6        36.106
G13        12.000    25024717.568 5 131505769.47705     -1814.031 5        33.611                                    25024716.077 1 102472013.59101     -1413.558 1         8.571
C23        13.000                                                                                                                                    24700550.985 7 128622299.37107     -2605.313 7        44.682                                                                    24700543.170 7 104516145.48207     -2116.971 7        44.853
S36        14.000    38133356.734 7 200392675.19507      -448.688 7        43.945
C13        15.000                                                                                                                                    38298688.377 7 199431379.21507     -1361.655 7        42.552    38298690.020 7 154213026.78807     -1052.820 7        43.338    38298688.491 6 162054354.17006     -1106.314 6        41.716
G18        16.000    23102788.964 7 121406199.65907     -3346.094 7        43.651                                    23102785.539 5  94602329.31905     -2607.347 5        30.075    23102785.757 7  94602337.31307     -2607.254 7        42.652
R10        17.000    21498251.614 7 114597808.54507     -3765.430 7        43.687
E27        18.000    25642261.242 7 134751007.12207      1156.647 7        43.175                                                                    25642261.598 7 100625754.97107       863.724 7        46.510    25642261.095 7 103250772.04707       886.232 7        46.971
E02        19.000    26410464.242 6 138788103.98806     -3575.786 6        41.137                                                                    26410464.153 7 103640573.87607     -2670.200 7        45.109    26410463.877 7 106344226.46407     -2739.867 7        45.707
E05        20.000    26482060.653 5 139164176.28405      2331.747 5        34.605                                                                    26482062.654 6 103921299.85006      1741.067 6        41.807    26482061.968 6 106632293.01106      1786.525 6        41.306
R11        21.000    21054480.593 8 112508782.60508        26.424 8        48.670                                                                    21054480.201 7  87506834.19507        20.658 7        46.143
I06        22.000    38562159.754 6 151326419.83306      -265.508 6        40.806
S28        23.000    40829895.666 5 214562556.47905      -441.818 5        33.353
E04        24.000    28149949.574 5 147928966.64505     -1254.659 5        35.824                                                                    28149949.970 6 110466434.28306      -936.906 6        40.777    28149949.531 6 113348163.46706      -961.421 6        41.399
S23        25.000    38090553.160 7 200167164.21607      -449.352 7        44.545
S45        26.000    63345551.014 6 332884653.75406      -498.508 6        37.391
R09        27.000    23940374.767 7 127840421.90607     -4909.129 7        42.265                                                                    23940376.045 6  99431539.14606     -3818.220 6        40.119
S27        28.000    39099059.793 5 205466938.60705      -417.662 5        35.619
C38        29.000                                                                                                                                    40225291.701 6 209463769.49006     -1706.888 6        39.958                                                                    40225289.386 6 170206515.28706     -1386.829 6        38.030
C44        30.000                                                                                                                                    26831069.515 4 139716623.69204     -3288.316 4        28.834                                                                    26831070.000 5 113531282.01005     -2671.687 5        30.543
C43        31.000                                                                                                                                    21578485.159 8 112364940.54208       254.097 8        51.529                                                                    21578483.936 8  91305760.52808       206.533 8        49.139
C42        32.000                                                                                                                                    23974276.036 7 124840362.71707      2331.634 7        45.533                                                                    23974284.524 7 101443061.02507      1894.611 7        46.661
I02        33.000    39958245.849 6 156804788.38106      -998.709 6        39.084
R03        34.000    23189401.953 7 124134718.59207     -3468.075 7        43.327                                                                    23189400.501 6  96549227.28906     -2697.341 6        40.336
E34        35.000    23224552.948 8 122046055.51508      -434.400 8        48.548                                                                    23224552.727 8  91138398.94408      -324.414 8        50.666    23224552.685 8  93515911.19108      -332.855 8        51.543
G30        36.000    25682794.511 6 134964002.03106        46.562 6        36.722                                    25682793.415 4 105166761.93304        36.287 4        26.431    25682794.105 5 105166754.92205        36.252 5        33.754
R21        37.000    22017166.654 8 117818344.26608      2428.716 8        48.082                                                                    22017166.890 7  91636507.11407      1888.952 7        42.030
C22        38.000                                                                                                                                    25825681.331 6 134481122.65406     -2885.245 6        40.963                                                                    25825674.862 6 109276911.61706     -2344.458 6        40.572
R05        39.000    21726516.322 7 116140693.65307      3181.875 7        47.118                                                                    21726515.639 7  90331657.43107      2474.832 7        44.330
C12        40.000                                                                                                                                    24850208.211 6 129401755.28706     -2996.481 6        40.346    24850206.690 7 100061739.83307     -2317.057 7        46.074    24850205.566 7 105149597.14407     -2434.926 7        43.738
R04        41.000    20934676.788 8 112104273.77908      -185.748 8        48.825                                                                    20934675.704 7  87192220.07207      -144.552 7        44.621
S44        42.000    40395051.174 6 212277609.75306      -438.530 6        37.777
G08        43.000    21827130.047 7 114702427.07607      2221.824 7        44.838                                    21827129.062 7  89378553.00807      1731.292 7        43.079    21827129.984 7  89378551.01307      1731.307 7        42.582
C05        44.000                                                                                                                                    39162959.953 6 203931843.52406      -382.054 6        37.323    39162955.779 7 157693060.42407      -295.554 7        42.662    39162957.911 6 165711430.04306      -310.346 6        39.928
C11        45.000                                                                                                                                    21588413.183 8 112416680.96208      -982.109 8        49.259    21588410.229 8  86927769.44108      -759.421 8        52.335    21588409.010 8  91347801.61508      -797.970 8        49.025
E09        46.000    27294431.615 6 143433220.13206       934.068 6        39.129                                                                    27294431.728 7 107109232.95607       697.649 7        42.326    27294431.473 7 109903384.03707       715.713 7        43.422
G07        47.000    25155965.187 6 132195484.13406     -1234.317 6        40.234                                    25155962.770 4 103009449.83504      -961.803 4        28.796    25155962.744 5 103009457.83005      -962.051 5        34.090
C21        48.000                                                                                                                                    23579059.752 8 122782379.20308      -284.199 8        48.483                                                                    23579054.235 7  99770728.22107      -230.955 7        47.724
E06        49.000    27439686.644 6 144196546.17606      -116.128 6        37.996                                                                    27439687.054 6 107679243.62806       -86.703 6        40.994    27439686.313 6 110488264.61206       -88.977 6        41.159
R19        50.000    22307711.370 6 119331472.24606     -3458.111 6        37.009                                                                    22307711.683 6  92813478.91306     -2689.566 6        39.670
S48        51.000    77106662.391 6 405198364.59316      -486.038 6        37.142
C08        52.000                                                                                                                                    38751479.409 6 201789220.51006     -1606.573 6        40.002    38751472.526 7 156036254.99207     -1242.446 7        43.397    38751471.703 6 163970288.95806     -1305.584 6        40.224
C34        53.000                                                                                                                                    22388865.514 8 116584978.36808     -2188.798 8        49.401                                                                    22388865.262 8  94734961.23508     -1778.566 8        48.313
C60        54.000                                                                                                                                    40395052.062 6 210347832.68606      -434.527 6        40.014                                                                    40395036.220 6 170924812.74406      -353.083 6        39.405
C25        55.000                                                                                                                                    26304070.360 6 136972401.22606     -3618.675 6        40.369                                                                    26304070.579 6 111301380.50206     -2940.472 6        38.781
I09        56.000    38496602.527 6 151068957.98606       380.839 6        41.294
C02        57.000                                                                                                                                    40500429.094 5 210896399.09405      -388.278 5        34.662    40500421.552 6 163078465.71506      -300.265 6        38.709    40500425.111 5 171370601.36105      -315.588 5        34.748
I03        58.000    81050107.072 6 242272778.49606      1091.921 6        39.766
E30        59.000    24335278.595 7 127882971.42107     -1657.356 7        47.891                                                                    24335278.039 8  95497144.19808     -1237.621 8        49.794    24335277.594 8  97988357.29408     -1269.918 8        50.540
R20        60.000    19508801.979 6 104322538.15806      -309.425 6        40.040                                                                    19508803.541 7  81139821.10107      -240.672 7        47.688
> 2025 01 02 20 01 10.0000000  0 60
G23         1.000    20924332.630 7 109958193.79407     -1443.617 7        47.345                                    20924328.992 6  85681732.64106     -1124.893 6        38.012    20924329.138 7  85681730.64507     -1124.892 7        46.510
C37         2.000                                                                                                                                    25172640.270 7 131080535.92207      -116.360 7        43.012                                                                    25172643.846 7 106513692.89807       -94.479 7        43.833
G16         3.000    21555993.852 7 113277719.13207     -3068.854 7        47.680                                    21555989.344 6  88268437.25906     -2391.311 6        36.215
G21         4.000    23729251.706 6 124698090.39706      2535.602 6        36.733                                    23729247.318 2  97167341.78402      1975.804 2        17.811
S21         5.000    38364380.551 6 201605852.33106      -449.269 6        41.943
G26         6.000    23702039.544 6 124555284.07306     -4020.605 6        40.882                                    23702039.169 6  97056194.57706     -3132.941 6        36.302    23702039.835 6  97056181.58406     -3133.056 6        39.742
G10         7.000    21165229.338 8 111224095.07808      1353.665 8        51.002                                    21165227.395 8  86668142.01608      1054.804 8        51.036    21165227.260 7  86668136.01907      1054.876 7        44.980
E15         8.000    25586724.433 7 134459243.79607      1662.033 7        42.948                                                                    25586725.530 7 100407942.31407      1241.108 7        46.065    25586724.995 7 103027268.09707      1273.527 7        46.964
E36         9.000    25379588.334 7 133370825.58307     -2584.604 7        43.953                                                                    25379588.919 7  99595239.56807     -1930.104 7        46.516    25379588.825 7 102193363.64107     -1980.458 7        47.562
G27        10.000    20090312.930 8 105575458.00208       329.497 8        50.273                                    20090310.969 8  82266660.99808       256.752 8        53.067    20090311.518 7  82266663.00907       256.654 7        46.665
G15        11.000    23679398.819 6 124436100.36406     -1309.238 6        40.708                                    23679394.961 5  96963187.39105     -1020.182 5        32.126    23679394.877 6  96963190.38706     -1019.984 6        36.730
G13        12.000    25026445.823 5 131514847.88705     -1816.953 5        33.778                                    25026443.554 1 102479087.68801     -1415.772 1         8.476
C23        13.000                                                                                                                                    24703053.300 7 128635330.49107     -2607.102 7        44.656                                                                    24703045.540 7 104526734.32607     -2118.358 7        44.831
S36        14.000    38133783.684 7 200394918.79907      -448.582 7        43.721
C13        15.000                                                                                                                                    38299995.977 7 199438187.88107     -1361.804 7        42.703    38299997.762 7 154218291.67207     -1052.985 7        43.270    38299996.040 6 162059886.77106     -1106.431 6        41.564
G18        16.000    23105972.924 7 121422931.88507     -3346.660 7        43.384                                    23105969.598 5  94615367.41005     -2607.788 5        30.083    23105969.877 7  94615375.41807     -2607.813 7        42.493
R10        17.000    21501785.157 7 114616642.95207     -3768.215 7        44.277
E27        18.000    25641162.327 7 134745229.27107      1154.667 7        43.056                                                                    25641162.087 7 100621440.33707       862.261 7        46.477    25641161.578 7 103246344.85907       884.708 7        47.023
E02        19.000    26413866.951 6 138805984.64706     -3576.387 6        41.313                                                                    26413866.839 7 103653926.30107     -2670.608 7        45.025    26413866.183 7 106357927.22307     -2740.355 7        45.570
E05        20.000    26479842.497 5 139152519.03905      2331.761 5        34.514                                                                    26479844.335 6 103912594.75606      1740.995 6        41.712    26479843.585 6 106623360.82206      1786.400 6        41.280
R11        21.000    21054458.095 8 112508662.12608        21.891 8        48.767                                                                    21054457.436 7  87506740.49507        16.995 7        46.311
I06        22.000    38562497.930 6 151327747.13006      -265.473 6        40.970
S28        23.000    40830316.843 5 214564764.45705      -441.208 5        33.299
E04        24.000    28151144.735 5 147935246.26405     -1256.983 5        35.876                                                                    28151145.007 6 110471123.58306      -938.583 6        40.529    28151144.450 6 113352975.10106      -963.159 6        41.154
S23        25.000    38090981.362 7 200169411.62007      -449.394 7        44.373
S45        26.000    63345975.327 6 332885546.53416      -498.461 6        37.599
R09        27.000    23944970.192 7 127864966.79707     -4908.715 7        42.127                                                                    23944972.531 6  99450629.57306     -3817.901 6        39.784
S27        28.000    39099453.319 5 205469026.52905      -417.539 5        35.452
C38        29.000                                                                                                                                    40226930.665 6 209472304.17806     -1706.899 6        40.057                                                                    40226928.527 6 170213450.42806     -1387.137 6        38.243
C44        30.000                                                                                                                                    26834226.937 4 139733064.45304     -3287.695 4        29.071                                                                    26834227.029 5 113544641.47205     -2671.719 5        31.155
C43        31.000                                                                                                                                    21578241.978 8 112363673.97808       252.670 8        51.436                                                                    21578240.691 8  91304731.33908       205.378 8        49.186
C42        32.000                                                                                                                                    23972038.218 7 124828709.07807      2330.017 7        45.302                                                                    23972046.524 7 101433591.48507      1893.423 7        46.626
I02        33.000    39959518.120 6 156809781.88906      -998.628 6        38.895
R03        34.000    23192641.912 7 124152066.90807     -3471.047 7        43.331                                                                    23192640.765 6  96562720.44106     -2699.854 6        39.574
E34        35.000    23224966.956 8 122048231.28608      -435.748 8        48.473                                                                    23224966.777 8  91140023.70308      -325.391 8        50.599    23224966.742 8  93517578.33608      -333.841 8        51.589
G30        36.000    25682752.095 6 134963777.20206        43.746 6        36.688                                    25682750.563 4 105166586.72804        34.086 4        26.287    25682750.829 5 105166579.72505        34.219 5        34.067
R21        37.000    22014898.151 8 117806203.06808      2427.870 8        48.376                                                                    22014897.278 7  91627063.96107      1888.391 7        42.004
C22        38.000                                                                                                                                    25828452.680 6 134495554.09306     -2887.116 6        41.077                                                                    25828446.322 6 109288638.35306     -2346.073 6        40.417
R05        39.000    21723540.806 7 116124790.62007      3179.534 7        47.209                                                                    21723540.898 7  90319288.41707      2472.945 7        43.879
C12        40.000                                                                                                                                    24853086.193 6 129416739.71706     -2997.156 6        41.097    24853084.449 7 100073326.72907     -2317.484 7        46.176    24853083.170 7 105161773.20207     -2435.291 7        43.600
R04        41.000    20934852.142 8 112105214.57808      -190.414 8        49.071                                                                    20934851.225 7  87192951.80007      -148.155 7        44.537
S44        42.000    40395471.524 6 212279802.77106      -438.460 6        37.728
G08        43.000    21825016.916 7 114691321.82707      2220.407 7        44.641                                    21825015.782 7  89369899.56907      1730.187 7        43.026    21825016.640 7  89369897.57207      1730.240 7        42.684
C05        44.000                                                                                                                                    39163326.738 6 203933754.13806      -382.135 6        37.550    39163322.702 7 157694537.82007      -295.416 7        42.779    39163324.799 6 165712982.56606      -310.387 6        40.000
C11        45.000                                                                                                                                    21589357.274 8 112421595.32408      -983.464 8        49.320    21589353.943 8  86931569.53108      -760.512 8        52.330    21589352.761 8  91351794.93108      -799.087 8        48.965
E09        46.000    27293543.412 6 143428554.72106       932.234 6        39.240                                                                    27293543.959 7 107105749.05707       696.155 7        42.233    27293543.626 7 109899809.24507       714.271 7        43.367
G07        47.000    25157141.003 6 132201662.41506     -1236.725 6        40.005                                    25157138.476 4 103014264.06404      -963.679 4        28.929    25157139.072 5 103014272.07205      -963.800 5        34.295
C21        48.000                                                                                                                                    23579333.790 7 122783807.82707      -287.075 7        47.889                                                                    23579328.608 7  99771889.08107      -233.230 7        47.717
E06        49.000    27439798.100 6 144197132.92806      -118.455 6        38.132                                                                    27439798.786 6 107679681.79106       -88.472 6        40.746    27439798.295 6 110488714.20406       -90.700 6        41.204
R19        50.000    22310945.551 6 119348764.14106     -3458.532 6        37.796                                                                    22310944.687 6  92826928.14106     -2690.058 6        40.150
S48        51.000    77107097.166 6 405200794.50606      -485.955 6        37.214
C08        52.000                                                                                                                                    38753022.474 6 201797255.01506     -1606.991 6        40.005    38753015.480 7 156042467.75707     -1242.556 7        43.344    38753014.611 6 163976817.62606     -1305.813 6        40.067
C34        53.000                                                                                                                                    22390967.969 8 116595925.70108     -2190.003 8        49.248                                                                    22390967.570 8  94743856.83508     -1779.505 8        48.301
C60        54.000                                                                                                                                    40395469.456 6 210350005.77506      -434.677 6        40.162                                                                    40395453.503 6 170926578.54506      -352.915 6        39.456
C25        55.000                                                                                                                                    26307544.993 6 136990494.25606     -3618.222 6        40.157                                                                    26307545.054 6 111316082.54906     -2940.295 6        38.679
I09        56.000    38496117.527 6 151067054.44306       380.698 6        41.304
C02        57.000                                                                                                                                    40500801.705 5 210898340.32805      -388.140 5        34.667    40500794.387 6 163079966.80406      -300.108 6        38.595    40500797.915 5 171372178.75805      -315.441 5        34.657
I03        58.000    81048715.978 6 242267319.04306      1091.852 6        39.931
E30        59.000    24336856.279 7 127891264.02207     -1659.588 7        47.962                                                                    24336856.069 8  95503336.73008     -1239.355 8        49.764    24336855.634 8  97994711.36708     -1271.650 8        50.564
R20        60.000    19509092.183 6 104324090.71606      -311.446 6        39.901                                                                    19509093.614 7  81141028.65007      -242.251 7        47.456
> 2025 01 02 20 01 15.0000000  0 60
G23         1.000    20925707.877 7 109965420.29107     -1446.831 7        47.305                                    20925704.159 6  85687363.67406     -1127.402 6        38.012    20925704.456 7  85687361.68807     -1127.436 7        46.724
C37         2.000                                                                                                                                    25172753.218 7 131081125.33807      -119.209 7        42.893                                                                    25172756.898 7 106514171.85607       -96.978 7        44.087
G16         3.000    21558915.176 7 113293070.11907     -3071.404 7        47.568                                    21558910.534 6  88280399.06306     -2393.300 6        36.227
G21         4.000    23726838.870 6 124685415.23406      2534.436 6        36.824                                    23726835.253 2  97157465.04002      1974.881 2        17.585
S21         5.000    38364808.320 7 201608099.91407      -449.547 7        42.070
G26         6.000    23705865.532 6 124575389.54206     -4021.398 6        40.670                                    23705865.241 6  97071861.16906     -3133.555 6        36.253    23705865.707 6  97071848.16906     -3133.540 6        40.072
G10         7.000    21163942.570 8 111217334.12808      1350.867 8        50.724                                    21163940.842 8  86662873.74308      1052.626 8        51.073    21163940.691 7  86662867.74407      1052.578 7        44.938
E15         8.000    25585143.993 7 134450936.62707      1661.054 7        42.550                                                                    25585144.733 7 100401738.91607      1240.290 7        46.147    25585144.235 7 103020902.87707      1272.766 7        47.023
E36         9.000    25382047.892 7 133383750.62607     -2585.242 7        43.697                                                                    25382048.555 7  99604891.39407     -1930.609 7        46.612    25382048.273 7 102203267.24907     -1980.920 7        47.700
G27        10.000    20090000.976 8 105573818.15908       326.644 8        50.609                                    20089998.921 8  82265383.20108       254.527 8        53.112    20089999.294 7  82265385.20707       254.552 7        46.558
G15        11.000    23680645.994 6 124442655.63206     -1312.754 6        40.069                                    23680642.651 5  96968295.39205     -1022.929 5        32.234    23680643.017 6  96968298.39906     -1023.002 6        36.972
G13        12.000    25028176.700 5 131523941.60805     -1820.172 5        33.928                                    25028173.956 1 102486173.75501     -1418.345 1         9.714
C23        13.000                                                                                                                                    24705557.949 7 128648370.92607     -2609.074 7        44.795                                                                    24705549.896 7 104537330.74707     -2119.984 7        44.942
S36        14.000    38134207.853 7 200397162.68207      -448.653 7        43.674
C13        15.000                                                                                                                                    38301304.076 7 199444998.56607     -1362.298 7        42.899    38301305.697 7 154223558.14107     -1053.495 7        43.591    38301303.978 6 162065421.02206     -1106.998 6        41.912
G18        16.000    23109157.599 7 121439667.96407     -3347.517 7        43.875                                    23109154.377 5  94628408.50505     -2608.454 5        30.302    23109154.408 7  94628416.51007     -2608.486 7        42.931
R10        17.000    21505320.886 7 114635491.52807     -3771.056 7        43.833
E27        18.000    25640064.633 7 134739461.57707      1152.492 7        42.919                                                                    25640064.549 7 100617133.30207       860.654 7        46.537    25640064.043 7 103241925.46507       883.081 7        46.987
E02        19.000    26417270.276 6 138823868.71406     -3577.144 6        41.476                                                                    26417270.019 7 103667281.28007     -2671.190 7        44.935    26417269.225 7 106371630.59607     -2740.905 7        45.366
E05        20.000    26477624.447 5 139140863.26305      2330.961 5        34.790                                                                    26477626.304 6 103903890.78606      1740.667 6        41.611    26477625.488 6 106614429.79306      1786.014 6        41.352
R11        21.000    21054440.215 8 112508564.96908        17.094 8        48.695                                                                    21054439.297 7  87506664.92007        13.336 7        45.800
I06        22.000    38562835.993 6 151329074.53406      -265.470 6        41.147
S28        23.000    40830736.885 5 214566973.06205      -441.786 5        33.275
E04        24.000    28152341.943 5 147941537.65505     -1259.293 5        34.919                                                                    28152342.303 6 110475821.68906      -940.409 6        40.732    28152341.606 6 113357795.76906      -965.042 6        41.168
S23        25.000    38091409.323 7 200171659.35907      -449.561 7        44.328
S45        26.000    63346400.775 6 332888039.67706      -498.605 6        37.531
R09        27.000    23949566.621 7 127889510.74307     -4908.694 7        42.004                                                                    23949569.108 6  99469719.23506     -3817.874 6        39.802
S27        28.000    39099850.148 5 205471115.05805      -417.669 5        35.457
C38        29.000                                                                                                                                    40228570.056 6 209480839.59906     -1707.238 6        39.991                                                                    40228567.539 6 170220386.13506     -1387.239 6        38.438
C44        30.000                                                                                                                                    26837384.983 4 139749506.04304     -3288.304 4        29.156                                                                    26837384.417 5 113558001.59505     -2672.077 5        31.396
C43        31.000                                                                                                                                    21578000.048 8 112362415.07508       251.057 8        51.395                                                                    21577998.930 8  91303708.38308       203.958 8        49.328
C42        32.000                                                                                                                                    23969802.378 7 124817063.75907      2328.302 7        45.831                                                                    23969810.169 7 101424128.72007      1891.903 7        46.805
I02        33.000    39960790.940 6 156814775.69806      -998.927 6        38.889
R03        34.000    23195885.491 7 124169430.63907     -3474.282 7        43.223                                                                    23195884.788 6  96576225.54806     -2702.253 6        40.246
E34        35.000    23225382.219 8 122050413.95108      -437.140 8        48.214                                                                    23225382.114 8  91141653.62008      -326.506 8        50.683    23225382.086 8  93519250.77008      -334.973 8        51.636
G30        36.000    25682711.258 6 134963566.54406        40.745 6        36.333                                    25682710.449 4 105166422.58204        31.746 4        26.814    25682710.182 5 105166415.58605        31.667 5        33.401
R21        37.000    22012630.075 8 117794066.53908      2426.854 8        48.512                                                                    22012629.889 7  91617624.45507      1887.522 7        42.813
C22        38.000                                                                                                                                    25831225.934 6 134509995.36206     -2889.174 6        41.027                                                                    25831219.498 6 109300373.07406     -2347.807 6        40.565
R05        39.000    21720567.800 7 116108899.84907      3176.980 7        47.139                                                                    21720567.735 7  90306928.93107      2471.030 7        43.606
C12        40.000                                                                                                                                    24855965.269 6 129431727.22006     -2997.856 6        41.561    24855962.427 7 100084916.01307     -2318.060 7        46.464    24855961.169 7 105173951.77707     -2435.938 7        43.638
R04        41.000    20935032.629 8 112106178.93608      -195.146 8        49.030                                                                    20935030.806 7  87193701.84407      -151.744 7        44.727
S44        42.000    40395886.848 6 212281996.29006      -438.743 6        37.974
G08        43.000    21822905.394 7 114680223.89207      2218.970 7        44.801                                    21822903.897 7  89361251.83807      1729.066 7        43.090    21822904.847 7  89361249.84907      1729.017 7        42.821
C05        44.000                                                                                                                                    39163693.187 6 203935665.12706      -382.373 6        37.694    39163689.532 7 157696015.52307      -295.434 7        42.993    39163691.758 6 165714535.41506      -310.618 6        40.095
C11        45.000                                                                                                                                    21590302.562 8 112426516.97308      -984.991 8        49.296    21590298.943 8  86935375.27008      -761.679 8        52.513    21590297.883 8  91355794.17408      -800.391 8        49.153
E09        46.000    27292657.625 6 143423899.74706       930.107 6        38.805                                                                    27292658.143 7 107102272.95007       694.502 7        42.269    27292657.791 7 109896242.46607       712.533 7        43.376
G07        47.000    25158319.127 6 132207853.15406     -1239.490 6        39.282                                    25158316.641 4 103019088.01004      -965.823 4        28.768    25158316.375 5 103019096.02505      -965.793 5        33.305
C21        48.000                                                                                                                                    23579610.941 7 122785251.64407      -290.281 7        47.970                                                                    23579605.844 7  99773062.30907      -235.932 7        47.855
E06        49.000    27439911.929 6 144197731.77006      -121.063 6        38.264                                                                    27439912.729 6 107680128.97406       -90.310 6        40.973    27439912.451 6 110489173.08106       -92.835 6        41.456
R19        50.000    22314178.939 6 119366059.47506     -3459.218 6        38.165                                                                    22314177.658 6  92840380.06506     -2690.575 6        40.589
S48        51.000    77107536.333 6 405203224.87406      -486.139 6        37.414
C08        52.000                                                                                                                                    38754565.789 6 201805291.17006     -1607.338 6        39.970    38754558.852 7 156048681.83807     -1242.872 7        43.776    38754557.829 6 163983347.66606     -1306.136 6        40.305
C34        53.000                                                                                                                                    22393071.299 8 116606879.35408     -2191.334 8        48.754                                                                    22393071.112 8  94752757.57008     -1780.669 8        48.523
C60        54.000                                                                                                                                    40395886.627 6 210352179.35306      -434.645 6        40.157                                                                    40395870.885 6 170928344.76406      -353.344 6        39.541
C25        55.000                                                                                                                                    26311019.247 6 137008585.61506     -3618.116 6        39.874                                                                    26311019.384 6 111330783.21906     -2940.171 6        38.934
I09        56.000    38495632.861 6 151065151.97006       380.455 6        41.504
C02        57.000                                                                                                                                    40501173.959 5 210900282.06705      -388.088 5        34.495    40501167.284 6 163081468.29906      -300.313 6        38.916    40501170.678 5 171373756.59705      -315.708 5        35.005
I03        58.000    81047325.093 6 242261859.99906      1091.681 6        40.136
E30        59.000    24338436.811 7 127899568.16407     -1661.991 7        47.817                                                                    24338436.290 8  95509537.87608     -1241.074 8        49.802    24338435.820 8  98001074.27908     -1273.429 8        50.599
R20        60.000    19509384.376 6 104325653.68706      -313.627 6        40.129                                                                    19509386.324 7  81142244.28807      -243.943 7        47.270
> 2025 01 02 20 01 20.0000000  0 60
G23         1.000    20927085.953 7 109972662.38407     -1449.985 7        47.068                                    20927082.296 6  85693006.86506     -1129.857 6        38.000    20927082.661 7  85693004.87307     -1129.924 7        46.616
C37         2.000                                                                                                                                    25172869.151 7 131081728.60607      -122.028 7        43.086                                                                    25172872.826 7 106514662.04507       -99.118 7        44.161
G16         3.000    21561838.771 7 113308433.28507     -3073.925 7        47.568                                    21561834.023 6  88292370.35706     -2395.267 6        36.227
G21         4.000    23724427.910 6 124672745.16306      2533.394 6        37.059                                    23724424.252 2  97147592.27502      1974.068 2        17.660
S21         5.000    38365233.263 6 201610347.47406      -449.617 6        41.988
G26         6.000    23709691.656 6 124595497.97506     -4021.878 6        39.670                                    23709691.926 5  97087530.06805     -3133.931 5        35.857    23709692.225 6  97087517.07306     -3134.046 6        40.255
G10         7.000    21162658.672 8 111210586.89108      1348.038 8        50.655                                    21162656.887 8  86657616.15808      1050.415 8        51.062    21162656.739 7  86657610.17107      1050.349 7        44.886
E15         8.000    25583564.121 7 134442633.90107      1660.012 7        42.830                                                                    25583564.763 7 100395538.83107      1239.650 7        46.220    25583564.228 7 103014541.05807      1271.930 7        47.050
E36         9.000    25384507.893 7 133396678.24907     -2585.832 7        43.985                                                                    25384508.623 7  99614545.13307     -1930.985 7        46.698    25384508.272 7 102213172.82607     -1981.368 7        47.682
G27        10.000    20089691.418 8 105572191.13708       324.122 8        50.491                                    20089689.306 8  82264115.39408       252.560 8        53.103    20089689.740 7  82264117.39407       252.581 7        46.599
G15        11.000    23681896.590 6 124449228.08106     -1316.190 6        40.110                                    23681893.543 5  96973416.78205     -1025.602 5        32.287    23681893.890 6  96973419.78506     -1025.685 6        36.688
G13        12.000    25029909.679 5 131533050.39205     -1823.565 5        33.204                                    25029907.268 1 102493271.49901     -1420.896 1         8.667
C23        13.000                                                                                                                                    24708063.897 7 128661420.42707     -2610.835 7        44.485                                                                    24708055.825 7 104547934.51407     -2121.400 7        44.996
S36        14.000    38134638.220 7 200399405.71507      -448.622 7        43.913
C13        15.000                                                                                                                                    38302612.363 7 199451811.06607     -1362.715 7        42.893    38302614.054 7 154228825.99207     -1053.802 7        43.663    38302612.283 6 162070956.70606     -1107.159 6        41.807
G18        16.000    23112343.042 7 121456407.63807     -3348.232 7        43.818                                    23112339.831 5  94641452.39905     -2609.012 5        30.241    23112339.911 7  94641460.40707     -2609.208 7        42.588
R10        17.000    21508858.505 7 114654353.93907     -3773.908 7        43.831
E27        18.000    25638968.893 7 134733703.83307      1150.531 7        43.056                                                                    25638968.888 7 100612833.67907       859.198 7        46.581    25638968.457 7 103237513.67907       881.565 7        47.160
E02        19.000    26420674.029 6 138841755.93606     -3577.781 6        41.697                                                                    26420673.782 7 103680638.63007     -2671.767 7        44.722    26420672.945 7 106385336.38207     -2741.343 7        45.238
E05        20.000    26475406.849 5 139129208.76105      2330.888 5        34.900                                                                    26475408.515 6 103895187.74206      1740.543 6        41.664    26475407.687 6 106605499.72306      1785.871 6        41.528
R11        21.000    21054425.704 8 112508490.96608        12.458 8        48.679                                                                    21054425.250 7  87506607.38107         9.553 7        46.158
I06        22.000    38563174.298 6 151330401.88006      -265.573 6        41.111
S28        23.000    40831154.919 5 214569181.99405      -441.894 5        33.419
E04        24.000    28153541.753 5 147947840.57705     -1261.818 5        35.324                                                                    28153541.726 6 110480528.41306      -942.167 6        40.901    28153540.816 6 113362625.29106      -966.844 6        41.385
S23        25.000    38091837.830 7 200173907.14507      -449.602 7        44.483
S45        26.000    63346826.630 6 332890532.88906      -498.664 6        37.406
R09        27.000    23954162.205 6 127914053.40706     -4908.405 6        41.766                                                                    23954165.375 6  99488807.92706     -3817.743 6        39.766
S27        28.000    39100249.594 5 205473203.76005      -417.629 5        35.681
C38        29.000                                                                                                                                    40230209.160 6 209489375.49006     -1707.255 6        39.769                                                                    40230206.810 6 170227322.24406     -1387.264 6        38.441
C44        30.000                                                                                                                                    26840542.194 4 139765948.34704     -3288.920 4        28.815                                                                    26840541.840 5 113571362.26605     -2671.833 5        30.875
C43        31.000                                                                                                                                    21577759.665 8 112361163.60108       249.503 8        51.254                                                                    21577758.586 8  91302691.43808       202.845 8        49.378
C42        32.000                                                                                                                                    23967567.399 7 124805426.55007      2326.599 7        45.822                                                                    23967575.399 7 101414672.53007      1890.615 7        46.643
I02        33.000    39962063.319 6 156819769.55206      -998.891 6        39.051
R03        34.000    23199131.748 7 124186809.81007     -3477.375 7        43.568                                                                    23199131.399 6  96589742.68606     -2704.612 6        40.377
E34        35.000    23225798.865 8 122052603.28008      -438.542 8        48.481                                                                    23225798.725 8  91143288.50808      -327.483 8        50.760    23225798.681 8  93520928.30708      -336.005 8        51.647
G30        36.000    25682673.040 6 134963369.76606        38.045 6        36.004                                    25682672.932 4 105166269.24904        29.629 4        26.862    25682673.083 5 105166262.23605        29.996 5        33.198
R21        37.000    22010362.611 7 117781934.41307      2425.902 7        47.776                                                                    22010362.040 6  91608188.37006      1886.792 6        41.740
C22        38.000                                                                                                                                    25834000.566 6 134524446.25606     -2891.320 6        40.796                                                                    25833994.749 6 109312115.57106     -2349.255 6        40.656
R05        39.000    21717598.038 7 116093020.87407      3174.514 7        47.710                                                                    21717597.668 7  90294578.61007      2469.061 7        44.342
C12        40.000                                                                                                                                    24858845.083 6 129446717.58906     -2998.364 6        41.592    24858841.309 7 100096507.50707     -2318.616 7        46.620    24858839.636 7 105186132.63407     -2436.409 7        43.372
R04        41.000    20935217.170 8 112107166.65308      -199.884 8        49.114                                                                    20935215.517 7  87194470.06807      -155.374 7        44.653
S44        42.000    40396303.814 6 212284190.07106      -438.867 6        37.845
G08        43.000    21820794.639 7 114669133.08907      2217.488 7        44.909                                    21820793.381 7  89352609.66307      1727.915 7        43.147    21820793.897 7  89352607.65807      1727.986 7        42.561
C05        44.000                                                                                                                                    39164060.361 6 203937576.26506      -382.541 6        37.369    39164056.741 7 157697493.33107      -295.518 7        43.041    39164058.901 6 165716088.34206      -310.396 6        40.217
C11        45.000                                                                                                                                    21591249.106 8 112431445.72508      -986.447 8        49.428    21591245.420 8  86939186.49408      -762.845 8        52.412    21591244.462 8  91359799.17808      -801.465 8        49.235
E09        46.000    27291773.759 6 143419255.01306       927.819 6        38.538                                                                    27291774.147 7 107098804.47507       692.995 7        42.216    27291773.908 7 109892683.50207       710.894 7        43.443
G07        47.000    25159499.328 6 132214056.10306     -1241.797 6        38.664                                    25159496.984 4 103023921.46504      -967.624 4        28.559    25159497.362 5 103023929.46605      -967.648 5        32.874
C21        48.000                                                                                                                                    23579891.656 8 122786710.42008      -293.269 8        48.023                                                                    23579886.086 7  99774247.66907      -238.276 7        47.929
E06        49.000    27440028.174 6 144198342.45506      -123.348 6        38.177                                                                    27440029.003 6 107680585.01506       -92.115 6        40.994    27440028.893 6 110489641.01506       -94.654 6        41.664
R19        50.000    22317410.906 6 119383358.05706     -3459.998 6        37.732                                                                    22317410.384 6  92853834.50206     -2691.134 6        39.730
S48        51.000    77107970.519 6 405205655.04406      -486.089 6        37.346
C08        52.000                                                                                                                                    38756109.265 6 201813328.81906     -1607.803 6        39.799    38756102.269 7 156054897.04207     -1243.183 7        43.784    38756101.389 6 163989878.89106     -1306.390 6        40.350
C34        53.000                                                                                                                                    22395175.915 8 116617839.10608     -2192.630 8        48.832                                                                    22395175.786 8  94761663.24408     -1781.584 8        48.511
C60        54.000                                                                                                                                    40396304.089 6 210354353.19006      -434.845 6        40.186                                                                    40396288.440 6 170930111.15406      -353.075 6        39.637
C25        55.000                                                                                                                                    26314493.139 6 137026674.98306     -3617.644 6        39.480                                                                    26314493.355 6 111345482.25606     -2939.596 6        38.940
I09        56.000    38495148.212 6 151063250.38606       380.217 6        41.630
C02        57.000                                                                                                                                    40501546.963 5 210902224.06505      -388.342 5        34.662    40501540.160 6 163082969.95206      -300.325 6        39.042    40501543.473 5 171375334.59605      -315.637 5        35.071
I03        58.000    81045933.915 6 242256401.18806      1091.763 6        40.434
E30        59.000    24340019.159 7 127907883.64407     -1664.258 7        47.861                                                                    24340018.624 8  95515747.48808     -1242.775 8        49.838    24340018.223 8  98007445.88708     -1275.231 8        50.662
R20        60.000    19509678.473 6 104327226.79906      -315.642 6        40.074                                                                    19509680.686 7  81143467.81407      -245.483 7        47.535
> 2025 01 02 20 01 25.0000000  0 60
G23         1.000    20928466.793 7 109979919.51707     -1452.902 7        46.880                                    20928463.280 6  85698661.77406     -1132.129 6        38.042    20928463.591 7  85698659.77107     -1132.139 7        46.776
C37         2.000                                                                                                                                    25172987.436 7 131082345.18707      -124.568 7        42.806                                                                    25172991.312 7 106515163.07907      -101.322 7        44.143
G16         3.000    21564764.485 7 113323808.06607     -3076.105 7        47.499                                    21564759.729 6  88304350.70706     -2396.962 6        36.208
G21         4.000    23722018.354 6 124660079.73606      2532.635 6        37.660                                    23722013.958 3  97137723.11803      1973.474 3        18.328
S21         5.000    38365661.514 7 201612594.49107      -449.249 7        42.108
G26         6.000    23713518.702 6 124615608.87006     -4022.433 6        40.105                                    23713519.045 5  97103200.89605     -3134.360 5        35.929    23713518.521 6  97103187.88406     -3134.260 6        40.050
G10         7.000    21161377.399 8 111203852.80108      1345.522 8        50.537                                    21161375.427 8  86652368.81908      1048.459 8        51.038    21161375.333 7  86652362.81807      1048.469 7        44.724
E15         8.000    25581984.155 7 134434335.08507      1659.384 7        43.018                                                                    25581985.530 7 100389341.66607      1239.207 7        46.142    25581985.047 7 103008182.22807      1271.432 7        47.199
E36         9.000    25386968.355 7 133409607.89107     -2586.102 7        44.026                                                                    25386969.077 7  99624200.38707     -1931.200 7        46.650    25386968.787 7 102223079.95307     -1981.592 7        47.605
G27        10.000    20089383.934 8 105570576.40208       321.729 8        50.377                                    20089382.034 8  82262857.15808       250.699 8        53.086    20089382.450 7  82262859.15707       250.657 7        46.536
G15        11.000    23683150.718 6 124455817.17306     -1319.447 6        39.958                                    23683147.502 5  96978551.13705     -1028.142 5        32.036    23683147.370 6  96978554.12006     -1028.013 6        36.272
G13        12.000    25031645.480 5 131542173.66005     -1826.136 5        33.958                                    25031643.362 1 102500380.60301     -1423.001 1         8.381
C23        13.000                                                                                                                                    24710571.160 7 128674478.43507     -2612.396 7        45.053                                                                    24710563.488 7 104558545.22907     -2122.918 7        45.035
S36        14.000    38135064.111 7 200401647.54707      -448.276 7        43.928
C13        15.000                                                                                                                                    38303920.494 7 199458624.73107     -1362.920 7        42.882    38303922.469 7 154234094.75207     -1053.864 7        43.774    38303920.659 6 162076493.39006     -1107.520 6        41.833
G18        16.000    23115528.900 7 121473150.37707     -3348.935 7        43.505                                    23115525.804 5  94654498.69405     -2609.565 5        30.098    23115525.682 7  94654506.68307     -2609.476 7        42.055
R10        17.000    21512400.358 7 114673229.45607     -3776.365 7        44.319
E27        18.000    25637874.997 7 134727955.49507      1148.730 7        43.090                                                                    25637875.008 7 100608541.09507       857.814 7        46.530    25637874.520 7 103233109.11107       880.134 7        47.178
E02        19.000    26424078.392 6 138859645.76206     -3578.138 6        41.392                                                                    26424077.893 7 103693997.92507     -2672.118 7        44.564    26424077.373 7 106399044.19007     -2741.814 7        45.130
E05        20.000    26473189.267 5 139117554.97705      2330.746 5        35.067                                                                    26473190.840 6 103886485.25106      1740.405 6        41.471    26473190.022 6 106596570.20406      1785.819 6        41.352
R11        21.000    21054417.222 8 112508439.51108         8.012 8        49.289                                                                    21054415.600 7  87506567.34207         6.231 7        45.899
I06        22.000    38563512.576 6 151331728.76706      -265.343 6        40.934
S28        23.000    40831577.367 5 214571390.32005      -441.458 5        33.305
E04        24.000    28154743.420 5 147954154.49005     -1263.990 5        35.876                                                                    28154743.153 6 110485243.34506      -943.759 6        40.779    28154742.388 6 113367463.21506      -968.414 6        41.149
S23        25.000    38092263.739 7 200176154.46007      -449.424 7        44.591
S45        26.000    63347255.060 6 332893025.63906      -498.505 6        37.705
R09        27.000    23958758.053 6 127938594.26406     -4908.024 6        41.723                                                                    23958760.849 6  99507895.18306     -3817.317 6        40.019
S27        28.000    39100646.889 5 205475291.93605      -417.830 5        35.805
C38        29.000                                                                                                                                    40231848.535 6 209497911.33506     -1707.239 6        40.060                                                                    40231846.159 6 170234258.31806     -1387.396 6        38.501
C44        30.000                                                                                                                                    26843699.886 4 139782390.71204     -3288.250 4        29.943                                                                    26843699.310 5 113584723.07405     -2672.255 5        31.132
C43        31.000                                                                                                                                    21577520.812 8 112359919.02808       248.200 8        51.311                                                                    21577519.636 8  91301680.12508       201.649 8        49.353
C42        32.000                                                                                                                                    23965333.254 7 124793796.93807      2325.170 7        45.755                                                                    23965341.894 7 101405222.51707      1889.331 7        46.679
I02        33.000    39963335.587 6 156824762.77506      -998.401 6        38.622
R03        34.000    23202381.916 7 124204203.50407     -3480.192 7        43.907                                                                    23202380.794 6  96603271.10806     -2706.906 6        39.748
E34        35.000    23226216.723 8 122054798.72108      -439.689 8        48.553                                                                    23226216.504 8  91144927.96408      -328.331 8        50.708    23226216.465 8  93522610.53408      -336.917 8        51.692
G30        36.000    25682638.925 6 134963186.38806        35.332 6        36.715                                    25682637.874 4 105166126.37704        27.530 4        27.018    25682638.454 5 105166119.38705        27.665 5        33.551
R21        37.000    22008096.116 8 117769806.22508      2425.247 8        48.041                                                                    22008095.951 6  91598755.33806      1886.180 6        41.294
C22        38.000                                                                                                                                    25836777.105 6 134538906.17206     -2892.810 6        41.082                                                                    25836771.561 6 109323865.46106     -2350.932 6        40.665
R05        39.000    21714630.374 7 116077153.48507      3172.315 7        47.072                                                                    21714630.033 7  90282237.32307      2467.329 7        44.611
C12        40.000                                                                                                                                    24861724.062 6 129461710.22206     -2998.830 6        41.197    24861720.356 7 100108100.75707     -2318.847 7        46.816    24861718.674 7 105198315.38507     -2436.820 7        43.200
R04        41.000    20935406.228 8 112108177.04508      -204.381 8        49.613                                                                    20935404.357 7  87195255.92907      -158.898 7        44.820
S44        42.000    40396722.787 6 212286383.57206      -438.685 6        38.045
G08        43.000    21818685.121 7 114658048.84707      2216.260 7        45.232                                    21818684.130 7  89343972.59107      1726.956 7        43.134    21818684.755 7  89343970.60307      1726.884 7        42.440
C05        44.000                                                                                                                                    39164427.486 6 203939487.04306      -382.186 6        37.527    39164423.557 7 157698970.87307      -295.433 7        43.012    39164425.824 6 165717641.01906      -310.574 6        40.129
C11        45.000                                                                                                                                    21592197.258 8 112436381.03208      -987.697 8        49.451    21592193.306 8  86943002.79008      -763.755 8        52.358    21592192.195 8  91363809.53208      -802.703 8        49.129
E09        46.000    27290891.661 6 143414619.94606       926.051 6        38.826                                                                    27290891.989 7 107095343.22707       691.509 7        42.231    27290891.815 7 109889131.96007       709.554 7        43.395
G07        47.000    25160682.147 6 132220270.74606     -1244.093 6        38.498                                    25160679.697 4 103028764.02604      -969.424 4        28.493    25160680.624 5 103028772.03905      -969.492 5        34.086
C21        48.000                                                                                                                                    23580174.417 8 122788183.64608      -296.084 8        48.044                                                                    23580168.964 7  99775444.78407      -240.671 7        47.989
E06        49.000    27440146.656 6 144198964.44306      -125.488 6        37.811                                                                    27440147.380 6 107681049.49906       -93.758 6        41.230    27440147.428 6 110490117.60306       -96.100 6        41.805
R19        50.000    22320645.101 6 119400659.46806     -3460.472 6        37.240                                                                    22320644.451 6  92867291.17706     -2691.589 6        39.057
S48        51.000    77108403.055 6 405208084.62806      -485.781 6        37.353
C08        52.000                                                                                                                                    38757653.087 6 201821367.40906     -1607.862 6        39.829    38757645.874 7 156061113.01107     -1243.301 7        43.769    38757645.139 6 163996410.91706     -1306.528 6        40.346
C34        53.000                                                                                                                                    22397281.953 8 116628804.39408     -2193.653 8        48.939                                                                    22397281.537 8  94770573.44708     -1782.500 8        48.498
C60        54.000                                                                                                                                    40396721.323 6 210356526.74706      -434.580 6        40.186                                                                    40396705.567 6 170931877.38206      -353.221 6        39.553
C25        55.000                                                                                                                                    26317966.816 6 137044761.86106     -3617.120 6        39.577                                                                    26317966.776 6 111360179.30706     -2939.356 6        39.186
I09        56.000    38494663.784 6 151061349.29606       380.319 6        41.559
C02        57.000                                                                                                                                    40501919.919 5 210904165.81405      -388.338 5        34.948    40501913.120 6 163084471.44106      -300.208 6        38.850    40501916.460 5 171376912.43905      -315.637 5        35.062
I03        58.000    81044542.634 6 242250942.23306      1091.771 6        40.212
E30        59.000    24341603.755 7 127916209.88007     -1666.289 7        47.969                                                                    24341603.042 8  95521965.13308     -1244.364 8        49.839    24341602.659 8  98013825.73108     -1276.831 8        50.629
R20        60.000    19509974.912 6 104328809.37706      -317.457 6        39.886                                                                    19509976.504 7  81144698.71507      -246.933 7        47.384
> 2025 01 02 20 01 30.0000000  0 60
G23         1.000    20929850.951 7 109987192.94607     -1456.124 7        46.539                                    20929847.359 6  85704329.38106     -1134.645 6        38.153    20929847.621 7  85704327.38307     -1134.695 7        46.626
C37         2.000                                                                                                                                    25173108.305 7 131082976.36107      -127.557 7        42.874                                                                    25173112.469 7 106515675.95207      -103.631 7        44.081
G16         3.000    21567692.783 7 113339195.69707     -3078.717 7        47.779                                    21567687.846 6  88316341.07106     -2398.998 6        36.370
G21         4.000    23719608.591 6 124647420.29406      2531.205 6        36.612                                    23719604.961 2  97127858.64202      1972.346 2        17.887
S21         5.000    38366088.608 7 201614842.42607      -449.684 7        42.055
G26         6.000    23717347.055 6 124635723.42306     -4023.149 6        40.713                                    23717346.861 6  97118874.55506     -3134.918 6        36.571    23717346.345 6  97118861.54306     -3134.788 6        40.260
G10         7.000    21160098.626 8 111197133.14708      1342.496 8        50.699                                    21160096.709 8  86647132.72608      1046.103 8        51.223    21160096.712 7  86647126.73107      1046.078 7        44.868
E15         8.000    25580406.007 7 134426041.43507      1658.263 7        42.980                                                                    25580407.235 7 100383148.36407      1238.332 7        46.224    25580406.882 7 103001827.35607      1270.608 7        47.218
E36         9.000    25389429.453 7 133422540.83007     -2586.885 7        44.211                                                                    25389430.141 7  99633858.08607     -1931.623 7        46.745    25389429.881 7 102232989.59807     -1982.055 7        47.725
G27        10.000    20089079.224 8 105568975.20908       318.996 8        50.476                                    20089077.346 8  82261609.47608       248.567 8        53.261    20089077.667 7  82261611.48107       248.498 7        46.497
G15        11.000    23684408.177 6 124462424.20506     -1323.028 6        40.055                                    23684404.905 5  96983699.48505     -1030.930 5        32.305    23684404.769 6  96983702.48606     -1031.025 6        36.537
G13        12.000    25033384.821 5 131551312.68305     -1829.353 5        32.635                                    25033382.457 1 102507501.94101     -1425.403 1         8.190
C23        13.000                                                                                                                                    24713081.059 7 128687546.21607     -2614.378 7        44.721                                                                    24713073.025 7 104569163.87307     -2124.461 7        44.989
S36        14.000    38135490.865 7 200403890.30207      -448.595 7        44.065
C13        15.000                                                                                                                                    38305229.768 7 199465440.86307     -1363.400 7        42.878    38305231.486 7 154239365.41507     -1054.263 7        43.922    38305229.597 6 162082032.05606     -1107.917 6        41.838
G18        16.000    23118716.006 7 121489897.42107     -3349.727 7        43.371                                    23118712.644 4  94667548.33104     -2610.173 4        29.953    23118712.631 7  94667556.32607     -2610.234 7        42.011
R10        17.000    21515944.659 7 114692119.48007     -3779.348 7        44.546
E27        18.000    25636782.848 7 134722217.82307      1146.577 7        43.137                                                                    25636783.158 7 100604256.47207       856.203 7        46.591    25636782.699 7 103228712.71307       878.515 7        47.205
E02        19.000    26427483.455 6 138877539.48406     -3579.105 6        40.856                                                                    26427482.941 7 103707360.11407     -2672.716 7        44.608    26427482.650 7 106412754.94707     -2742.424 7        45.297
E05        20.000    26470972.151 5 139105903.20505      2330.182 5        35.557                                                                    26470973.594 6 103877784.23906      1740.125 6        41.237    26470972.718 6 106587642.20906      1785.603 6        41.197
R11        21.000    21054411.677 8 112508411.91308         3.202 8        48.934                                                                    21054410.463 7  87506545.87207         2.545 7        46.332
I06        22.000    38563850.460 6 151333056.11206      -265.495 6        41.049
S28        23.000    40831993.751 5 214573599.27505      -442.059 5        33.389
E04        24.000    28155946.989 5 147960480.67705     -1266.433 5        35.876                                                                    28155946.995 6 110489967.43406      -945.730 6        40.541    28155946.452 6 113372310.53506      -970.334 6        41.333
S23        25.000    38092692.321 7 200178402.71807      -449.620 7        44.647
S45        26.000    63347680.383 6 332895519.04206      -498.775 6        37.705
R09        27.000    23963354.208 6 127963134.63906     -4907.865 6        41.330                                                                    23963356.518 6  99526982.08506     -3817.305 6        39.874
S27        28.000    39101046.500 5 205477380.78305      -417.903 5        35.819
C38        29.000                                                                                                                                    40233488.025 6 209506448.35706     -1707.373 6        39.880                                                                    40233485.679 6 170241195.37006     -1387.500 6        38.649
C44        30.000                                                                                                                                    26846858.640 4 139798834.41904     -3288.859 4        29.602                                                                    26846857.221 5 113598084.95205     -2672.490 5        30.309
C43        31.000                                                                                                                                    21577283.501 8 112358682.59508       246.583 8        51.343                                                                    21577282.131 8  91300675.42608       200.399 8        49.384
C42        32.000                                                                                                                                    23963101.665 7 124782176.15007      2323.350 7        45.236                                                                    23963110.267 7 101395779.67507      1887.947 7        46.707
I02        33.000    39964607.902 6 156829756.70806      -998.839 6        38.556
R03        34.000    23205635.349 7 124221613.14907     -3483.414 7        43.994                                                                    23205633.185 6  96616811.91806     -2709.296 6        40.181
E34        35.000    23226635.984 8 122057001.54508      -441.183 8        48.699                                                                    23226635.713 8  91146572.93008      -329.461 8        50.789    23226635.684 8  93524298.41308      -338.089 8        51.771
G30        36.000    25682606.561 6 134963017.61106        32.395 6        36.979                                    25682605.602 4 105165994.86104        25.238 4        27.461    25682605.635 5 105165987.87705        25.180 5        33.533
R21        37.000    22005830.517 7 117757683.16107      2424.186 7        47.321                                                                    22005830.567 6  91589326.27306      1885.523 6        40.367
C22        38.000                                                                                                                                    25839556.119 6 134553376.39706     -2894.887 6        41.223                                                                    25839550.584 6 109335623.70406     -2352.464 6        40.856
R05        39.000    21711663.037 7 116061298.81407      3169.781 7        47.326                                                                    21711663.685 7  90269905.91507      2465.435 7        44.235
C12        40.000                                                                                                                                    24864602.499 6 129476706.39506     -2999.582 6        41.182    24864600.318 7 100119696.73207     -2319.437 7        46.910    24864598.676 7 105210500.98807     -2437.321 7        43.352
R04        41.000    20935599.517 8 112109211.55208      -209.175 8        49.715                                                                    20935597.372 7  87196060.54907      -162.674 7        45.245
S44        42.000    40397140.302 6 212288578.07306      -439.057 6        38.021
G08        43.000    21816577.590 7 114646972.45207      2214.552 7        45.338                                    21816576.363 7  89335341.64207      1725.624 7        43.202    21816577.375 7  89335339.64407      1725.654 7        42.455
C05        44.000                                                                                                                                    39164794.888 6 203941398.67106      -382.138 6        37.187    39164790.570 7 157700449.07107      -295.587 7        43.115    39164792.859 6 165719194.39206      -310.757 6        40.107
C11        45.000                                                                                                                                    21593146.125 8 112441324.14708      -989.302 8        49.328    21593142.554 8  86946825.12108      -765.034 8        52.373    21593141.543 8  91367826.21408      -803.792 8        49.224
E09        46.000    27290011.756 6 143409995.81106       923.859 6        39.174                                                                    27290012.133 7 107091890.14507       689.826 7        42.288    27290011.908 7 109885588.79507       707.883 7        43.361
G07        47.000    25161867.310 6 132226498.31806     -1246.798 6        39.048                                    25161864.852 4 103033616.66904      -971.535 4        28.597    25161865.103 5 103033624.66305      -971.454 5        33.946
C21        48.000                                                                                                                                    23580460.091 7 122789672.54007      -299.305 7        47.925                                                                    23580454.788 7  99776654.62907      -243.103 7        47.903
E06        49.000    27440267.000 6 144199599.01106      -127.927 6        37.864                                                                    27440268.005 6 107681523.36706       -95.665 6        40.999    27440268.037 6 110490603.83306       -98.069 6        41.816
R19        50.000    22323879.894 6 119417964.92706     -3461.487 6        37.104                                                                    22323880.485 6  92880750.94306     -2692.113 6        39.312
S48        51.000    77108838.774 6 405210515.13806      -486.014 6        37.418
C08        52.000                                                                                                                                    38759197.022 6 201829408.15106     -1608.411 6        39.811    38759190.163 7 156067330.61307     -1243.635 7        43.875    38759189.337 6 164002944.67306     -1306.801 6        40.362
C34        53.000                                                                                                                                    22399388.898 8 116639776.49508     -2194.984 8        48.811                                                                    22399388.591 8  94779489.17908     -1783.589 8        48.528
C60        54.000                                                                                                                                    40397139.138 6 210358701.29606      -434.962 6        40.114                                                                    40397123.377 6 170933644.37706      -353.496 6        39.408
C25        55.000                                                                                                                                    26321439.472 6 137062847.46906     -3616.845 6        39.381                                                                    26321439.850 6 111374875.31706     -2939.110 6        39.222
I09        56.000    38494179.619 6 151059449.64906       379.939 6        41.607
C02        57.000                                                                                                                                    40502293.510 5 210906108.49305      -388.609 5        34.767    40502285.968 6 163085973.65606      -300.443 6        39.045    40502289.702 5 171378491.03305      -315.656 5        34.990
I03        58.000    81043152.058 6 242245484.04006      1091.575 6        40.265
E30        59.000    24343190.317 7 127924548.16007     -1668.779 7        47.896                                                                    24343189.724 8  95528191.76908     -1246.144 8        49.945    24343189.439 8  98020214.80108     -1278.695 8        50.696
R20        60.000    19510272.981 6 104330402.79006      -319.706 6        39.997                                                                    19510274.747 7  81145938.03807      -248.652 7        47.665
> 2025 01 02 20 01 35.0000000  0 60
G23         1.000    20931238.311 7 109994481.84307     -1459.435 7        46.758                                    20931234.367 6  85710009.04106     -1137.224 6        38.108    20931234.375 7  85710007.05107     -1137.276 7        46.386
C37         2.000                                                                                                                                    25173232.693 7 131083621.25507      -130.489 7        43.120                                                                    25173236.247 7 106516200.00007      -105.948 7        44.155
G16         3.000    21570623.179 7 113354595.35607     -3081.222 7        47.729                                    21570618.329 6  88328340.80006     -2400.953 6        36.389
G21         4.000    23717200.340 6 124634765.83506      2530.275 6        36.170                                    23717197.118 2  97117998.01902      1971.655 2        17.509
S21         5.000    38366516.658 6 201617090.47006      -449.691 6        41.897
G26         6.000    23721175.064 6 124655840.82306     -4023.900 6        40.806                                    23721175.048 6  97134550.44506     -3135.507 6        36.643    23721174.540 6  97134537.44606     -3135.488 6        39.258
G10         7.000    21158822.552 8 111190427.09308      1339.713 8        50.860                                    21158820.584 8  86641907.23108      1043.933 8        51.232    21158820.355 7  86641901.23307      1043.872 7        44.861
E15         8.000    25578828.743 7 134417752.12407      1657.382 7        43.198                                                                    25578829.740 7 100376958.29607      1237.581 7        46.273    25578829.414 7 102995475.81207      1269.851 7        47.114
E36         9.000    25391891.005 7 133435476.20707     -2587.473 7        44.096                                                                    25391891.687 7  99643517.62807     -1932.130 7        46.799    25391891.381 7 102242901.13007     -1982.614 7        47.627
G27        10.000    20088776.833 8 105567386.74608       316.352 8        50.761                                    20088775.074 8  82260371.71608       246.508 8        53.261    20088775.191 7  82260373.72107       246.502 7        46.423
G15        11.000    23685668.836 6 124469048.34506     -1326.635 6        39.868                                    23685665.598 5  96988861.14905     -1033.745 5        32.461    23685665.250 6  96988864.13306     -1033.536 6        36.597
G13        12.000    25035126.059 5 131560466.63505     -1832.425 5        33.138                                    25035124.395 1 102514634.89501     -1427.872 1         8.952
C23        13.000                                                                                                                                    24715592.100 7 128700622.92707     -2616.307 7        44.725                                                                    24715584.287 7 104579789.78207     -2125.871 7        44.951
S36        14.000    38135918.405 7 200406133.37407      -448.773 7        43.839
C13        15.000                                                                                                                                    38306538.958 7 199472258.61607     -1363.827 7        42.870    38306540.550 7 154244637.33907     -1054.595 7        43.814    38306538.741 6 162087572.05106     -1108.152 6        41.967
G18        16.000    23121903.424 7 121506647.93607     -3350.546 7        43.799                                    23121900.111 5  94680600.67505     -2610.816 5        30.000    23121900.107 6  94680608.68306     -2610.919 6        41.790
R10        17.000    21519490.015 7 114711023.02507     -3782.045 7        43.744
E27        18.000    25635693.037 7 134716489.99307      1144.640 7        42.857                                                                    25635693.264 7 100599979.21007       854.672 7        46.659    25635692.668 7 103224323.87207       876.925 7        47.021
E02        19.000    26430888.510 6 138895436.22906     -3579.640 6        39.637                                                                    26430888.680 7 103720724.55307     -2673.232 7        44.634    26430888.569 7 106426468.03207     -2742.928 7        45.354
E05        20.000    26468754.990 5 139094252.56805      2330.144 5        35.886                                                                    26468756.451 6 103869084.11706      1739.859 6        41.225    26468755.782 6 106578715.11606      1785.244 6        41.066
R11        21.000    21054410.760 8 112508407.35308        -1.465 8        48.784                                                                    21054410.387 7  87506542.35507        -1.198 7        46.189
I06        22.000    38564188.798 6 151334383.33406      -265.527 6        41.101
S28        23.000    40832416.798 5 214575808.43405      -441.970 5        33.479
E04        24.000    28157152.597 5 147966818.26705     -1268.481 5        35.543                                                                    28157152.881 6 110494700.05006      -947.369 6        40.953    28157152.366 6 113377166.60806      -972.151 6        41.178
S23        25.000    38093120.636 7 200180651.03707      -449.656 7        44.453
S45        26.000    63348104.445 6 332898012.46706      -498.763 6        37.648
R09        27.000    23967949.635 6 127987673.66206     -4907.804 6        41.075                                                                    23967952.173 6  99546067.93806     -3817.178 6        39.387
S27        28.000    39101439.931 5 205479469.57805      -417.690 5        35.552
C38        29.000                                                                                                                                    40235127.587 6 209514985.77306     -1707.663 6        39.661                                                                    40235125.126 6 170248132.71806     -1387.610 6        38.517
C44        30.000                                                                                                                                    26850015.659 4 139815278.68004     -3289.151 4        29.801                                                                    26850015.122 5 113611447.24905     -2672.377 5        30.898
C43        31.000                                                                                                                                    21577047.274 8 112357453.49108       245.011 8        51.347                                                                    21577046.149 8  91299676.69408       199.136 8        49.354
C42        32.000                                                                                                                                    23960871.868 7 124770563.39507      2321.662 7        45.124                                                                    23960880.182 7 101386343.37807      1886.633 7        46.748
I02        33.000    39965880.711 6 156834750.81106      -998.969 6        38.375
R03        34.000    23208889.603 7 124239037.96707     -3486.508 7        43.101                                                                    23208887.776 6  96630364.55406     -2711.854 6        39.237
E34        35.000    23227056.338 8 122059210.91308      -442.622 8        48.524                                                                    23227056.110 8  91148222.78508      -330.552 8        50.803    23227056.114 8  93525991.30908      -339.158 8        51.669
G30        36.000    25682577.765 6 134962862.64006        29.548 6        36.650                                    25682576.041 4 105165874.13304        23.024 4        27.198    25682576.079 5 105165867.12605        23.192 5        32.862
R21        37.000    22003565.288 8 117745564.43508      2423.284 8        48.161                                                                    22003565.291 6  91579900.62406      1884.739 6        40.965
C22        38.000                                                                                                                                    25842336.755 6 134567856.08306     -2896.864 6        40.887                                                                    25842331.168 6 109347389.63306     -2353.937 6        40.865
R05        39.000    21708700.395 8 116045456.05008      3167.301 8        48.054                                                                    21708699.726 7  90257583.75307      2463.511 7        43.953
C12        40.000                                                                                                                                    24867482.901 6 129491705.29706     -3000.169 6        41.337    24867480.478 7 100131294.83307     -2319.923 7        46.849    24867479.313 7 105222688.83807     -2437.750 7        43.496
R04        41.000    20935796.677 8 112110269.25608      -213.975 8        49.100                                                                    20935795.018 7  87196883.21407      -166.425 7        45.130
S44        42.000    40397556.373 6 212290772.72106      -439.052 6        37.958
G08        43.000    21814471.173 7 114635903.07807      2213.177 7        45.363                                    21814469.925 7  89326716.15407      1724.551 7        43.238    21814470.813 7  89326714.16607      1724.470 7        42.281
C05        44.000                                                                                                                                    39165161.695 6 203943310.37206      -382.498 6        37.550    39165157.874 7 157701927.32307      -295.732 7        42.950    39165160.051 6 165720747.81206      -310.674 6        40.148
C11        45.000                                                                                                                                    21594096.240 8 112446274.26008      -990.832 8        49.310    21594093.068 8  86950652.86408      -766.197 8        52.266    21594092.127 8  91371848.60308      -805.064 8        49.220
E09        46.000    27289133.960 6 143405381.81106       921.662 6        39.087                                                                    27289134.163 7 107088444.62507       688.242 7        42.392    27289133.980 7 109882053.39407       706.213 7        43.401
G07        47.000    25163054.594 6 132232737.98006     -1249.048 6        38.321                                    25163052.246 4 103038478.74104      -973.284 4        28.645    25163052.286 5 103038486.72805      -973.148 5        33.946
C21        48.000                                                                                                                                    23580748.852 7 122791176.28207      -302.322 7        47.698                                                                    23580743.577 7  99777876.56407      -245.624 7        47.931
E06        49.000    27440389.599 6 144200245.33806      -130.368 6        37.508                                                                    27440390.849 6 107682006.01806       -97.612 6        40.944    27440390.904 6 110491099.06706      -100.041 6        41.695
R19        50.000    22327116.546 6 119435273.51106     -3462.037 6        37.478                                                                    22327116.192 6  92894213.18906     -2692.750 6        39.423
S48        51.000    77109275.978 6 405212945.59606      -485.913 6        37.229
C08        52.000                                                                                                                                    38760740.840 6 201837450.17406     -1608.715 6        39.799    38760734.455 7 156073549.20907     -1243.956 7        43.742    38760733.817 6 164009479.47706     -1306.873 6        40.398
C34        53.000                                                                                                                                    22401497.109 8 116650754.57008     -2196.295 8        48.973                                                                    22401496.830 8  94788409.77908     -1784.641 8        48.513
C60        54.000                                                                                                                                    40397556.846 6 210360875.98106      -435.018 6        40.184                                                                    40397541.009 6 170935411.50806      -353.561 6        39.607
C25        55.000                                                                                                                                    26324912.266 6 137080930.98106     -3616.570 6        39.661                                                                    26324912.612 6 111389569.64606     -2938.806 6        39.318
I09        56.000    38493696.005 6 151057550.82006       379.482 6        41.714
C02        57.000                                                                                                                                    40502666.398 5 210908051.28605      -388.385 5        34.948    40502659.009 6 163087475.94806      -300.450 6        38.910    40502662.706 5 171380069.70705      -315.712 5        35.371
I03        58.000    81041761.150 6 242240026.02706      1091.421 6        40.298
E30        59.000    24344779.123 7 127932897.63807     -1671.125 7        47.839                                                                    24344778.635 8  95534426.76808     -1247.922 8        49.866    24344778.305 8  98026612.45208     -1280.502 8        50.536
R20        60.000    19510571.978 6 104332006.18806      -321.753 6        39.970                                                                    19510573.990 7  81147185.13007      -250.308 7        47.620
> 2025 01 02 20 01 40.0000000  0 60
G23         1.000    20932628.324 7 110001786.47307     -1462.467 7        46.889                                    20932624.407 6  85715700.96006     -1139.582 6        37.864    20932624.710 7  85715698.96107     -1139.562 7        46.630
C37         2.000                                                                                                                                    25173359.181 7 131084280.18007      -133.132 7        43.009                                                                    25173362.843 7 106516735.42307      -108.198 7        44.111
G16         3.000    21573555.797 8 113370007.29908     -3083.592 8        48.076                                    21573551.091 6  88340350.10506     -2402.801 6        36.098
G21         4.000    23714792.853 6 124622116.60306      2529.281 6        36.484                                    23714789.945 2  97108141.47302      1970.877 2        17.170
S21         5.000    38366943.198 6 201619338.88506      -449.700 6        41.926
G26         6.000    23725003.699 6 124675961.32206     -4024.301 6        40.150                                    23725003.638 5  97150228.75005     -3135.817 5        35.990    23725003.250 6  97150215.75206     -3135.851 6        38.285
G10         7.000    21157549.080 8 111183734.93808      1337.018 8        50.719                                    21157547.097 8  86636692.56708      1041.830 8        51.011    21157547.093 7  86636686.57007      1041.887 7        44.910
E15         8.000    25577252.302 7 134409467.43407      1656.430 7        43.101                                                                    25577253.278 7 100370771.67007      1237.006 7        46.263    25577252.889 7 102989127.79907      1269.188 7        47.045
E36         9.000    25394352.991 7 133448414.32007     -2587.949 7        43.981                                                                    25394353.697 7  99653179.20007     -1932.562 7        46.677    25394353.397 7 102252814.73407     -1982.968 7        47.556
G27        10.000    20088477.274 8 105565811.28608       313.797 8        50.500                                    20088475.269 8  82259144.09108       244.518 8        53.067    20088475.607 7  82259146.09007       244.526 7        46.375
G15        11.000    23686932.206 6 124475689.85506     -1329.978 6        40.396                                    23686929.502 5  96994036.35005     -1036.344 5        32.395    23686928.994 6  96994039.33106     -1036.345 6        36.631
G13        12.000    25036871.206 5 131569635.81705     -1835.215 5        32.389                                    25036869.160 1 102521779.68901     -1430.042 1         8.952
C23        13.000                                                                                                                                    24718104.975 7 128713708.84907     -2618.088 7        44.932                                                                    24718097.338 7 104590423.13607     -2127.326 7        45.016
S36        14.000    38136345.432 7 200408377.54907      -448.765 7        43.909
C13        15.000                                                                                                                                    38307848.442 7 199479078.31107     -1364.179 7        42.874    38307850.118 7 154249910.75307     -1054.761 7        43.803    38307848.452 6 162093113.58106     -1108.340 6        41.821
G18        16.000    23125091.619 7 121523402.20007     -3351.140 7        44.211                                    23125088.306 4  94693655.94204     -2611.279 4        29.772    23125088.724 6  94693663.94806     -2611.279 6        41.788
R10        17.000    21523038.731 7 114729940.49207     -3784.913 7        43.799
E27        18.000    25634604.932 7 134710772.32707      1142.555 7        43.088                                                                    25634605.142 7 100595709.51807       853.248 7        46.648    25634604.628 7 103219942.79507       875.426 7        46.952
E02        19.000    26434294.971 6 138913336.29006     -3580.292 6        39.733                                                                    26434295.013 7 103734091.46507     -2673.614 7        44.674    26434294.830 7 106440183.64607     -2743.411 7        45.386
E05        20.000    26466538.525 6 139082603.42906      2329.863 6        36.367                                                                    26466539.678 6 103860385.07606      1739.698 6        40.992    26466538.952 6 106569789.15006      1785.127 6        40.865
R11        21.000    21054413.940 8 112508426.13808        -6.039 8        48.802                                                                    21054413.691 7  87506556.96107        -4.737 7        46.292
I06        22.000    38564527.389 6 151335710.60506      -265.397 6        41.247
S28        23.000    40832840.162 5 214578017.95405      -441.908 5        33.162
E04        24.000    28158361.371 6 147973167.58206     -1271.067 6        36.053                                                                    28158361.113 6 110499441.39406      -949.142 6        40.567    28158360.551 6 113382031.65506      -973.984 6        41.073
S23        25.000    38093547.577 7 200182899.63907      -449.793 7        44.488
S45        26.000    63348527.031 6 332898906.17316      -498.759 6        37.543
R09        27.000    23972544.664 6 128012211.42606     -4907.438 6        41.139                                                                    23972546.915 6  99565152.80506     -3816.978 6        39.255
S27        28.000    39101839.792 5 205481558.90205      -418.054 5        35.510
C38        29.000                                                                                                                                    40236766.969 6 209523523.81306     -1707.504 6        39.604                                                                    40236764.738 6 170255070.56006     -1387.537 6        38.979
C44        30.000                                                                                                                                    26853173.526 5 139831723.68005     -3289.036 5        30.611                                                                    26853172.887 5 113624810.15705     -2672.424 5        30.181
C43        31.000                                                                                                                                    21576812.733 8 112356231.98708       243.618 8        51.437                                                                    21576811.575 8  91298684.10008       197.992 8        49.431
C42        32.000                                                                                                                                    23958643.725 7 124758958.95807      2320.011 7        45.020                                                                    23958651.773 7 101376913.79507      1885.327 7        46.730
I02        33.000    39967153.449 6 156839744.79206      -998.958 6        38.381
R03        34.000    23212146.712 7 124256477.94007     -3489.592 7        43.215                                                                    23212145.579 6  96643928.96506     -2713.941 6        39.628
E34        35.000    23227478.001 8 122061427.11308      -443.979 8        48.640                                                                    23227477.854 8  91149877.73208      -331.511 8        50.782    23227477.866 8  93527689.42708      -340.143 8        51.648
G30        36.000    25682550.264 6 134962721.76806        26.764 6        36.858                                    25682549.121 4 105165764.38004        20.860 4        26.575    25682550.055 5 105165757.38005        20.806 5        32.659
R21        37.000    22001302.334 8 117733450.43608      2422.333 8        48.057                                                                    22001302.521 6  91570478.61406      1883.987 6        41.673
C22        38.000                                                                                                                                    25845119.345 6 134582345.50006     -2898.949 6        40.603                                                                    25845113.573 6 109359163.45006     -2355.535 6        40.567
R05        39.000    21705739.641 8 116029625.43908      3164.881 8        48.029                                                                    21705738.363 7  90245271.05407      2461.570 7        44.179
C12        40.000                                                                                                                                    24870364.248 6 129506707.20006     -3000.700 6        41.704    24870361.411 7 100142895.23907     -2320.332 7        46.607    24870360.579 7 105234879.07907     -2438.157 7        43.784
R04        41.000    20935998.113 8 112111350.44808      -218.580 8        49.221                                                                    20935997.287 7  87197724.14407      -170.048 7        45.558
S44        42.000    40397974.998 6 212292967.80706      -439.190 6        37.800
G08        43.000    21812365.893 7 114624841.02907      2211.650 7        45.368                                    21812364.882 7  89318096.37707      1723.363 7        43.020    21812365.769 7  89318094.37807      1723.387 7        42.758
C05        44.000                                                                                                                                    39165529.267 6 203945222.42106      -382.510 6        37.467    39165524.985 7 157703405.82907      -295.737 7        42.919    39165527.198 6 165722301.46706      -310.696 6        40.195
C11        45.000                                                                                                                                    21595048.405 8 112451231.64308      -992.168 8        49.369    21595045.321 8  86954486.22308      -767.242 8        52.382    21595044.121 8  91375876.86108      -806.123 8        49.206
E09        46.000    27288258.139 6 143400778.21006       919.560 6        39.414                                                                    27288258.182 7 107085006.87707       686.744 7        42.396    27288257.901 7 109878525.96307       704.640 7        43.202
G07        47.000    25164243.791 6 132238990.06006     -1251.591 6        38.709                                    25164242.002 4 103043350.48004      -975.255 4        28.493    25164242.531 5 103043358.47305      -975.551 5        34.010
C21        48.000                                                                                                                                    23581041.058 7 122792695.17207      -305.285 7        47.750                                                                    23581035.250 7  99779110.76307      -247.949 7        47.922
E06        49.000    27440515.405 6 144200903.68206      -132.669 6        37.403                                                                    27440516.110 6 107682497.63406       -99.190 6        40.927    27440516.238 6 110491603.52406      -101.862 6        41.790
R19        50.000    22330352.370 6 119452585.62606     -3462.903 6        37.671                                                                    22330352.809 6  92907678.12806     -2693.144 6        40.260
S48        51.000    77109710.955 6 405215376.27206      -486.333 6        37.297
C08        52.000                                                                                                                                    38762285.889 6 201845493.90506     -1608.828 6        39.601    38762278.851 7 156079769.13007     -1244.106 7        43.636    38762278.460 6 164016015.65406     -1307.276 6        40.281
C34        53.000                                                                                                                                    22403606.561 8 116661738.89508     -2197.497 8        48.904                                                                    22403606.265 8  94797335.41908     -1785.579 8        48.514
C60        54.000                                                                                                                                    40397974.518 6 210363051.12606      -435.073 6        40.029                                                                    40397958.694 6 170937178.95606      -353.392 6        39.634
C25        55.000                                                                                                                                    26328384.912 6 137099012.67706     -3616.126 6        39.526                                                                    26328385.218 6 111404262.43306     -2938.236 6        39.144
I09        56.000    38493212.570 6 151055653.02506       379.512 6        41.857
C02        57.000                                                                                                                                    40503039.408 5 210909994.51005      -388.715 5        34.562    40503032.452 6 163088978.55006      -300.413 6        38.865    40503035.935 5 171381648.74505      -315.944 5        35.143
I03        58.000    81040370.563 6 242234568.36306      1091.495 6        40.431
E30        59.000    24346370.337 8 127941258.57508     -1673.317 8        48.010                                                                    24346369.608 8  95540670.32608     -1249.539 8        49.889    24346369.292 8  98033018.88508     -1282.163 8        50.580
R20        60.000    19510874.119 6 104333619.91706      -323.669 6        40.174                                                                    19510875.742 7  81148440.25807      -251.821 7        47.590
